     2.10           OBSERVATION DATA    G (GPS)             RINEX VERSION / TYPE
teqc  2003Apr29                         20041227 00:22:54UTCPGM / RUN BY / DATE
OBSERVATION MODE: IGS-Net                                   COMMENT
PERT Perth (PERT)                                           MARKER NAME
50133M001                                                   MARKER NUMBER
200313003           ASHTECH UZ-12        CJ00               REC # / TYPE / VERS
CR620023901         ASH701945C_M    NONE                    ANT # / TYPE
        0.0595        0.0000        0.0000                  ANTENNA: DELTA H/E/N
  -2368687.1656  4881316.4713  -3341795.7045                APPROX POSITION XYZ
  115.88524963  -31.80196629  12.5559  LonLatAlt  S/W       COMMENT
Solaris 2.7|Ultra 2|cc SC5.0|=+-|*Sparc                     COMMENT
MSWin2000|IAx86-PII|bcc32 5.0|MSWin95->XP|486/DX+           COMMENT
BIT 2 OF LLI FLAGS DATA COLLECTED UNDER A/S CONDITION       COMMENT
AUTOMATIC           ESA/ESOC                                OBSERVER / AGENCY
     1     1                                                WAVELENGTH FACT L1/2
     9    L1    L2    C1    P2    P1    D1    D2    S1    S2# / TYPES OF OBSERV
    30.0000                                                 INTERVAL
 SNR is mapped to RINEX snr flag value [1-9]                COMMENT
  L1: 1 -> 1;  90 -> 5; 210 -> 9                            COMMENT
  L2: 1 -> 1; 150 -> 5; 250 -> 9                            COMMENT
pseudorange smoothing corrections not applied               COMMENT
Checked by ROCK 1.0 [26.12.04-00:18]; status 2: file fixed  COMMENT
    30                                                      # OF SATELLITES
   G01   636   638   639   638   636   636   638   636   638PRN / # OF OBS
   G02   914   918   923   918   914   914   918   914   918PRN / # OF OBS
   G03   680   690   696   690   680   680   690   680   690PRN / # OF OBS
   G04   863   871   876   871   863   863   871   863   871PRN / # OF OBS
   G05   786   788   788   788   786   786   788   786   788PRN / # OF OBS
   G06   805   809   812   809   805   805   809   805   809PRN / # OF OBS
   G07   579   590   602   590   579   579   590   579   590PRN / # OF OBS
   G08   823   826   827   826   823   823   826   823   826PRN / # OF OBS
   G09   761   768   778   768   761   761   768   761   768PRN / # OF OBS
   G10   815   825   839   825   815   815   825   815   825PRN / # OF OBS
   G11   726   727   746   727   726   726   727   726   727PRN / # OF OBS
   G13   835   839   849   839   835   835   839   835   839PRN / # OF OBS
   G14   734   738   741   738   734   734   738   734   738PRN / # OF OBS
   G15   843   848   848   848   843   843   848   843   848PRN / # OF OBS
   G16   587   590   595   590   587   587   590   587   590PRN / # OF OBS
   G17   677   687   693   687   677   677   687   677   687PRN / # OF OBS
   G18   690   698   706   698   690   690   698   690   698PRN / # OF OBS
   G19   667   670   674   670   667   667   670   667   670PRN / # OF OBS
   G20   769   771   774   771   769   769   771   769   771PRN / # OF OBS
   G21   707   708   710   708   707   707   708   707   708PRN / # OF OBS
   G22   695   701   704   701   695   695   701   695   701PRN / # OF OBS
   G23   847   850   854   850   847   847   850   847   850PRN / # OF OBS
   G24   841   850   854   850   841   841   850   841   850PRN / # OF OBS
   G25   792   800   816   800   792   792   800   792   800PRN / # OF OBS
   G26   620   625   629   625   620   620   625   620   625PRN / # OF OBS
   G27   702   705   706   705   702   702   705   702   705PRN / # OF OBS
   G28   642   646   648   646   642   642   646   642   646PRN / # OF OBS
   G29   609   614   620   614   609   609   614   609   614PRN / # OF OBS
   G30   820   821   826   821   820   820   821   820   821PRN / # OF OBS
   G31   764   772   782   772   764   764   772   764   772PRN / # OF OBS
Checked by ROCK 1.0 [27.12.04-00:25]; status 0: file OK     COMMENT
  2004    12    26     0     0    0.0000000     GPS         TIME OF FIRST OBS
  2004    12    26    23    59   30.0000000     GPS         TIME OF LAST OBS
                                                            END OF HEADER
 04 12 26  0  0  0.0000000  0  7G15G 1G11G19G14G22G 3
  -5810806.97943  -4474474.11242  22720117.5034   22720121.9164   22720116.9774
     -1586.5774      -1236.2884         46.0004         42.0004
  -9944752.00443  -7699908.21642  22377435.5474   22377440.8394   22377435.2074
      3230.0184       2516.8974         46.0004         42.0004
  -2842838.69543  -2182426.19542  24056998.5454   24057001.8374   24056998.4814
      2670.7224       2081.0914         41.0004         36.0004
 -19843815.74943 -15415619.32742  20778811.0604   20778812.4424   20778810.3034
      1067.3824        831.7354         52.0004         47.0004
 -13007980.56943 -10095973.12442  21365164.4114   21365167.7304   21365164.1534
       543.7144        423.6724         49.0004         44.0004
 -13598753.42543 -10552398.37542  22332657.7954   22332659.6704   22332657.8294
     -2692.5334      -2098.0724         47.0004         42.0004
 -23269333.12143 -18088266.11342  20599539.6404   20599543.5084   20599539.3624
     -1046.3414       -815.3234         51.0004         46.0004
 04 12 26  0  0 30.0000000  0  7G15G 1G11G19G14G22G 3
  -5763141.70643  -4437332.39142  22729187.8994   22729192.3844   22729187.3804
     -1591.0354      -1239.7714         46.0004         41.0004
 -10041511.42243  -7775305.11242  22359022.8514   22359028.1134   22359022.4974
      3220.6974       2509.6354         46.0004         42.0004
  -2922967.66843  -2244864.33042  24041750.6204   24041753.7214   24041750.3934
      2671.0544       2081.3424         41.0004         37.0004
 -19875571.09343 -15440363.75942  20772768.2304   20772769.5874   20772767.4714
      1049.6604        817.9014         51.0004         47.0004
 -13023988.22343 -10108446.62142  21362118.2694   21362121.5334   21362118.0154
       523.6834        408.0714         49.0004         44.0004
 -13517896.13043 -10489392.71642  22348044.5054   22348046.3424   22348044.5174
     -2697.7554      -2102.1484         47.0004         42.0004
 -23237662.02243 -18063587.36142  20605566.4604   20605570.3494   20605566.1754
     -1064.9374       -829.8144         51.0004         46.0004
 04 12 26  0  1  0.0000000  0  7G15G 1G11G19G14G22G 3
  -5715360.41143  -4400100.25442  22738280.3594   22738284.9034   22738279.9004
     -1594.4794      -1242.4454         46.0004         41.0004
 -10137997.06643  -7850488.67942  22340662.2034   22340667.4064   22340661.8664
      3211.8604       2502.7494         46.0004         42.0004
  -3003109.70343  -2307312.63342  24026500.1944   24026503.4024   24026499.9324
      2671.7994       2081.9184         41.0004         37.0004
 -19906804.42943 -15464701.42842  20766824.7934   20766826.0974   20766823.9724
      1032.5554        804.6014         51.0004         47.0004
 -13039393.05443 -10120450.37242  21359186.7764   21359190.1414   21359186.5594
       503.5204        392.3484         49.0004         45.0004
 -13436886.11743 -10426268.06842  22363460.1854   22363462.1074   22363460.2014
     -2702.5744      -2105.8984         47.0004         42.0004
 -23205439.03943 -18038478.57142  20611698.2684   20611702.2244   20611697.9994
     -1083.0964       -843.9624         51.0004         46.0004
 04 12 26  0  1 30.0000000  0  7G15G 1G11G19G14G22G 3
  -5667462.82943  -4362777.50542  22747395.1324   22747399.4994   22747394.5964
     -1598.2074      -1245.3534         46.0004         41.0004
 -10234205.94743  -7925456.59342  22322354.2334   22322359.3944   22322353.8734
      3202.4884       2495.4384         46.0004         42.0004
  -3083264.45843  -2369770.86442  24011247.0784   24011250.4324   24011246.7834
      2672.0614       2082.1204         41.0004         36.0004
 -19937514.30943 -15488631.20642  20760980.8854   20760982.2344   20760980.0724
      1015.0944        790.9794         52.0004         47.0004
 -13054194.47443 -10131983.94042  21356370.1924   21356373.5494   21356369.9614
       483.5394        376.7854         49.0004         45.0004
 -13355725.56443 -10363026.11142  22378904.6224   22378906.4684   22378904.5654
     -2707.8054      -2109.9854         47.0004         42.0004
 -23172665.14143 -18012940.48642  20617934.9694   20617938.9024   20617934.6764
     -1101.4794       -858.3034         51.0004         46.0004
 04 12 26  0  2  0.0000000  0  7G15G 1G11G19G14G22G 3
  -5619447.85243  -4325363.28942  22756532.1294   22756536.4604   22756531.5754
     -1603.0044      -1249.0894         46.0004         41.0004
 -10330134.38243  -8000205.97542  22304099.5294   22304104.7804   22304099.2724
      3192.4384       2487.6144         46.0004         42.0004
  -3163430.57043  -2432237.94942  23995991.7534   23995995.0594   23995991.5094
      2671.7684       2081.8984         41.0004         36.0004
 -19967698.29543 -15512151.20242  20755237.0644   20755238.4204   20755236.2624
       996.8294        776.7544         52.0004         47.0004
 -13068391.10543 -10143046.24442  21353668.7334   21353672.0274   21353668.4144
       462.4514        360.3404         49.0004         44.0004
 -13274415.75843 -10299667.85242  22394377.4404   22394379.1154   22394377.3434
     -2713.2854      -2114.2324         46.0004         42.0004
 -23139340.52643 -17986973.28242  20624276.4614   20624280.4064   20624276.1444
     -1120.4904       -873.1204         51.0004         46.0004
 04 12 26  0  2 30.0000000  0  7G15G 1G11G19G14G22G 3
  -5571314.96943  -4287857.17842  22765691.6124   22765695.8624   22765691.0384
     -1606.2444      -1251.6244         46.0004         41.0004
 -10425779.25043  -8074734.38242  22285898.9374   22285904.0964   22285898.6374
      3183.5234       2480.6664         46.0004         42.0004
  -3243607.89043  -2494713.77642  23980734.2914   23980737.8434   23980734.1464
      2672.7074       2082.6334         41.0004         36.0004
 -19997354.80643 -15535260.17542  20749593.6794   20749594.9734   20749592.8244
       979.9784        763.6274         52.0004         47.0004
 -13081982.27243 -10153636.75242  21351082.4254   21351085.6744   21351082.0864
       443.1554        345.3144         49.0004         44.0004
 -13192959.02843 -10236195.10742  22409878.0904   22409879.7904   22409878.0604
     -2717.4424      -2117.4734         46.0004         42.0004
 -23105466.01043 -17960577.58242  20630722.5344   20630726.5154   20630722.2444
     -1138.1024       -886.8324         51.0004         46.0004
 04 12 26  0  3  0.0000000  0  7G15G 1G11G19G14G22G 3
  -5523064.44643  -4250259.40642  22774873.4034   22774877.6574   22774872.7934
     -1610.0334      -1254.5724         46.0004         41.0004
 -10521138.01143  -8149039.87042  22267752.7144   22267757.9084   22267752.4574
      3173.9354       2473.1924         46.0004         42.0004
  -3323795.81943  -2557197.85642  23965474.9564   23965478.7294   23965474.8184
      2673.4354       2083.1904         41.0004         37.0004
 -20026482.99143 -15557957.46742  20744050.7524   20744052.0774   20744049.9034
       962.4014        749.9164         52.0004         47.0004
 -13094968.11943 -10163755.59542  21348611.2814   21348614.5324   21348610.9444
       422.9174        329.5224         49.0004         45.0004
 -13111357.94943 -10172609.88142  22425406.2304   22425408.0034   22425406.2534
     -2722.3134      -2121.2834         46.0004         42.0004
 -23071043.00543 -17933754.48342  20637272.9514   20637277.0164   20637272.7394
     -1156.3714       -901.0694         51.0004         46.0004
 04 12 26  0  3 30.0000000  0  7G15G 1G11G19G14G22G 3
  -5474695.64743  -4212569.48642  22784077.6084   22784081.9614   22784077.0604
     -1614.0604      -1257.7004         46.0004         41.0004
 -10616207.57143  -8223119.99442  22249661.5614   22249666.7424   22249661.2874
      3164.3344       2465.7164         47.0004         42.0004
  -3403993.62343  -2619689.61442  23950213.5694   23950217.6364   23950213.5694
      2673.8054       2083.4784         42.0004         37.0004
 -20055081.12143 -15580241.72842  20738608.6814   20738610.0224   20738607.8614
       944.6474        736.0914         52.0004         47.0004
 -13107347.44943 -10173401.81342  21346255.5294   21346258.8374   21346255.2344
       402.7874        313.8694         49.0004         45.0004
 -13029614.45743 -10108913.69042  22440961.4624   22440963.3134   22440961.5014
     -2726.8054      -2124.7844         46.0004         42.0004
 -23036072.22643 -17906504.55242  20643927.6884   20643931.7284   20643927.4564
     -1174.5824       -915.2564         50.0004         46.0004
 04 12 26  0  4  0.0000000  0  7G15G 1G11G19G14G22G 3
  -5426207.04743  -4174786.19242  22793304.7474   22793309.0384   22793304.1584
     -1618.8894      -1261.4844         46.0004         41.0004
 -10710983.63143  -8296971.42342  22231626.2784   22231631.3634   22231625.9754
      3153.5584       2457.3144         47.0004         42.0004
  -3484199.66143  -2682187.80842  23934950.9604   23934954.9324   23934950.8414
      2673.0384       2082.8834         41.0004         37.0004
 -20083146.60043 -15602110.93542  20733268.0404   20733269.3264   20733267.2084
       926.0124        721.5764         52.0004         47.0004
 -13119118.88443 -10182574.35742  21344015.5014   21344018.9094   21344015.2244
       381.5854        297.3334         49.0004         45.0004
 -12947729.28243 -10045107.09142  22456543.8214   22456545.6284   22456543.8174
     -2732.3634      -2129.1204         46.0004         42.0004
 -23000553.32743 -17878827.51442  20650686.7084   20650690.7654   20650686.5054
     -1193.6574       -930.1304         50.0004         46.0004
 04 12 26  0  4 30.0000000  0  7G15G 1G11G19G14G22G 3
  -5377599.11143  -4136909.92342  22802554.6104   22802558.9284   22802554.0164
     -1622.0214      -1263.9134         46.0004         41.0004
 -10805464.04043  -8370592.47642  22213647.1424   22213652.2244   22213646.9214
      3144.7864       2450.4724         47.0004         42.0004
  -3564414.13843  -2744692.55842  23919686.5644   23919690.4864   23919686.3954
      2674.2524       2083.8284         41.0004         37.0004
 -20110678.71543 -15623564.54042  20728028.8664   20728030.1214   20728028.0494
       909.2334        708.5074         52.0004         47.0004
 -13130282.34343 -10191273.14642  21341891.1304   21341894.5954   21341890.8634
       362.2374        282.2724         49.0004         45.0004
 -12865705.45843  -9981192.46942  22472152.4594   22472154.2444   22472152.4404
     -2736.0804      -2132.0004         46.0004         41.0004
 -22964488.13843 -17850724.79342  20657549.7144   20657553.7764   20657549.5174
     -1210.9114       -943.5464         50.0004         46.0004
 04 12 26  0  5  0.0000000  0  7G15G 1G11G19G14G22G 3
  -5328871.68043  -4098940.53342  22811827.1694   22811831.4974   22811826.5524
     -1626.2264      -1267.1914         46.0004         41.0004
 -10899645.82443  -8443980.84642  22195724.8964   22195729.9564   22195724.7144
      3134.2694       2442.2904         47.0004         42.0004
  -3644636.35643  -2807203.35642  23904421.0324   23904424.5664   23904420.6724
      2673.8354       2083.5114         41.0004         37.0004
 -20137676.05943 -15644601.43742  20722891.4444   20722892.7134   20722890.6124
       891.0024        694.2924         52.0004         47.0004
 -13140837.33543 -10199497.79942  21339882.6044   21339885.9794   21339882.3364
       341.6104        266.2064         49.0004         45.0004
 -12783545.00043  -9917171.37542  22487787.0664   22487788.9544   22487787.0104
     -2741.0174      -2135.8584         46.0004         42.0004
 -22927877.51543 -17822197.05142  20664516.4824   20664520.5844   20664516.2744
     -1229.4024       -957.9744         50.0004         46.0004
 04 12 26  0  5 30.0000000  0  7G15G 1G11G19G14G22G 3
  -5280024.71843  -4060878.00142  22821122.4114   22821126.7844   22821121.8494
     -1630.7934      -1270.7534         46.0004         41.0004
 -10993526.33843  -8517134.44742  22177860.0834   22177865.0534   22177859.8384
      3123.9144       2434.2294         47.0004         42.0004
  -3724866.15043  -2869720.04342  23889153.7784   23889157.1244   23889153.4754
      2674.0024       2083.6254         41.0004         36.0004
 -20164137.57443 -15665220.80942  20717856.0194   20717857.2764   20717855.1704
       872.6584        680.0014         52.0004         47.0004
 -13150783.84443 -10207248.31842  21337989.8814   21337993.1814   21337989.5484
       320.9094        250.0424         49.0004         44.0004
 -12701250.34543  -9853045.69642  22503447.3404   22503449.1454   22503447.1994
     -2745.8574      -2139.6314         46.0004         42.0004
 -22890722.79343 -17793245.34942  20671586.7784   20671590.9204   20671586.6024
     -1248.0844       -972.5414         50.0004         46.0004
 04 12 26  0  6  0.0000000  0  7G15G 1G11G19G14G22G 3
  -5231056.73843  -4022721.17542  22830440.8534   22830445.2124   22830440.2604
     -1634.4774      -1273.6184         46.0004         41.0004
 -11087101.62443  -8590050.21842  22160053.2974   22160058.2414   22160053.0084
      3113.8034       2426.3334         47.0004         42.0004
  -3805101.83043  -2932241.29442  23873885.4544   23873888.8734   23873885.1434
      2674.5114       2084.0334         41.0004         37.0004
 -20190060.80543 -15685420.73242  20712923.0344   20712924.2664   20712922.1714
       855.0584        666.2644         52.0004         47.0004
 -13160120.39543 -10214523.54542  21336213.2314   21336216.5104   21336212.8824
       300.9634        234.5114         49.0004         45.0004
 -12618822.62543  -9788816.34242  22519132.7414   22519134.6694   22519132.7254
     -2749.9564      -2142.8234         46.0004         41.0004
 -22853024.33843 -17763869.95142  20678760.6034   20678764.7254   20678760.4014
     -1265.7614       -986.2994         50.0004         46.0004
 04 12 26  0  6 30.0000000  0  7G15G 1G11G19G14G22G 3
  -5181967.28843  -3984469.68142  22839782.2334   22839786.7414   22839781.6554
     -1638.9584      -1277.1084         46.0004         41.0004
 -11180368.66143  -8662725.79842  22142305.1054   22142310.1034   22142304.8064
      3103.2434       2418.1164         47.0004         42.0004
  -3885343.07843  -2994766.95542  23858616.0114   23858619.4894   23858615.7994
      2674.2374       2083.8214         41.0004         37.0004
 -20215444.48943 -15705200.23842  20708092.7114   20708093.9314   20708091.8414
       836.5744        651.8744         52.0004         47.0004
 -13168846.51543 -10221323.11342  21334552.7484   21334555.9884   21334552.3814
       280.1134        218.2624         49.0004         45.0004
 -12536263.97643  -9724484.97542  22534843.1534   22534845.1434   22534843.1234
     -2754.7124      -2146.5354         46.0004         42.0004
 -22814782.88043 -17734071.43842  20686037.7174   20686041.8514   20686037.5334
     -1284.3034      -1000.7504         50.0004         46.0004
 04 12 26  0  7  0.0000000  0  7G15G 1G11G19G14G22G 3
  -5132756.39643  -3946123.58442  22849146.7704   22849151.2614   22849146.1454
     -1641.9924      -1279.4724         46.0004         41.0004
 -11273324.99343  -8735159.26442  22124615.9524   22124621.0954   22124615.7734
      3093.5794       2410.5824         47.0004         42.0004
  -3965589.59843  -3057296.68542  23843345.4124   23843348.9174   23843345.2424
      2674.9974       2084.4294         41.0004         36.0004
 -20240287.80043 -15724558.66642  20703365.2434   20703366.3714   20703364.3294
       819.2334        638.3724         52.0004         47.0004
 -13176962.36243 -10227647.13642  21333008.3584   21333011.5554   21333008.0114
       260.5224        203.0114         49.0004         45.0004
 -12453576.70343  -9660053.36542  22550578.0754   22550580.0334   22550578.0584
     -2758.3144      -2149.3354         46.0004         41.0004
 -22775999.89843 -17703850.96042  20693417.8884   20693422.0294   20693417.7234
     -1301.6134      -1014.2464         50.0004         46.0004
 04 12 26  0  7 30.0000000  0  7G15G 1G11G19G14G22G 3
  -5083423.17743  -3907682.13542  22858534.6854   22858539.1524   22858534.0574
     -1646.3464      -1282.8704         46.0004         41.0004
 -11365966.74043  -8807347.60642  22106986.9474   22106991.9284   22106986.6764
      3082.9874       2402.3254         47.0004         42.0004
  -4045840.07143  -3119829.47742  23828074.1384   23828077.7704   23828073.9374
      2675.3014       2084.6474         41.0004         36.0004
 -20264588.62443 -15743494.39042  20698740.9704   20698742.0744   20698740.0324
       801.0554        624.1994         52.0004         47.0004
 -13184466.92343 -10233494.84542  21331580.2534   21331583.4874   21331579.9094
       240.0754        187.0604         49.0004         45.0004
 -12370762.26843  -9595522.68542  22566337.1184   22566339.1434   22566337.0844
     -2762.5754      -2152.6644         46.0004         41.0004
 -22736675.86643 -17673208.88042  20700901.0634   20700905.1564   20700900.8624
     -1319.7644      -1028.3904         50.0004         46.0004
 04 12 26  0  8  0.0000000  0  7G15G 1G11G19G14G22G 3
  -5033966.91143  -3869144.81742  22867945.9194   22867950.4414   22867945.2724
     -1651.5334      -1286.9094         46.0004         41.0004
 -11458290.97943  -8879288.53942  22089418.2674   22089423.1864   22089417.9114
      3071.4104       2393.3114         47.0004         43.0004
  -4126093.52143  -3182364.60342  23812802.5054   23812805.9894   23812802.0604
      2674.3394       2083.9034         41.0004         37.0004
 -20288345.54643 -15762006.28342  20694220.1834   20694221.2784   20694219.2534
       781.9564        609.3164         52.0004         47.0004
 -13191359.45343 -10238865.64042  21330268.7464   21330271.8584   21330268.3364
       218.7584        170.4804         49.0004         45.0004
 -12287822.78143  -9530894.55442  22582119.8674   22582121.9884   22582119.9334
     -2767.5534      -2156.5344         46.0004         41.0004
 -22696811.80143 -17642145.99042  20708487.0104   20708491.0544   20708486.7854
     -1338.6174      -1043.0864         50.0004         46.0004
 04 12 26  0  8 30.0000000  0  7G15G 1G11G19G14G22G 3
  -4984388.18143  -3830512.08642  22877380.4154   22877385.0054   22877379.7424
     -1654.9514      -1289.5704         45.0004         41.0004
 -11550295.41543  -8950980.27942  22071910.2944   22071915.2694   22071910.0294
      3061.1794       2385.3264         47.0004         42.0004
  -4206350.19443  -3244902.24842  23797529.9454   23797533.6254   23797529.7284
      2675.2034       2084.5834         41.0004         36.0004
 -20311557.97643 -15780093.89442  20689802.9744   20689804.1204   20689802.0584
       764.4304        595.6444         52.0004         48.0004
 -13197640.74343 -10243760.14342  21329073.4554   21329076.5814   21329073.0784
       198.9514        155.0164         49.0004         45.0004
 -12204760.86943  -9466171.02442  22597926.1844   22597928.1724   22597926.1604
     -2771.1464      -2159.3414         46.0004         41.0004
 -22656409.53843 -17610663.73642  20716175.3344   20716179.3594   20716175.1014
     -1355.8934      -1056.5484         50.0004         46.0004
 04 12 26  0  9  0.0000000  0  7G15G 1G11G19G14G22G 3
  -4934686.20343  -3791783.29442  22886838.3294   22886842.9754   22886837.7034
     -1658.7854      -1292.5644         45.0004         41.0004
 -11641976.67743  -9022420.19242  22054463.9214   22054468.8294   22054463.6564
      3050.5004       2377.0064         47.0004         43.0004
  -4286608.92943  -3307441.48042  23782256.9974   23782260.8644   23782256.8664
      2675.4504       2084.7614         41.0004         36.0004
 -20334224.19043 -15797755.88342  20685489.6804   20685490.9354   20685488.8124
       746.1954        581.4544         52.0004         47.0004
 -13203309.92443 -10248177.68142  21327994.6044   21327997.7664   21327994.2654
       178.7734        139.2974         49.0004         45.0004
 -12121577.99443  -9401353.24642  22613755.3514   22613757.3894   22613755.3724
     -2774.9234      -2162.2844         46.0004         41.0004
 -22615469.62843 -17578762.53342  20723965.9844   20723970.0124   20723965.7624
     -1373.6614      -1070.3764         50.0004         46.0004
 04 12 26  0  9 30.0000000  0  7G15G 1G11G19G14G22G 3
  -4884859.54343  -3752957.34342  22896320.1484   22896324.7044   22896319.4034
     -1662.5634      -1295.5104         45.0004         41.0004
 -11733330.70443  -9093605.11542  22037079.9254   22037084.7414   22037079.5664
      3040.3274       2369.0824         47.0004         43.0004
  -4366868.03543  -3369981.01742  23766984.1214   23766988.1494   23766984.0484
      2675.9794       2085.1954         41.0004         36.0004
 -20356341.86443 -15814990.44342  20681280.8344   20681282.1064   20681279.9814
       728.7334        567.8474         52.0004         48.0004
 -13208365.56143 -10252117.13642  21327032.5584   21327035.6824   21327032.2254
       158.8694        123.8024         49.0004         45.0004
 -12038275.06543  -9336441.91542  22629607.4494   22629609.4994   22629607.4564
     -2778.2404      -2164.8654         46.0004         41.0004
 -22573992.45943 -17546442.69042  20731858.8704   20731862.8764   20731858.6514
     -1390.9354      -1083.8314         50.0004         46.0004
 04 12 26  0 10  0.0000000  0  7G15G 1G11G19G14G22G 3
  -4834908.27443  -3714034.31742  22905825.5054   22905830.1474   22905824.6964
     -1666.7894      -1298.7954         45.0004         41.0004
 -11824355.30443  -9164533.34942  22019758.4484   22019763.3134   22019758.1844
      3028.9984       2360.2694         47.0004         43.0004
  -4447127.36243  -3432520.72742  23751711.1134   23751715.2364   23751711.1314
      2675.6744       2084.9374         41.0004         37.0004
 -20377910.50443 -15831797.18042  20677176.4714   20677177.7154   20677175.5864
       710.1054        553.3384         52.0004         48.0004
 -13212808.22443 -10255578.94742  21326187.1234   21326190.2804   21326186.7754
       138.1384        107.6464         49.0004         45.0004
 -11954854.77643  -9271439.12742  22645481.7364   22645483.9394   22645481.8624
     -2782.3434      -2168.0504         45.0004         41.0004
 -22531979.80743 -17513705.58642  20739853.5824   20739857.6554   20739853.3954
     -1409.1494      -1098.0324         50.0004         46.0004
 04 12 26  0 10 30.0000000  0  7G15G 1G11G19G14G22G 3
  -4784832.12743  -3675013.98242  22915354.6494   22915359.3654   22915353.9114
     -1671.4484      -1302.4234         45.0004         41.0004
 -11915047.48443  -9235202.54342  22002500.3364   22002505.1504   22002500.0004
      3017.2594       2351.1184         47.0004         43.0004
  -4527386.37443  -3495060.19142  23736438.2204   23736442.4184   23736438.0964
      2675.0684       2084.4794         41.0004         36.0004
 -20398929.08143 -15848175.29942  20673176.8104   20673178.0264   20673175.9164
       691.3164        538.6914         52.0004         48.0004
 -13216637.59843 -10258562.86742  21325458.4034   21325461.5244   21325458.0744
       117.1304         91.2744         49.0004         45.0004
 -11871319.25043  -9206346.55942  22661378.0864   22661380.3134   22661378.1564
     -2786.6994      -2171.4514         45.0004         41.0004
 -22489432.62043 -17480551.95742  20747950.0644   20747954.1504   20747949.8734
     -1427.3384      -1112.2134         50.0004         46.0004
 04 12 26  0 11  0.0000000  0  7G15G 1G11G19G14G22G 3
  -4734630.99143  -3635896.24742  22924907.6884   22924912.3344   22924907.0014
     -1675.2004      -1305.3474         45.0004         41.0004
 -12005404.45143  -9305610.53942  21985305.8634   21985310.7534   21985305.5714
      3006.5894       2342.8034         48.0004         43.0004
  -4607644.51643  -3557598.97542  23721165.6564   23721169.7724   23721165.4714
      2675.8354       2085.0654         41.0004         37.0004
 -20419396.16443 -15864123.68642  20669282.0624   20669283.2714   20669281.1784
       673.3244        524.6844         52.0004         48.0004
 -13219853.67643 -10261068.89942  21324846.4724   21324849.5104   21324846.0814
        97.2694         75.8054         49.0004         45.0004
 -11787670.73643  -9141165.94542  22677295.8844   22677298.1504   22677295.9954
     -2790.0574      -2174.0674         45.0004         41.0004
 -22446352.43243 -17446983.00342  20756147.9994   20756152.0634   20756147.7844
     -1444.5604      -1125.6274         50.0004         46.0004
 04 12 26  0 11 30.0000000  0  7G15G 1G11G19G14G22G 3
  -4684303.23643  -3596679.85642  22934484.6244   22934489.4384   22934483.9854
     -1680.0984      -1309.1614         45.0004         41.0004
 -12095422.00943  -9375754.05342  21968176.0984   21968180.8944   21968175.8114
      2994.5384       2333.4024         48.0004         43.0004
  -4687899.66243  -3620135.43642  23705893.7484   23705897.6584   23705893.4724
      2674.5584       2084.0674         41.0004         37.0004
 -20439309.48743 -15879640.57142  20665492.6754   20665493.9114   20665491.8324
       654.1534        509.7384         52.0004         48.0004
 -13222454.98343 -10263095.89042  21324351.4094   21324354.5074   21324351.0394
        76.3094         59.4774         49.0004         45.0004
 -11703909.67443  -9075897.63142  22693235.1774   22693237.4414   22693235.2834
     -2794.2704      -2177.3594         45.0004         41.0004
 -22402739.59043 -17412998.99542  20764447.2414   20764451.3234   20764447.0204
     -1463.1004      -1140.0704         50.0004         46.0004
 04 12 26  0 12  0.0000000  0  7G15G 1G11G19G14G22G 3
  -4633849.79143  -3557365.53542  22944085.5784   22944090.4274   22944085.0104
     -1684.0114      -1312.2074         45.0004         41.0004
 -12185098.46943  -9445631.77742  21951111.2324   21951115.9984   21951110.9354
      2983.2344       2324.6024         48.0004         43.0004
  -4768152.52343  -3682670.10842  23690622.2774   23690625.9354   23690621.8424
      2674.9694       2084.3874         41.0004         37.0004
 -20458669.22143 -15894726.08842  20661808.6314   20661809.8674   20661807.7914
       635.8304        495.4584         52.0004         48.0004
 -13224442.94043 -10264644.94242  21323973.0504   21323976.1734   21323972.6784
        55.7554         43.4724         49.0004         45.0004
 -11620039.48943  -9010544.29442  22709195.1344   22709197.4404   22709195.1824
     -2797.6674      -2180.0044         45.0004         41.0004
 -22358596.41043 -17378601.73842  20772847.5074   20772851.4844   20772847.2394
     -1480.5244      -1153.6324         50.0004         46.0004
 04 12 26  0 12 30.0000000  0  7G15G 1G11G19G14G22G 3
  -4583268.76443  -3517951.79242  22953711.0034   22953715.7384   22953710.3804
     -1688.1224      -1315.4244         45.0004         41.0004
 -12274429.65143  -9515240.45842  21934112.0174   21934116.7734   21934111.7264
      2972.0634       2315.8854         48.0004         43.0004
  -4848400.85343  -3745201.25542  23675351.4994   23675355.1314   23675351.0374
      2674.9684       2084.3944         42.0004         37.0004
 -20477472.89743 -15909378.31442  20658230.4464   20658231.6624   20658229.5894
       617.5294        481.2004         52.0004         48.0004
 -13225815.94043 -10265714.80842  21323711.7684   21323714.8844   21323711.4024
        35.4364         27.6094         49.0004         45.0004
 -11536060.65743  -8945106.28942  22725175.7584   22725178.1284   22725175.7564
     -2801.0104      -2182.6004         45.0004         41.0004
 -22313922.71343 -17343791.08742  20781348.6564   20781352.6084   20781348.3924
     -1497.9264      -1167.2124         50.0004         46.0004
 04 12 26  0 13  0.0000000  0  7G15G 1G11G19G14G22G 3
  -4532560.57543  -3478438.96242  22963360.3504   22963365.2404   22963359.8164
     -1691.9914      -1318.4354         45.0004         40.0004
 -12363413.26743  -9584578.31442  21917178.9424   21917183.7474   21917178.6914
      2960.7694       2307.0924         48.0004         43.0004
  -4928644.78943  -3807728.98042  23660081.3934   23660085.2104   23660081.0944
      2675.0174       2084.4274         42.0004         37.0004
 -20495719.98743 -15923596.83742  20654758.1334   20654759.3674   20654757.3004
       599.5404        467.1794         52.0004         48.0004
 -13226574.54843 -10266305.93442  21323567.4244   21323570.5074   21323567.0654
        15.6634         12.2094         49.0004         45.0004
 -11451975.83943  -8879585.68642  22741176.5624   22741178.9594   22741176.6754
     -2803.9904      -2184.9224         45.0004         40.0004
 -22268720.56543 -17308568.66142  20789950.3134   20789954.2674   20789950.0804
     -1514.9884      -1180.5154         50.0004         46.0004
 04 12 26  0 13 30.0000000  0  7G15G 1G11G19G14G22G 3
  -4481724.83443  -3438826.74742  22973034.0464   22973038.9704   22973033.4724
     -1697.0264      -1322.3554         45.0004         40.0004
 -12452046.22743  -9653642.92242  21900312.6184   21900317.4344   21900312.3744
      2948.0584       2297.1864         48.0004         43.0004
  -5008883.67243  -3870252.78142  23644812.3354   23644816.1024   23644812.0594
      2674.2514       2083.8324         42.0004         37.0004
 -20513409.58843 -15937380.95142  20651391.8544   20651393.1114   20651391.0504
       579.8384        451.8204         52.0004         48.0004
 -13226718.65343 -10266418.21642  21323539.9734   21323543.0554   21323539.6054
        -5.9544         -4.6384         49.0004         45.0004
 -11367786.89243  -8813983.95942  22757197.0914   22757199.5474   22757197.2954
     -2808.2704      -2188.2564         45.0004         40.0004
 -22222991.29843 -17272935.49442  20798652.3454   20798656.2624   20798652.0974
     -1533.7034      -1195.0854         50.0004         46.0004
 04 12 26  0 14  0.0000000  0  7G15G 1G11G19G14G22G 3
  -4430761.14543  -3399114.82742  22982732.2444   22982737.0264   22982731.5774
     -1701.1254      -1325.5504         45.0004         40.0004
 -12540325.77443  -9722432.13942  21883513.5384   21883518.3294   21883513.2474
      2936.6254       2288.2744         48.0004         43.0004
  -5089116.47143  -3932771.84442  23629544.7404   23629548.3424   23629544.3554
      2674.5074       2084.0374         42.0004         37.0004
 -20530540.36443 -15950729.61542  20648131.9584   20648133.2604   20648131.1754
       561.5174        437.5434         52.0004         48.0004
 -13226248.37243 -10266051.76842  21323629.4044   21323632.4834   21323629.0314
       -26.2684        -20.4764         49.0004         45.0004
 -11283495.86343  -8748302.68042  22773237.3864   22773239.6624   22773237.3864
     -2811.6424      -2190.8914         45.0004         40.0004
 -22176736.41443 -17236892.75542  20807454.4224   20807458.3124   20807454.1404
     -1550.7054      -1208.3384         50.0004         46.0004
 04 12 26  0 14 30.0000000  0  7G15G 1G11G19G14G22G 3
  -4379668.71043  -3359302.57942  22992454.8294   22992459.6934   22992454.2184
     -1705.4534      -1328.9134         45.0004         41.0004
 -12628248.50843  -9790943.31742  21866782.2934   21866787.1854   21866782.0574
      2924.3174       2278.6804         48.0004         43.0004
  -5169341.97743  -3995285.21042  23614278.3564   23614281.9634   23614278.0334
      2673.9264       2083.5804         42.0004         37.0004
 -20547110.84743 -15963641.69142  20644978.7244   20644980.0144   20644977.9124
       542.5604        422.7814         52.0004         48.0004
 -13225163.12443 -10265206.11542  21323835.8974   21323839.0894   21323835.5754
       -46.8784        -36.5274         49.0004         45.0004
 -11199104.12343  -8682542.93142  22789296.5634   22789298.9424   22789296.6464
     -2815.1944      -2193.6514         45.0004         40.0004
 -22129956.43443 -17200440.85442  20816356.3434   20816360.2784   20816356.0794
     -1568.3754      -1222.0924         50.0004         45.0004
                            4  1
RINEX FILE SPLICE; other post-header comments skipped       COMMENT
 04 12 26  0 15  0.0000000  0  7G15G 1G11G19G14G22G 3
  -4328446.83943  -3319389.48942  23002202.1814   23002207.0574   23002201.5364
     -1709.2254      -1331.8564         45.0004         41.0004
 -12715811.46043  -9859174.15042  21850119.6094   21850124.5094   21850119.3504
      2913.1424       2269.9784         48.0004         43.0004
  -5249559.38843  -4057792.25242  23599013.6704   23599017.1034   23599013.3254
      2674.1374       2083.7474         42.0004         38.0004
 -20563120.12343 -15976116.46242  20641932.3094   20641933.5304   20641931.4784
       524.6944        408.8534         52.0004         48.0004
 -13223463.03143 -10263881.35842  21324159.3724   21324162.6064   21324159.0704
       -66.4654        -51.7834         49.0004         45.0004
 -11114613.55943  -8616706.18342  22805374.6534   22805376.8664   22805374.6904
     -2817.6504      -2195.5684         45.0004         40.0004
 -22082653.11343 -17163581.14342  20825357.9164   20825361.7984   20825357.6164
     -1585.0494      -1235.0964         50.0004         45.0004
 04 12 26  0 15 30.0000000  0  7G15G 1G11G19G14G22G 3
  -4277095.47343  -3279375.47542  23011973.9384   23011978.9374   23011973.3824
     -1714.2884      -1335.8074         45.0004         40.0004
 -12803011.79343  -9927122.42142  21833525.8694   21833530.8314   21833525.6384
      2900.4094       2260.0734         48.0004         43.0004
  -5329768.22343  -4120292.65142  23583750.6254   23583753.7664   23583750.1494
      2673.2604       2083.0614         42.0004         38.0004
 -20578567.26743 -15988153.20542  20638992.8284   20638994.0484   20638992.0024
       505.2804        393.7384         52.0004         48.0004
 -13221148.25143 -10262077.63342  21324599.8224   21324603.0684   21324599.5834
       -87.6854        -68.3354         49.0004         45.0004
 -11030026.16143  -8550793.96342  22821471.0924   22821473.3824   22821471.1494
     -2821.6004      -2198.6434         45.0004         40.0004
 -22034827.95943 -17126314.81542  20834458.6934   20834462.6464   20834458.4124
     -1603.1124      -1249.1724         50.0004         45.0004
 04 12 26  0 16  0.0000000  0  7G15G 1G11G19G14G22G 3
  -4225614.02243  -3239260.10742  23021770.6064   23021775.5224   23021770.0304
     -1718.3664      -1338.9794         45.0004         40.0004
 -12889846.47643  -9994785.76642  21817001.7644   21817006.7434   21817001.5344
      2888.5114       2250.7784         48.0004         43.0004
  -5409967.28843  -4182785.40842  23568489.1114   23568492.3594   23568488.7724
      2672.7964       2082.6954         42.0004         38.0004
 -20593450.72243 -15999750.71242  20636160.5834   20636161.8424   20636159.7694
       486.7474        379.2814         52.0004         48.0004
 -13218218.54943 -10259794.74642  21325157.3594   21325160.5904   21325157.1274
      -107.9844        -84.1444         49.0004         45.0004
 -10945343.47343  -8484807.51342  22837585.7534   22837588.0244   22837585.7554
     -2824.4804      -2200.8974         45.0004         40.0004
 -21986481.98043 -17088642.66542  20843658.5464   20843662.6444   20843658.3214
     -1620.2174      -1262.4974         50.0004         45.0004
 04 12 26  0 16 30.0000000  0  7G15G 1G11G19G14G22G 3
  -4174001.81643  -3199042.85442  23031592.2534   23031597.0754   23031591.5024
     -1722.2464      -1342.0104         45.0004         41.0004
 -12976312.30743 -10062161.70142  21800547.8274   21800552.8014   21800547.5364
      2876.2054       2241.2064         48.0004         43.0004
  -5490155.17143  -4245269.45642  23553230.0074   23553233.1944   23553229.5994
      2672.8614       2082.7544         43.0004         38.0004
 -20607769.47743 -16010908.19142  20633435.8214   20633437.0874   20633435.0234
       468.1274        364.7844         52.0004         48.0004
 -13214673.63943 -10257032.46842  21325831.9284   21325835.1414   21325831.6784
      -128.1214        -99.8354         49.0004         45.0004
 -10860567.12843  -8418748.07242  22853718.0564   22853720.5244   22853718.1794
     -2826.9814      -2202.8454         45.0004         40.0004
 -21937616.25643 -17050565.50442  20852957.3974   20852961.5054   20852957.1604
     -1637.2214      -1275.7664         50.0004         45.0004
 04 12 26  0 17  0.0000000  0  7G15G 1G11G19G14G22G 3
  -4122259.18043  -3158723.98442  23041438.4844   23041443.3794   23041437.8674
     -1726.8234      -1345.5724         45.0004         40.0004
 -13062407.52843 -10129248.84542  21784164.4154   21784169.3794   21784164.1074
      2863.8454       2231.5644         48.0004         43.0004
  -5570332.07443  -4307744.93942  23537972.8234   23537976.1734   23537972.5194
      2672.5574       2082.5104         43.0004         38.0004
 -20621523.31943 -16021625.47942  20630818.5624   20630819.8584   20630817.7744
       449.3424        350.1404         52.0004         48.0004
 -13210514.66243 -10253791.70242  21326623.4194   21326626.5834   21326623.0954
      -148.5654       -115.7754         49.0004         45.0004
 -10775699.72943  -8352617.69242  22869867.8334   22869870.3674   22869868.0024
     -2830.1884      -2205.3384         45.0004         40.0004
 -21888233.24043 -17012085.25042  20862354.6544   20862358.8044   20862354.4354
     -1654.4574      -1289.1904         50.0004         45.0004
 04 12 26  0 17 30.0000000  0  7G15G 1G11G19G14G22G 3
  -4070384.74443  -3118302.37742  23051309.8814   23051314.7324   23051309.2574
     -1731.8324      -1349.4814         45.0004         40.0004
 -13148128.08843 -10196044.04342  21767852.2544   21767857.2894   21767851.9914
      2850.7914       2221.4064         48.0004         43.0004
  -5650496.46743  -4370210.70242  23522717.8904   23522721.4924   23522717.8434
      2671.5324       2081.7064         43.0004         38.0004
 -20634710.31943 -16031901.07742  20628309.1454   20628310.4424   20628308.3614
       429.7304        334.8424         52.0004         48.0004
 -13205740.53143 -10250071.60042  21327531.9654   21327535.0864   21327531.6214
      -169.8814       -132.3824         49.0004         45.0004
 -10690742.16443  -8286417.02742  22886034.8144   22886037.2484   22886034.9594
     -2833.8084      -2208.1574         45.0004         40.0004
 -21838333.26243 -16973202.17642  20871850.3804   20871854.4704   20871850.1134
     -1672.1494      -1302.9874         50.0004         45.0004
 04 12 26  0 18  0.0000000  0  7G15G 1G11G19G14G22G 3
  -4018378.15643  -3077777.81942  23061206.5084   23061211.2774   23061205.7804
     -1735.2094      -1352.1074         45.0004         40.0004
 -13233471.33143 -10262545.24642  21751611.9954   21751616.9684   21751611.7074
      2838.9284       2212.1464         48.0004         43.0004
  -5730647.50843  -4432666.06042  23507465.7364   23507469.2704   23507465.7054
      2671.9384       2082.0324         43.0004         38.0004
 -20647329.79943 -16041734.44742  20625907.7854   20625909.0344   20625906.9914
       411.6274        320.7604         52.0004         48.0004
 -13200351.76943 -10245872.55442  21328557.4354   21328560.5134   21328557.0664
      -189.4464       -147.6034         49.0004         45.0004
 -10605696.36743  -8220147.60842  22902218.6444   22902221.0724   22902218.7894
     -2836.0314      -2209.8874         45.0004         40.0004
 -21787918.15443 -16933917.70242  20881444.0344   20881448.1514   20881443.8094
     -1688.5994      -1315.7804         50.0004         45.0004
 04 12 26  0 18 30.0000000  0  7G15G 1G11G19G14G22G 3
  -3966238.91343  -3037149.89942  23071128.2234   23071133.0944   23071127.6054
     -1739.9114      -1355.7734         45.0004         40.0004
 -13318434.17443 -10328750.02742  21735444.1594   21735449.0404   21735443.8354
      2826.0534       2202.1314         48.0004         43.0004
  -5810784.11443  -4495110.14142  23492216.1754   23492219.9014   23492216.2004
      2671.1434       2081.4084         43.0004         38.0004
 -20659380.71343 -16051124.77542  20623614.5894   20623615.8284   20623613.7774
       392.4764        305.8304         52.0004         48.0004
 -13194348.82843 -10241194.94142  21329699.7164   21329702.8304   21329699.3794
      -210.0114       -163.6374         49.0004         45.0004
 -10520564.49043  -8153811.12442  22918418.7124   22918421.1234   22918418.8824
     -2838.9044      -2212.1294         45.0004         40.0004
 -21736989.43343 -16894233.01042  20891135.4274   20891139.5804   20891135.2454
     -1705.8804      -1329.2484         50.0004         45.0004
 04 12 26  0 19  0.0000000  0  7G15G 1G11G19G14G22G 3
  -3913967.55243  -2996419.02742  23081075.0784   23081080.1034   23081074.5424
     -1744.4024      -1359.2674         45.0004         40.0004
 -13403014.50043 -10394656.73742  21719349.0724   21719353.8964   21719348.7134
      2813.2004       2192.0994         48.0004         43.0004
  -5890906.12743  -4557542.88042  23476969.3944   23476973.1274   23476969.5414
      2670.5724       2080.9664         43.0004         38.0004
 -20670863.02343 -16060072.04442  20621429.6134   20621430.8184   20621428.8014
       373.4164        290.9794         52.0004         48.0004
 -13187732.21443 -10236039.13142  21330958.8594   21330961.9434   21330958.5474
      -230.5034       -179.6064         49.0004         45.0004
 -10435348.45643  -8087409.06042  22934634.9934   22934637.2124   22934635.1094
     -2841.6914      -2214.3064         45.0004         40.0004
 -21685548.93743 -16854149.53842  20900924.2544   20900928.4164   20900924.1044
     -1723.0254      -1342.6014         50.0004         45.0004
 04 12 26  0 19 30.0000000  0  7G15G 1G11G19G14G22G 3
  -3861562.40143  -2955583.90242  23091047.5404   23091052.5004   23091046.9234
     -1749.4724      -1363.2124         45.0004         40.0004
 -13487208.32743 -10460262.28742  21703327.5044   21703332.2764   21703327.1604
      2799.7954       2181.6724         48.0004         44.0004
  -5971011.63443  -4619962.74242  23461725.8544   23461729.4534   23461726.0064
      2669.8054       2080.3714         43.0004         38.0004
 -20681774.52943 -16068574.52342  20619353.2584   20619354.4544   20619352.4294
       354.1184        275.9504         52.0004         48.0004
 -13180501.13143 -10230404.52042  21332334.9084   21332338.0264   21332334.5894
      -251.4754       -195.9614         49.0004         45.0004
 -10350049.06943  -8020942.05442  22950866.9274   22950869.2274   22950866.9954
     -2844.7044      -2216.6544         45.0004         40.0004
 -21633597.34343 -16813667.81142  20910810.3824   20910814.5364   20910810.2244
     -1740.2704      -1356.0404         50.0004         45.0004
 04 12 26  0 20  0.0000000  0  7G15G 1G11G19G14G22G 3
  -3809023.43243  -2914644.51842  23101045.2744   23101050.3214   23101044.6714
     -1753.3964      -1366.2784         45.0004         40.0004
 -13571013.24143 -10525564.78242  21687379.9694   21687384.6684   21687379.5864
      2786.9324       2171.6394         48.0004         44.0004
  -6051100.05843  -4682369.28142  23446485.4394   23446489.0444   23446485.5854
      2669.4374       2080.0824         43.0004         38.0004
 -20692114.91143 -16076631.97342  20617385.5474   20617386.7574   20617384.7234
       335.1204        261.1364         52.0004         48.0004
 -13172656.32943 -10224291.68942  21333827.6654   21333830.8104   21333827.3584
      -271.7394       -211.7484         49.0004         44.0004
 -10264668.59043  -7954411.86542  22967114.2404   22967116.5514   22967114.4544
     -2847.3714      -2218.7274         45.0004         40.0004
 -21581136.81743 -16772789.51642  20920793.3464   20920797.5124   20920793.1474
     -1757.0994      -1369.1404         50.0004         45.0004
 04 12 26  0 20 30.0000000  0  7G15G 1G11G19G14G22G 3
  -3756350.59343  -2873600.80842  23111068.7044   23111073.7214   23111068.1494
     -1758.3854      -1370.1644         45.0004         40.0004
 -13654426.53843 -10590562.13142  21671506.9414   21671511.6054   21671506.5844
      2773.4514       2161.1234         48.0004         44.0004
  -6131170.51943  -4744761.83442  23431248.6524   23431252.2284   23431248.6644
      2668.1764       2079.1044         43.0004         38.0004
 -20701883.31743 -16084243.72642  20615526.7424   20615527.8974   20615525.8954
       315.7164        246.0124         52.0004         48.0004
 -13164198.19443 -10217700.92842  21335437.2004   21335440.3084   21335436.8704
      -292.5254       -227.9614         49.0004         45.0004
 -10179208.99643  -7887820.02242  22983376.7994   22983379.0264   22983376.9354
     -2850.4154      -2221.1054         45.0004         40.0004
 -21528168.80443 -16731515.77742  20930872.8284   20930877.0514   20930872.6494
     -1774.4044      -1382.6634         50.0004         45.0004
 04 12 26  0 21  0.0000000  0  7G15G 1G11G19G14G22G 3
  -3703542.81843  -2832451.96742  23121117.8374   23121122.7664   23121117.2764
     -1762.9974      -1373.7594         45.0004         40.0004
 -13737444.85743 -10655251.69242  21655709.0654   21655713.7664   21655708.7134
      2760.0524       2150.7034         49.0004         44.0004
  -6211221.67443  -4807139.32642  23416015.4984   23416018.9824   23416015.4234
      2667.7454       2078.7584         43.0004         39.0004
 -20711078.68643 -16091408.95642  20613776.8694   20613778.0834   20613776.0574
       296.4604        230.9984         52.0004         48.0004
 -13155126.52443 -10210632.08842  21337163.4964   21337166.5784   21337163.1654
      -313.1034       -243.9644         49.0004         45.0004
 -10093671.26343  -7821167.28642  22999654.1144   22999656.3504   22999654.3024
     -2852.8834      -2223.0224         45.0004         40.0004
 -21474694.53343 -16689847.54642  20941048.6614   20941052.9094   20941048.5074
     -1791.3574      -1395.8814         50.0004         45.0004
 04 12 26  0 21 30.0000000  0  7G15G 1G11G19G14G22G 3
  -3650600.68743  -2791198.40842  23131192.3734   23131197.3764   23131191.8554
     -1767.2904      -1377.1134         45.0004         40.0004
 -13820066.51943 -10719632.18142  21639986.6544   21639991.3764   21639986.3354
      2747.1484       2140.6154         49.0004         44.0004
  -6291253.69443  -4869501.93442  23400786.1184   23400789.3814   23400785.9154
      2667.1864       2078.3264         43.0004         39.0004
 -20719701.00243 -16098127.65342  20612136.0704   20612137.3214   20612135.2584
       277.6984        216.3774         52.0004         48.0004
 -13145442.78443 -10203086.32642  21339006.2004   21339009.3394   21339005.9104
      -333.1464       -259.5864         49.0004         44.0004
 -10008058.40243  -7754456.00642  23015945.8384   23015947.8884   23015945.9144
     -2855.2554      -2224.8794         45.0004         40.0004
 -21420716.66143 -16647786.90042  20951320.3934   20951324.5944   20951320.2084
     -1807.7114      -1408.6054         50.0004         45.0004
 04 12 26  0 22  0.0000000  0  7G15G 1G11G19G14G22G 3
  -3597522.34943  -2749838.72642  23141292.8234   23141297.9774   23141292.3724
     -1771.3834      -1380.2944         45.0004         40.0004
 -13902287.27443 -10783700.26642  21624340.6134   21624345.2334   21624340.2254
      2734.0194       2130.3944         49.0004         44.0004
  -6371263.95243  -4931847.57042  23385560.7274   23385564.0594   23385560.5974
      2666.5704       2077.8464         43.0004         39.0004
 -20727748.22943 -16104398.22942  20610604.8094   20610606.0084   20610603.9484
       258.8704        201.7234         52.0004         48.0004
 -13135145.97643 -10195062.84042  21340965.5264   21340968.7674   21340965.2254
      -353.3514       -275.3244         49.0004         44.0004
  -9922370.71543  -7687686.44642  23032251.6654   23032253.7674   23032251.7644
     -2857.5614      -2226.6654         45.0004         40.0004
 -21366235.42043 -16605334.01742  20961687.8564   20961692.0564   20961687.6634
     -1824.2614      -1421.5034         50.0004         45.0004
 04 12 26  0 22 30.0000000  0  7G15G 1G11G19G14G22G 3
  -3544307.82943  -2708372.93142  23151419.2844   23151424.3054   23151418.7684
     -1775.4604      -1383.4704         45.0004         40.0004
 -13984104.89743 -10847454.22942  21608771.1694   21608775.7814   21608770.8144
      2720.9764       2120.2564         49.0004         44.0004
  -6451252.49643  -4994176.28042  23370339.4614   23370342.7344   23370339.2304
      2666.6334       2077.8924         43.0004         38.0004
 -20735220.23343 -16110220.57542  20609182.8964   20609184.1234   20609182.0554
       240.0364        187.0444         52.0004         48.0004
 -13124237.11743 -10186562.43442  21343041.3974   21343044.6704   21343041.1274
      -373.0874       -290.7254         49.0004         45.0004
  -9836610.51843  -7620860.36842  23048571.4344   23048573.4764   23048571.4674
     -2859.1824      -2227.9274         45.0004         40.0004
 -21311252.94043 -16562490.56542  20972150.6384   20972154.9164   20972150.5034
     -1840.3764      -1434.0494         50.0004         45.0004
 04 12 26  0 23  0.0000000  0  7G15G 1G11G19G14G22G 3
  -3490956.47743  -2666800.49042  23161571.8034   23161576.7964   23161571.2764
     -1780.2054      -1387.1714         45.0004         40.0004
 -14065516.16843 -10910891.54542  21593279.0714   21593283.6894   21593278.7134
      2707.4694       2109.7204         49.0004         44.0004
  -6531217.86243  -5056486.95442  23355122.4344   23355125.7484   23355122.2064
      2665.3854       2076.9194         43.0004         38.0004
 -20742116.00443 -16115593.91642  20607870.6984   20607871.9164   20607869.8574
       220.7704        172.0324         52.0004         48.0004
 -13112716.30043 -10177585.17242  21345233.8344   21345236.9964   21345233.4594
      -393.6974       -306.7654         49.0004         45.0004
  -9750779.13043  -7553978.80542  23064904.6154   23064906.5894   23064904.5444
     -2861.2474      -2229.5444         44.0004         39.0004
 -21255770.62843 -16519257.62342  20982708.6564   20982712.8984   20982708.4804
     -1857.1984      -1447.1724         50.0004         45.0004
 04 12 26  0 23 30.0000000  0  7G15G 1G11G19G14G22G 3
  -3437467.91143  -2625121.14042  23171750.2794   23171755.4234   23171749.7244
     -1784.7514      -1390.7134         44.0004         40.0004
 -14146518.18743 -10974009.97642  21577864.8364   21577869.4624   21577864.5404
      2693.5204       2098.8534         49.0004         44.0004
  -6611159.19243  -5118778.87842  23339910.0914   23339913.4634   23339909.8184
      2664.7334       2076.4224         43.0004         39.0004
 -20748434.83143 -16120517.68842  20606668.2714   20606669.4884   20606667.4204
       201.4524        156.9844         52.0004         48.0004
 -13100583.88243 -10168131.34742  21347542.4274   21347545.6914   21347542.0794
      -414.1744       -322.7304         49.0004         44.0004
  -9664878.03043  -7487042.93542  23081251.0694   23081253.1424   23081250.9664
     -2864.0784      -2231.7444         44.0004         40.0004
 -21199790.14743 -16475636.50342  20993361.3744   20993365.6884   20993361.2114
     -1873.9444      -1460.2074         50.0004         45.0004
 04 12 26  0 24  0.0000000  0  7G15G 1G11G19G14G22G 3
  -3383843.05943  -2583335.61342  23181954.9024   23181959.9294   23181954.3144
     -1788.9824      -1394.0164         44.0004         40.0004
 -14227109.65143 -11036808.49642  21562528.7824   21562533.4004   21562528.5674
      2680.1834       2088.4524         49.0004         44.0004
  -6691076.37343  -5181051.98342  23324702.2674   23324705.7034   23324702.0744
      2664.1624       2075.9704         44.0004         39.0004
 -20754177.10143 -16124992.19342  20605575.4754   20605576.7764   20605574.6724
       182.4764        142.2014         52.0004         48.0004
 -13087841.51043 -10158202.22942  21349967.3094   21349970.5324   21349966.8894
      -434.1944       -338.3334         49.0004         45.0004
  -9578910.34443  -7420055.18342  23097610.3144   23097612.4234   23097610.2224
     -2865.8944      -2233.1724         45.0004         40.0004
 -21143314.22943 -16431629.33842  21004108.4194   21004112.6904   21004108.2424
     -1890.0804      -1472.7824         49.0004         45.0004
 04 12 26  0 24 30.0000000  0  7G15G 1G11G19G14G22G 3
  -3330080.37943  -2541442.67442  23192185.8614   23192190.5784   23192185.0674
     -1794.1364      -1398.0304         44.0004         40.0004
 -14307286.62443 -11099284.02342  21547271.5684   21547276.2224   21547271.3534
      2665.7584       2077.2054         49.0004         44.0004
  -6770967.50643  -5243304.79142  23309499.5444   23309502.8134   23309499.2724
      2662.5634       2074.7234         43.0004         39.0004
 -20759341.04243 -16129016.06042  20604592.7664   20604594.1344   20604592.0084
       162.5874        126.6834         52.0004         48.0004
 -13074488.55343 -10147797.34342  21352508.3504   21352511.5584   21352507.9124
      -455.2514       -354.7284         49.0004         45.0004
  -9492876.56243  -7353015.91242  23113982.2314   23113984.1754   23113982.0424
     -2868.8344      -2235.4574         45.0004         40.0004
 -21086343.80043 -16387236.82242  21014949.5164   21014953.8194   21014949.3624
     -1907.1734      -1486.1184         50.0004         45.0004
 04 12 26  0 25  0.0000000  0  7G15G 1G11G19G14G22G 3
  -3276179.19443  -2499441.80942  23202442.9564   23202447.6644   23202442.2354
     -1798.6934      -1401.5754         44.0004         39.0004
 -14387045.91643 -11161434.09142  21532093.8814   21532098.5144   21532093.6464
      2652.0224       2066.4984         49.0004         44.0004
  -6850831.06443  -5305536.12142  23294302.0494   23294305.1694   23294301.8314
      2661.9614       2074.2574         44.0004         39.0004
 -20763925.85143 -16132588.65342  20603720.3754   20603721.6874   20603719.5764
       143.4384        111.7844         52.0004         48.0004
 -13060525.45643 -10136917.01042  21355165.4744   21355168.6354   21355165.0234
      -475.3404       -370.3624         49.0004         45.0004
  -9406778.00043  -7285926.18342  23130366.1344   23130368.2784   23130366.0764
     -2870.8584      -2237.0274         44.0004         39.0004
 -21028880.44243 -16342460.21942  21025884.4554   21025888.7624   21025884.2864
     -1923.1544      -1498.5374         49.0004         45.0004
 04 12 26  0 25 30.0000000  0  7G15G 1G11G19G14G22G 3
  -3222139.10243  -2457332.70542  23212726.4654   23212731.1224   23212725.7184
     -1803.4854      -1405.3094         44.0004         40.0004
 -14466384.98243 -11223256.71142  21516996.0484   21517000.7984   21516995.8334
      2637.8134       2055.4554         49.0004         44.0004
  -6930666.39043  -5367745.45142  23279109.9824   23279112.9504   23279109.6704
      2660.7794       2073.3384         43.0004         39.0004
 -20767930.98543 -16135709.54942  20602958.2344   20602959.5164   20602957.4334
       123.8704         96.5264         52.0004         48.0004
 -13045952.80843 -10125561.70742  21357938.5664   21357941.7044   21357938.0984
      -495.8744       -386.3794         49.0004         45.0004
  -9320616.46443  -7218787.36542  23146762.2484   23146764.2474   23146762.1554
     -2872.7944      -2238.5444         44.0004         40.0004
 -20970925.80643 -16297300.80042  21036912.8574   21036917.1654   21036912.6804
     -1939.8134      -1511.5294         49.0004         45.0004
 04 12 26  0 26  0.0000000  0  7G15G 1G11G19G14G22G 3
  -3167960.27843  -2415115.49342  23223036.4894   23223041.1154   23223035.6304
     -1808.5244      -1409.2374         44.0004         39.0004
 -14545301.73243 -11284750.25442  21501978.6534   21501983.4074   21501978.4614
      2623.1364       2043.9964         49.0004         44.0004
  -7010473.15343  -5429932.51142  23263923.1934   23263926.2484   23263922.9244
      2659.5634       2072.3904         44.0004         39.0004
 -20771356.47943 -16138378.77742  20602306.4044   20602307.7194   20602305.5724
       104.1864         81.1784         52.0004         48.0004
 -13030771.79143 -10113732.35442  21360827.3134   21360830.5654   21360826.9194
      -516.5404       -402.5114         49.0004         44.0004
  -9234394.30643  -7151601.30442  23163169.7844   23163171.7834   23163169.6854
     -2875.2074      -2240.4234         44.0004         40.0004
 -20912482.39143 -16251760.51942  21048034.3594   21048038.5944   21048034.1354
     -1956.5374      -1524.5674         49.0004         45.0004
 04 12 26  0 26 30.0000000  0  7G15G 1G11G19G14G22G 3
  -3113641.50743  -2372789.23342  23233372.8764   23233377.6884   23233372.2554
     -1812.3674      -1412.2294         44.0004         39.0004
 -14623792.69743 -11345912.01442  21487042.3024   21487047.0494   21487042.0854
      2609.7244       2033.5564         49.0004         44.0004
  -7090249.11643  -5492095.57742  23248742.2354   23248745.3754   23248741.9494
      2659.3444       2072.2124         44.0004         39.0004
 -20774201.09643 -16140595.37942  20601765.0324   20601766.4144   20601764.2334
        85.7374         66.8134         52.0004         48.0004
 -13014982.38143 -10101428.92642  21363831.9934   21363835.2484   21363831.5674
      -535.8974       -417.5804         49.0004         45.0004
  -9148112.07843  -7084368.45942  23179588.7524   23179590.8084   23179588.5704
     -2876.8714      -2241.7174         44.0004         39.0004
 -20853551.13343 -16205840.08342  21059248.6284   21059252.8704   21059248.4174
     -1971.9794      -1536.6034         49.0004         45.0004
 04 12 26  0 27  0.0000000  0  8G15G 1G11G19G14G22G20G 3
  -3059183.03843  -2330354.11642  23243736.0134   23243740.8514   23243735.4584
     -1817.9814      -1416.6064         44.0004         39.0004
 -14701855.69043 -11406740.29642  21472187.3764   21472192.1034   21472187.1444
      2594.7854       2021.8984         49.0004         44.0004
  -7169994.24743  -5554234.65142  23233567.1554   23233570.2514   23233566.9934
      2657.3734       2070.6874         43.0004         39.0004
 -20776464.89343 -16142359.39442  20601334.2864   20601335.6384   20601333.4534
        65.6894         51.1884         52.0004         48.0004
 -12998585.51343 -10088652.15842  21366952.1654   21366955.4854   21366951.7744
      -556.9454       -433.9834         49.0004         45.0004
  -9061772.18443  -7017090.67942  23196018.5684   23196020.6664   23196018.4754
     -2879.2014      -2243.5284         44.0004         39.0004
   -171237.46943   -100447.70042  24138781.9434   24138787.3994   24138782.3754
      2504.5694       1951.6104         50.0004         35.0004
 -20794134.53843 -16159541.47542  21070555.2484   21070559.5204   21070555.0424
     -1988.9674      -1549.8424         49.0004         45.0004
 04 12 26  0 27 30.0000000  0  8G15G 1G11G19G14G22G20G 3
  -3004584.17643  -2287809.60342  23254125.7744   23254130.8204   23254125.2554
     -1822.1444      -1419.8514         44.0004         40.0004
 -14779487.78243 -11467232.81142  21457414.4544   21457419.1754   21457414.2334
      2580.5704       2010.8314         49.0004         44.0004
  -7249707.11943  -5616348.54842  23218398.2864   23218401.3094   23218398.0594
      2656.7914       2070.2274         43.0004         39.0004
 -20778146.98843 -16143670.13742  20601014.2434   20601015.5404   20601013.4054
        46.5194         36.2494         52.0004         48.0004
 -12981581.87543 -10075402.58442  21370187.8054   21370191.1454   21370187.4574
      -576.6244       -449.3164         49.0004         44.0004
  -8975375.97043  -6949768.99142  23212459.2584   23212461.4164   23212459.2104
     -2880.3514      -2244.4224         44.0004         40.0004
   -246280.03543   -158922.41542  24124502.8544   24124507.5604   24124502.9614
      2498.1604       1946.6164         44.0004         35.0004
 -20734234.13143 -16112865.86542  21081953.9644   21081958.2084   21081953.7334
     -2004.5464      -1562.0014         49.0004         45.0004
 04 12 26  0 28  0.0000000  0  8G15G 1G11G19G14G22G20G 3
  -2949844.06943  -2245155.03942  23264542.6284   23264547.6264   23264542.0404
     -1827.2214      -1423.8054         44.0004         40.0004
 -14856685.95143 -11527387.20742  21442724.1104   21442728.7524   21442723.8654
      2565.8394       1999.3594         49.0004         44.0004
  -7329386.35843  -5678436.25842  23203235.8144   23203238.9274   23203235.6754
      2655.1714       2068.9634         44.0004         39.0004
 -20779246.75143 -16144527.11442  20600804.9554   20600806.2804   20600804.1444
        26.7124         20.8094         52.0004         48.0004
 -12963971.91443 -10061680.55042  21373538.9144   21373542.2544   21373538.5594
      -597.2844       -465.4164         49.0004         45.0004
  -8888924.93343  -6882404.60542  23228910.4414   23228912.5474   23228910.3324
     -2882.9624      -2246.4614         44.0004         39.0004
   -321120.68043   -217239.73342  24110261.1034   24110265.7064   24110260.8614
      2491.3114       1941.2704         42.0004         36.0004
 -20673851.60343 -16065814.57742  21093444.3914   21093448.6454   21093444.1444
     -2020.9324      -1574.7524         49.0004         45.0004
 04 12 26  0 28 30.0000000  0  8G15G 1G11G19G14G22G20G 3
  -2894962.52043  -2202390.24942  23274986.2094   23274991.3604   23274985.6084
     -1831.4004      -1427.0634         44.0004         40.0004
 -14933447.96043 -11587201.73742  21428116.7834   21428121.4554   21428116.4634
      2551.8734       1988.4694         49.0004         44.0004
  -7409031.24943  -5740497.20742  23188079.9584   23188082.9254   23188079.7574
      2654.7024       2068.6024         43.0004         39.0004
 -20779763.91843 -16144930.12442  20600706.5904   20600707.8824   20600705.7464
         8.0174          6.2574         52.0004         48.0004
 -12945756.50343 -10047486.73642  21377005.1624   21377008.5454   21377004.8464
      -616.7254       -480.5824         49.0004         44.0004
  -8802420.67343  -6814998.73742  23245371.5224   23245373.8024   23245371.4994
     -2883.9254      -2247.2114         44.0004         39.0004
   -395759.47343   -275399.76142  24096057.8404   24096062.6694   24096057.2644
      2484.7884       1936.2034         40.0004         35.0004
 -20612988.97243 -16018389.18242  21105026.1494   21105030.4384   21105025.9204
     -2036.2614      -1586.6954         49.0004         45.0004
 04 12 26  0 29  0.0000000  0  8G15G 1G11G19G14G22G20G 3
  -2839938.99343  -2159514.81842  23285456.9134   23285462.1774   23285456.3184
     -1836.5264      -1431.0654         44.0004         40.0004
 -15009770.79243 -11646674.04542  21413592.9894   21413597.7044   21413592.6654
      2536.4974       1976.4734         49.0004         44.0004
  -7488640.27643  -5802530.20142  23172930.6604   23172933.7834   23172930.6054
      2652.6514       2066.9964         43.0004         39.0004
 -20779697.64843 -16144878.50242  20600719.2174   20600720.4714   20600718.3574
       -12.3084         -9.6054         52.0004         48.0004
 -12926936.13343 -10032821.52342  21380586.6084   21380589.8794   21380586.2374
      -637.7874       -497.0004         49.0004         44.0004
  -8715864.43143  -6747552.39442  23261842.6814   23261845.0184   23261842.6164
     -2886.3454      -2249.1024         44.0004         39.0004
   -470195.98643   -333402.18542  24081893.2244   24081898.2004   24081892.5324
      2477.3724       1930.4174         40.0004         36.0004
 -20551647.57643 -15970590.72442  21116698.9694   21116703.3594   21116698.7954
     -2053.1374      -1599.8674         49.0004         45.0004
 04 12 26  0 29 30.0000000  0  8G15G 1G11G19G14G22G20G 3
  -2784773.16343  -2116528.51842  23295954.5714   23295959.9194   23295953.9624
     -1841.3304      -1434.8004         44.0004         39.0004
 -15085651.50943 -11705801.84242  21399153.3454   21399158.0374   21399153.0124
      2521.7554       1964.9884         49.0004         44.0004
  -7568212.18143  -5864534.27242  23157788.6214   23157791.7144   23157788.4724
      2651.7474       2066.2994         43.0004         39.0004
 -20779047.34843 -16144371.79842  20600842.9874   20600844.2394   20600842.1324
       -31.7244        -24.7194         52.0004         48.0004
 -12907511.22543 -10017685.24242  21384283.0584   21384286.2894   21384282.7324
      -657.8464       -512.6104         49.0004         44.0004
  -8629257.96843  -6680066.89342  23278323.4184   23278325.7424   23278323.3534
     -2887.8544      -2250.2764         44.0004         39.0004
   -544429.72443   -391246.57842  24067766.9884   24067771.9984   24067766.3584
      2470.7444       1925.2524         40.0004         35.0004
 -20489829.39743 -15922420.75642  21128462.5534   21128467.0314   21128462.4024
     -2068.7894      -1612.0554         49.0004         45.0004
                            4  1
RINEX FILE SPLICE; other post-header comments skipped       COMMENT
 04 12 26  0 30  0.0000000  0  8G15G 1G11G19G14G22G20G 3
  -2729465.47343  -2073431.67042  23306479.2194   23306484.5414   23306478.6194
     -1845.8374      -1438.3104         44.0004         39.0004
 -15161088.52743 -11764583.91042  21384798.1874   21384802.8414   21384797.7964
      2506.9954       1953.5104         49.0004         44.0004
  -7647746.86743  -5926509.34042  23142653.4564   23142656.7524   23142653.4984
      2650.5754       2065.3834         43.0004         39.0004
 -20777813.61343 -16143410.46342  20601077.8044   20601079.0574   20601076.9364
       -50.8824        -39.6474         52.0004         48.0004
 -12887483.64643 -10002079.35042  21388094.2134   21388097.4644   21388093.8544
      -677.5474       -527.9484         49.0004         44.0004
  -8542603.45343  -6612543.95442  23294813.2394   23294815.5214   23294813.2244
     -2889.0974      -2251.2474         44.0004         39.0004
   -618461.48643   -448933.60842  24053679.3094   24053684.1094   24053678.5284
      2464.3844       1920.3004         40.0004         35.0004
 -20427537.38343 -15873881.56342  21140316.4144   21140320.8334   21140316.2454
     -2084.2804      -1624.1074         49.0004         44.0004
 04 12 26  0 30 30.0000000  0  8G15G 1G11G19G14G22G20G 3
  -2674014.71543  -2030223.32542  23317031.2304   23317036.5564   23317030.6754
     -1851.0724      -1442.3944         44.0004         39.0004
 -15236078.27243 -11823017.45942  21370528.0054   21370532.7004   21370527.7164
      2492.0034       1941.8224         49.0004         44.0004
  -7727242.25643  -5988453.79442  23127526.0824   23127529.2704   23127526.0154
      2648.9324       2064.1084         44.0004         39.0004
 -20775995.33943 -16141993.64942  20601423.8344   20601425.0644   20601422.9584
       -70.5154        -54.9494         52.0004         48.0004
 -12866853.36143  -9986003.81342  21392020.0714   21392023.2734   21392019.6964
      -697.9544       -543.8694         49.0004         44.0004
  -8455901.29543  -6544983.88542  23311312.0984   23311314.4014   23311312.0884
     -2891.0254      -2252.7454         44.0004         39.0004
   -692289.94643   -506462.20942  24039630.2234   24039635.0364   24039629.4574
      2457.1234       1914.6344         40.0004         36.0004
 -20364772.44543 -15824973.85542  21152260.3064   21152264.6104   21152260.0734
     -2100.2354      -1636.5624         49.0004         44.0004
 04 12 26  0 31  0.0000000  0  8G15G 1G11G19G14G22G20G 3
  -2618420.89643  -1986903.51942  23327610.3914   23327615.7144   23327609.8884
     -1855.1944      -1445.6104         44.0004         39.0004
 -15310618.84543 -11881100.99142  21356343.4184   21356348.0894   21356343.1044
      2477.5944       1930.5904         49.0004         45.0004
  -7806697.89543  -6050367.26842  23112406.1424   23112409.4294   23112406.0574
      2648.2754       2063.5934         44.0004         39.0004
 -20773592.63143 -16140121.43442  20601881.0594   20601882.2914   20601880.1924
       -89.4284        -69.6794         52.0004         48.0004
 -12845621.81343  -9969459.76242  21396060.2674   21396063.4664   21396059.9334
      -717.2934       -558.9294         49.0004         44.0004
  -8369154.02443  -6477388.67942  23327819.5494   23327821.8734   23327819.5734
     -2891.8944      -2253.4254         44.0004         39.0004
   -765915.68043   -563832.86142  24025619.3524   24025624.7124   24025618.8534
      2451.0904       1909.9294         40.0004         36.0004
 -20301537.17743 -15775699.66342  21164293.6454   21164297.8854   21164293.3764
     -2115.2874      -1648.2694         49.0004         44.0004
 04 12 26  0 31 30.0000000  0  8G15G 1G11G19G14G22G20G 3
  -2562682.08543  -1943470.73242  23338217.2534   23338222.4904   23338216.6094
     -1860.2894      -1449.5704         44.0004         39.0004
 -15384706.14443 -11938831.32842  21342245.0954   21342249.7154   21342244.7784
      2462.0024       1918.4444         49.0004         45.0004
  -7886111.04343  -6112247.63942  23097294.4634   23097297.6974   23097294.2084
      2646.3914       2062.1244         44.0004         39.0004
 -20770603.60843 -16137792.34342  20602449.9124   20602451.1024   20602449.0354
      -109.2934        -85.1754         52.0004         48.0004
 -12823788.32743  -9952446.66742  21400215.0434   21400218.2474   21400214.6944
      -737.6514       -574.7994         49.0004         44.0004
  -8282361.43143  -6409758.13442  23344335.7104   23344337.9774   23344335.6204
     -2893.4864      -2254.6624         43.0004         39.0004
   -839336.78543   -621044.06042  24011647.6214   24011653.1184   24011647.2664
      2443.7924       1904.2554         41.0004         36.0004
 -20237832.14943 -15726059.41342  21176416.3454   21176420.5754   21176416.0824
     -2131.2074      -1660.6804         49.0004         44.0004
 04 12 26  0 32  0.0000000  0  8G15G 1G11G19G14G22G20G 3
  -2506799.28643  -1899925.74842  23348851.4144   23348856.6504   23348850.8184
     -1864.5624      -1452.9024         44.0004         39.0004
 -15458338.94843 -11996207.51842  21328233.2584   21328237.8104   21328232.9424
      2447.4284       1907.0924         49.0004         45.0004
  -7965482.05043  -6174095.16742  23082190.5234   23082193.9014   23082190.2224
      2645.5374       2061.4604         44.0004         39.0004
 -20767029.43343 -16135007.29742  20603130.0364   20603131.2674   20603129.2074
      -128.2764        -99.9554         52.0004         48.0004
 -12801355.13943  -9934966.27042  21404483.8944   21404487.1204   21404483.5844
      -757.2224       -590.0304         49.0004         44.0004
  -8195526.74743  -6342094.78842  23360859.8594   23360862.2114   23360859.8354
     -2894.5944      -2255.5294         43.0004         39.0004
   -912554.57943   -678096.86742  23997714.7374   23997720.3504   23997714.4324
      2437.6084       1899.4434         41.0004         36.0004
 -20173660.61643 -15676055.66742  21188627.8284   21188632.0684   21188627.5484
     -2146.2774      -1672.4074         49.0004         44.0004
 04 12 26  0 32 30.0000000  0  8G15G 1G11G19G14G22G20G 3
  -2450771.92643  -1856268.08442  23359513.0294   23359518.3944   23359512.4514
     -1869.5554      -1456.7984         44.0004         39.0004
 -15531514.34943 -12053227.28442  21314308.4354   21314312.9934   21314308.0944
      2431.8564       1894.9544         49.0004         45.0004
  -8044809.57543  -6235908.82642  23067094.9484   23067098.4764   23067094.7764
      2643.5894       2059.9364         44.0004         39.0004
 -20762869.75743 -16131766.00842  20603921.6264   20603922.8674   20603920.7904
      -148.0884       -115.3944         52.0004         48.0004
 -12778323.00543  -9917019.16142  21408866.7804   21408870.0304   21408866.4634
      -777.3744       -605.7584         49.0004         44.0004
  -8108650.91543  -6274399.36542  23377391.8564   23377394.3504   23377391.8304
     -2896.4704      -2256.9834         44.0004         39.0004
   -985568.50943   -734990.75142  23983820.7044   23983826.0834   23983820.1644
      2430.8844       1894.1904         41.0004         36.0004
 -20109024.31843 -15625689.75942  21200927.7394   21200932.0084   21200927.4274
     -2161.9454      -1684.6064         49.0004         44.0004
 04 12 26  0 33  0.0000000  0  8G15G 1G11G19G14G22G20G 3
  -2394599.98943  -1812497.80542  23370202.3304   23370207.5784   23370201.7454
     -1875.7754      -1461.6404         44.0004         39.0004
 -15604230.21543 -12109888.97242  21300471.0314   21300475.5934   21300470.7284
      2415.3304       1882.0564         49.0004         45.0004
  -8124092.72643  -6297687.91642  23052007.8184   23052011.2544   23052007.6834
      2641.1584       2058.0444         43.0004         39.0004
 -20758124.55343 -16128068.47142  20604824.6104   20604825.8524   20604823.8064
      -168.8664       -131.5954         52.0004         48.0004
 -12754692.94443  -9898606.13542  21413363.5264   21413366.7244   21413363.1844
      -798.4304       -622.1484         49.0004         44.0004
  -8021735.89743  -6206673.45742  23393931.1784   23393933.7824   23393931.2184
     -2898.8994      -2258.8814         44.0004         39.0004
  -1058378.97543   -791726.11042  23969965.4774   23969970.7054   23969964.8644
      2422.6634       1887.7854         41.0004         37.0004
 -20043925.93543 -15574963.78542  21213315.5434   21213319.8474   21213315.2614
     -2178.5244      -1697.5794         49.0004         44.0004
 04 12 26  0 33 30.0000000  0  8G15G 1G11G19G14G22G20G 3
  -2338282.18243  -1768613.85042  23380919.3284   23380924.6244   23380918.7384
     -1879.7614      -1464.7454         44.0004         39.0004
 -15676483.22743 -12166190.00342  21286721.7294   21286726.2624   21286721.4114
      2400.5534       1870.5584         49.0004         45.0004
  -8203329.36043  -6359430.71742  23036929.6204   23036932.9904   23036929.4144
      2640.2534       2057.3434         44.0004         39.0004
 -20752792.53643 -16123913.66942  20605839.2884   20605840.5204   20605838.4624
      -187.4504       -146.0624         52.0004         48.0004
 -12730465.36643  -9879727.51242  21417973.9374   21417977.0664   21417973.5494
      -817.6144       -637.1044         49.0004         44.0004
  -7934782.21143  -6138917.38942  23410477.9684   23410480.4994   23410477.8904
     -2899.0764      -2259.0174         43.0004         39.0004
  -1130984.88943   -848302.10342  23956148.9734   23956154.2314   23956148.2934
      2416.6794       1883.1214         41.0004         36.0004
 -19978366.48243 -15523878.53742  21225791.1414   21225795.4414   21225790.8904
     -2193.3374      -1709.0924         49.0004         44.0004
 04 12 26  0 34  0.0000000  0  8G15G 1G11G19G14G22G20G 3
  -2281818.52943  -1724616.25342  23391664.0484   23391669.2574   23391663.4844
     -1884.7574      -1468.6414         44.0004         39.0004
 -15748271.40843 -12222128.82042  21273060.9334   21273065.3964   21273060.5644
      2385.2734       1858.6424         49.0004         45.0004
  -8282518.91643  -6421136.87142  23021860.5544   23021863.6934   23021860.2124
      2638.7874       2056.1974         44.0004         39.0004
 -20746874.21843 -16119302.01442  20606965.5214   20606966.7324   20606964.6824
      -206.9654       -161.2724         52.0004         48.0004
 -12705641.93343  -9860384.59042  21422697.6534   21422700.7804   21422697.2314
      -837.1734       -652.3304         49.0004         44.0004
  -7847791.92743  -6071132.82142  23427031.4804   23427034.2734   23427031.6484
     -2900.2164      -2259.9134         43.0004         39.0004
  -1203386.41643   -904718.84242  23942371.4154   23942376.4214   23942370.6454
      2410.2364       1878.1064         41.0004         36.0004
 -19912348.49243 -15472435.97542  21238353.9214   21238358.2744   21238353.7014
     -2208.1924      -1720.6594         49.0004         44.0004
 04 12 26  0 34 30.0000000  0  8G15G 1G11G19G14G22G20G 3
  -2225208.24743  -1680504.38342  23402436.7534   23402441.8094   23402436.0974
     -1889.7374      -1472.5244         44.0004         39.0004
 -15819591.66643 -12277703.03042  21259489.1004   21259493.5594   21259488.7424
      2369.3124       1846.2164         49.0004         45.0004
  -8361659.87143  -6482805.13142  23006800.2224   23006803.6884   23006800.0064
      2636.8894       2054.7204         43.0004         39.0004
 -20740368.95043 -16114232.99242  20608203.4144   20608204.6624   20608202.5794
      -226.7564       -176.6924         52.0004         48.0004
 -12680223.09043  -9840577.70942  21427534.7624   21427537.8004   21427534.2894
      -857.5414       -668.2144         49.0004         44.0004
  -7760765.97643  -6003320.46942  23443592.0124   23443594.7514   23443592.0764
     -2901.5154      -2260.9244         43.0004         39.0004
  -1275583.03443   -960975.87542  23928632.8834   23928637.7464   23928632.0904
      2402.6924       1872.2234         41.0004         36.0004
 -19845873.39943 -15420637.24542  21251003.7754   21251008.1164   21251003.4924
     -2223.7494      -1732.7914         49.0004         44.0004
 04 12 26  0 35  0.0000000  0  8G15G 1G11G19G14G22G20G 3
  -2168451.68543  -1636278.54242  23413237.3144   23413242.4014   23413236.5954
     -1894.6724      -1476.3734         44.0004         39.0004
 -15890442.13143 -12332911.15442  21246006.6854   21246011.1244   21246006.3384
      2353.6464       1833.9884         50.0004         45.0004
  -8440751.54643  -6544435.01742  22991749.4474   22991753.0544   22991749.4074
      2635.5164       2053.6494         44.0004         39.0004
 -20733277.29743 -16108707.04342  20609552.8474   20609554.1694   20609552.0564
      -246.3004       -191.9294         52.0004         48.0004
 -12654210.60043  -9820308.24642  21432484.8144   21432487.8564   21432484.3294
      -877.1504       -683.4954         49.0004         44.0004
  -7673706.28943  -5935481.69642  23460159.1864   23460161.7654   23460159.0514
     -2902.6944      -2261.8444         44.0004         39.0004
  -1347575.17943  -1017073.62242  23914933.3504   23914937.9854   23914932.5554
      2395.9924       1867.0104         41.0004         36.0004
 -19778944.03743 -15368484.54042  21263740.0784   21263744.3684   21263739.7784
     -2238.6854      -1744.4354         49.0004         44.0004
 04 12 26  0 35 30.0000000  0  8G15G 1G11G19G14G22G20G 3
  -2111548.47043  -1591938.44442  23424065.6174   23424070.6854   23424064.9134
     -1899.9774      -1480.4994         43.0004         39.0004
 -15960820.35443 -12387751.31542  21232614.1254   21232618.5374   21232613.7974
      2337.6704       1821.5664         50.0004         45.0004
  -8519792.66043  -6606025.48242  22976708.4164   22976711.9554   22976708.3394
      2633.4494       2052.0354         44.0004         39.0004
 -20725599.15043 -16102724.09642  20611013.9834   20611015.3234   20611013.1664
      -266.0734       -207.3374         52.0004         48.0004
 -12627605.31743  -9799576.86442  21437547.6384   21437550.7284   21437547.1644
      -897.0954       -699.0324         49.0004         44.0004
  -7586614.60343  -5867618.08742  23476732.3584   23476734.8034   23476732.1524
     -2903.7004      -2262.6214         43.0004         38.0004
  -1419362.75543  -1073011.94642  23901272.6654   23901277.1724   23901271.9774
      2388.7894       1861.3964         41.0004         37.0004
 -19711562.42643 -15315979.42942  21276562.4924   21276566.7034   21276562.1354
     -2254.0334      -1756.3954         49.0004         44.0004
 04 12 26  0 36  0.0000000  0  8G15G 1G11G19G14G22G20G 3
  -2054497.24243  -1547482.98042  23434922.0714   23434927.2484   23434921.4034
     -1903.7904      -1483.4674         43.0004         39.0004
 -16030723.13443 -12442220.98742  21219312.0884   21219316.4354   21219311.7424
      2322.3004       1809.5824         50.0004         45.0004
  -8598781.26943  -6667575.04742  22961677.4914   22961680.8684   22961677.3984
      2632.2204       2051.0834         44.0004         39.0004
 -20717333.54643 -16096283.38242  20612586.8434   20612588.2494   20612586.0594
      -285.1294       -222.1794         52.0004         48.0004
 -12600407.58343  -9778383.84442  21442723.1034   21442726.3184   21442722.6814
      -916.3004       -713.9964         49.0004         44.0004
  -7499491.60443  -5799730.09142  23493311.2864   23493313.8494   23493311.0934
     -2904.0674      -2262.9064         43.0004         39.0004
  -1490944.90043  -1128790.18542  23887650.8484   23887655.5014   23887650.0764
      2382.8054       1856.7334         41.0004         36.0004
 -19643730.05243 -15263123.07142  21289470.5354   21289474.7994   21289470.2334
     -2268.3144      -1767.5144         49.0004         44.0004
 04 12 26  0 36 30.0000000  0  8G15G 1G11G19G14G22G20G 3
  -1997297.91143  -1502912.12742  23445806.7324   23445812.0334   23445806.0824
     -1909.6074      -1488.0064         43.0004         39.0004
 -16100148.17443 -12496318.40242  21206100.8424   21206105.2854   21206100.5474
      2305.9624       1796.8404         50.0004         45.0004
  -8677716.43843  -6729082.96142  22946656.7404   22946659.9204   22946656.5504
      2629.9704       2049.3254         44.0004         39.0004
 -20708480.54343 -16089384.96242  20614271.5694   20614272.9214   20614270.7394
      -305.1364       -237.7794         52.0004         48.0004
 -12572618.87843  -9756730.31142  21448011.0864   21448014.2994   21448010.6764
      -936.3914       -729.6594         49.0004         44.0004
  -7412338.59943  -5731818.70742  23509895.8664   23509898.6054   23509895.7944
     -2905.8444      -2264.2944         43.0004         39.0004
  -1562321.53443  -1184408.31042  23874068.1914   23874072.9604   23874067.5964
      2375.5124       1851.0454         41.0004         37.0004
 -19575449.10243 -15209917.18042  21302463.9614   21302468.2744   21302463.6644
     -2283.6654      -1779.4534         49.0004         44.0004
 04 12 26  0 37  0.0000000  0  8G15G 1G11G19G14G22G20G 3
  -1939950.63243  -1458225.99742  23456719.7584   23456724.9114   23456719.1004
     -1914.1364      -1491.5324         43.0004         39.0004
 -16169093.42843 -12550041.96042  21192980.9524   21192985.4094   21192980.7014
      2290.0844       1784.4954         50.0004         45.0004
  -8756597.36243  -6790548.59842  22931646.1164   22931649.3994   22931646.0384
      2628.1604       2047.9204         44.0004         40.0004
 -20699040.45743 -16082029.07542  20616067.9684   20616069.3594   20616067.1404
      -324.5004       -252.8594         52.0004         48.0004
 -12544240.48543  -9734617.29142  21453411.3204   21453414.5294   21453410.9144
      -955.8504       -744.8184         49.0004         44.0004
  -7325157.29643  -5663885.29442  23526485.9634   23526488.7104   23526485.8534
     -2906.5454      -2264.8414         43.0004         38.0004
  -1633492.82743  -1239866.38742  23860524.6094   23860529.4754   23860524.2304
      2368.8284       1845.8384         41.0004         36.0004
 -19506722.22643 -15156363.80942  21315542.3004   21315546.5914   21315542.0414
     -2298.5394      -1791.0744         49.0004         44.0004
 04 12 26  0 37 30.0000000  0  8G15G 1G11G19G14G22G20G 3
  -1882454.67143  -1413424.01542  23467660.9244   23467666.0544   23467660.2714
     -1918.5544      -1494.9724         43.0004         39.0004
 -16237556.25143 -12603389.60142  21179952.9144   21179957.3054   21179952.6244
      2274.3784       1772.2324         50.0004         45.0004
  -8835422.17843  -6851970.53342  22916646.2504   22916649.5824   22916646.1434
      2626.8834       2046.9214         44.0004         40.0004
 -20689013.11743 -16074215.58742  20617976.0904   20617977.5524   20617975.2844
      -343.7914       -267.8984         52.0004         48.0004
 -12515273.56843  -9712045.68342  21458923.5954   21458926.7494   21458923.1694
      -974.9814       -759.7404         49.0004         44.0004
  -7237949.13543  -5595930.93942  23543081.1724   23543083.9244   23543080.9914
     -2906.8944      -2265.1174         43.0004         38.0004
  -1704458.65043  -1295164.37942  23847020.2774   23847025.1804   23847019.9024
      2362.4464       1840.8574         41.0004         37.0004
 -19437551.43443 -15102464.53442  21328705.1454   21328709.3904   21328704.8524
     -2312.7594      -1802.1804         48.0004         44.0004
 04 12 26  0 38  0.0000000  0  8G15G 1G11G19G14G22G20G 3
  -1824809.82343  -1368506.01242  23478630.4714   23478635.6384   23478629.7904
     -1923.7554      -1499.0244         43.0004         39.0004
 -16305534.32743 -12656359.51642  21167017.1504   21167021.4524   21167016.8234
      2257.9134       1759.4284         50.0004         45.0004
  -8914189.95043  -6913348.00642  22901657.2044   22901660.5784   22901657.0764
      2624.9034       2045.3784         44.0004         40.0004
 -20678398.60443 -16065944.56242  20619995.9874   20619997.4384   20619995.1524
      -363.4814       -283.2204         52.0004         48.0004
 -12485719.48843  -9689016.54342  21464547.5424   21464550.7164   21464547.1374
      -994.6314       -775.0544         49.0004         44.0004
  -7150715.70643  -5527956.89042  23559681.2094   23559683.9294   23559681.1354
     -2908.1994      -2266.1284         43.0004         38.0004
  -1775218.79543  -1350302.12242  23833554.9594   23833559.8914   23833554.6324
      2355.5234       1835.4674         41.0004         37.0004
 -19367938.84143 -15048221.00442  21341952.0314   21341956.2824   21341951.7444
     -2327.4604      -1813.5944         48.0004         44.0004
 04 12 26  0 38 30.0000000  0  8G15G 1G11G19G14G22G20G 3
  -1767015.56443  -1323471.59842  23489628.4194   23489633.5944   23489627.7164
     -1928.9204      -1503.0504         43.0004         38.0004
 -16373025.09043 -12708949.70542  21154174.0524   21154178.3734   21154173.7564
      2241.5004       1746.6214         50.0004         45.0004
  -8992899.32343  -6974679.96442  22886679.2634   22886682.6724   22886679.2104
      2622.7284       2043.6844         44.0004         40.0004
 -20667196.73243 -16057215.85042  20622127.5904   20622129.1374   20622126.8084
      -383.2604       -298.6484         52.0004         48.0004
 -12455579.01743  -9665530.46742  21470283.1754   21470286.2544   21470282.7174
     -1014.3354       -790.3914         49.0004         44.0004
  -7063457.99443  -5459963.92242  23576285.7544   23576288.5174   23576285.7374
     -2908.9694      -2266.7264         42.0004         38.0004
  -1845772.97443  -1405279.34942  23820128.8704   23820133.8974   23820128.3794
      2348.3214       1829.8594         41.0004         37.0004
 -19297886.43143 -14993634.75542  21355282.6394   21355286.8474   21355282.2894
     -2342.3714      -1825.2284         48.0004         44.0004
 04 12 26  0 39  0.0000000  0  8G15G 1G11G19G14G22G20G 3
  -1709071.38443  -1278320.37242  23500654.8514   23500660.0784   23500654.1174
     -1934.2534      -1507.2094         43.0004         39.0004
 -16440026.21443 -12761158.34742  21141424.1654   21141428.4774   21141423.8264
      2225.0264       1733.7664         50.0004         45.0004
  -9071549.13143  -7035965.51442  22871712.9544   22871716.1214   22871712.7254
      2620.6124       2042.0334         45.0004         40.0004
 -20655407.76943 -16048029.66842  20624370.9924   20624372.5454   20624370.2124
      -403.1114       -314.1214         52.0004         48.0004
 -12424853.62543  -9641588.61142  21476130.0604   21476133.0824   21476129.6074
     -1034.0714       -805.7664         49.0004         44.0004
  -6976177.43643  -5391953.14242  23592894.5994   23592897.3194   23592894.7384
     -2910.0944      -2267.6134         42.0004         38.0004
  -1916121.10643  -1460096.03542  23806742.2184   23806747.1244   23806741.5684
      2341.0894       1824.2254         41.0004         37.0004
 -19227396.49043 -14938707.58442  21368696.4174   21368700.7024   21368696.1204
     -2357.3654      -1836.9264         48.0004         44.0004
 04 12 26  0 39 30.0000000  0  8G15G 1G11G19G14G22G20G 3
  -1650977.08643  -1233052.17042  23511709.8284   23511715.1044   23511709.2124
     -1939.5034      -1511.3044         43.0004         39.0004
 -16506535.39843 -12812983.67642  21128767.8704   21128772.1574   21128767.5334
      2208.4514       1720.8814         50.0004         45.0004
  -9150138.04443  -7097203.61042  22856757.9214   22856761.1054   22856757.7774
      2618.0694       2040.0574         45.0004         40.0004
 -20643031.68743 -16038385.97942  20626726.1184   20626727.6604   20626725.3054
      -422.5714       -329.2864         52.0004         48.0004
 -12393544.58143  -9617191.95542  21482087.8884   21482090.9634   21482087.4554
     -1053.4954       -820.9254         48.0004         44.0004
  -6888875.40943  -5323925.63642  23609507.5364   23609510.3504   23609507.6674
     -2910.6104      -2268.0074         42.0004         38.0004
  -1986263.29643  -1514752.23642  23793394.5434   23793399.5404   23793393.8614
      2334.3784       1818.9974         41.0004         36.0004
 -19156471.29143 -14883441.23742  21382193.0554   21382197.3304   21382192.7904
     -2371.5234      -1847.9394         48.0004         44.0004
 04 12 26  0 40  0.0000000  0  8G15G 1G11G19G14G22G20G 3
  -1592732.18143  -1187666.63942  23522793.5264   23522798.7654   23522792.7674
     -1944.4924      -1515.1874         43.0004         39.0004
 -16572550.20843 -12864423.77442  21116205.6144   21116209.9404   21116205.2864
      2191.8434       1707.9284         50.0004         45.0004
  -9228664.72343  -7158393.21842  22841814.8994   22841817.9484   22841814.7214
      2616.0364       2038.4664         45.0004         40.0004
 -20630068.57143 -16028284.86242  20629192.8754   20629194.4594   20629192.0984
      -442.3554       -344.6964         52.0004         48.0004
 -12361653.10343  -9592341.46742  21488156.6184   21488159.6724   21488156.1994
     -1073.0854       -836.1574         48.0004         44.0004
  -6801553.43343  -5255882.61642  23626124.5174   23626127.3974   23626124.4564
     -2911.1934      -2268.4644         42.0004         38.0004
  -2056199.51043  -1569247.93242  23780086.1454   23780090.9554   23780085.4214
      2327.1824       1813.3844         41.0004         37.0004
 -19085113.18843 -14827837.56142  21395772.0764   21395776.3544   21395771.8234
     -2386.3184      -1859.4804         48.0004         44.0004
 04 12 26  0 40 30.0000000  0  8G15G 1G11G19G14G22G20G 3
  -1534336.44043  -1142163.53842  23533905.8844   23533911.0694   23533905.2084
     -1949.4044      -1519.0124         43.0004         38.0004
 -16638068.32343 -12915476.83242  21103737.9194   21103742.2194   21103737.5564
      2175.2404       1694.9844         50.0004         45.0004
  -9307127.62643  -7219533.12042  22826883.9154   22826886.8804   22826883.7744
      2613.9264       2036.8164         45.0004         40.0004
 -20616518.45343 -16017726.34242  20631771.3734   20631772.9794   20631770.6004
      -461.8314       -359.8844         52.0004         48.0004
 -12329180.55343  -9567038.18942  21494335.9294   21494339.0374   21494335.5574
     -1092.3714       -851.2194         48.0004         44.0004
  -6714212.62043  -5187824.89842  23642745.0594   23642747.9804   23642744.9304
     -2912.1104      -2269.1694         43.0004         38.0004
  -2125929.23743  -1623582.74342  23766816.8924   23766821.8594   23766816.3304
      2320.5074       1808.1864         41.0004         37.0004
 -19013324.00243 -14771897.98442  21409433.1914   21409437.4214   21409432.8764
     -2400.6004      -1870.6164         48.0004         44.0004
 04 12 26  0 41  0.0000000  0  8G15G 1G11G19G14G22G20G 3
  -1475789.40343  -1096542.55842  23545047.0084   23545052.3204   23545046.3844
     -1954.5434      -1523.0204         43.0004         38.0004
 -16703087.56143 -12966141.15342  21091365.1104   21091369.4704   21091364.7734
      2158.3374       1681.8134         50.0004         45.0004
  -9385525.80843  -7280622.59642  22811965.1454   22811968.1974   22811965.0084
      2611.5054       2034.9404         45.0004         40.0004
 -20602381.52543 -16006710.56842  20634461.5974   20634463.1624   20634460.7954
      -481.4924       -375.1854         52.0004         48.0004
 -12296128.03143  -9541282.97842  21500625.6304   21500628.7014   21500625.2314
     -1112.0214       -866.5134         48.0004         44.0004
  -6626854.10843  -5119753.40542  23659368.7724   23659371.9024   23659368.7804
     -2913.1284      -2269.9704         43.0004         38.0004
  -2195452.71843  -1677756.83142  23753586.9574   23753592.0204   23753586.4724
      2313.2054       1802.4904         42.0004         37.0004
 -18941106.20843 -14715624.42842  21423175.7924   21423180.0904   21423175.4514
     -2414.9784      -1881.8184         48.0004         44.0004
 04 12 26  0 41 30.0000000  0  8G15G 1G11G19G14G22G20G 3
  -1417090.96943  -1050803.60942  23556216.9864   23556222.4404   23556216.3834
     -1959.1944      -1526.6384         43.0004         39.0004
 -16767605.89843 -13016415.17342  21079087.6684   21079092.0484   21079087.3284
      2142.3484       1669.3644         50.0004         45.0004
  -9463858.15243  -7341660.76542  22797058.9784   22797062.1524   22797058.8364
      2609.8244       2033.6314         45.0004         40.0004
 -20587658.30843 -15995237.94742  20637263.3984   20637264.9284   20637262.5644
      -500.5284       -390.0124         52.0004         48.0004
 -12262497.47143  -9515077.35342  21507025.3974   21507028.3454   21507024.9934
     -1130.5734       -880.9694         48.0004         44.0004
  -6539479.78543  -5051669.57642  23675995.6844   23675998.8104   23675995.5894
     -2912.8964      -2269.7884         43.0004         38.0004
  -2264770.06543  -1731770.28542  23740396.3724   23740401.4534   23740395.8114
      2307.0164       1797.6824         42.0004         37.0004
 -18868462.49943 -14659018.98442  21436999.5044   21437003.7674   21436999.1244
     -2428.5564      -1892.3744         48.0004         43.0004
 04 12 26  0 42  0.0000000  0  8G15G 1G11G19G14G22G20G 3
  -1358240.17943  -1004945.93342  23567416.0964   23567421.5724   23567415.3864
     -1963.6304      -1530.0914         43.0004         38.0004
 -16831620.29743 -13066296.51042  21066906.0584   21066910.5324   21066905.7534
      2125.9974       1656.6364         50.0004         45.0004
  -9542122.36443  -7402645.83942  22782165.8424   22782168.9404   22782165.6154
      2608.1414       2032.3174         45.0004         40.0004
 -20572348.30243 -15983308.08342  20640176.8124   20640178.3424   20640175.9704
      -519.5134       -404.8154         52.0004         48.0004
 -12228289.44543  -9488421.74442  21513535.0054   21513537.8914   21513534.5794
     -1149.4034       -895.6314         48.0004         44.0004
  -6452090.06843  -4983573.75542  23692625.5074   23692628.4284   23692625.4074
     -2912.7374      -2269.6694         43.0004         38.0004
  -2333880.57443  -1785622.59442  23727244.9144   23727250.1594   23727244.4884
      2300.4554       1792.5674         42.0004         37.0004
 -18795394.35143 -14602082.81442  21450903.8654   21450908.2574   21450903.5544
     -2442.0014      -1902.8544         48.0004         43.0004
 04 12 26  0 42 30.0000000  0  8G15G 1G11G19G14G22G20G 3
  -1299236.77343   -958969.34342  23578644.1194   23578649.5294   23578643.3334
     -1969.4654      -1534.6424         43.0004         38.0004
 -16895128.52343 -13115783.42342  21054820.7964   21054825.2964   21054820.5044
      2108.5694       1643.0314         50.0004         45.0004
  -9620317.23143  -7463576.87842  22767285.7784   22767288.9954   22767285.5984
      2605.5544       2030.3014         45.0004         40.0004
 -20556451.57243 -15970921.03642  20643201.8954   20643203.4194   20643201.0524
      -539.5054       -420.3834         52.0004         48.0004
 -12193505.29043  -9461317.21642  21520154.1864   21520157.0984   21520153.7714
     -1168.8604       -910.8084         48.0004         44.0004
  -6364686.36643  -4915467.04742  23709257.9994   23709260.7014   23709257.9364
     -2913.3164      -2270.1164         42.0004         38.0004
  -2402784.32243  -1839313.75342  23714133.1194   23714138.0884   23714132.6234
      2293.5084       1787.1474         42.0004         37.0004
 -18721904.28943 -14544817.88042  21464888.5704   21464892.9764   21464888.2654
     -2456.6824      -1914.2894         48.0004         43.0004
 04 12 26  0 43  0.0000000  0  8G15G 1G11G19G14G22G20G 3
  -1240081.16643   -912874.15542  23589901.1884   23589906.5104   23589900.3484
     -1974.2624      -1538.3854         43.0004         38.0004
 -16958129.31343 -13164874.93342  21042832.1794   21042836.6474   21042831.8514
      2091.7504       1629.9284         50.0004         45.0004
  -9698442.38043  -7524453.57742  22752419.0004   22752422.3264   22752418.8654
      2603.0424       2028.3454         45.0004         40.0004
 -20539969.45143 -15958077.84042  20646338.3524   20646339.8924   20646337.5034
      -558.9614       -435.5504         52.0004         48.0004
 -12158147.30643  -9433765.54442  21526882.5454   21526885.5704   21526882.1564
     -1187.9654       -925.6844         48.0004         44.0004
  -6277270.79143  -4847351.07142  23725892.6724   23725895.4084   23725892.6584
     -2913.6914      -2270.4124         42.0004         38.0004
  -2471481.87043  -1892844.27042  23701060.4784   23701065.4204   23701059.8954
      2286.5854       1781.7484         42.0004         37.0004
 -18647995.25743 -14487226.47042  21478952.9814   21478957.4444   21478952.6914
     -2470.4864      -1925.0574         48.0004         43.0004
 04 12 26  0 43 30.0000000  0  8G15G 1G11G19G14G22G20G 3
  -1180772.80943   -866659.92542  23601187.1584   23601192.5214   23601186.4074
     -1978.6254      -1541.7854         43.0004         38.0004
 -17020619.90043 -13213568.88342  21030940.5924   21030945.1224   21030940.2744
      2074.8204       1616.7374         50.0004         45.0004
  -9776495.88843  -7585274.46542  22737565.9644   22737569.1904   22737565.7754
      2600.9434       2026.7154         45.0004         40.0004
 -20522901.86143 -15944778.43842  20649586.2064   20649587.7374   20649585.3784
      -578.4114       -450.7094         52.0004         48.0004
 -12122216.60743  -9405767.59342  21533719.9904   21533723.0034   21533719.5784
     -1206.9244       -940.4594         48.0004         44.0004
  -6189844.08743  -4779226.41542  23742529.5434   23742532.2474   23742529.5374
     -2914.0034      -2270.6514         42.0004         38.0004
  -2539972.87443  -1946213.82742  23688026.8594   23688031.9354   23688026.3464
      2279.9114       1776.5544         42.0004         37.0004
 -18573669.02943 -14429309.98642  21493096.7544   21493101.2894   21493096.4724
     -2484.0634      -1935.6274         48.0004         43.0004
 04 12 26  0 44  0.0000000  0  8G15G 1G11G19G14G22G20G 3
  -1121311.33143   -820326.38242  23612502.4004   23612507.6984   23612501.6234
     -1984.1884      -1546.1244         42.0004         38.0004
 -17082598.05543 -13261863.54542  21019146.5214   21019151.1004   21019146.2224
      2057.9654       1603.6244         50.0004         45.0004
  -9854476.57343  -7646038.60742  22722726.7404   22722729.9664   22722726.5974
      2598.7484       2024.9964         45.0004         41.0004
 -20505248.66843 -15931022.71842  20652945.5024   20652947.0304   20652944.6964
      -597.5754       -465.6344         52.0004         48.0004
 -12085714.56243  -9377324.44742  21540666.0414   21540669.1264   21540665.6524
     -1225.6824       -955.0654         48.0004         44.0004
  -6102407.65143  -4711094.18742  23759168.2404   23759170.8514   23759168.1584
     -2914.0174      -2270.6594         43.0004         38.0004
  -2608257.18843  -1999422.33542  23675032.7064   23675037.7814   23675032.0954
      2273.2894       1771.3884         42.0004         37.0004
 -18498928.11343 -14371070.35442  21507319.4184   21507324.0604   21507319.2264
     -2497.5834      -1946.1604         48.0004         43.0004
 04 12 26  0 44 30.0000000  0  8G15G 1G11G19G14G22G20G 3
  -1061695.99543   -773872.98142  23623846.8934   23623852.2114   23623846.1494
     -1990.3104      -1550.8954         42.0004         38.0004
 -17144061.32443 -13309756.98542  21007450.4244   21007455.0194   21007450.1264
      2039.5534       1589.2594         50.0004         45.0004
  -9932382.38843  -7706744.40942  22707901.8334   22707904.9624   22707901.6674
      2595.1634       2022.2024         45.0004         41.0004
 -20487010.26943 -15916810.99742  20656416.1184   20656417.7114   20656415.3394
      -618.2944       -481.7984         52.0004         47.0004
 -12048642.43943  -9348437.08242  21547720.6404   21547723.6884   21547720.3004
     -1245.8224       -970.7824         48.0004         44.0004
  -6014962.31943  -4642955.01642  23775808.6274   23775811.3114   23775808.5424
     -2915.4004      -2271.7394         43.0004         38.0004
  -2676334.39043  -2052469.45642  23662078.0034   23662083.0754   23662077.3614
      2264.9344       1764.8724         42.0004         37.0004
 -18423774.50643 -14312509.15242  21521620.6174   21521625.3684   21521620.4854
     -2512.6484      -1957.9234         48.0004         43.0004
                            4  1
RINEX FILE SPLICE; other post-header comments skipped       COMMENT
 04 12 26  0 45  0.0000000  0  8G15G 1G11G19G14G22G20G 3
  -1001926.52543   -727299.42242  23635220.6814   23635226.0584   23635219.9374
     -1995.1814      -1554.6784         42.0004         38.0004
 -17205007.73343 -13357247.67842  20995852.7324   20995857.3164   20995852.4054
      2022.4894       1575.9754         50.0004         46.0004
 -10010212.35743  -7767391.12942  22693091.2244   22693094.2894   22693091.1204
      2592.7144       2020.2944         45.0004         40.0004
 -20468186.84643 -15902143.41442  20659998.1934   20659999.7034   20659997.3774
      -637.5424       -496.7704         52.0004         48.0004
 -12011001.66143  -9319106.62142  21554883.4434   21554886.5544   21554883.0854
     -1264.6714       -985.4454         48.0004         44.0004
  -5927509.29543  -4574809.86542  23792450.4814   23792453.3084   23792450.4744
     -2915.5364      -2271.8404         43.0004         38.0004
  -2744204.75743  -2105355.39042  23649162.7234   23649167.8324   23649162.1044
      2258.4074       1759.7984         42.0004         37.0004
 -18348210.61743 -14253628.24742  21536000.0244   21536004.7654   21535999.8724
     -2526.0134      -1968.3164         48.0004         43.0004
 04 12 26  0 45 30.0000000  0  8G15G 1G11G19G14G22G20G 3
   -942002.74743   -680605.61942  23646623.7044   23646629.2164   23646623.0504
     -1999.8474      -1558.3114         42.0004         37.0004
 -17265435.32243 -13404334.10142  20984353.7494   20984358.3464   20984353.4304
      2005.8304       1562.9784         50.0004         46.0004
 -10087965.36943  -7827977.86942  22678295.2504   22678298.3604   22678295.1664
      2590.7714       2018.7794         45.0004         41.0004
 -20448779.30443 -15887020.67242  20663691.3454   20663692.8594   20663690.5414
      -656.3244       -511.4314         52.0004         47.0004
 -11972794.25943  -9289334.63142  21562154.0254   21562157.2184   21562153.6984
     -1282.8554       -999.6324         48.0004         44.0004
  -5840050.13643  -4506659.94642  23809093.4514   23809096.3734   23809093.4704
     -2915.1834      -2271.5654         43.0004         38.0004
  -2811868.50043  -2158080.35542  23636286.7404   23636291.7474   23636286.1704
      2252.4514       1755.1674         42.0004         38.0004
 -18272239.17143 -14194429.77142  21550456.9314   21550461.6974   21550456.7524
     -2538.9394      -1978.3894         48.0004         43.0004
 04 12 26  0 46  0.0000000  0  8G15G 1G11G19G14G22G20G 3
   -881924.57043   -633791.54642  23658056.3724   23658061.7944   23658055.5854
     -2006.0474      -1563.1464         42.0004         37.0004
 -17325342.08743 -13451014.68342  20972953.8414   20972958.4864   20972953.5494
      1987.5424       1548.7344         50.0004         46.0004
 -10165640.02943  -7888503.57042  22663514.1994   22663517.3274   22663514.1324
      2587.1664       2015.9704         45.0004         41.0004
 -20428787.94343 -15871443.01242  20667495.6124   20667497.0934   20667494.7554
      -676.6984       -527.2934         52.0004         47.0004
 -11934021.84843  -9259122.36542  21569532.1854   21569535.3064   21569531.8604
     -1302.5294      -1014.9574         48.0004         44.0004
  -5752586.32543  -4438506.39142  23825737.2784   23825740.1844   23825737.2954
     -2916.3814      -2272.5104         43.0004         38.0004
  -2879325.53543  -2210644.24142  23623450.0874   23623455.0494   23623449.6304
      2244.4204       1748.8934         42.0004         38.0004
 -18195862.67243 -14134915.65142  21564990.9244   21564995.6804   21564990.7504
     -2553.4484      -1989.6924         48.0004         43.0004
 04 12 26  0 46 30.0000000  0  8G15G 1G11G19G14G22G20G 3
   -821691.48043   -586856.74242  23669518.3704   23669523.8344   23669517.7174
     -2009.8004      -1566.0634         42.0004         38.0004
 -17384725.78043 -13497287.67242  20961653.5314   20961658.1504   20961653.2174
      1971.0844       1535.9244         50.0004         46.0004
 -10243234.72943  -7948966.96042  22648748.4334   22648751.4594   22648748.2844
      2585.3544       2014.5694         45.0004         41.0004
 -20408213.06343 -15855410.66142  20671410.9204   20671412.3864   20671410.0604
      -695.3194       -541.7914         52.0004         47.0004
 -11894685.52443  -9228470.69842  21577017.6734   21577020.7604   21577017.3004
     -1320.3014      -1028.8174         48.0004         44.0004
  -5665118.73243  -4370349.88442  23842381.9684   23842384.6784   23842381.8954
     -2915.3494      -2271.7044         42.0004         38.0004
  -2946575.82143  -2263047.00642  23610652.7224   23610657.6664   23610652.1864
      2238.4984       1744.2864         42.0004         37.0004
 -18119083.37543 -14075087.68742  21579601.4894   21579606.3184   21579601.3464
     -2565.8504      -1999.3634         48.0004         43.0004
 04 12 26  0 47  0.0000000  0  8G15G 1G11G19G14G22G20G 3
   -761302.69443   -539800.64342  23681009.9524   23681015.5404   23681009.4054
     -2015.5534      -1570.5594         42.0004         37.0004
 -17443583.78443 -13543151.03642  20950453.2324   20950457.8494   20950452.9474
      1953.1074       1521.8974         50.0004         46.0004
 -10320747.81043  -8009366.75342  22633998.1144   22634001.1934   22633997.9434
      2582.3574       2012.2164         45.0004         41.0004
 -20387054.70243 -15838923.65342  20675437.2294   20675438.6964   20675436.3894
      -715.0804       -557.2094         52.0004         47.0004
 -11854786.72943  -9197380.73842  21584610.0994   21584613.2864   21584609.7724
     -1339.3604      -1043.6534         48.0004         44.0004
  -5577648.05543  -4302190.97042  23859027.1474   23859029.7734   23859027.0794
     -2915.8864      -2272.1074         42.0004         38.0004
  -3013619.05043  -2315288.45042  23597894.7684   23597899.7194   23597894.2964
      2231.2144       1738.6064         42.0004         38.0004
 -18041903.27643 -14014947.40542  21594288.3984   21594293.2464   21594288.2844
     -2579.3064      -2009.8424         47.0004         43.0004
 04 12 26  0 47 30.0000000  0  8G15G 1G11G19G14G22G20G 3
   -700758.68243   -492623.53242  23692531.2504   23692536.6864   23692530.4864
     -2021.4884      -1575.1874         42.0004         37.0004
 -17501914.74843 -13588603.72642  20939353.2214   20939357.8284   20939352.9044
      1934.8294       1507.6404         50.0004         46.0004
 -10398178.49643  -8069702.34142  22619263.5624   22619266.6434   22619263.3834
      2578.6884       2009.3574         45.0004         41.0004
 -20365314.17843 -15821983.00742  20679574.2964   20679575.8214   20679573.4644
      -735.1464       -572.8484         52.0004         47.0004
 -11814327.76643  -9165854.28442  21592309.1974   21592312.4504   21592308.8884
     -1358.7814      -1058.8024         48.0004         44.0004
  -5490176.16943  -4234031.10742  23875672.5514   23875675.2714   23875672.6584
     -2917.0014      -2272.9924         42.0004         37.0004
  -3080455.79543  -2367369.00142  23585176.1654   23585181.0404   23585175.6404
      2223.9374       1732.9354         42.0004         38.0004
 -17964325.40343 -13954497.16542  21609051.1084   21609055.8874   21609050.9244
     -2593.2764      -2020.7414         47.0004         43.0004
 04 12 26  0 48  0.0000000  0  8G15G 1G11G19G14G22G20G 3
   -640059.03043   -445325.17542  23704082.1104   23704087.5184   23704081.3624
     -2025.3624      -1578.2004         42.0004         37.0004
 -17559716.57743 -13633644.09942  20928353.9214   20928358.4824   20928353.5864
      1918.1514       1494.6564         50.0004         46.0004
 -10475525.32443  -8129972.59242  22604544.9454   22604548.0654   22604544.8114
      2577.3454       2008.2984         45.0004         41.0004
 -20342992.02043 -15804589.14142  20683822.0534   20683823.6094   20683821.2314
      -753.4384       -587.0924         52.0004         47.0004
 -11773310.27043  -9133892.61742  21600114.5914   21600117.8524   21600114.2844
     -1376.1834      -1072.3484         48.0004         44.0004
  -5402704.49243  -4165871.43542  23892317.9114   23892320.5364   23892317.9834
     -2915.4824      -2271.8024         42.0004         37.0004
  -3147086.17243  -2419288.72142  23572496.7884   23572501.8904   23572496.2454
      2217.8904       1728.2274         43.0004         38.0004
 -17886352.15643 -13893738.83542  21623889.0174   21623893.7954   21623888.8044
     -2605.2164      -2030.0414         47.0004         43.0004
 04 12 26  0 48 30.0000000  0  8G15G 1G11G19G14G22G20G 3
   -579203.13243   -397905.04442  23715662.6274   23715668.2464   23715661.9164
     -2030.1614      -1581.9374         42.0004         37.0004
 -17616986.90143 -13678270.30442  20917455.7524   20917460.3104   20917455.3964
      1900.9294       1481.2544         50.0004         46.0004
 -10552785.78343  -8190175.54342  22589842.9284   22589845.8104   22589842.6874
      2574.4864       2006.0924         45.0004         41.0004
 -20320087.85443 -15786741.76742  20688180.6164   20688182.1404   20688179.7694
      -772.2894       -601.7734         52.0004         47.0004
 -11731735.19843  -9101496.46642  21608026.0824   21608029.3394   21608025.7404
     -1394.4604      -1086.5884         48.0004         44.0004
  -5315233.47843  -4097712.26042  23908963.2904   23908965.6584   23908963.2014
     -2915.1664      -2271.5604         42.0004         37.0004
  -3213509.46543  -2471047.08042  23559856.8284   23559861.9004   23559856.2554
      2211.0494       1722.9004         43.0004         38.0004
 -17807985.48943 -13832673.94942  21638801.7304   21638806.5384   21638801.5404
     -2617.9884      -2039.9884         47.0004         43.0004
 04 12 26  0 49  0.0000000  0  8G15G 1G11G19G14G22G20G 3
   -518190.88843   -350363.12542  23727272.8634   23727278.5124   23727272.2194
     -2036.8824      -1587.1794         42.0004         37.0004
 -17673724.15143 -13722481.13342  20906658.9644   20906663.5594   20906658.6614
      1881.5284       1466.1094         50.0004         46.0004
 -10629959.01743  -8250310.51842  22575157.3324   22575160.2864   22575157.1124
      2570.0214       2002.6084         46.0004         41.0004
 -20296602.57243 -15768441.56842  20692649.7254   20692651.2614   20692648.8934
      -793.3964       -618.2624         52.0004         47.0004
 -11689604.58043  -9068667.42542  21616043.2894   21616046.5824   21616042.9164
     -1414.4924      -1102.2174         48.0004         44.0004
  -5227764.62543  -4029554.77642  23925608.1754   23925610.5364   23925608.0834
     -2916.3454      -2272.4804         42.0004         37.0004
  -3279726.11343  -2522644.42842  23547256.2344   23547261.0664   23547255.6544
      2203.1514       1716.7374         43.0004         38.0004
 -17729228.21643 -13771304.69642  21653788.7394   21653793.6094   21653788.6564
     -2632.4974      -2051.3104         47.0004         43.0004
 04 12 26  0 49 30.0000000  0  8G15G 1G11G19G14G22G20G 3
   -457021.53243   -302698.74742  23738913.1304   23738918.5564   23738912.3904
     -2041.6774      -1590.9224         42.0004         37.0004
 -17729925.68643 -13766274.52642  20895964.1874   20895968.7304   20895963.8654
      1864.3224       1452.7214         50.0004         46.0004
 -10707043.33743  -8310376.22242  22560488.6774   22560491.6384   22560488.4424
      2567.9464       2001.0084         46.0004         41.0004
 -20272536.54143 -15749688.84542  20697229.3604   20697230.8984   20697228.5304
      -812.0174       -632.7484         52.0004         47.0004
 -11646919.89043  -9035406.64542  21624165.9964   21624169.2724   21624165.5644
     -1432.0574      -1115.8834         48.0004         44.0004
  -5140298.59443  -3961399.50342  23942252.5444   23942254.7404   23942252.5594
     -2915.7854      -2272.0404         42.0004         37.0004
  -3345735.62143  -2574080.36542  23534695.0754   23534699.8274   23534694.4734
      2196.8734       1711.8494         42.0004         38.0004
 -17650082.21843 -13709632.54442  21668849.7624   21668854.6934   21668849.6604
     -2644.7804      -2060.8714         47.0004         43.0004
 04 12 26  0 50  0.0000000  0  8G15G 1G11G19G14G22G20G 3
   -395695.54243   -254912.34142  23750583.2414   23750588.6924   23750582.4784
     -2046.9454      -1595.0114         42.0004         37.0004
 -17785590.35443 -13809649.57742  20885371.6214   20885376.0784   20885371.2564
      1846.5864       1438.9124         50.0004         46.0004
 -10784038.24643  -8370372.24742  22545837.0194   22545840.0564   22545836.8264
      2564.9134       1998.6374         46.0004         41.0004
 -20247891.32743 -15730484.80442  20701919.2484   20701920.7364   20701918.3814
      -830.9844       -647.5034         52.0004         47.0004
 -11603683.66043  -9001716.08442  21632393.5754   21632396.8204   21632393.1984
     -1450.1994      -1130.0114         48.0004         44.0004
  -5052837.55543  -3893248.09642  23958895.9294   23958898.1514   23958895.7944
     -2914.9884      -2271.4134         42.0004         38.0004
  -3411538.95443  -2625355.66242  23522173.0774   23522177.6814   23522172.5834
      2190.0994       1706.5674         42.0004         38.0004
 -17570551.00243 -13647660.21742  21683984.0744   21683989.0244   21683984.0024
     -2657.3414      -2070.6384         47.0004         43.0004
 04 12 26  0 50 30.0000000  0  8G15G 1G11G19G14G22G20G 3
   -334212.40043   -207003.49442  23762283.1414   23762288.5344   23762282.3324
     -2051.9914      -1598.9584         42.0004         37.0004
 -17840716.01843 -13852604.62542  20874881.5074   20874886.0214   20874881.1774
      1828.7614       1425.0034         51.0004         46.0004
 -10860941.74343  -8430297.04142  22531202.8004   22531205.7894   22531202.5954
      2562.1884       1996.5094         46.0004         41.0004
 -20222667.01843 -15710829.52242  20706719.2224   20706720.7844   20706718.3994
      -850.3564       -662.6154         52.0004         47.0004
 -11559897.14943  -8967596.74842  21640725.8644   21640729.1294   21640725.4934
     -1468.7164      -1144.4594         48.0004         44.0004
  -4965381.91843  -3825100.89442  23975538.1114   23975540.5104   23975537.9824
     -2914.6994      -2271.1864         42.0004         37.0004
  -3477135.82743  -2676470.07042  23509690.5084   23509695.0174   23509689.8864
      2183.3504       1701.3084         43.0004         38.0004
 -17490636.62843 -13585389.33442  21699191.3634   21699196.2594   21699191.2534
     -2669.9614      -2080.4864         47.0004         43.0004
 04 12 26  0 51  0.0000000  0  8G15G 1G11G19G14G22G20G 3
   -272571.36343   -158971.59742  23774013.0294   23774018.4484   23774012.3704
     -2057.3704      -1603.1424         42.0004         37.0004
 -17895300.15643 -13895137.69542  20864494.4404   20864498.9964   20864494.1254
      1810.2244       1410.5554         51.0004         46.0004
 -10937751.30043  -8490148.63442  22516586.5104   22516589.3984   22516586.1824
      2558.3774       1993.5404         46.0004         41.0004
 -20196863.24643 -15690722.71242  20711629.5374   20711631.1394   20711628.7164
      -870.0404       -677.9654         52.0004         47.0004
 -11515561.36043  -8933049.39642  21649162.6904   21649165.9664   21649162.3674
     -1487.1564      -1158.8284         48.0004         44.0004
  -4877932.22343  -3756958.33242  23992179.1134   23992181.6084   23992178.9644
     -2915.0864      -2271.4994         41.0004         36.0004
  -3542525.72543  -2727423.20242  23497247.0014   23497251.6854   23497246.4304
      2175.9024       1695.5014         43.0004         38.0004
 -17410341.07143 -13522821.41842  21714471.3194   21714476.0974   21714471.1174
     -2683.0114      -2090.6614         47.0004         43.0004
 04 12 26  0 51 30.0000000  0  8G15G 1G11G19G14G22G20G 3
   -210772.91943   -110817.04942  23785772.8404   23785778.3994   23785772.2764
     -2062.4654      -1607.1114         42.0004         37.0004
 -17949341.75943 -13937248.02642  20854210.6234   20854215.2224   20854210.3504
      1792.3614       1396.6424         51.0004         46.0004
 -11014466.85743  -8549926.96642  22501987.8504   22501990.9974   22501987.6554
      2555.6614       1991.4124         46.0004         41.0004
 -20170481.87443 -15670165.82242  20716649.7664   20716651.3754   20716648.9644
      -888.9124       -692.6514         52.0004         47.0004
 -11470679.16043  -8898076.27042  21657703.5434   21657706.7744   21657703.2154
     -1505.0654      -1172.7654         48.0004         44.0004
  -4790490.53443  -3688822.01642  24008818.7194   24008821.0964   24008818.5384
     -2914.2094      -2270.8124         41.0004         36.0004
  -3607709.56043  -2778215.74942  23484842.9104   23484847.6084   23484842.3084
      2169.4604       1690.4894         43.0004         38.0004
 -17329667.65343 -13459959.07242  21729823.1614   21729827.7344   21729822.8684
     -2695.2634      -2100.1874         47.0004         43.0004
 04 12 26  0 52  0.0000000  0  8G15G 1G11G19G14G22G20G 3
   -148815.36743    -62538.55442  23797563.0734   23797568.5214   23797562.5144
     -2067.7684      -1611.2514         42.0004         37.0004
 -18002837.35043 -13978932.88742  20844030.7804   20844035.3154   20844030.4714
      1774.0034       1382.3464         51.0004         46.0004
 -11091085.35343  -8609629.68942  22487407.7724   22487410.9734   22487407.6014
      2552.2774       1988.7844         46.0004         41.0004
 -20143522.39443 -15649158.45542  20721779.9964   20721781.5814   20721779.1974
      -908.2044       -707.6874         52.0004         47.0004
 -11425251.09043  -8862677.78342  21666348.2634   21666351.4244   21666347.9484
     -1523.3624      -1187.0274         48.0004         43.0004
  -4703056.60043  -3620691.74342  24025456.9754   24025459.3614   24025456.7534
     -2913.9734      -2270.6274         41.0004         37.0004
  -3672685.86843  -2828846.60442  23472478.4654   23472482.9764   23472477.7824
      2162.5694       1685.1154         43.0004         38.0004
 -17248617.29843 -13396802.99542  21745246.5404   21745251.1414   21745246.2374
     -2708.0694      -2110.1904         47.0004         43.0004
 04 12 26  0 52 30.0000000  0  8G15G 1G11G19G14G22G20G 3
    -86700.08643    -14137.12042  23809383.4464   23809388.8514   23809382.7424
     -2072.9064      -1615.2584         42.0004         37.0004
 -18055786.80143 -14020192.19042  20833954.7854   20833959.2774   20833954.5094
      1756.0324       1368.3344         51.0004         46.0004
 -11167606.83543  -8669256.81242  22472846.1784   22472849.4424   22472846.0264
      2549.3254       1986.4924         46.0004         41.0004
 -20115987.11643 -15627702.41742  20727019.8074   20727021.3794   20727019.0084
      -927.3764       -722.6314         52.0004         47.0004
 -11379280.48343  -8826856.55242  21675096.1314   21675099.2824   21675095.8774
     -1541.1794      -1200.9184         48.0004         44.0004
  -4615633.15143  -3552569.65342  24042093.0404   24042095.6684   24042092.8534
     -2913.7304      -2270.4424         41.0004         37.0004
  -3737456.57143  -2879317.24042  23460152.9274   23460157.4604   23460152.3764
      2155.8754       1679.9024         43.0004         38.0004
 -17167194.28543 -13333356.55342  21760740.7994   21760745.4674   21760740.5624
     -2720.2194      -2119.6514         47.0004         43.0004
 04 12 26  0 53  0.0000000  0  8G15G 1G11G19G14G22G20G 3
    -24426.34943     34387.77142  23821233.7814   23821239.4044   23821233.1734
     -2078.2994      -1619.4534         42.0004         37.0004
 -18108187.95743 -14061024.24242  20823983.1844   20823987.6354   20823982.9034
      1737.6514       1354.0214         51.0004         46.0004
 -11244029.40643  -8728806.85142  22458303.3794   22458306.6824   22458303.2934
      2545.9074       1983.8224         46.0004         41.0004
 -20087876.39443 -15605797.98342  20732369.1064   20732370.7224   20732368.3044
      -946.5574       -737.5684         52.0004         47.0004
 -11332768.76443  -8790613.66742  21683947.0934   21683950.2014   21683946.7684
     -1559.3464      -1215.0744         48.0004         44.0004
  -4528220.94443  -3484456.31342  24058727.1574   24058729.7884   24058726.8084
     -2913.6604      -2270.3764         41.0004         36.0004
  -3802021.27943  -2929627.36142  23447866.6564   23447871.2824   23447866.0044
      2148.7434       1674.3434         43.0004         38.0004
 -17085400.85543 -13269621.46442  21776305.6334   21776310.3144   21776305.4364
     -2732.5594      -2129.2624         47.0004         43.0004
 04 12 26  0 53 30.0000000  0  8G15G 1G11G19G14G22G20G 3
     38006.22543     83036.44542  23833114.2374   23833119.9094   23833113.6884
     -2082.6014      -1622.8024         41.0004         37.0004
 -18160038.96943 -14101427.61342  20814116.2994   20814120.6874   20814115.9674
      1720.2144       1340.4394         50.0004         46.0004
 -11320351.51843  -8788278.61542  22443779.7274   22443783.0154   22443779.6494
      2543.2394       1981.7544         46.0004         41.0004
 -20059190.87943 -15583445.65842  20737827.7954   20737829.4254   20737826.9854
      -964.8064       -751.7714         52.0004         47.0004
 -11285717.64043  -8753950.46442  21692900.6754   21692903.7874   21692900.3114
     -1576.2894      -1228.2674         48.0004         43.0004
  -4440820.78543  -3416352.35242  24075358.8344   24075361.7084   24075358.5384
     -2911.9644      -2269.0584         41.0004         36.0004
  -3866380.00443  -2979776.97342  23435619.4804   23435624.1364   23435618.9384
      2143.2094       1670.0404         43.0004         38.0004
 -17003239.55243 -13205599.71742  21791940.4854   21791945.1544   21791940.2954
     -2743.8204      -2138.0404         47.0004         42.0004
 04 12 26  0 54  0.0000000  0  8G15G 1G11G19G14G22G20G 3
    100597.69943    131808.91142  23845025.0414   23845030.6534   23845024.4504
     -2089.0864      -1627.8564         41.0004         37.0004
 -18211337.90043 -14141400.80042  20804354.3914   20804358.7914   20804354.0834
      1700.7334       1325.2494         51.0004         46.0004
 -11396571.54543  -8847670.83242  22429275.5704   22429278.9144   22429275.4574
      2538.9444       1978.3954         46.0004         41.0004
 -20029931.34943 -15560646.04442  20743395.7684   20743397.3644   20743394.9454
      -984.8984       -767.4544         52.0004         47.0004
 -11238129.06143  -8716868.47842  21701956.4594   21701959.5694   21701956.0884
     -1595.3044      -1243.0914         48.0004         43.0004
  -4353433.71843  -3348258.61942  24091987.9794   24091990.8844   24091987.7024
     -2912.8894      -2269.7924         40.0004         35.0004
  -3930532.76843  -3029766.10842  23423411.4644   23423416.2514   23423411.0234
      2134.8354       1663.4984         43.0004         38.0004
 -16920712.91943 -13141293.31342  21807644.8884   21807649.5014   21807644.5924
     -2757.0614      -2148.3754         47.0004         42.0004
 04 12 26  0 54 30.0000000  0  8G15G 1G11G19G14G22G20G 3
    163348.59543    180705.62842  23856966.2474   23856971.7304   23856965.7524
     -2094.8884      -1632.3884         41.0004         37.0004
 -18262082.76743 -14180942.23542  20794697.9354   20794702.3794   20794697.6404
      1681.8784       1310.5494         51.0004         46.0004
 -11472687.78943  -8906982.17942  22414791.1154   22414794.4014   22414790.9904
      2534.9224       1975.2464         46.0004         41.0004
 -20000098.50143 -15537399.68742  20749072.8184   20749074.4164   20749071.9864
     -1004.4894       -782.7194         52.0004         47.0004
 -11190004.64843  -8679368.95642  21711114.2714   21711117.3484   21711113.9074
     -1613.5574      -1257.3214         48.0004         43.0004
  -4266060.68543  -3280175.81442  24108614.4764   24108617.1844   24108614.6144
     -2912.7424      -2269.6614         40.0004         36.0004
  -3994479.38043  -3079594.60042  23411242.8994   23411247.6234   23411242.3964
      2127.5744       1657.8504         43.0004         38.0004
 -16837823.43043 -13076704.15142  21823418.2674   21823422.8914   21823417.9774
     -2769.5394      -2158.0904         47.0004         42.0004
 04 12 26  0 55  0.0000000  0  8G15G 1G11G19G14G22G20G 3
    226258.72643    229726.43142  23868937.6414   23868943.2524   23868937.2714
     -2099.2984      -1635.8294         41.0004         37.0004
 -18312272.08243 -14220050.77542  20785147.1354   20785151.6454   20785146.8824
      1664.1444       1296.7474         50.0004         46.0004
 -11548698.77343  -8966211.50742  22400326.5604   22400330.0024   22400326.5614
      2532.2104       1973.1574         46.0004         41.0004
 -19969693.29743 -15513707.34542  20754858.7654   20754860.3794   20754857.9324
     -1022.7104       -796.9064         52.0004         47.0004
 -11141346.62743  -8641453.62942  21720373.6184   21720376.7094   21720373.2354
     -1630.2814      -1270.3414         48.0004         43.0004
  -4178702.87143  -3212104.85942  24125238.3304   24125241.0044   24125238.2084
     -2911.4244      -2268.6464         40.0004         36.0004
  -4058220.38043  -3129262.87342  23399113.3024   23399118.0994   23399112.8124
      2121.7824       1653.3374         43.0004         38.0004
 -16754573.51943 -13011834.14342  21839260.2244   21839264.9124   21839259.9914
     -2780.5854      -2166.6714         47.0004         42.0004
 04 12 26  0 55 30.0000000  0  8G15G 1G11G19G14G22G20G 3
    289329.22243    278872.18142  23880939.6404   23880945.3974   23880939.3174
     -2105.3094      -1640.4994         41.0004         36.0004
 -18361903.66343 -14258724.72342  20775702.5574   20775707.0144   20775702.2864
      1644.8374       1281.6984         51.0004         46.0004
 -11624602.34443  -9025357.13242  22385882.6944   22385885.9124   22385882.4974
      2528.1544       1969.9904         46.0004         41.0004
 -19938716.12043 -15489569.30242  20760753.4934   20760755.1604   20760752.6714
     -1042.3104       -812.1864         52.0004         47.0004
 -11092156.33443  -8603123.54642  21729734.2254   21729737.3174   21729733.8254
     -1648.7204      -1284.7174         48.0004         44.0004
  -4091360.82243  -3144046.16542  24141858.7954   24141861.9204   24141858.7094
     -2911.3394      -2268.5854         41.0004         36.0004
  -4121755.15943  -3178770.44442  23387022.8784   23387027.7814   23387022.3574
      2114.3304       1647.5274         43.0004         38.0004
 -16670965.39443 -12946685.01742  21855170.3554   21855175.1094   21855170.1084
     -2793.1564      -2176.4794         47.0004         42.0004
 04 12 26  0 56  0.0000000  0  8G15G 1G11G19G14G22G20G 3
    352559.09743    328142.12742  23892971.9904   23892977.6804   23892971.5954
     -2110.7944      -1644.7724         41.0004         36.0004
 -18410976.87143 -14296963.57642  20766364.1984   20766368.6894   20766363.9654
      1626.0504       1267.0554         51.0004         46.0004
 -11700398.46443  -9084419.03542  22371459.1424   22371462.3504   22371458.9744
      2524.4214       1967.0834         46.0004         41.0004
 -19907168.92343 -15464987.09342  20766756.7814   20766758.4094   20766755.9524
     -1061.4714       -827.1204         52.0004         47.0004
 -11042436.86343  -8564381.12642  21739195.5934   21739198.5694   21739195.1714
     -1666.4234      -1298.5114         48.0004         43.0004
  -4004036.64543  -3076001.40842  24158475.9154   24158478.9914   24158476.1674
     -2910.7574      -2268.1224         41.0004         36.0004
  -4185085.09443  -3228118.40042  23374971.5004   23374976.4104   23374970.9814
      2107.4144       1642.1384         43.0004         38.0004
 -16587002.69343 -12881259.58942  21871147.9274   21871152.7254   21871147.6784
     -2804.9554      -2185.6784         47.0004         42.0004
 04 12 26  0 56 30.0000000  0  8G15G 1G11G19G14G22G20G 3
    415949.62143    377537.26842  23905034.8684   23905040.6524   23905034.4204
     -2115.6684      -1648.5764         41.0004         37.0004
 -18459488.86443 -14334765.11642  20757132.7004   20757137.1594   20757132.4014
      1607.9024       1252.9114         51.0004         46.0004
 -11776083.99943  -9143394.76542  22357056.7164   22357059.8664   22357056.4714
      2521.3584       1964.7074         46.0004         41.0004
 -19875051.39143 -15439960.47042  20772868.4714   20772870.1944   20772867.6714
     -1079.8204       -841.4254         52.0004         47.0004
 -10992188.88043  -8525226.87542  21748757.4714   21748760.4544   21748757.0444
     -1683.5414      -1311.8524         48.0004         43.0004
  -3916730.01343  -3007970.34042  24175089.8154   24175093.0694   24175089.9554
     -2909.7354      -2267.3204         41.0004         36.0004
  -4248209.15343  -3277305.93442  23362959.1114   23362964.2774   23362958.7524
      2100.9124       1637.0704         43.0004         38.0004
 -16502687.13743 -12815559.21842  21887192.6534   21887197.4694   21887192.3774
     -2816.0064      -2194.2884         47.0004         42.0004
 04 12 26  0 57  0.0000000  0  8G15G 1G11G19G14G22G20G 3
    479500.79043    427057.56942  23917128.3244   23917134.2864   23917127.8604
     -2120.5044      -1652.3394         42.0004         37.0004
 -18507438.35743 -14372128.34442  20748008.2244   20748012.6474   20748007.9384
      1589.4244       1238.5144         51.0004         46.0004
 -11851657.72543  -9202283.37142  22342675.4794   22342678.6694   22342675.2534
      2517.5194       1961.7164         46.0004         41.0004
 -19842365.01243 -15414490.58742  20779088.4694   20779090.2164   20779087.7034
     -1098.4754       -855.9494         52.0004         47.0004
 -10941414.91743  -8485662.77342  21758419.3804   21758422.4194   21758418.9924
     -1700.6874      -1325.1834         48.0004         43.0004
  -3829442.38443  -2939954.07642  24191700.3194   24191703.3394   24191700.2444
     -2908.7374      -2266.5404         41.0004         36.0004
  -4311127.79643  -3326333.40742  23350986.1274   23350991.1474   23350985.6394
      2094.0844       1631.7564         43.0004         38.0004
 -16418021.46643 -12749586.01742  21903303.9984   21903308.8684   21903303.7964
     -2827.5164      -2203.2474         47.0004         42.0004
 04 12 26  0 57 30.0000000  0  8G15G 1G11G19G14G22G20G 3
    543213.03443    476703.39542  23929252.5184   23929258.2844   23929252.0644
     -2126.5064      -1657.0084         42.0004         37.0004
 -18554823.40643 -14409051.74342  20738991.1004   20738995.5584   20738990.8224
      1570.3084       1223.6154         51.0004         46.0004
 -11927117.94743  -9261083.53542  22328315.7574   22328319.0324   22328315.6744
      2513.6854       1958.7214         46.0004         41.0004
 -19809110.54943 -15388578.04342  20785416.6604   20785418.3414   20785415.8854
     -1117.7674       -870.9794         52.0004         47.0004
 -10890116.64643  -8445690.11842  21768181.1524   21768184.1894   21768180.7914
     -1718.5184      -1339.1084         48.0004         43.0004
  -3742174.72543  -2871953.36442  24208306.7424   24208309.7624   24208306.7094
     -2908.4224      -2266.2994         41.0004         36.0004
  -4373840.82243  -3375200.65142  23339052.2774   23339057.2524   23339051.6934
      2086.9424       1626.1894         43.0004         38.0004
 -16333008.17543 -12683341.95142  21919481.5464   21919486.3964   21919481.3214
     -2839.4144      -2212.5324         46.0004         42.0004
 04 12 26  0 58  0.0000000  0  8G15G 1G11G19G14G22G20G 3
    607086.49843    526474.84442  23941407.4454   23941413.2094   23941406.8144
     -2131.6084      -1660.9894         41.0004         37.0004
 -18601642.54643 -14445534.17442  20730081.7214   20730086.0984   20730081.4414
      1551.4824       1208.9564         51.0004         46.0004
 -12002463.05843  -9319793.99842  22313977.9664   22313981.3394   22313977.9184
      2509.6754       1955.5894         46.0004         41.0004
 -19775288.95043 -15362223.58042  20791852.7674   20791854.3984   20791851.9134
     -1136.5424       -885.6234         51.0004         47.0004
 -10838296.24443  -8405310.60042  21778042.3294   21778045.2834   21778041.9414
     -1735.6704      -1352.4764         48.0004         43.0004
  -3654927.64943  -2803968.65542  24224909.3674   24224912.4774   24224909.3764
     -2907.5874      -2265.6444         40.0004         36.0004
  -4436348.37343  -3423907.80542  23327157.5924   23327162.3044   23327156.7724
      2080.3794       1621.0794         43.0004         38.0004
 -16247650.08443 -12616829.21042  21935724.7524   21935729.5504   21935724.4614
     -2850.6564      -2221.2874         46.0004         42.0004
 04 12 26  0 58 30.0000000  0  8G15G 1G11G19G14G22G20G 3
    671120.25943    576371.20942  23953592.5704   23953598.5084   23953592.0314
     -2136.3924      -1664.7184         41.0004         36.0004
 -18647895.20943 -14481575.19942  20721280.1874   20721284.5164   20721279.8484
      1533.0634       1194.5994         51.0004         46.0004
 -12077692.50543  -9378414.32942  22299662.2974   22299665.6924   22299662.2104
      2506.4404       1953.0854         46.0004         41.0004
 -19740902.26243 -15335428.78542  20798396.2494   20798397.9794   20798395.4574
     -1154.8394       -899.8694         51.0004         47.0004
 -10785956.49543  -8364526.40342  21788002.2464   21788005.2594   21788001.8944
     -1752.7854      -1365.7994         48.0004         43.0004
  -3567703.33443  -2736001.73842  24241507.8544   24241510.9654   24241507.7984
     -2906.3254      -2264.6644         41.0004         36.0004
  -4498651.50143  -3472455.65742  23315301.7264   23315306.3784   23315300.9504
      2074.1274       1616.2064         43.0004         38.0004
 -16161950.37843 -12550050.27042  21952032.8604   21952037.7004   21952032.5824
     -2861.6754      -2229.8794         46.0004         42.0004
 04 12 26  0 59  0.0000000  0  8G15G 1G11G19G14G22G20G 3
    735315.70143    626393.55142  23965808.5674   23965814.5604   23965807.9644
     -2143.7294      -1670.4294         41.0004         36.0004
 -18693578.74843 -14517172.73842  20712586.8784   20712591.2104   20712586.5774
      1512.4114       1178.4794         51.0004         46.0004
 -12152803.65343  -9436942.49442  22285369.0904   22285372.4934   22285368.9964
      2500.6604       1948.5464         46.0004         42.0004
 -19705950.46343 -15308193.63742  20805047.3234   20805049.1154   20805046.5354
     -1175.4404       -915.9414         51.0004         47.0004
 -10733098.74343  -8323338.57142  21798060.6614   21798063.7744   21798060.3834
     -1771.4744      -1380.3754         48.0004         43.0004
  -3480501.83343  -2668052.58142  24258101.7144   24258104.8884   24258101.8054
     -2907.0554      -2265.2404         41.0004         36.0004
  -4560749.82543  -3520843.91442  23303484.7934   23303489.3494   23303484.0164
      2065.6484       1609.5904         43.0004         39.0004
 -16075910.97043 -12483006.63342  21968405.7564   21968410.4904   21968405.4314
     -2874.6944      -2240.0264         46.0004         42.0004
 04 12 26  0 59 30.0000000  0  8G15G 1G11G19G14G22G20G 3
    799672.71443    676541.80342  23978055.3954   23978061.1304   23978054.8824
     -2147.4214      -1673.2974         41.0004         36.0004
 -18738691.66843 -14552325.65642  20704002.1504   20704006.4924   20704001.8644
      1494.4934       1164.5404         51.0004         46.0004
 -12227794.72543  -9495377.07742  22271098.7474   22271102.1704   22271098.7004
      2498.0174       1946.5104         46.0004         42.0004
 -19670434.57743 -15280518.95142  20811805.7894   20811807.5984   20811804.9944
     -1192.9584       -929.5704         51.0004         47.0004
 -10679724.89443  -8281748.58142  21808217.4694   21808220.4674   21808217.1344
     -1787.3964      -1392.7704         48.0004         43.0004
  -3393323.83843  -2600121.73742  24274691.1254   24274694.3574   24274691.2554
     -2905.1014      -2263.7204         40.0004         36.0004
  -4622643.17543  -3569072.46742  23291706.8174   23291711.3894   23291706.1474
      2060.0984       1605.2744         43.0004         38.0004
 -15989534.55943 -12415700.38742  21984842.5214   21984847.4104   21984842.2684
     -2884.4404      -2247.6124         46.0004         41.0004
                            4  1
RINEX FILE SPLICE; other post-header comments skipped       COMMENT
 04 12 26  1  0  0.0000000  0  8G15G 1G11G19G14G22G20G 3
    864190.63243    726815.42342  23990332.7014   23990338.5294   23990332.3084
     -2153.4654      -1678.0244         41.0004         36.0004
 -18783233.60943 -14587033.64642  20695526.1644   20695530.4364   20695525.8174
      1474.9834       1149.3444         51.0004         46.0004
 -12302665.18243  -9553717.67742  22256851.4284   22256854.7804   22256851.3654
      2493.4674       1942.9564         46.0004         42.0004
 -19634356.84943 -15252406.46042  20818671.2204   20818673.0034   20818670.4024
     -1212.0674       -944.4544         51.0004         47.0004
 -10625838.17643  -8239758.95142  21818471.7674   21818474.7744   21818471.4304
     -1804.9024      -1406.4144         48.0004         43.0004
  -3306171.55743  -2532210.90342  24291275.7604   24291278.8174   24291275.7784
     -2904.8154      -2263.4954         41.0004         36.0004
  -4684332.79843  -3617142.25642  23279967.6424   23279972.1764   23279967.1244
      2052.4844       1599.3374         43.0004         39.0004
 -15902824.90343 -12348134.47842  22001342.9104   22001347.7644   22001342.5994
     -2895.9294      -2256.5594         46.0004         42.0004
 04 12 26  1  0 30.0000000  0  8G15G 1G11G19G14G22G20G 3
    928870.49043    777215.24242  24002641.0554   24002646.7764   24002640.5424
     -2159.2164      -1682.4994         41.0004         36.0004
 -18827202.30143 -14621294.94842  20687159.2404   20687163.4594   20687158.8634
      1455.4364       1134.0994         51.0004         46.0004
 -12377412.79143  -9611962.56042  22242627.4254   22242630.7874   22242627.3764
      2489.0554       1939.5224         46.0004         42.0004
 -19597717.69043 -15223856.48842  20825643.4254   20825645.1984   20825642.5974
     -1231.2844       -959.4504         51.0004         47.0004
 -10571439.87043  -8197370.68542  21828823.3844   21828826.4774   21828823.0854
     -1822.3424      -1420.0104         48.0004         43.0004
  -3219044.90543  -2464320.03942  24307855.5734   24307858.3424   24307855.3874
     -2904.3434      -2263.1134         41.0004         36.0004
  -4745818.26543  -3665052.97242  23268267.4314   23268271.7084   23268266.8844
      2045.4394       1593.8444         43.0004         38.0004
 -15815783.80843 -12280310.31242  22017906.2634   22017911.1684   22017905.9544
     -2907.4114      -2265.5204         46.0004         42.0004
 04 12 26  1  1  0.0000000  0  8G15G 1G11G19G14G22G20G 3
    993712.63443    827741.51542  24014980.1714   24014985.8064   24014979.6074
     -2164.4374      -1686.5754         40.0004         36.0004
 -18870596.01543 -14655108.21742  20678901.6804   20678905.9044   20678901.3154
      1436.5724       1119.4054         51.0004         46.0004
 -12452035.75143  -9670110.31142  22228427.1484   22228430.5144   22228427.1494
      2484.9724       1936.3364         46.0004         42.0004
 -19560517.98143 -15194869.72542  20832722.3464   20832724.0704   20832721.5034
     -1249.6494       -973.7694         51.0004         47.0004
 -10516532.03243  -8154585.37542  21839271.9574   21839275.1234   21839271.6824
     -1839.0654      -1433.0364         48.0004         43.0004
  -3131944.97743  -2396449.99942  24324430.1844   24324433.0554   24324429.9814
     -2903.1314      -2262.1784         41.0004         36.0004
  -4807099.47943  -3712804.52742  23256605.8874   23256610.2174   23256605.4154
      2038.9854       1588.8124         43.0004         38.0004
 -15728413.90743 -12212229.92742  22034532.2654   22034537.2344   22034531.9654
     -2918.1194      -2273.8594         46.0004         41.0004
 04 12 26  1  1 30.0000000  0  8G15G 1G11G19G14G22G20G 3
   1058717.31043    878394.40642  24027350.1374   24027355.9894   24027349.7604
     -2169.7924      -1690.7434         40.0004         36.0004
 -18913413.30443 -14688472.32342  20670753.8284   20670758.0254   20670753.4464
      1417.5034       1104.5414         51.0004         46.0004
 -12526532.45543  -9728159.67642  22214250.9034   22214254.3174   22214250.9124
      2480.9364       1933.1974         46.0004         42.0004
 -19522759.19443 -15165447.31542  20839907.6004   20839909.3504   20839906.8094
     -1268.1114       -988.1424         51.0004         47.0004
 -10461116.80143  -8111404.70742  21849817.1544   21849820.2894   21849816.8894
     -1855.8224      -1446.0884         48.0004         43.0004
  -3044872.45243  -2328601.34542  24340999.2804   24341002.8984   24340999.2214
     -2902.0274      -2261.3144         40.0004         35.0004
  -4868176.52643  -3760396.97942  23244983.2514   23244987.7214   23244982.7334
      2032.3234       1583.6314         43.0004         39.0004
 -15640717.90143 -12143895.44142  22051220.3044   22051225.2964   22051219.9474
     -2928.7184      -2282.1194         46.0004         41.0004
 04 12 26  1  2  0.0000000  0  8G15G 1G11G19G14G22G20G 3
   1123883.84243    929173.46342  24039750.9454   24039756.9304   24039750.4844
     -2175.1534      -1694.9244         40.0004         36.0004
 -18955653.36743 -14721386.64642  20662715.8184   20662720.0094   20662715.4334
      1398.2984       1089.5834         51.0004         46.0004
 -12600901.37143  -9786109.46642  22200099.0344   22200102.3274   22200098.9574
      2476.7734       1929.9664         47.0004         42.0004
 -19484442.49943 -15135590.17942  20847199.0224   20847200.8484   20847198.2594
     -1286.3824      -1002.3754         51.0004         47.0004
 -10405196.59343  -8067830.54142  21860458.3984   21860461.5934   21860458.1614
     -1872.2994      -1458.9334         48.0004         43.0004
  -2957828.62643  -2260775.08442  24357562.9724   24357567.0314   24357562.9774
     -2900.6424      -2260.2314         40.0004         36.0004
  -4929050.21843  -3807830.99742  23233399.4044   23233403.8934   23233398.9254
      2025.6254       1578.4094         43.0004         39.0004
 -15552698.98743 -12075309.32842  22067969.7694   22067974.8084   22067969.4344
     -2939.4374      -2290.4654         46.0004         41.0004
 04 12 26  1  2 30.0000000  0  8G15G 1G11G19G14G22G20G 3
   1189212.76743    980079.05142  24052182.6444   24052188.8494   24052182.0134
     -2180.4814      -1699.0634         40.0004         36.0004
 -18997314.67443 -14753849.98642  20654787.9304   20654792.1404   20654787.5364
      1379.1044       1074.6454         51.0004         46.0004
 -12675140.52243  -9843958.14142  22185971.7674   22185975.1144   22185971.7144
      2472.3314       1926.5024         47.0004         42.0004
 -19445568.84143 -15105299.03742  20854596.4614   20854598.2534   20854595.6764
     -1305.1414      -1016.9844         51.0004         47.0004
 -10348773.48543  -8023864.50642  21871195.4144   21871198.6184   21871195.1654
     -1889.2374      -1472.1174         48.0004         43.0004
  -2870814.07043  -2192971.61742  24374121.4524   24374125.1464   24374121.4384
     -2899.9944      -2259.7284         41.0004         36.0004
  -4989720.43643  -3855106.43242  23221854.2764   23221858.6974   23221853.7334
      2018.9154       1573.1774         43.0004         39.0004
 -15464359.66443 -12006473.56042  22084780.2824   22084785.2404   22084779.9204
     -2949.9254      -2298.6404         46.0004         41.0004
 04 12 26  1  3  0.0000000  0  8G15G 1G11G19G14G22G20G 3
   1254704.99643   1031111.86442  24064645.4824   24064651.5544   24064644.8284
     -2185.5204      -1703.0014         40.0004         36.0004
 -19038394.89343 -14785860.52742  20646970.5994   20646974.8274   20646970.2214
      1359.9514       1059.6994         51.0004         46.0004
 -12749247.67243  -9901703.94742  22171869.7404   22171872.9394   22171869.6144
      2468.2624       1923.3224         47.0004         42.0004
 -19406138.74143 -15074574.30942  20862099.8224   20862101.5854   20862099.0184
     -1323.2484      -1031.1094         51.0004         47.0004
 -10291848.92243  -7979507.72842  21882027.9064   21882031.0584   21882027.5854
     -1905.6964      -1484.9584         48.0004         43.0004
  -2783829.11443  -2125191.18742  24390674.3524   24390677.8004   24390674.4414
     -2898.5784      -2258.6284         41.0004         36.0004
  -5050186.65243  -3902222.91442  23210347.8574   23210352.3394   23210347.2814
      2012.3784       1568.0874         43.0004         38.0004
 -15375701.77743 -11937389.55542  22101651.3904   22101656.3584   22101650.9834
     -2960.4394      -2306.8384         46.0004         41.0004
 04 12 26  1  3 30.0000000  0  8G15G 1G11G19G14G22G20G 3
   1320359.56343   1082271.18742  24077139.1304   24077145.3774   24077138.5154
     -2191.4514      -1707.6274         40.0004         36.0004
 -19078893.87043 -14817418.15842  20639263.8234   20639268.0984   20639263.4994
      1339.9994       1044.1404         51.0004         46.0004
 -12823222.36143  -9959346.53942  22157792.9074   22157795.9384   22157792.6974
      2463.2704       1919.4094         47.0004         42.0004
 -19366155.00843 -15043418.18142  20869708.4944   20869710.2674   20869707.7044
     -1342.0924      -1045.7944         51.0004         47.0004
 -10234426.05843  -7934762.65342  21892955.1114   21892958.2224   21892954.7644
     -1922.6014      -1498.1464         47.0004         43.0004
  -2696875.79443  -2057435.40442  24407221.1274   24407224.5794   24407221.3404
     -2898.0124      -2258.1794         41.0004         36.0004
  -5110450.23543  -3949181.52542  23198880.0304   23198884.4744   23198879.4244
      2005.2484       1562.5284         43.0004         38.0004
 -15286729.32043 -11868060.42542  22118582.2794   22118587.3154   22118581.9594
     -2971.2304      -2315.2524         46.0004         41.0004
 04 12 26  1  4  0.0000000  0  8G15G 1G11G19G14G22G20G 3
   1386177.26843   1133557.61242  24089663.9784   24089670.1604   24089663.2724
     -2197.2184      -1712.1264         40.0004         36.0004
 -19118809.68443 -14848521.37842  20631668.1394   20631672.3354   20631667.7834
      1319.9884       1028.5454         51.0004         46.0004
 -12897062.19143 -10016884.05542  22143741.5974   22143744.6724   22143741.4334
      2458.2974       1915.5674         47.0004         42.0004
 -19325618.30543 -15011831.16742  20877422.4474   20877424.1574   20877421.6394
     -1361.2864      -1060.7564         51.0004         47.0004
 -10176506.74343  -7889630.74742  21903976.7954   21903979.9254   21903976.4174
     -1939.8584      -1511.5864         47.0004         43.0004
  -2609954.31943  -1989704.45142  24423761.9564   24423765.2674   24423762.0064
     -2897.3524      -2257.6804         40.0004         36.0004
  -5170510.86943  -3995981.95242  23187450.8284   23187455.2274   23187450.2614
      1997.9324       1556.8204         43.0004         39.0004
 -15197444.21443 -11798487.68342  22135572.6644   22135577.7704   22135572.3294
     -2982.1354      -2323.7424         46.0004         41.0004
 04 12 26  1  4 30.0000000  0  8G15G 1G11G19G14G22G20G 3
   1452158.07543   1184971.12242  24102219.8284   24102226.1444   24102219.1774
     -2202.4314      -1716.1784         41.0004         36.0004
 -19158141.18343 -14879169.28542  20624183.5734   20624187.7874   20624183.2424
      1301.0034       1013.7724         51.0004         46.0004
 -12970765.53343 -10074315.21342  22129716.2724   22129719.2854   22129716.1314
      2454.1284       1912.3124         47.0004         42.0004
 -19284529.79743 -14979814.17442  20885241.4124   20885243.0744   20885240.5634
     -1379.0854      -1074.6194         51.0004         47.0004
 -10118093.46743  -7844113.93042  21915092.5294   21915095.6214   21915092.1144
     -1955.7304      -1523.9424         47.0004         43.0004
  -2523065.70543  -1921999.09042  24440296.3744   24440299.6934   24440296.5614
     -2895.9634      -2256.5864         41.0004         36.0004
  -5230368.83243  -4042624.49542  23176060.1144   23176064.6694   23176059.6604
      1991.6584       1551.9384         43.0004         39.0004
 -15107849.67143 -11728673.81842  22152621.9344   22152627.1184   22152621.6864
     -2992.0664      -2331.4744         46.0004         41.0004
 04 12 26  1  5  0.0000000  0  8G15G 1G11G19G14G22G20G 3
   1518301.94743   1236511.72842  24114806.5974   24114812.8964   24114805.8504
     -2207.1954      -1719.8894         40.0004         36.0004
 -19196887.14843 -14909360.93042  20616810.4294   20616814.7024   20616810.0884
      1281.9494        998.9244         51.0004         46.0004
 -13044330.90043 -10131638.84642  22115717.2024   22115720.2774   22115717.1284
      2449.9964       1909.0794         47.0004         43.0004
 -19242890.93843 -14947368.32742  20893164.9654   20893166.7334   20893164.1544
     -1396.9574      -1088.5344         51.0004         47.0004
 -10059188.38143  -7798213.89142  21926301.8054   21926304.9164   21926301.4054
     -1971.5874      -1536.3134         47.0004         43.0004
  -2436210.87443  -1854320.07342  24456824.3634   24456827.8834   24456824.3134
     -2894.5684      -2255.4994         41.0004         36.0004
  -5290024.49743  -4089109.38142  23164707.9654   23164712.5834   23164707.4544
      1985.4554       1547.0954         43.0004         39.0004
 -15017948.18643 -11658620.77642  22169729.7014   22169734.7594   22169729.4164
     -3001.4744      -2338.8084         46.0004         41.0004
 04 12 26  1  5 30.0000000  0  8G15G 1G11G19G14G22G20G 3
   1584608.81743   1288179.32042  24127424.5224   24127430.8644   24127423.6704
     -2212.5954      -1724.0994         40.0004         36.0004
 -19235046.62843 -14939095.57742  20609548.8224   20609553.1914   20609548.5464
      1262.2934        983.6034         51.0004         46.0004
 -13117756.76343 -10188853.78942  22101744.8314   22101747.7214   22101744.7074
      2445.4584       1905.5644         47.0004         42.0004
 -19200703.35243 -14914494.91242  20901192.9854   20901194.7984   20901192.2054
     -1415.1334      -1102.7044         51.0004         47.0004
  -9999793.77443  -7751932.38842  21937604.2774   21937607.3434   21937603.8894
     -1987.6764      -1548.8324         47.0004         43.0004
  -2349390.69543  -1786668.06442  24473345.8334   24473349.3204   24473345.5514
     -2893.5674      -2254.7214         40.0004         36.0004
  -5349478.00443  -4135436.76042  23153394.3544   23153398.8754   23153393.7994
      1978.5664       1541.7344         44.0004         39.0004
 -14927742.78143 -11588330.91442  22186895.3054   22186900.3554   22186895.0394
     -3011.8244      -2346.8784         46.0004         41.0004
 04 12 26  1  6  0.0000000  0  8G15G 1G11G19G14G22G20G 3
   1651079.17343   1339974.32542  24140073.4894   24140079.8514   24140072.6284
     -2219.0414      -1729.1304         40.0004         36.0004
 -19272618.05743 -14968372.00142  20602399.1984   20602403.5804   20602398.9214
      1242.0244        967.7974         51.0004         46.0004
 -13191040.99443 -10245958.36442  22087799.2234   22087802.1704   22087799.1434
      2439.9064       1901.2204         47.0004         43.0004
 -19157967.98543 -14881194.64842  20909325.3564   20909327.0974   20909324.5434
     -1434.3054      -1117.6484         51.0004         47.0004
  -9939911.60943  -7705270.95942  21948999.5304   21949002.5534   21948999.0874
     -2004.6474      -1562.0734         47.0004         43.0004
  -2262605.63843  -1719043.42242  24489860.4174   24489863.8434   24489860.1014
     -2892.6944      -2254.0584         40.0004         36.0004
  -5408729.51743  -4181606.71942  23142119.1144   23142123.6064   23142118.5014
      1971.2634       1536.0424         44.0004         39.0004
 -14837235.95243 -11517806.19042  22204118.2154   22204123.3314   22204117.9494
     -3022.6724      -2355.3244         46.0004         41.0004
 04 12 26  1  6 30.0000000  0  8G15G 1G11G19G14G22G20G 3
   1717712.73143   1391896.48442  24152753.5374   24152759.9854   24152752.6404
     -2222.9354      -1732.1534         41.0004         36.0004
 -19309600.80643 -14997189.71742  20595361.6004   20595365.9974   20595361.3294
      1223.4224        953.3234         51.0004         46.0004
 -13264182.19543 -10302951.48142  22073880.9734   22073883.8724   22073880.8194
      2436.1524       1898.3054         47.0004         43.0004
 -19114686.81543 -14847469.08942  20917561.4584   20917563.2484   20917560.6684
     -1451.1784      -1130.7714         51.0004         46.0004
  -9879544.88243  -7658231.95942  21960486.8964   21960489.9834   21960486.5024
     -2019.6984      -1573.7824         47.0004         42.0004
  -2175857.07243  -1651447.17442  24506367.9304   24506371.3804   24506367.8614
     -2890.5464      -2252.3724         40.0004         36.0004
  -5467779.67043  -4227619.78242  23130881.9914   23130886.7194   23130881.5494
      1965.8654       1531.8384         44.0004         39.0004
 -14746430.73643 -11447048.94942  22221397.8554   22221403.0574   22221397.6624
     -3031.2194      -2361.9794         45.0004         41.0004
 04 12 26  1  7  0.0000000  0  8G15G 1G11G19G14G22G20G 3
   1784510.24743   1443946.40842  24165464.7334   24165471.1884   24165463.9124
     -2229.0154      -1736.8904         41.0004         36.0004
 -19345992.91843 -15025547.19042  20588436.4434   20588440.7884   20588436.1184
      1203.8164        938.0494         51.0004         47.0004
 -13337178.33243 -10359831.56942  22059990.1424   22059993.1884   22059990.1014
      2431.3894       1894.6284         47.0004         43.0004
 -19070860.53543 -14813318.76642  20925901.2964   20925903.1294   20925900.5494
     -1469.3394      -1144.9294         51.0004         46.0004
  -9818695.09243  -7610816.56542  21972066.1834   21972069.3504   21972065.7794
     -2035.7934      -1586.3254         47.0004         42.0004
  -2089145.15943  -1583879.50942  24522868.8804   24522872.2074   24522868.7574
     -2888.8404      -2251.0354         40.0004         36.0004
  -5526628.10743  -4273475.66742  23119683.5924   23119688.1234   23119683.1084
      1959.0434       1526.5304         44.0004         39.0004
 -14655329.29443 -11376060.88342  22238733.9574   22238739.1994   22238733.7454
     -3041.0064      -2369.6074         45.0004         41.0004
 04 12 26  1  7 30.0000000  0  8G15G 1G11G19G14G22G20G 3
   1851471.57343   1496123.97142  24178206.9334   24178213.6604   24178206.2454
     -2235.4914      -1741.9594         40.0004         36.0004
 -19381793.35643 -15053443.62342  20581623.7864   20581628.1624   20581623.4954
      1182.9344        921.7674         51.0004         47.0004
 -13410027.40643 -10416597.04542  22046127.4024   22046130.4424   22046127.3334
      2425.1394       1889.7224         47.0004         43.0004
 -19026490.47443 -14778744.71442  20934344.6704   20934346.4754   20934343.9084
     -1488.7184      -1160.0514         51.0004         46.0004
  -9757364.56743  -7563026.55542  21983736.9574   21983740.2334   21983736.6334
     -2053.2574      -1599.9524         47.0004         42.0004
  -2002470.77043  -1516341.07242  24539362.5014   24539365.8814   24539362.4904
     -2888.8504      -2251.0484         40.0004         36.0004
  -5585275.01943  -4319174.52742  23108523.2734   23108528.0074   23108522.7864
      1951.5114       1520.6624         43.0004         39.0004
 -14563934.62543 -11304844.33442  22256125.8134   22256131.0874   22256125.5204
     -3052.2684      -2378.3914         45.0004         41.0004
 04 12 26  1  8  0.0000000  0  8G15G 1G11G19G14G22G20G 3
   1918596.61443   1548429.08742  24190980.6424   24190987.1654   24190979.7334
     -2239.9794      -1745.4424         40.0004         36.0004
 -19417001.40043 -15080878.45042  20574923.9084   20574928.3044   20574923.6174
      1163.8554        906.9054         51.0004         47.0004
 -13482728.10943 -10473246.93042  22032292.9124   22032295.8674   22032292.8254
      2420.9954       1886.4944         47.0004         43.0004
 -18981578.63343 -14743748.49642  20942891.0514   20942892.9874   20942890.3104
     -1506.0554      -1173.5534         51.0004         46.0004
  -9695556.21543  -7514864.22142  21995498.6574   21995502.0264   21995498.3344
     -2068.2024      -1611.5884         47.0004         42.0004
  -1915835.12243  -1448832.85142  24555848.8734   24555852.2394   24555848.8054
     -2886.6464      -2249.3264         40.0004         35.0004
  -5643721.07743  -4364716.88442  23097401.3984   23097406.0714   23097400.9024
      1944.9874       1515.5704         44.0004         39.0004
 -14472249.88043 -11233401.73742  22273572.9574   22273578.1054   22273572.6084
     -3060.8794      -2385.1024         45.0004         41.0004
 04 12 26  1  8 30.0000000  0  8G15G 1G11G19G14G22G20G 3
   1985884.92043   1600861.44542  24203785.2174   24203791.8394   24203784.3764
     -2245.0464      -1749.3804         40.0004         36.0004
 -19451616.26243 -15107851.05342  20568336.9114   20568341.2884   20568336.5984
      1144.0694        891.4764         51.0004         47.0004
 -13555279.02443 -10529780.08342  22018486.9764   22018489.8694   22018486.8854
      2415.9834       1882.5954         47.0004         43.0004
 -18936127.15943 -14708331.79142  20951540.1824   20951542.1584   20951539.4454
     -1523.9044      -1187.4564         51.0004         46.0004
  -9633272.72943  -7466331.65242  22007350.9064   22007354.1864   22007350.5294
     -2083.8324      -1623.7624         47.0004         42.0004
  -1829239.37843  -1381355.72942  24572327.0654   24572330.9234   24572327.2254
     -2885.7724      -2248.6564         39.0004         34.0004
  -5701967.07343  -4410103.33642  23086317.4774   23086322.2244   23086316.9854
      1938.2374       1510.3164         44.0004         39.0004
 -14380278.09743 -11161735.49042  22291074.7304   22291079.8264   22291074.3834
     -3070.2924      -2392.4404         45.0004         41.0004
 04 12 26  1  9  0.0000000  0  8G15G 1G11G19G14G22G20G 3
   2053338.27443   1653422.36142  24216621.3314   24216627.8274   24216620.6594
     -2251.4984      -1754.4084         40.0004         36.0004
 -19485635.45143 -15134359.50642  20561863.2964   20561867.6244   20561862.9854
      1123.8224        875.7024         51.0004         47.0004
 -13627676.74743 -10586193.86642  22004710.1374   22004713.0214   22004710.0654
      2410.4664       1878.2794         47.0004         43.0004
 -18890135.80143 -14672494.39242  20960292.0384   20960294.0654   20960291.3024
     -1542.3044      -1201.8084         51.0004         46.0004
  -9570514.78243  -7417429.36942  22019293.2814   22019296.6074   22019292.9604
     -2100.0554      -1636.3984         47.0004         42.0004
  -1742682.54843  -1313908.91042  24588798.3094   24588802.1424   24588798.2164
     -2884.9144      -2247.9964         39.0004         34.0004
  -5760011.61643  -4455332.81542  23075272.0274   23075276.5344   23075271.4604
      1931.1694       1504.8094         44.0004         39.0004
 -14288020.58943 -11089846.59642  22308630.7234   22308635.9424   22308630.4654
     -3080.2624      -2400.2074         45.0004         40.0004
 04 12 26  1  9 30.0000000  0  8G15G 1G11G19G14G22G20G 3
   2120955.25443   1706110.81642  24229488.4124   24229494.8474   24229487.6504
     -2256.0344      -1757.9464         40.0004         35.0004
 -19519059.27943 -15160404.03142  20555502.9544   20555507.2764   20555502.6294
      1104.3864        860.5614         51.0004         47.0004
 -13699921.01643 -10642488.08242  21990962.5364   21990965.4034   21990962.4064
      2405.8514       1874.6904         47.0004         43.0004
 -18843607.31643 -14636238.46342  20969146.1024   20969148.1604   20969145.3694
     -1559.6574      -1215.3054         51.0004         46.0004
  -9507286.14043  -7368160.31742  22031325.3124   22031328.6104   22031325.0204
     -2115.1494      -1648.1624         47.0004         42.0004
  -1656166.91643  -1246494.23442  24605261.7554   24605265.2694   24605261.6404
     -2882.7194      -2246.2704         40.0004         36.0004
  -5817856.33343  -4500406.59042  23064264.4864   23064269.1204   23064264.0204
      1925.0214       1500.0174         44.0004         39.0004
 -14195481.49643 -11017738.27942  22326240.3214   22326245.6424   22326240.1234
     -3089.1284      -2407.1094         45.0004         41.0004
 04 12 26  1 10  0.0000000  0  8G15G 1G11G19G14G22G20G 3
   2188736.43543   1758927.18242  24242386.8604   24242393.3714   24242386.0624
     -2262.2224      -1762.7614         40.0004         35.0004
 -19551886.25443 -15185983.47742  20549256.1124   20549260.5194   20549255.8104
      1084.1824        844.8074         51.0004         47.0004
 -13772009.76843 -10698661.11642  21977244.4394   21977247.3354   21977244.3484
      2400.3234       1870.3934         48.0004         43.0004
 -18796542.90443 -14599564.92142  20978102.1904   20978104.2494   20978101.4434
     -1577.8804      -1229.5044         51.0004         46.0004
  -9443588.63143  -7318525.89142  22043446.6594   22043449.8444   22043446.3154
     -2131.1544      -1660.6444         47.0004         42.0004
  -1569692.76543  -1179111.84742  24621717.3314   24621720.9804   24621717.2094
     -2881.4804      -2245.3084         40.0004         36.0004
  -5875501.03343  -4545324.49842  23053295.0874   23053299.6954   23053294.5764
      1918.2314       1494.7254         44.0004         39.0004
 -14102663.38243 -10945412.54542  22343902.9734   22343908.3914   22343902.8864
     -3098.6314      -2414.5184         45.0004         40.0004
 04 12 26  1 10 30.0000000  0  8G15G 1G11G19G14G22G20G 3
   2256682.07543   1811871.69242  24255316.4994   24255323.2334   24255315.9414
     -2267.6054      -1766.9604         40.0004         35.0004
 -19584115.29943 -15211097.00442  20543123.0714   20543127.5214   20543122.8014
      1063.7414        828.8974         51.0004         47.0004
 -13843940.93543 -10754711.36042  21963556.3234   21963559.2414   21963556.2514
      2394.5944       1865.9224         48.0004         43.0004
 -18748943.97543 -14562474.87842  20987160.0014   20987162.0134   20987159.2054
     -1595.9734      -1243.6064         51.0004         46.0004
  -9379424.70943  -7268528.05142  22055656.6084   22055659.8784   22055656.2944
     -2147.0704      -1673.0484         47.0004         42.0004
  -1483260.56443  -1111762.15542  24638164.8454   24638168.5644   24638164.7634
     -2880.6574      -2244.6654         41.0004         36.0004
  -5932945.89243  -4590086.68642  23042363.6764   23042368.2364   23042363.1034
      1911.0234       1489.1024         44.0004         39.0004
 -14009568.70443 -10872871.33042  22361618.2674   22361623.8184   22361618.1884
     -3108.1344      -2421.9234         45.0004         40.0004
 04 12 26  1 11  0.0000000  0  8G15G 1G11G19G14G22G20G 3
   2324791.47143   1864943.80242  24268277.1614   24268284.3304   24268276.7984
     -2272.9504      -1771.1224         40.0004         36.0004
 -19615746.06443 -15235744.34442  20537103.9904   20537108.3594   20537103.6924
      1044.2804        813.7204         51.0004         46.0004
 -13915713.13343 -10810637.73042  21949898.4974   21949901.4394   21949898.4244
      2389.4754       1861.9284         48.0004         43.0004
 -18700812.69143 -14524970.00742  20996319.1204   20996321.1104   20996318.2894
     -1613.4644      -1257.2474         51.0004         46.0004
  -9314797.18843  -7218168.95242  22067954.8354   22067958.0834   22067954.5014
     -2162.1044      -1684.7564         47.0004         42.0004
  -1396871.75843  -1044446.26942  24654604.4714   24654607.8134   24654604.2354
     -2879.2024      -2243.5384         41.0004         36.0004
  -5990191.68943  -4634693.76842  23031470.1634   23031474.6164   23031469.6134
      1904.4934       1484.0164         44.0004         39.0004
 -13916200.95243 -10800117.31142  22379385.6554   22379391.1124   22379385.5324
     -3116.7914      -2428.6634         45.0004         40.0004
 04 12 26  1 11 30.0000000  0  8G15G 1G11G19G14G22G20G 3
   2393065.08043   1918143.87342  24281269.3234   24281276.7224   24281268.9644
     -2278.1334      -1775.1554         40.0004         35.0004
 -19646777.48243 -15259924.65842  20531198.8954   20531203.2814   20531198.6014
      1024.6414        798.4194         51.0004         47.0004
 -13987324.37543 -10866438.68842  21936271.3654   21936274.2324   21936271.2554
      2384.5304       1858.0894         48.0004         43.0004
 -18652150.34843 -14487051.33142  21005579.2494   21005581.2514   21005578.4704
     -1630.6154      -1270.5994         51.0004         46.0004
  -9249708.34443  -7167450.38642  22080340.9294   22080344.1354   22080340.5614
     -2176.8974      -1696.2844         47.0004         42.0004
  -1310526.79343   -977164.53942  24671035.3934   24671038.6694   24671035.2784
     -2877.4654      -2242.1974         40.0004         35.0004
  -6047238.56843  -4679145.84542  23020614.5054   23020618.8564   23020614.0714
      1898.6294       1479.4544         44.0004         39.0004
 -13822562.75943 -10727152.55842  22397204.4974   22397209.8254   22397204.4474
     -3125.6154      -2435.5374         45.0004         40.0004
 04 12 26  1 12  0.0000000  0  8G15G 1G11G19G14G22G20G 3
   2461503.20743   1971472.10942  24294292.9134   24294299.9704   24294292.4544
     -2283.5434      -1779.3854         40.0004         35.0004
 -19677208.28243 -15283636.96042  20525408.1464   20525412.4504   20525407.8164
      1004.7434        782.8994         51.0004         47.0004
 -14058772.61143 -10922112.62142  21922675.1974   21922678.0334   21922675.1204
      2379.2584       1853.9624         48.0004         43.0004
 -18602958.37543 -14448719.95742  21014940.2364   21014942.1694   21014939.4194
     -1648.0954      -1284.2314         51.0004         46.0004
  -9184160.34743  -7116374.05442  22092814.2744   22092817.4434   22092813.9484
     -2192.2544      -1708.2544         47.0004         42.0004
  -1224225.93443   -909917.18842  24687457.8834   24687461.2394   24687457.5014
     -2875.7214      -2240.8174         40.0004         35.0004
  -6104086.48543  -4723442.89142  23009796.6994   23009801.0384   23009796.1904
      1892.0604       1474.3294         44.0004         39.0004
 -13728656.44143 -10653978.87042  22415074.4024   22415079.6874   22415074.3414
     -3134.2004      -2442.2334         45.0004         40.0004
 04 12 26  1 12 30.0000000  0  8G15G 1G11G19G14G22G20G 3
   2530105.42343   2024928.21842  24307347.6844   24307354.6484   24307347.0144
     -2290.0944      -1784.4824         41.0004         36.0004
 -19707037.88943 -15306880.79542  20519731.7454   20519736.0264   20519731.4164
       983.6004        766.4314         51.0004         47.0004
 -14130056.47743 -10977658.48142  21909110.3654   21909113.1404   21909110.2454
      2372.7534       1848.8824         48.0004         43.0004
 -18553238.88743 -14409977.52842  21024401.5104   21024403.5054   21024400.7414
     -1666.8094      -1298.8234         50.0004         46.0004
  -9118155.94543  -7064942.06442  22105374.5304   22105377.6374   22105374.2034
     -2208.3874      -1720.8254         47.0004         42.0004
  -1137970.29743   -842705.07042  24703871.8624   24703875.1744   24703871.4714
     -2875.1144      -2240.3574         40.0004         35.0004
  -6160736.36643  -4767585.61542  22999016.5274   22999020.7884   22999016.0134
      1884.4744       1468.4154         44.0004         39.0004
 -13634485.21343 -10580598.77042  22432994.7804   22432999.9404   22432994.6184
     -3143.9434      -2449.8354         45.0004         40.0004
 04 12 26  1 13  0.0000000  0  8G15G 1G11G19G14G22G20G 3
   2598871.95343   2078512.38242  24320433.7764   24320440.6054   24320433.0394
     -2294.3434      -1787.7804         40.0004         36.0004
 -19736265.19743 -15329655.31342  20514169.9654   20514174.2474   20514169.6484
       964.8914        751.8924         51.0004         47.0004
 -14201173.62143 -11033074.43442  21895577.1484   21895579.9774   21895577.0994
      2368.5084       1845.6134         48.0004         43.0004
 -18502993.25743 -14370825.11842  21033962.9274   21033964.9834   21033962.1914
     -1682.8784      -1311.3164         50.0004         46.0004
  -9051697.41543  -7013156.21442  22118021.1794   22118024.2234   22118020.8614
     -2222.1364      -1731.5334         47.0004         42.0004
  -1051760.40443   -775528.59742  24720277.1624   24720280.2424   24720276.9124
     -2872.1514      -2238.0104         39.0004         35.0004
  -6217187.87843  -4811573.77642  22988274.3414   22988278.5034   22988273.7864
      1879.1804       1464.2954         44.0004         40.0004
 -13540051.92743 -10507014.46242  22450964.9244   22450970.1554   22450964.7824
     -3151.5274      -2455.7214         45.0004         40.0004
 04 12 26  1 13 30.0000000  0  8G15G 1G11G19G14G22G20G 3
   2667802.94043   2132224.65742  24333551.0844   24333557.6544   24333550.3374
     -2301.5074      -1793.3854         40.0004         35.0004
 -19764889.42343 -15351959.88942  20508722.9644   20508727.2054   20508722.6454
       943.2994        735.0304         51.0004         47.0004
 -14272122.67443 -11088359.39842  21882075.9984   21882078.8644   21882075.9234
      2361.2814       1839.9664         48.0004         43.0004
 -18452223.34443 -14331264.17942  21043624.1974   21043626.1534   21043623.4304
     -1701.8224      -1326.1044         50.0004         46.0004
  -8984787.13143  -6961018.35842  22130753.8714   22130756.9424   22130753.4884
     -2238.7054      -1744.4504         46.0004         42.0004
   -965596.98443   -708388.28942  24736673.6544   24736676.6014   24736673.3304
     -2872.3554      -2238.1984         39.0004         35.0004
  -6273441.57843  -4855407.79742  22977569.6144   22977573.8134   22977569.0594
      1870.9274       1457.8604         44.0004         40.0004
 -13445359.16743 -10433227.98142  22468984.3114   22468989.7424   22468984.1984
     -3161.3604      -2463.4034         45.0004         40.0004
 04 12 26  1 14  0.0000000  0  8G15G 1G11G19G14G22G20G 3
   2736898.22443   2186064.98542  24346699.6354   24346706.1444   24346698.9184
     -2306.4314      -1797.2164         40.0004         35.0004
 -19792909.94743 -15373794.05142  20503390.8664   20503395.0694   20503390.5164
       924.1304        720.1144         51.0004         47.0004
 -14342901.60743 -11143511.81042  21868607.2834   21868609.9964   21868607.0874
      2356.6244       1836.3264         48.0004         43.0004
 -18400930.70043 -14291295.91342  21053384.8704   21053386.8374   21053384.1284
     -1718.3314      -1338.9494         50.0004         46.0004
  -8917427.64143  -6908530.46042  22143571.9474   22143575.0544   22143571.5444
     -2252.6094      -1755.2724         46.0004         42.0004
   -879480.73343   -641284.78842  24753061.2944   24753064.2904   24753060.8904
     -2869.7374      -2236.1404         39.0004         34.0004
  -6329497.98343  -4899088.08042  22966902.4494   22966906.6094   22966901.8354
      1865.3854       1453.5464         44.0004         40.0004
 -13350410.01643 -10359241.71442  22487052.5954   22487058.1164   22487052.5094
     -3169.0694      -2469.4114         45.0004         40.0004
 04 12 26  1 14 30.0000000  0  8G15G 1G11G19G14G22G20G 3
   2806157.89143   2240033.43742  24359879.4034   24359885.9654   24359878.8564
     -2312.0714      -1801.6134         40.0004         35.0004
 -19820325.78843 -15395157.03342  20498173.7664   20498177.9814   20498173.4524
       903.4544        703.9914         51.0004         47.0004
 -14413508.52443 -11198530.18242  21855171.1354   21855173.8494   21855171.0184
      2350.4364       1831.4944         48.0004         43.0004
 -18349117.20843 -14250921.80042  21063244.7394   21063246.6674   21063243.9634
     -1736.0814      -1352.8054         50.0004         46.0004
  -8849621.38943  -6855694.44442  22156474.8914   22156478.1384   22156474.5504
     -2267.9154      -1767.2044         46.0004         42.0004
   -793412.21443   -574218.47542  24769439.2874   24769442.6634   24769439.1004
     -2867.8664      -2234.6824         38.0004         33.0004
  -6385356.98643  -4942614.53842  22956272.7784   22956276.9334   22956272.2264
      1858.2324       1447.9684         44.0004         40.0004
 -13255207.08643 -10285057.69242  22505169.2104   22505174.7094   22505169.0524
     -3177.9144      -2476.2994         45.0004         40.0004
                            4  1
RINEX FILE SPLICE; other post-header comments skipped       COMMENT
 04 12 26  1 15  0.0000000  0  8G15G 1G11G19G14G22G20G 3
   2875582.44043   2294130.34242  24373090.6034   24373097.2264   24373089.9534
     -2317.6624      -1805.9574         39.0004         35.0004
 -19847135.84143 -15416047.97242  20493071.9144   20493076.1734   20493071.6444
       883.2214        688.2344         51.0004         47.0004
 -14483941.06643 -11253412.69142  21841768.3414   21841770.9394   21841768.1754
      2344.4004       1826.7954         48.0004         43.0004
 -18296783.96143 -14210142.67242  21073203.5514   21073205.3614   21073202.6854
     -1753.5004      -1366.3744         50.0004         46.0004
  -8781370.51043  -6802511.96442  22169462.6104   22169465.8384   22169462.2274
     -2282.9314      -1778.9124         46.0004         42.0004
   -707391.53043   -507189.44742  24785808.1484   24785813.2354   24785809.7644
     -2867.1044      -2234.1004         38.0004         33.0004
  -6441018.65943  -4985987.23442  22945680.7604   22945684.8544   22945680.1254
      1851.6534       1442.8554         44.0004         40.0004
 -13159752.84443 -10210677.83842  22523333.7084   22523339.0954   22523333.4774
     -3186.3734      -2482.8914         45.0004         40.0004
 04 12 26  1 15 30.0000000  0  8G15G 1G11G19G14G22G20G 3
   2945171.54643   2348355.48342  24386333.0324   24386339.6594   24386332.4254
     -2321.5194      -1808.9674         39.0004         35.0004
 -19873339.84143 -15436466.66542  20488085.4914   20488089.7104   20488085.2004
       863.8614        673.1354         51.0004         47.0004
 -14554197.87643 -11308158.23942  21828398.9314   21828401.5154   21828398.7794
      2339.5044       1822.9764         48.0004         43.0004
 -18243933.24143 -14168960.32742  21083260.6754   21083262.4754   21083259.8594
     -1769.9364      -1379.1694         50.0004         46.0004
  -8712677.86243  -6748985.24542  22182534.3784   22182537.6564   22182533.9774
     -2296.5504      -1789.5124         46.0004         42.0004
   -621420.11143   -440198.81942  24802167.7124   24802173.4064   24802167.3624
     -2864.4794      -2232.0564         38.0004         33.0004
  -6496483.62743  -5029206.65542  22935126.0564   22935130.1904   22935125.4954
      1845.9084       1438.3664         44.0004         40.0004
 -13064050.59343 -10136104.73742  22541545.3254   22541550.6444   22541545.1124
     -3193.9504      -2488.7884         45.0004         40.0004
 04 12 26  1 16  0.0000000  0  8G15G 1G11G19G14G22G20G 3
   3014924.93843   2402708.63242  24399606.7564   24399613.4274   24399606.1894
     -2328.6154      -1814.5134         40.0004         35.0004
 -19898937.45043 -15456412.83942  20483214.4304   20483218.6324   20483214.1324
       842.4444        656.4514         51.0004         47.0004
 -14624277.74043 -11362765.91842  21815063.1484   21815065.7994   21815063.0224
      2332.4564       1817.4994         48.0004         43.0004
 -18190567.24343 -14127376.45542  21093415.8884   21093417.7004   21093415.0634
     -1788.0314      -1393.2674         50.0004         46.0004
  -8643546.30143  -6695116.52942  22195689.6834   22195693.0564   22195689.2934
     -2312.0474      -1801.5994         46.0004         42.0004
   -535498.67743   -373247.13542  24818518.1914   24818523.8574   24818517.9654
     -2864.2034      -2231.8404         38.0004         33.0004
  -6551752.87343  -5072273.56142  22924608.6174   22924612.6654   22924608.0344
      1838.7614       1432.8004         44.0004         39.0004
 -12968103.49643 -10061340.85442  22559803.4314   22559808.7334   22559803.2514
     -3202.6314      -2495.5574         44.0004         40.0004
 04 12 26  1 16 30.0000000  0  8G15G 1G11G19G14G22G20G 3
   3084842.83043   2457189.98942  24412911.9764   24412918.3384   24412911.1994
     -2332.6054      -1817.6084         40.0004         36.0004
 -19923927.61943 -15475885.68342  20478458.9704   20478463.0964   20478458.6484
       823.5564        641.7444         51.0004         47.0004
 -14694178.06443 -11417233.70242  21801761.5664   21801764.2214   21801761.4054
      2327.6154       1813.7264         48.0004         43.0004
 -18136687.39343 -14085392.18342  21103668.9104   21103670.7404   21103668.0834
     -1803.6634      -1405.4444         50.0004         46.0004
  -8573977.95643  -6640907.44642  22208928.1964   22208931.4734   22208927.7784
     -2325.4584      -1812.0404         46.0004         41.0004
   -449627.54943   -306334.66042  24834859.0594   24834863.9394   24834858.7254
     -2860.7624      -2229.1624         38.0004         33.0004
  -6606826.03243  -5115187.66542  22914128.5854   22914132.4384   22914127.9984
      1833.3114       1428.5564         44.0004         40.0004
 -12871914.13643  -9986388.19642  22578107.6314   22578113.0664   22578107.5214
     -3209.6354      -2501.0064         44.0004         40.0004
 04 12 26  1 17  0.0000000  0  8G15G 1G11G19G14G22G20G 3
   3154924.63043   2511799.08442  24426248.1214   24426254.6004   24426247.3594
     -2338.7374      -1822.3974         40.0004         35.0004
 -19948310.19443 -15494885.08042  20473819.0354   20473823.2424   20473818.7454
       802.6514        625.4374         51.0004         47.0004
 -14763897.48043 -11471560.52042  21788494.3804   21788496.9984   21788494.2614
      2320.8654       1808.4634         48.0004         43.0004
 -18082296.08243 -14043009.37642  21114019.3514   21114021.1224   21114018.4804
     -1821.5874      -1419.4324         50.0004         46.0004
  -8503975.96843  -6586360.47242  22222249.1224   22222252.4304   22222248.7304
     -2340.7334      -1823.9424         46.0004         41.0004
   -363807.76343   -239462.14942  24851190.4054   24851194.8234   24851190.2534
     -2859.8824      -2228.4744         38.0004         34.0004
  -6661704.04743  -5157949.71542  22903685.7564   22903689.4444   22903685.1254
      1825.9914       1422.8544         44.0004         40.0004
 -12775485.83443  -9911249.33742  22596457.3614   22596462.8414   22596457.1574
     -3218.0604      -2507.5704         44.0004         40.0004
 04 12 26  1 17 30.0000000  0  8G15G 1G11G19G14G22G20G 3
   3225171.33743   2566536.70142  24439615.8214   24439622.4364   24439614.9114
     -2344.6974      -1827.0424         40.0004         35.0004
 -19972083.55143 -15513409.76042  20469295.1124   20469299.2894   20469294.8134
       782.0634        609.3974         51.0004         47.0004
 -14833433.22643 -11525744.20142  21775262.1034   21775264.7834   21775262.0314
      2314.4984       1803.4824         48.0004         43.0004
 -18027394.21643 -14000228.72542  21124466.8304   21124468.6164   21124465.9844
     -1838.8094      -1432.8454         50.0004         46.0004
  -8433541.51343  -6531476.50642  22235652.3464   22235655.6354   22235651.9444
     -2355.1784      -1835.2024         46.0004         41.0004
   -278038.96443   -172629.38842  24867511.8434   24867515.9044   24867511.7564
     -2858.8334      -2227.6694         38.0004         34.0004
  -6716386.42243  -5200559.32442  22893280.0204   22893283.7024   22893279.3954
      1819.3074       1417.6394         44.0004         40.0004
 -12678820.33243  -9835925.66142  22614852.1974   22614857.8894   22614852.0014
     -3226.1234      -2513.8604         44.0004         40.0004
 04 12 26  1 18  0.0000000  0  8G15G 1G11G19G14G22G20G 3
   3295581.38243   2621401.62442  24453014.4704   24453021.2624   24453013.3614
     -2350.0064      -1831.1754         40.0004         35.0004
 -19995248.65043 -15531460.47642  20464886.9634   20464891.1684   20464886.6384
       761.5774        593.4174         51.0004         47.0004
 -14902784.66043 -11579784.26542  21762064.9314   21762067.6664   21762064.8434
      2308.3044       1798.6684         48.0004         43.0004
 -17971985.05143 -13957052.77542  21135010.7504   21135012.6664   21135009.9744
     -1855.7724      -1446.0584         50.0004         46.0004
  -8362679.03343  -6476259.01642  22249137.0574   22249140.3274   22249136.5924
     -2369.6884      -1846.5114         46.0004         41.0004
   -192323.32443   -105838.04342  24883822.9884   24883827.2074   24883822.8294
     -2857.1154      -2226.5694         38.0004         33.0004
  -6770874.73543  -5243017.71842  22882911.0504   22882914.8624   22882910.5124
      1812.5524       1412.3724         44.0004         40.0004
 -12581921.77943  -9760420.38442  22633291.4974   22633297.1924   22633291.2764
     -3233.9314      -2519.9444         44.0004         40.0004
 04 12 26  1 18 30.0000000  0  8G15G 1G11G19G14G22G20G 3
   3366155.93343   2676394.69342  24466444.4494   24466450.9384   24466443.8194
     -2355.6264      -1835.5454         39.0004         34.0004
 -20017803.55543 -15549035.71442  20460594.8654   20460599.0954   20460594.5634
       741.1544        577.5184         51.0004         47.0004
 -14971948.73443 -11633678.34542  21748903.4264   21748906.1684   21748903.3474
      2301.9254       1793.6934         48.0004         43.0004
 -17916069.08843 -13913481.92342  21145651.1434   21145653.1644   21145650.4074
     -1872.7464      -1459.2914         50.0004         46.0004
  -8291389.59543  -6420708.82342  22262703.0504   22262706.1814   22262702.5534
     -2383.9794      -1857.6444         46.0004         41.0004
                    -39087.52042  24900123.839    24900128.0574
                     -2224.5974                         32.0004
  -6825167.97943  -5285324.09942  22872579.3594   22872583.1844   22872578.7574
      1806.0724       1407.3254         44.0004         39.0004
 -12484792.24843  -9684735.12042  22651774.7144   22651780.3274   22651774.5084
     -3242.0054      -2526.2414         44.0004         39.0004
 04 12 26  1 19  0.0000000  0  8G15G 1G11G19G14G22G20G 3
   3436894.84643   2731515.84742  24479905.6834   24479912.0344   24479905.0504
     -2360.6194      -1839.4484         39.0004         34.0004
 -20039748.05243 -15566135.30942  20456418.9914   20456423.1714   20456418.6654
       721.2904        562.0454         51.0004         47.0004
 -15040924.04743 -11687425.33642  21735777.7864   21735780.6674   21735777.7524
      2295.6474       1788.8204         48.0004         43.0004
 -17859648.67943 -13869517.99642  21156387.6204   21156389.6164   21156386.9044
     -1889.0714      -1472.0014         50.0004         46.0004
  -8219675.95343  -6364828.08742  22276349.7554   22276352.8274   22276349.2714
     -2397.6644      -1868.3014         46.0004         41.0004
    -21049.96043     27621.57642  24916414.9364   24916418.7414   24916418.9094
     -2850.3324      -2223.0124         37.0004         32.0004
  -6879266.92943  -5327479.08242  22862284.5964   22862288.4384   22862283.9964
      1799.9664       1402.5694         44.0004         40.0004
 -12387434.68443  -9608872.17242  22670301.2794   22670306.9564   22670301.1984
     -3249.3744      -2531.9724         44.0004         39.0004
 04 12 26  1 19 30.0000000  0  8G15G 1G11G19G14G22G20G 3
   3507797.29243   2786764.44942  24493397.8534   24493404.2194   24493397.2334
     -2366.1444      -1843.7514         39.0004         34.0004
 -20061082.38743 -15582759.45542  20452359.1914   20452363.3624   20452358.8694
       700.9514        546.1884         51.0004         47.0004
 -15109709.12943 -11741024.09142  21722688.4864   21722691.1834   21722688.3924
      2289.6104       1784.1124         48.0004         43.0004
 -17802726.55443 -13825163.12342  21167219.5864   21167221.5484   21167218.8464
     -1905.6524      -1484.9184         50.0004         45.0004
  -8147541.83643  -6308619.70242  22290076.3824   22290079.4984   22290075.9284
     -2411.5934      -1879.1564         46.0004         41.0004
                     94288.12442  24932695.851    24932699.8994
                     -2221.1204                         32.0004
  -6933172.85643  -5369483.65642  22852026.6094   22852030.4054   22852025.9874
      1793.6194       1397.6244         44.0004         40.0004
 -12289852.75943  -9532834.39342  22688870.6364   22688876.2344   22688870.5464
     -3256.3984      -2537.4484         44.0004         40.0004
 04 12 26  1 20  0.0000000  0  8G15G 1G11G19G14G22G20G 3
   3578864.39743   2842141.34042  24506921.5824   24506927.9914   24506920.9214
     -2371.5444      -1847.9474         39.0004         35.0004
 -20081804.81443 -15598906.78642  20448415.7934   20448420.0164   20448415.4774
       681.1234        530.7464         51.0004         47.0004
 -15178300.91943 -11794472.23342  21709635.8744   21709638.6024   21709635.7904
      2283.6484       1779.4844         48.0004         43.0004
 -17745303.36443 -13780417.80642  21178146.8244   21178148.8524   21178146.1184
     -1922.0114      -1497.6654         50.0004         45.0004
  -8074988.14243  -6252084.37442  22303882.9634   22303886.0324   22303882.5114
     -2424.9444      -1889.5624         46.0004         41.0004
                    160912.66742  24948966.550    24948970.4644
                     -2219.6374                         32.0004
  -6986884.73243  -5411337.04342  22841805.4984   22841809.3294   22841804.9394
      1787.5774       1392.9134         44.0004         40.0004
 -12192047.83143  -9456622.83742  22707482.3434   22707487.9874   22707482.2544
     -3263.3184      -2542.8434         44.0004         39.0004
 04 12 26  1 20 30.0000000  0  8G15G 1G11G19G14G22G20G 3
   3650095.48443   2897646.01742  24520476.3644   24520483.0164   24520475.6064
     -2377.4064      -1852.5154         39.0004         34.0004
 -20101915.72443 -15614577.61442  20444588.8274   20444593.0014   20444588.5034
       660.1454        514.3984         51.0004         47.0004
 -15246698.23843 -11847768.83742  21696620.3704   21696623.0814   21696620.2344
      2276.6194       1773.9774         48.0004         44.0004
 -17687381.92943 -13735284.24742  21189168.9504   21189170.9944   21189168.1894
     -1939.1934      -1511.0524         50.0004         45.0004
  -8002018.39043  -6195224.84142  22317768.7314   22317771.7494   22317768.2254
     -2439.2974      -1900.7534         46.0004         41.0004
                    227494.30642  24965226.444    24965228.6344
                     -2218.4934                         32.0004
  -7040403.69143  -5453040.09242  22831621.1864   22831624.9994   22831620.6034
      1780.4744       1387.3884         44.0004         40.0004
 -12094023.69643  -9380240.48742  22726135.7894   22726141.4504   22726135.6504
     -3271.4434      -2549.1714         44.0004         39.0004
 04 12 26  1 21  0.0000000  0  8G15G 1G11G19G14G22G20G 3
   3721490.48843   2953278.39642  24534062.3404   24534069.2464   24534061.5884
     -2383.1694      -1856.9984         39.0004         34.0004
 -20121414.36743 -15629771.34642  20440878.3964   20440882.5114   20440878.0544
       639.5004        498.3064         51.0004         47.0004
 -15314898.78443 -11900912.10442  21683642.2754   21683644.9554   21683642.0434
      2269.7784       1768.6704         48.0004         43.0004
 -17628963.57243 -13689763.48442  21200285.6514   21200287.6854   21200284.8754
     -1955.8024      -1524.0064         50.0004         45.0004
  -7928634.79843  -6138042.83842  22331733.0764   22331736.2494   22331732.6274
     -2453.1944      -1911.5814         46.0004         41.0004
                    294032.87742  24981475.785    24981482.5624
                     -2217.7554                         32.0004
  -7093729.55443  -5494592.67142  22821473.6644   22821477.3814   22821472.9404
      1773.9564       1382.3004         44.0004         40.0004
 -11995782.77243  -9303689.21142  22744830.4484   22744836.1694   22744830.3204
     -3278.6084      -2554.7564         44.0004         39.0004
 04 12 26  1 21 30.0000000  0  8G15G 1G11G19G14G22G20G 3
   3793048.48143   3009037.75442  24547679.4374   24547686.1784   24547678.6474
     -2387.0984      -1860.0794         39.0004         34.0004
 -20140301.26343 -15644488.40242  20437284.2984   20437288.4514   20437283.9874
       619.6954        482.8824         51.0004         47.0004
 -15382901.59943 -11953901.30742  21670701.6264   21670704.4634   21670701.4994
      2263.5404       1763.8074         48.0004         44.0004
 -17570051.40943 -13643857.93542  21211496.2994   21211498.3354   21211495.4964
     -1971.6494      -1536.3374         50.0004         46.0004
  -7854840.89743  -6080541.12942  22345775.6034   22345778.7664   22345775.1374
     -2466.1964      -1921.7194         46.0004         41.0004
                    360527.22742  24997714.450    24997722.2564
                     -2215.6354                         32.0004
  -7146863.64643  -5535995.82742  22811362.4214   22811366.4134   22811361.7684
      1768.1264       1377.7674         44.0004         40.0004
 -11897328.88043  -9226971.99142  22763565.7294   22763571.3734   22763565.5194
     -3285.0764      -2559.7904         44.0004         39.0004
 04 12 26  1 22  0.0000000  0  8G15G 1G11G19G14G22G20G 3
   3864771.00543   3064925.34942  24561327.5934   24561334.5604   24561327.0284
     -2393.2224      -1864.8344         39.0004         35.0004
 -20158574.59143 -15658727.34242  20433806.9134   20433811.1574   20433806.6614
       599.1224        466.8534         51.0004         47.0004
 -15450703.32743 -12006733.80742  21657799.4434   21657802.2304   21657799.2404
      2256.8534       1758.5714         48.0004         44.0004
 -17510645.90643 -13597567.96542  21222800.7994   21222802.8664   21222800.0084
     -1988.1464      -1549.1924         50.0004         45.0004
  -7780637.89543  -6022720.62842  22359895.9144   22359899.1584   22359895.5344
     -2479.8034      -1932.3094         46.0004         41.0004
                                  25013942.361

  -7199805.09843  -5577248.86942  22801287.9014   22801291.8164   22801287.3164
      1761.7544       1372.7984         44.0004         40.0004
 -11798663.56543  -9150090.00842  22782341.2164   22782346.8004   22782341.0074
     -3292.0854      -2565.2534         44.0004         39.0004
 04 12 26  1 22 30.0000000  0  8G15G 1G11G19G14G22G20G 3
   3936656.43643   3120939.84742  24575007.1374   24575014.1414   24575006.3484
     -2397.9514      -1868.5244         39.0004         35.0004
 -20176235.42343 -15672489.02142  20430446.1534   20430450.4314   20430445.8644
       579.0544        451.2234         51.0004         47.0004
 -15518303.59443 -12059409.32642  21644935.4974   21644938.3264   21644935.2704
      2250.5724       1753.6774         48.0004         44.0004
 -17450750.65243 -13550896.37142  21234198.4824   21234200.5914   21234197.7024
     -2004.0694      -1561.6154         50.0004         45.0004
  -7706029.86943  -5964584.52642  22374093.4524   22374096.6874   22374092.9924
     -2492.9364      -1942.5504         46.0004         41.0004
                                  25030159.241

  -7252555.66543  -5618353.17442  22791249.6384   22791253.7384   22791249.1584
      1755.8034       1368.1604         45.0004         40.0004
 -11699791.18243  -9073046.67642  22801155.9474   22801161.6554   22801155.8964
     -3298.8554      -2570.5334         44.0004         39.0004
 04 12 26  1 23  0.0000000  0  8G15G 1G11G19G14G22G20G 3
   4008705.22843   3177081.65642  24588717.6264   24588724.6864   24588716.9894
     -2404.2174      -1873.4264         39.0004         35.0004
 -20193282.90843 -15685772.76542  20427202.1074   20427206.3474   20427201.8594
       558.1434        434.9144         51.0004         47.0004
 -15585699.62743 -12111925.70242  21632110.3474   21632113.2644   21632110.1994
      2243.2184       1747.9804         48.0004         44.0004
 -17390367.35743 -13503844.48342  21245689.0864   21245691.1604   21245688.2734
     -2020.8064      -1574.6444         50.0004         45.0004
  -7631018.80443  -5906134.36942  22388367.5554   22388370.9314   22388367.1724
     -2506.9804      -1953.4904         46.0004         41.0004
                                  25046365.330

  -7305115.17743  -5659308.59642  22781247.8264   22781252.0194   22781247.3984
      1748.7744       1362.6854         45.0004         40.0004
 -11600714.24743  -8995843.96642  22820009.6884   22820015.4274   22820009.6614
     -3305.8494      -2575.9864         44.0004         39.0004
 04 12 26  1 23 30.0000000  0  7G15G 1G11G19G14G20G 3
   4080917.69643   3233350.99842  24602459.2654   24602466.3874   24602458.7424
     -2409.3944      -1877.4544         39.0004         35.0004
 -20209716.37543 -15698578.05442  20424074.9184   20424079.1404   20424074.6784
       537.9254        419.1704         51.0004         47.0004
 -15652889.44443 -12164281.39042  21619324.6144   21619327.4624   21619324.4624
      2236.6144       1742.8254         48.0004         44.0004
 -17329497.55343 -13456413.49942  21257272.2214   21257274.3184   21257271.4614
     -2036.6644      -1587.0294         50.0004         45.0004
  -7555607.09343  -5847372.01742  22402717.9584   22402721.3724   22402717.6114
     -2519.9234      -1963.5744         46.0004         41.0004
  -7357483.77443  -5700115.27742  22771282.4684   22771286.5454   22771281.9764
      1742.8404       1358.0634         45.0004         40.0004
 -11501434.73243  -8918483.39242  22838902.0954   22838907.7354   22838902.0344
     -3312.0504      -2580.8174         43.0004         39.0004
 04 12 26  1 24  0.0000000  0  7G15G 1G11G19G14G20G 3
   4153293.45843   3289747.50942  24616231.9874   24616239.3304   24616231.2354
     -2414.8424      -1881.6794         39.0004         34.0004
 -20225535.88643 -15710904.93642  20421064.5854   20421068.7994   20421064.3144
       517.7524        403.4474         51.0004         47.0004
 -15719871.07643 -12216474.84742  21606578.4684   21606581.2754   21606578.2324
      2229.7624       1737.4934         48.0004         44.0004
 -17268143.64743 -13408605.29542  21268947.5684   21268949.6374   21268946.7564
     -2052.5194      -1599.3574         50.0004         45.0004
  -7479797.56943  -5788299.68442  22417144.1054   22417147.5014   22417143.7374
     -2532.9064      -1973.6884         46.0004         41.0004
  -7409661.80643  -5740773.44242  22761353.3954   22761357.3774   22761352.7674
      1736.6594       1353.2384         45.0004         40.0004
 -11401955.98643  -8840967.59242  22857832.4734   22857838.0404   22857832.1554
     -3318.8484      -2586.1214         43.0004         39.0004
 04 12 26  1 24 30.0000000  0  7G15G 1G11G19G14G20G 3
   4225832.78543   3346271.50842  24630035.7784   24630043.0764   24630035.2264
     -2421.2204      -1886.6834         39.0004         34.0004
 -20240740.69543 -15722752.83242  20418171.2274   20418175.3994   20418170.9214
       496.2044        386.6424         51.0004         47.0004
 -15786642.00843 -12268504.13742  21593872.3944   21593875.1734   21593872.1464
      2221.7364       1731.2034         48.0004         44.0004
 -17206307.15343 -13360421.04942  21280714.7124   21280716.7594   21280713.8814
     -2069.6534      -1612.7294         50.0004         45.0004
  -7403592.14443  -5728918.85242  22431645.5894   22431648.8784   22431645.2134
     -2547.1944      -1984.8314         46.0004         41.0004
  -7461649.22743  -5781283.09942  22751460.5814   22751464.4814   22751459.9954
      1729.2984       1347.5054         45.0004         40.0004
 -11302280.53343  -8763298.51042  22876800.2014   22876805.7894   22876799.7854
     -3326.0954      -2591.7654         43.0004         39.0004
 04 12 26  1 25  0.0000000  0  7G15G 1G11G19G14G20G 3
   4298534.22443   3402921.80142  24643870.5404   24643878.0404   24643869.9144
     -2426.0744      -1890.4384         39.0004         34.0004
 -20255332.00043 -15734122.66742  20415394.6074   20415398.7424   20415394.2904
       476.5674        371.3544         51.0004         47.0004
 -15853201.62843 -12320368.74842  21581206.5294   21581209.3434   21581206.2254
      2215.4954       1726.3474         48.0004         44.0004
 -17143991.50143 -13311863.43742  21292572.9974   21292575.0434   21292572.1794
     -2084.7514      -1624.4774         50.0004         45.0004
  -7326995.13543  -5669232.90642  22446221.5364   22446224.8714   22446221.1684
     -2559.4534      -1994.3794         46.0004         41.0004
  -7513447.70843  -5821645.51842  22741603.6844   22741607.5734   22741603.0724
      1723.9084       1343.3064         45.0004         40.0004
 -11202412.26443  -8685479.17742  22895804.5254   22895810.1864   22895804.1784
     -3331.7774      -2596.1864         43.0004         39.0004
 04 12 26  1 25 30.0000000  0  7G15G 1G11G19G14G20G 3
   4371399.25143   3459699.60642  24657736.5544   24657743.7574   24657735.7324
     -2431.5004      -1894.6654         38.0004         34.0004
 -20269308.12043 -15745013.14942  20412735.0484   20412739.1514   20412734.7334
       455.7634        355.1534         51.0004         47.0004
 -15919546.86743 -12372066.33842  21568581.4244   21568584.2034   21568581.1714
      2208.0984       1720.6044         48.0004         44.0004
 -17081197.49443 -13262933.07242  21304522.3734   21304524.4074   21304521.5554
     -2100.7994      -1636.9784         50.0004         45.0004
  -7250007.55043  -5609242.60142  22460871.9274   22460875.1834   22460871.4674
     -2572.4284      -2004.4894         46.0004         41.0004
  -7565056.47243  -5861860.10342  22731782.8524   22731786.6954   22731782.2394
      1717.3854       1338.2254         45.0004         40.0004
 -11102352.88843  -8607510.92242  22914845.1184   22914850.9744   22914844.9624
     -3338.3354      -2601.3034         43.0004         39.0004
 04 12 26  1 26  0.0000000  0  8G15G 1G11G19G14G20G25G 3
   4444426.22443   3516603.56942  24671633.4204   24671640.3334   24671632.3294
     -2436.2124      -1898.3384         39.0004         34.0004
 -20282670.09643 -15755425.06542  20410192.3244   20410196.4414   20410192.0114
       435.6304        339.4584         51.0004         47.0004
 -15985676.71543 -12423596.07942  21555997.1974   21556000.0934   21555997.0584
      2201.2634       1715.2734         48.0004         44.0004
 -17017928.38743 -13213632.50342  21316562.1054   21316564.1654   21316561.2964
     -2116.4424      -1649.1754         50.0004         45.0004
  -7172633.27943  -5548950.98542  22475595.7574   22475599.0374   22475595.3024
     -2585.0674      -2014.3284         46.0004         41.0004
  -7616476.79843  -5901927.86742  22721997.8954   22722001.6424   22721997.2874
      1711.3124       1333.4924         45.0004         40.0004
   -185050.72443   -105012.07042  23814805.4184   23814812.4884   23814805.2654
      2620.6014       2042.0234         50.0004         37.0004
 -11002106.52043  -8529396.97542  22933921.2864   22933927.3384   22933921.2034
     -3343.9724      -2605.6874         43.0004         38.0004
 04 12 26  1 26 30.0000000  0  8G15G 1G11G19G14G20G25G 3
   4517615.42943   3573633.93542  24685560.4904   24685568.1254   24685560.2474
     -2443.1124      -1903.7084         38.0004         34.0004
 -20295417.53043 -15765358.12242  20407766.5744   20407770.6704   20407766.2344
       413.8914        322.5114         51.0004         47.0004
 -16051588.76343 -12474956.10342  21543454.4304   21543457.4404   21543454.3354
      2192.6444       1708.5354         48.0004         44.0004
 -16954186.26143 -13163963.34442  21328691.8204   21328693.9224   21328691.0234
     -2133.1794      -1662.2104         50.0004         45.0004
  -7094874.93043  -5488360.09142  22490392.7584   22490396.0314   22490392.3454
     -2598.8604      -2025.0814         46.0004         41.0004
  -7667708.97443  -5941848.99842  22712248.5564   22712252.5014   22712248.0004
      1703.8024       1327.6374         45.0004         40.0004
   -263576.81743   -166201.16642  23799862.6964   23799868.8884   23799862.2424
      2614.3404       2037.1364         45.0004         37.0004
 -10901675.70443  -8451139.30742  22953032.6514   22953038.8934   22953032.4964
     -3351.7284      -2611.7334         43.0004         38.0004
 04 12 26  1 27  0.0000000  0  8G15G 1G11G19G14G20G25G 3
   4590967.07843   3630790.84342  24699519.1434   24699526.6504   24699518.4754
     -2448.8324      -1908.1694         39.0004         34.0004
 -20307550.11143 -15774812.07742  20405457.7214   20405461.9464   20405457.4494
       393.9364        306.9554         51.0004         47.0004
 -16117280.76343 -12526144.65642  21530953.5894   21530956.6544   21530953.4944
      2185.7514       1703.2054         48.0004         44.0004
 -16889972.98543 -13113927.06642  21340911.1614   21340913.3414   21340910.4114
     -2148.6054      -1674.2374         50.0004         45.0004
  -7016734.65243  -5427471.59142  22505262.3834   22505265.6644   22505261.9574
     -2611.2534      -2034.7394         46.0004         41.0004
  -7718753.30843  -5981623.78242  22702535.0814   22702539.0104   22702534.5974
      1698.4034       1323.4344         45.0004         40.0004
   -341942.00943   -227264.88842  23784950.0584   23784956.4924   23784949.8094
      2608.9954       2032.9794         42.0004         37.0004
 -10801063.03843  -8372739.92942  22972178.8334   22972184.9324   22972178.5914
     -3357.2624      -2616.0424         43.0004         38.0004
 04 12 26  1 27 30.0000000  0  8G15G 1G11G19G14G20G25G 3
   4664481.03743   3688074.26242  24713508.8504   24713516.1314   24713507.9174
     -2452.9884      -1911.4004         39.0004         34.0004
 -20319067.71743 -15783786.82842  20403265.9994   20403270.2074   20403265.7184
       373.5944        291.1144         51.0004         47.0004
 -16182750.73643 -12577160.21342  21518495.0284   21518498.1574   21518494.9874
      2178.6174       1697.6084         49.0004         44.0004
 -16825290.50143 -13063525.16042  21353219.8624   21353222.0694   21353219.0774
     -2163.7984      -1686.0714         50.0004         45.0004
  -6938215.05443  -5366287.52442  22520204.1034   22520207.4814   22520203.7054
     -2623.5814      -2044.3534         46.0004         41.0004
  -7769609.89643  -6021252.25942  22692857.5074   22692861.3774   22692856.9294
      1691.8704       1318.3404         45.0004         40.0004
   -420142.70943   -288200.45542  23770068.8344   23770075.4584   23770068.7434
      2603.8174       2028.9534         42.0004         37.0004
 -10700271.19143  -8294200.94642  22991359.0294   22991364.9344   22991358.7594
     -3362.7784      -2620.3404         43.0004         38.0004
 04 12 26  1 28  0.0000000  0  8G15G 1G11G19G14G20G25G 3
   4738156.85443   3745483.80542  24727529.3654   24727536.3514   24727528.2714
     -2459.0594      -1916.1574         39.0004         34.0004
 -20329970.52243 -15792282.51542  20401191.2794   20401195.4234   20401190.9844
       353.1294        275.1694         51.0004         47.0004
 -16247997.40043 -12628001.75442  21506079.0444   21506082.1114   21506078.9824
      2171.2924       1691.9074         49.0004         44.0004
 -16760141.59243 -13012759.81242  21365617.2804   21365619.5404   21365616.5214
     -2179.3854      -1698.2254         50.0004         45.0004
  -6859319.20943  -5304810.27542  22535217.5154   22535220.8724   22535217.0764
     -2635.9574      -2053.9964         45.0004         41.0004
  -7820279.38543  -6060734.96042  22683215.1494   22683219.2234   22683214.7694
      1685.9384       1313.7124         45.0004         40.0004
   -498176.54743   -349005.97442  23755219.3514   23755226.0164   23755219.2024
      2598.1254       2024.5084         42.0004         37.0004
 -10599303.48543  -8215524.89842  23010572.6684   23010578.5754   23010572.4204
     -3368.2164      -2624.5874         43.0004         38.0004
 04 12 26  1 28 30.0000000  0  8G15G 1G11G19G14G20G25G 3
   4811994.45043   3803019.43842  24741580.2564   24741587.2334   24741579.7354
     -2462.7634      -1919.0334         38.0004         34.0004
 -20340258.42343 -15800299.05742  20399233.6004   20399237.6934   20399233.2834
       332.9424        259.4404         51.0004         47.0004
 -16313018.19143 -12678667.29942  21493706.0184   21493709.0394   21493705.9794
      2163.9164       1686.1834         49.0004         44.0004
 -16694528.30343 -12961632.60842  21378103.0864   21378105.3254   21378102.3734
     -2194.5034      -1709.9904         50.0004         45.0004
  -6780049.73243  -5243041.87942  22550302.0354   22550305.3814   22550301.6404
     -2648.1514      -2063.4914         45.0004         41.0004
  -7870762.16143  -6100072.15642  22673608.6094   22673612.6834   22673608.1464
      1680.0714       1309.1464         45.0004         40.0004
   -576040.01743   -409678.75842  23740402.4824   23740409.0484   23740402.2614
      2592.6154       2020.2234         42.0004         37.0004
 -10498162.46043  -8136713.81742  23029819.2744   23029825.2304   23029819.0594
     -3373.8054      -2628.9354         43.0004         38.0004
 04 12 26  1 29  0.0000000  0  8G15G 1G11G19G14G20G25G 3
   4885993.77043   3860681.10442  24755661.8694   24755668.8484   24755661.1524
     -2469.9094      -1924.5874         38.0004         33.0004
 -20349931.66643 -15807836.64342  20397392.7454   20397396.9444   20397392.4744
       312.0794        243.1904         51.0004         47.0004
 -16377811.19943 -12729155.33942  21481376.3424   21481379.3594   21481376.2564
      2155.7054       1679.7734         49.0004         44.0004
 -16628453.02343 -12910145.41742  21390676.8784   21390679.0584   21390676.1164
     -2210.3894      -1722.3724         50.0004         45.0004
  -6700409.37743  -5180984.48842  22565457.0714   22565460.4804   22565456.6284
     -2660.7944      -2073.3384         45.0004         41.0004
  -7921058.75443  -6139264.28242  22664037.2954   22664041.4954   22664036.9604
      1673.2084       1303.7994         45.0004         40.0004
   -653730.08843   -470216.41942  23725618.3394   23725625.0644   23725618.3234
      2586.6754       2015.5944         42.0004         38.0004
 -10396851.34743  -8057770.20042  23049098.2844   23049104.1604   23049097.9354
     -3379.9594      -2633.7294         43.0004         38.0004
 04 12 26  1 29 30.0000000  0  8G15G 1G11G19G14G20G25G 3
   4960154.35343   3918468.44042  24769773.7314   24769781.3284   24769773.2864
     -2474.3814      -1928.1054         38.0004         33.0004
 -20358990.17243 -15814895.21142  20395668.9984   20395673.1724   20395668.7314
       291.6844        227.2814         51.0004         47.0004
 -16442374.13243 -12779464.09342  21469090.4854   21469093.4444   21469090.4014
      2148.4684       1674.1404         49.0004         44.0004
 -16561917.77143 -12858299.80442  21403338.1614   21403340.3044   21403337.3804
     -2225.4294      -1734.1014         50.0004         45.0004
  -6620400.70243  -5118640.09742  22580682.1294   22580685.7144   22580681.7624
     -2672.5364      -2082.4904         45.0004         41.0004
  -7971169.38543  -6178311.47842  22654501.6904   22654505.7504   22654501.1934
      1667.3964       1299.2654         45.0004         40.0004
   -731243.60943   -530616.50842  23710868.0004   23710874.4584   23710867.9624
      2580.9244       2011.1064         43.0004         38.0004
 -10295372.81743  -7978696.13742  23068408.9944   23068414.9574   23068408.7394
     -3385.2374      -2637.8404         43.0004         38.0004
                            4  1
RINEX FILE SPLICE; other post-header comments skipped       COMMENT
 04 12 26  1 30  0.0000000  0  8G15G 1G11G19G14G20G25G 3
   5034475.86643   3976381.13842  24783916.5144   24783923.9684   24783915.8954
     -2480.0834      -1932.5394         38.0004         33.0004
 -20367434.12943 -15821474.91442  20394062.1504   20394066.3344   20394061.8344
       270.7744        210.9814         51.0004         47.0004
 -16506705.54743 -12829592.45242  21456848.6014   21456851.5964   21456848.5144
      2139.9364       1667.4714         49.0004         44.0004
 -16494925.17843 -12806097.81742  21416086.4494   21416088.6164   21416085.6324
     -2240.9994      -1746.2414         50.0004         45.0004
  -6540026.79643  -5056011.11642  22595976.6864   22595980.3904   22595976.3824
     -2685.8574      -2092.8764         45.0004         41.0004
  -8021094.78743  -6217214.36942  22645001.2964   22645005.2174   22645000.6924
      1660.5844       1293.9634         45.0004         40.0004
   -808577.45443   -590876.57442  23696151.9344   23696158.1754   23696151.8464
      2574.5064       2006.1104         43.0004         38.0004
 -10193730.07243  -7899494.09142  23087750.9844   23087757.0144   23087750.8634
     -3391.3524      -2642.6024         43.0004         38.0004
 04 12 26  1 30 30.0000000  0  8G15G 1G11G19G14G20G25G 3
   5108959.01343   4034419.82542  24798090.6314   24798097.7334   24798089.4534
     -2485.4324      -1936.7084         38.0004         34.0004
 -20375262.71943 -15827575.10542  20392572.4474   20392576.5814   20392572.1174
       250.8684        195.4814         51.0004         47.0004
 -16570802.51043 -12879538.11442  21444651.3634   21444654.3744   21444651.2334
      2132.8784       1661.9974         49.0004         44.0004
 -16427476.56943 -12753540.49842  21428921.5194   21428923.7414   21428920.6894
     -2255.6574      -1757.6514         49.0004         45.0004
  -6459289.20343  -4993098.73642  22611340.5404   22611344.2064   22611340.1824
     -2696.9914      -2101.5434         45.0004         40.0004
  -8070834.37443  -6255972.45342  22635536.2254   22635540.0554   22635535.6114
      1655.2054       1289.7654         45.0004         41.0004
   -885727.39443   -650993.34642  23681470.8164   23681476.9824   23681470.6624
      2568.9334       2001.7684         43.0004         38.0004
 -10091924.90743  -7820165.51442  23107124.0724   23107130.0184   23107123.7754
     -3396.1054      -2646.3114         43.0004         38.0004
 04 12 26  1 31  0.0000000  0  8G15G 1G11G19G14G20G25G 3
   5183602.59643   4092583.52842  24812294.7824   24812302.2314   24812293.9974
     -2490.6244      -1940.7434         38.0004         33.0004
 -20382477.60543 -15833197.08442  20391199.4644   20391203.6194   20391199.1704
       230.7554        179.8174         51.0004         47.0004
 -16634664.36943 -12929300.58142  21432498.8424   21432501.8014   21432498.6984
      2125.4374       1656.1944         49.0004         44.0004
 -16359575.86443 -12700630.89542  21441842.6554   21441844.8344   21441841.7534
     -2270.4374      -1769.1624         49.0004         45.0004
  -6378192.15743  -4929906.26542  22626772.7844   22626776.5654   22626772.5014
     -2708.8234      -2110.7684         45.0004         40.0004
  -8120390.01343  -6294587.21342  22626106.1344   22626109.8734   22626105.4794
      1649.3384       1285.1944         45.0004         41.0004
   -962691.85043   -710965.58742  23666824.9314   23666831.1364   23666824.7584
      2563.1344       1997.2424         43.0004         38.0004
  -9989961.97443  -7740713.98042  23126527.1084   23126533.0524   23126526.7644
     -3400.8184      -2649.9864         43.0004         38.0004
 04 12 26  1 31 30.0000000  0  8G15G 1G11G19G14G20G25G 3
   5258407.22843   4150872.72342  24826529.5974   24826537.4074   24826529.2854
     -2496.1304      -1945.0534         38.0004         34.0004
 -20389077.59343 -15838339.92842  20389943.4694   20389947.6654   20389943.2044
       209.7274        163.4194         51.0004         47.0004
 -16698287.81243 -12978877.27442  21420391.6604   21420394.6034   21420391.5834
      2116.7584       1649.4224         49.0004         44.0004
 -16291224.13343 -12647369.83742  21454849.6304   21454851.7194   21454848.7134
     -2285.8474      -1781.1834         49.0004         45.0004
  -6296737.12243  -4866434.84142  22642273.2674   22642277.0374   22642272.9084
     -2721.2784      -2120.4724         45.0004         40.0004
  -8169760.79143  -6333057.91542  22616711.0414   22616714.8254   22616710.4344
      1642.5424       1279.9044         45.0004         40.0004
  -1039466.29243   -770789.75942  23652215.3224   23652221.4054   23652215.0354
      2555.7754       1991.5054         43.0004         38.0004
  -9887842.78543  -7661140.70042  23145959.7984   23145965.8084   23145959.5334
     -3406.7694      -2654.6304         43.0004         38.0004
 04 12 26  1 32  0.0000000  0  8G15G 1G11G19G14G20G25G 3
   5333371.92043   4209286.64942  24840794.9434   24840803.2454   24840794.5674
     -2501.3184      -1949.0614         38.0004         34.0004
 -20395063.61243 -15843004.35242  20388804.4004   20388808.5704   20388804.1094
       189.5524        147.6944         51.0004         47.0004
 -16761671.66643 -13028267.27442  21408330.2484   21408333.0694   21408330.0734
      2108.8694       1643.2804         49.0004         44.0004
 -16222424.48443 -12593759.76042  21467941.7854   21467943.9044   21467940.8464
     -2300.6254      -1792.7004         49.0004         45.0004
  -6214927.76643  -4802687.31842  22657841.0774   22657844.8814   22657840.7684
     -2732.7494      -2129.4114         45.0004         40.0004
  -8218948.29143  -6371385.80042  22607350.9684   22607354.7194   22607350.3604
      1636.5154       1275.2044         45.0004         41.0004
  -1116048.21543   -830463.88942  23637642.0994   23637648.2334   23637641.9634
      2549.7674       1986.8304         43.0004         38.0004
  -9785570.90743  -7581448.43142  23165421.7244   23165427.6014   23165421.4154
     -3411.3784      -2658.2084         43.0004         38.0004
 04 12 26  1 32 30.0000000  0  8G15G 1G11G19G14G20G25G 3
   5408496.35043   4267825.05542  24855090.7134   24855099.0944   24855090.1454
     -2507.7194      -1954.0774         38.0004         33.0004
 -20400435.87143 -15847190.51742  20387782.0874   20387786.2844   20387781.7844
       168.4334        131.2404         51.0004         47.0004
 -16824814.09043 -13077469.14442  21396314.6684   21396317.4114   21396314.4534
      2100.2754       1636.5694         49.0004         44.0004
 -16153179.24743 -12539802.47242  21481118.7014   21481120.8744   21481117.7874
     -2315.9704      -1804.6544         49.0004         45.0004
  -6132766.54543  -4738665.62142  22673475.8344   22673479.5804   22673475.4834
     -2744.8754      -2138.8694         45.0004         40.0004
  -8267952.59343  -6409570.95442  22598025.7004   22598029.5094   22598025.1074
      1629.9314       1270.0784         45.0004         41.0004
  -1192434.52643   -889985.61442  23623106.2064   23623112.3664   23623106.0014
      2542.4124       1981.0974         43.0004         38.0004
  -9683149.25443  -7501639.47542  23184911.9214   23184917.8784   23184911.6504
     -3416.9534      -2662.5664         42.0004         38.0004
 04 12 26  1 33  0.0000000  0  8G15G 1G11G19G14G20G25G 3
   5483780.99543   4326488.25342  24869417.1454   24869425.3804   24869416.9654
     -2512.4014      -1957.7354         38.0004         33.0004
 -20405194.05443 -15850898.17942  20386876.6744   20386880.8544   20386876.3504
       148.4064        115.6374         51.0004         47.0004
 -16887712.09343 -13126480.55342  21384345.5294   21384348.3214   21384345.3064
      2092.5184       1630.5304         49.0004         44.0004
 -16083490.05543 -12485499.24642  21494380.0854   21494382.2864   21494379.2174
     -2330.3984      -1815.8904         49.0004         45.0004
  -6050255.70243  -4674371.47642  22689177.1074   22689180.8464   22689176.7994
     -2756.2654      -2147.7394         45.0004         40.0004
  -8316773.50843  -6447613.17242  22588735.3904   22588739.2144   22588734.7674
      1624.1894       1265.6054         45.0004         41.0004
  -1268621.10643   -949351.69442  23608608.2264   23608614.4084   23608608.1944
      2536.3184       1976.3514         43.0004         38.0004
  -9580579.99243  -7421715.50142  23204430.3544   23204436.1614   23204430.0254
     -3421.5784      -2666.1634         42.0004         38.0004
 04 12 26  1 33 30.0000000  0  8G15G 1G11G19G14G20G25G 3
   5559224.39943   4385275.18042  24883773.6374   24883782.1554   24883773.6484
     -2517.4274      -1961.6294         38.0004         34.0004
 -20409339.51943 -15854128.40542  20386087.7844   20386091.9944   20386087.4784
       128.0444         99.7764         51.0004         47.0004
 -16950364.89843 -13175300.91242  21372423.0884   21372425.8564   21372422.8654
      2084.4384       1624.2344         49.0004         44.0004
 -16013360.42543 -12430852.80942  21507725.3174   21507727.5424   21507724.4604
     -2344.7714      -1827.0864         49.0004         45.0004
  -5967399.13343  -4609807.95442  22704944.1824   22704947.9374   22704943.8764
     -2767.4484      -2156.4494         45.0004         40.0004
  -8365412.87843  -6485513.96642  22579479.5704   22579483.3624   22579479.0084
      1618.4894       1261.1614         45.0004         41.0004
  -1344605.94743  -1008560.57442  23594148.7444   23594154.9344   23594148.6354
      2529.4434       1970.9964         43.0004         38.0004
  -9477867.29543  -7341679.73542  23223976.1874   23223981.8204   23223975.6824
     -3426.1074      -2669.6954         42.0004         38.0004
 04 12 26  1 34  0.0000000  0  8G15G 1G11G19G14G20G25G 3
   5634827.16043   4444186.25642  24898160.6734   24898168.7884   24898160.3404
     -2522.6024      -1965.6404         38.0004         34.0004
 -20412871.43343 -15856880.53242  20385415.6944   20385419.8404   20385415.3944
       108.0744         84.2144         51.0004         47.0004
 -17012769.32143 -13223927.71842  21360547.9774   21360550.6794   21360547.7234
      2076.3934       1617.9704         49.0004         45.0004
 -15942792.01143 -12375864.47242  21521154.0214   21521156.3174   21521153.1914
     -2359.0004      -1838.1774         49.0004         44.0004
  -5884198.31743  -4544976.17942  22720776.8154   22720780.5324   22720776.5714
     -2778.5964      -2165.1354         44.0004         40.0004
  -8413869.78743  -6523272.56042  22570258.5234   22570262.3464   22570257.9564
      1612.6594       1256.6114         45.0004         41.0004
  -1420384.92543  -1067609.06042  23579728.4554   23579734.5574   23579728.2154
      2523.1664       1966.1024         43.0004         38.0004
  -9375012.88343  -7261533.57242  23243549.0224   23243554.4954   23243548.3584
     -3430.2644      -2672.9334         42.0004         38.0004
 04 12 26  1 34 30.0000000  0  8G15G 1G11G19G14G20G25G 3
   5710588.97843   4503221.25542  24912577.8994   24912585.7624   24912577.1884
     -2528.2434      -1970.0494         38.0004         33.0004
 -20415790.23643 -15859154.91842  20384860.2364   20384864.3994   20384859.9664
        86.6264         67.4904         51.0004         47.0004
 -17074923.51943 -13272359.54142  21348720.4884   21348723.1104   21348720.1884
      2067.1404       1610.7404         49.0004         45.0004
 -15871787.16743 -12320536.06342  21534665.8604   21534668.1014   21534665.0024
     -2374.4954      -1850.2554         49.0004         44.0004
  -5800656.25743  -4479878.50242  22736674.4694   22736678.1444   22736674.1214
     -2790.8084      -2174.6564         44.0004         40.0004
  -8462144.83543  -6560889.44342  22561072.0014   22561075.9094   22561071.4244
      1605.5844       1251.0984         45.0004         41.0004
  -1495955.00243  -1126494.75342  23565347.9384   23565353.9184   23565347.5674
      2515.1064       1959.8194         43.0004         38.0004
  -9272019.69343  -7181279.25642  23263147.9904   23263153.5574   23263147.3744
     -3435.8644      -2677.2954         42.0004         38.0004
 04 12 26  1 35  0.0000000  0  8G15G 1G11G19G14G20G25G 3
                   4562379.71142  24927025.201    24927033.1484
                     -1974.3104                         32.0004
 -20418096.86343 -15860952.28742  20384421.3024   20384425.4744   20384421.0274
        66.3704         51.7154         51.0004         47.0004
 -17136825.84443 -13320595.10742  21336940.7764   21336943.4664   21336940.5544
      2058.7564       1604.2294         49.0004         45.0004
 -15800349.06943 -12264870.04242  21548260.1354   21548262.3494   21548259.2814
     -2388.7724      -1861.3804         49.0004         44.0004
  -5716776.27043  -4414517.48642  22752636.4214   22752639.8954   22752635.9474
     -2801.9784      -2183.3624         44.0004         39.0004
  -8510239.25343  -6598365.58442  22551919.8804   22551923.8414   22551919.3144
      1599.7114       1246.5404         45.0004         41.0004
  -1571313.69043  -1185215.71142  23551007.3894   23551013.4074   23551007.2534
      2508.3634       1954.5704         42.0004         38.0004
  -9168891.48343  -7100919.72942  23282772.4334   23282778.4204   23282771.9494
     -3439.8054      -2680.3634         42.0004         38.0004
 04 12 26  1 35 30.0000000  0  8G15G 1G11G19G14G20G25G 3
                   4621661.16942  24941502.697    24941510.3264
                     -1977.8604                         33.0004
 -20419791.92343 -15862273.10042  20384098.7964   20384102.9334   20384098.5074
        46.8094         36.4824         51.0004         47.0004
 -17198474.67343 -13368633.13742  21325209.3504   21325212.0734   21325209.1774
      2050.7954       1598.0084         49.0004         45.0004
 -15728480.03343 -12208868.23042  21561936.3654   21561938.5664   21561935.5144
     -2402.4764      -1872.0554         49.0004         44.0004
  -5632561.08643  -4348895.29942  22768661.8174   22768665.5724   22768661.3914
     -2812.5824      -2191.6204         44.0004         39.0004
  -8558153.30443  -6635701.16142  22542802.0734   22542806.0854   22542801.5454
      1594.4494       1242.4324         45.0004         41.0004
  -1646457.72143  -1243769.41242  23536707.7754   23536713.8614   23536707.8194
      2501.6314       1949.3174         42.0004         37.0004
  -9065630.84043  -7020457.01042  23302422.1174   23302428.4134   23302421.8664
     -3443.7604      -2683.4454         42.0004         38.0004
 04 12 26  1 36  0.0000000  0  8G15G 1G11G19G14G20G25G 3
                   4681066.02542  24956010.242    24956018.1264
                     -1982.6954                         32.0004
 -20420874.86943 -15863116.94742  20383892.7154   20383896.8694   20383892.4174
        25.9124         20.1964         51.0004         47.0004
 -17259866.96343 -13416471.27842  21313526.8474   21313529.5124   21313526.6084
      2042.0474       1591.2154         49.0004         45.0004
 -15656181.69043 -12152531.90042  21575694.3314   21575696.5704   21575693.4714
     -2416.9434      -1883.3314         49.0004         44.0004
  -5548012.78843  -4283013.55342  22784750.6564   22784754.5954   22784750.3184
     -2824.0394      -2200.5484         44.0004         39.0004
  -8605886.61243  -6672895.92842  22533718.6054   22533722.6284   22533718.1234
      1588.0074       1237.4104         45.0004         41.0004
  -1721383.14643  -1302152.77642  23522449.7254   23522455.8334   23522449.7454
      2493.7624       1943.1924         42.0004         37.0004
  -8962239.83143  -6939892.68342  23322096.8114   23322103.2284   23322096.6224
     -3448.5624      -2687.1854         42.0004         37.0004
 04 12 26  1 36 30.0000000  0  8G15G 1G11G19G14G20G25G 3
   6015218.17043   4740593.92242  24970547.6184   24970555.8084   24970546.1344
     -2548.7374      -1986.0324         37.0004         33.0004
 -20421346.70543 -15863484.60442  20383802.8954   20383807.0724   20383802.6544
         5.8904          4.5814         51.0004         47.0004
 -17321000.97843 -13464108.15742  21301893.3404   21301896.0794   21301893.1574
      2033.7334       1584.7234         49.0004         45.0004
 -15583457.12643 -12095863.43942  21589533.2744   21589535.6244   21589532.5354
     -2431.0574      -1894.3384         49.0004         44.0004
  -5463134.38543  -4216874.56642  22800902.4634   22800906.5424   22800902.1154
     -2834.4414      -2208.6594         44.0004         39.0004
  -8653440.25943  -6709950.67842  22524669.5404   22524673.4974   22524668.9804
      1582.3784       1233.0194         46.0004         41.0004
  -1796086.95143  -1360363.44542  23508233.9214   23508240.2414   23508234.1374
      2486.5384       1937.5604         42.0004         38.0004
  -8858721.60043  -6859229.25742  23341795.6794   23341802.1954   23341795.4184
     -3452.5464      -2690.2954         42.0004         37.0004
 04 12 26  1 37  0.0000000  0  8G15G 1G11G19G14G20G25G 3
   6091769.52243   4800244.16142  24985114.9344   24985122.8344   24985113.5534
     -2553.7184      -1989.9104         37.0004         32.0004
 -20421208.33843 -15863376.77942  20383829.2094   20383833.3584   20383828.9894
       -14.2274        -11.0844         51.0004         47.0004
 -17381875.35343 -13511542.71442  21290309.2904   21290312.0794   21290309.1414
      2025.2994       1578.1614         49.0004         45.0004
 -15510309.25043 -12038865.13142  21603452.8974   21603455.2764   21603452.1354
     -2444.7784      -1905.0124         49.0004         44.0004
  -5377929.13943  -4150480.90442  22817116.4874   22817120.5504   22817116.0924
     -2845.0694      -2216.9344         44.0004         39.0004
  -8700814.96243  -6746865.99342  22515654.4284   22515658.3444   22515653.8544
      1576.8734       1228.7274         46.0004         41.0004
  -1870566.47043  -1418399.35742  23494060.9494   23494067.3384   23494061.0824
      2479.3524       1931.9564         42.0004         38.0004
  -8755079.73043  -6778469.48942  23361518.2544   23361524.5984   23361517.9254
     -3456.3974      -2693.2944         42.0004         37.0004
 04 12 26  1 37 30.0000000  0  8G15G 1G11G19G14G20G25G 3
   6168478.34843   4860017.12542  24999712.2324   24999720.3014   24999711.3934
     -2559.8564      -1994.7084         38.0004         34.0004
 -20420459.22443 -15862793.04742  20383971.7634   20383975.9274   20383971.4824
       -35.4104        -27.5894         51.0004         47.0004
 -17442486.95043 -13558772.51742  21278775.2584   21278778.0274   21278775.1174
      2015.8574       1570.7884         49.0004         45.0004
 -15436739.47543 -11981538.07642  21617452.9304   21617455.2044   21617452.0694
     -2459.3894      -1916.4104         49.0004         45.0004
  -5292399.08143  -4083834.13542  22833392.2704   22833396.3704   22833391.9824
     -2856.4824      -2225.8284         44.0004         39.0004
  -8748010.29343  -6783641.55442  22506673.3134   22506677.4294   22506672.8254
      1570.0204       1223.4034         46.0004         41.0004
  -1944817.74243  -1476257.41642  23479931.4354   23479937.6024   23479931.4274
      2471.0654       1925.5014         43.0004         38.0004
  -8651316.09643  -6697614.83242  23381263.8064   23381270.3554   23381263.5994
     -3460.5794      -2696.5494         42.0004         37.0004
 04 12 26  1 38  0.0000000  0  8G15G 1G11G19G14G20G25G 3
   6245344.00943   4919912.28142  25014339.6084   25014347.5474   25014338.1364
     -2565.1954      -1998.8474         38.0004         33.0004
 -20419100.63143 -15861734.39342  20384230.3244   20384234.4674   20384230.0284
       -55.9324        -43.5894         51.0004         47.0004
 -17502834.77343 -13605796.77742  21267291.4384   21267294.2344   21267291.3164
      2006.6954       1563.6614         49.0004         45.0004
 -15362751.33043 -11923885.01742  21631532.5044   21631534.7294   21631531.6024
     -2473.7554      -1927.6004         49.0004         44.0004
  -5206547.51543  -4016936.85242  22849729.3954   22849733.3624   22849728.9944
     -2867.4514      -2234.3734         44.0004         39.0004
  -8795027.41543  -6820278.23642  22497726.1844   22497730.3774   22497725.7474
      1563.7774       1218.5224         46.0004         41.0004
  -2018838.02643  -1533935.47742  23465845.9194   23465851.7704   23465845.8554
      2462.9034       1919.1394         42.0004         38.0004
  -8547434.39543  -6616668.16642  23401032.0244   23401038.5334   23401031.7554
     -3464.6154      -2699.6954         42.0004         37.0004
 04 12 26  1 38 30.0000000  0  8G15G 1G11G19G14G20G25G 3
                   4979929.32342  25028996.521    25029004.4714
                     -2002.9394                         33.0004
 -20417132.87943 -15860201.06942  20384604.7734   20384608.9294   20384604.4874
       -75.7314        -59.0104         51.0004         47.0004
 -17562916.36343 -13652613.58042  21255858.2494   21255861.0604   21255858.1194
      1998.2524       1557.0764         49.0004         45.0004
 -15288347.07143 -11865907.71042  21645691.1034   21645693.3884   21645690.2564
     -2487.0844      -1937.9874         49.0004         44.0004
  -5120376.95343  -3949790.98642  22866127.1164   22866131.0384   22866126.7044
     -2877.5614      -2242.2554         43.0004         39.0004
  -8841866.63943  -6856776.29142  22488813.0284   22488817.1084   22488812.5044
      1558.5704       1214.4654         46.0004         41.0004
  -2092624.11243  -1591431.05542  23451804.8034   23451810.6434   23451804.7254
      2455.7524       1913.5734         42.0004         38.0004
  -8443437.31243  -6535631.62442  23420822.0624   23420828.4894   23420821.8024
     -3468.6214      -2702.8134         42.0004         37.0004
 04 12 26  1 39  0.0000000  0  8G15G 1G11G19G14G20G25G 3
   6399544.12943   5040067.83242  25043683.1384   25043692.3284   25043681.7084
     -2574.9294      -2006.4264         38.0004         33.0004
 -20414556.65143 -15858193.60842  20385094.9894   20385099.1784   20385094.7194
       -96.2584        -75.0224         51.0004         47.0004
 -17622729.55343 -13699221.24642  21244476.2004   21244478.9854   21244476.0564
      1989.3104       1550.1194         49.0004         45.0004
 -15213529.30743 -11807608.19642  21659928.5554   21659930.7604   21659927.6794
     -2500.9324      -1948.7784         49.0004         44.0004
  -5033890.26043  -3882398.78442  22882585.0984   22882588.9714   22882584.6324
     -2888.1864      -2250.5394         43.0004         39.0004
  -8888528.45643  -6893136.12742  22479933.5954   22479937.5914   22479933.0714
      1552.0394       1209.3794         46.0004         41.0004
  -2166173.10143  -1648741.87442  23437808.8984   23437814.7054   23437808.9274
      2447.6834       1907.2874         43.0004         38.0004
  -8339328.02343  -6454507.65142  23440633.5604   23440640.0324   23440633.3344
     -3472.2324      -2705.6334         42.0004         37.0004
 04 12 26  1 39 30.0000000  0  8G15G 1G11G19G14G20G25G 3
   6476877.99143   5100327.80442  25058399.1684   25058408.4164   25058398.2214
     -2579.8114      -2010.2484         38.0004         34.0004
 -20411372.12243 -15855712.14942  20385700.9964   20385705.1564   20385700.7124
      -115.7774        -90.2154         51.0004         47.0004
 -17682272.13143 -13745618.04942  21233145.5824   21233148.3744   21233145.4584
      1980.7644       1543.4754         49.0004         45.0004
 -15138300.22143 -11748988.17842  21674244.1994   21674246.4594   21674243.3474
     -2513.9794      -1958.9344         49.0004         44.0004
  -4947089.80843  -3814762.08942  22899102.7584   22899106.6534   22899102.2774
     -2897.8264      -2258.0384         44.0004         39.0004
  -8935013.03143  -6929357.84342  22471087.7804   22471091.8464   22471087.3324
      1547.0524       1205.5024         46.0004         41.0004
  -2239481.03943  -1705864.85542  23423858.7974   23423864.6614   23423858.8464
      2440.2534       1901.4984         43.0004         38.0004
  -8235108.36143  -6373297.65042  23460466.1764   23460472.5004   23460465.9044
     -3475.4714      -2708.1484         42.0004         37.0004
 04 12 26  1 40  0.0000000  0  8G15G 1G11G19G14G20G25G 3
   6554367.34243   5160708.97942  25073145.2674   25073153.7904   25073144.3094
     -2586.3764      -2015.3504         38.0004         34.0004
 -20407580.14643 -15852757.35442  20386422.5264   20386426.7554   20386422.2634
      -137.2344       -106.9404         51.0004         47.0004
 -17741542.17243 -13791802.48642  21221866.7894   21221869.6004   21221866.6864
      1970.5494       1535.4974         49.0004         45.0004
 -15062662.53543 -11690049.76142  21688637.6334   21688639.9254   21688636.7884
     -2528.6434      -1970.3744         49.0004         44.0004
  -4859978.74043  -3746883.37442  22915679.4724   22915683.4614   22915679.0394
     -2909.6884      -2267.2914         44.0004         39.0004
  -8981321.16943  -6965442.07642  22462275.6974   22462279.6964   22462275.1874
      1540.2794       1200.2234         46.0004         41.0004
  -2312545.09843  -1762797.82942  23409955.0444   23409961.0474   23409955.1684
      2430.6374       1893.9994         43.0004         38.0004
  -8130781.64543  -6292004.23642  23480318.9604   23480325.3824   23480318.6244
     -3479.9914      -2711.6754         42.0004         37.0004
 04 12 26  1 40 30.0000000  0  8G15G 1G11G19G14G20G25G 3
   6632011.31543   5221210.59642  25087920.4634   25087929.2694   25087919.4074
     -2590.7594      -2018.7734         38.0004         34.0004
 -20403181.89643 -15849330.13642  20387259.4424   20387263.7314   20387259.1964
      -156.6194       -122.0394         51.0004         47.0004
 -17800537.98643 -13837773.22642  21210640.2164   21210643.0614   21210640.0944
      1962.1114       1528.9144         49.0004         45.0004
 -14986619.38543 -11630795.39142  21703108.1684   21703110.5254   21703107.3774
     -2541.3094      -1980.2354         49.0004         44.0004
  -4772560.12743  -3678765.00642  22932314.6644   22932318.7574   22932314.2414
     -2918.9044      -2274.4694         44.0004         39.0004
  -9027453.54843  -7001389.35142  22453497.0084   22453500.9314   22453496.4574
      1535.0174       1196.1184         46.0004         41.0004
  -2385362.68943  -1819538.72942  23396098.3664   23396104.2384   23396098.3994
      2423.1194       1888.1424         43.0004         39.0004
  -8026351.21743  -6210630.02542  23500191.5644   23500197.9904   23500191.1994
     -3482.7454      -2713.8274         41.0004         37.0004
 04 12 26  1 41  0.0000000  0  8G15G 1G11G19G14G20G25G 3
   6709809.53143   5281832.43942  25102724.9214   25102733.6984   25102724.1774
     -2595.4944      -2022.4714         38.0004         33.0004
 -20398177.82443 -15845430.84342  20388211.7274   20388215.9714   20388211.4294
      -176.6384       -137.6284         51.0004         47.0004
 -17859257.53243 -13883528.71342  21199466.2254   21199469.0904   21199466.1594
      1952.9374       1521.7704         50.0004         45.0004
 -14910173.16743 -11571226.95942  21717655.4714   21717657.7994   21717654.6184
     -2554.7734      -1990.7334         49.0004         44.0004
  -4684836.73643  -3610409.15042  22949007.8884   22949012.0514   22949007.5854
     -2928.9504      -2282.3004         43.0004         39.0004
  -9073410.45743  -7037199.91042  22444751.7074   22444755.6444   22444751.1854
      1529.2864       1191.6484         46.0004         41.0004
  -2457930.56443  -1876085.06242  23382289.0254   23382294.9914   23382289.0944
      2415.0714       1881.8714         43.0004         39.0004
  -7921820.05343  -6129177.29642  23520083.1684   23520089.8084   23520082.8384
     -3485.6434      -2716.0754         41.0004         37.0004
 04 12 26  1 41 30.0000000  0  9G23G15G 1G11G19G14G20G25G 3
   -237571.21043   -126942.37342  24127834.0334   24127838.0254   24127834.6444
      3589.0874       2796.6954         51.0004         37.0004
   6787762.27843   5342574.65742  25117559.0074   25117568.4424   25117558.1074
     -2600.0794      -2026.0374         38.0004         34.0004
 -20392568.16943 -15841059.68142  20389279.1944   20389283.4364   20389278.9234
      -196.5214       -153.1234         51.0004         47.0004
 -17917698.32643 -13929066.97742  21188345.3674   21188348.2154   21188345.2664
      1943.8494       1514.6914         50.0004         45.0004
 -14833326.05143 -11511346.12642  21732279.0534   21732281.3794   21732278.1634
     -2567.6484      -2000.7584         49.0004         44.0004
  -4596810.54843  -3541817.35442  22965758.6374   22965762.8334   22965758.4494
     -2938.7244      -2289.9164         43.0004         39.0004
  -9119191.88743  -7072873.72942  22436039.8724   22436043.7084   22436039.3694
      1523.5594       1187.1924         46.0004         41.0004
  -2530244.54943  -1932433.55042  23368528.2074   23368533.9114   23368528.1654
      2406.7304       1875.3694         43.0004         39.0004
  -7817190.34643  -6047647.80942  23539993.5824   23540000.2614   23539993.4234
     -3489.2424      -2718.8934         41.0004         37.0004
 04 12 26  1 42  0.0000000  0  9G23G15G 1G11G19G14G20G25G 3
   -345152.09443   -210771.49842  24107362.7714   24107366.3064   24107362.6244
      3583.2954       2792.1774         46.0004         37.0004
   6865869.43543   5403437.15742  25132422.3244   25132432.1434   25132421.4364
     -2606.2264      -2030.7974         38.0004         34.0004
 -20386353.50943 -15836217.07842  20390461.7844   20390466.0004   20390461.5154
      -217.3724       -169.3874         51.0004         47.0004
 -17975857.99943 -13974386.20042  21177277.9584   21177280.7304   21177277.8334
      1933.6824       1506.7484         50.0004         45.0004
 -14756080.38643 -11451154.74142  21746978.4874   21746980.7844   21746977.5894
     -2581.5884      -2011.6264         49.0004         44.0004
  -4508484.42343  -3472991.83042  22982566.5814   22982570.6384   22982566.3334
     -2949.5354      -2298.3424         43.0004         39.0004
  -9164797.95443  -7108410.89242  22427361.3034   22427365.0824   22427360.7964
      1517.0104       1182.0894         46.0004         41.0004
  -2602301.54743  -1988581.78242  23354816.1754   23354821.8214   23354816.0904
      2397.3534       1868.0634         43.0004         39.0004
  -7712464.78143  -5966043.60742  23559922.3804   23559928.9054   23559922.1074
     -3492.8144      -2721.6654         41.0004         37.0004
 04 12 26  1 42 30.0000000  0  9G23G15G 1G11G19G14G20G25G 3
   -452576.23043   -294478.47842  24086920.6584   24086924.0644   24086920.2854
      3578.1484       2788.1644         43.0004         36.0004
   6944129.35843   5464418.71742  25147315.0004   25147324.1644   25147313.9364
     -2611.7434      -2035.1214         38.0004         34.0004
 -20379535.51343 -15830904.34942  20391759.1944   20391763.4134   20391758.9294
      -237.4134       -185.0074         51.0004         47.0004
 -18033735.44843 -14019485.50442  21166264.2094   21166267.0304   21166264.0854
      1924.3604       1499.4944         50.0004         45.0004
 -14678440.02243 -11390655.80042  21761752.9214   21761755.2424   21761752.0274
     -2594.7224      -2021.8594         49.0004         44.0004
  -4419862.25443  -3403935.62242  22999430.7184   22999434.9324   22999430.5324
     -2959.1984      -2305.8704         43.0004         39.0004
  -9210230.59543  -7143812.93142  22418715.6664   22418719.5024   22418715.1894
      1511.1434       1177.5114         46.0004         41.0004
  -2674099.64543  -2044528.29442  23341153.5154   23341159.0554   23341153.4334
      2389.0434       1861.5874         44.0004         39.0004
  -7607647.30243  -5884367.78242  23579868.5424   23579875.3744   23579868.3904
     -3495.5094      -2723.7644         41.0004         37.0004
 04 12 26  1 43  0.0000000  0  9G23G15G 1G11G19G14G20G25G 3
   -559840.62843   -378060.98942  24066508.7644   24066512.4304   24066508.3844
      3573.3804       2784.4564         41.0004         37.0004
   7022542.16943   5525519.43742  25162236.5024   25162245.3644   25162236.7444
     -2616.5244      -2038.8344         38.0004         33.0004
 -20372114.36843 -15825121.62542  20393171.4134   20393175.6304   20393171.1204
      -257.2094       -200.4114         51.0004         47.0004
 -18091327.97943 -14064362.78542  21155304.7444   21155307.4884   21155304.5734
      1915.2554       1492.4114         50.0004         45.0004
 -14600406.90143 -11329850.81642  21776602.1534   21776604.4674   21776601.2534
     -2607.4654      -2031.7814         49.0004         44.0004
  -4330945.81643  -3334650.12842  23016351.0524   23016355.2084   23016350.7344
     -2968.5894      -2313.1824         43.0004         39.0004
  -9255489.41843  -7179079.52742  22410103.1664   22410107.0674   22410102.6944
      1506.0214       1173.5264         46.0004         41.0004
  -2745635.09643  -2100270.13042  23327540.6804   23327546.3094   23327540.6844
      2380.3244       1854.7944         44.0004         39.0004
  -7502740.03543  -5802621.99142  23599831.7994   23599838.8254   23599831.8564
     -3498.4184      -2726.0314         41.0004         36.0004
 04 12 26  1 43 30.0000000  0  9G23G15G 1G11G19G14G20G25G 3
   -666943.41143   -461517.56142  24046127.5044   24046131.4404   24046127.2064
      3567.4304       2779.8054         41.0004         36.0004
                   5586738.78052  25177187.046    25177195.7944
                     -2041.9574                         33.0004
 -20364091.21543 -15818869.80842  20394698.1634   20394702.3504   20394697.8594
      -277.3524       -216.1184         51.0004         47.0004
 -18148633.89843 -14109016.73842  21144399.8444   21144402.5344   21144399.6414
      1905.4684       1484.7894         50.0004         45.0004
 -14521983.86843 -11268742.00342  21791525.6724   21791527.8614   21791524.7274
     -2620.6074      -2042.0284         49.0004         44.0004
  -4241738.41043  -3265137.89742  23033326.8034   23033331.0304   23033326.4724
     -2978.0334      -2320.5434         43.0004         39.0004
  -9300575.29443  -7214211.34242  22401523.6374   22401527.4874   22401523.1744
      1500.0164       1168.8344         46.0004         41.0004
  -2816904.89543  -2155804.97442  23313978.5064   23313984.0674   23313978.3604
      2371.3484       1847.8004         44.0004         39.0004
  -7397746.07843  -5720808.66242  23619811.4154   23619818.5234   23619811.5534
     -3501.2754      -2728.2514         41.0004         36.0004
 04 12 26  1 44  0.0000000  0  8G23G 1G11G19G14G20G25G 3
   -773882.13543   -544846.33842  24025777.8244   24025781.7714   24025777.3764
      3562.0074       2775.5834         41.0004         36.0004
 -20355466.37443 -15812149.14342  20396339.3974   20396343.5904   20396339.1124
      -297.5164       -231.8314         51.0004         47.0004
 -18205650.87143 -14153445.53342  21133549.8714   21133552.5444   21133549.6524
      1895.6224       1477.1104         50.0004         45.0004
 -14443173.29643 -11207331.21242  21806522.8124   21806525.0654   21806521.8984
     -2633.6814      -2052.2204         49.0004         44.0004
  -4152242.34543  -3195400.73242  23050357.3014   23050361.5684   23050356.9384
     -2987.8004      -2328.1574         43.0004         38.0004
  -9345488.17943  -7249208.36642  22392977.0264   22392980.7874   22392976.4354
      1494.1234       1164.2474         46.0004         41.0004
  -2887905.41943  -2211129.99342  23300467.4384   23300473.0294   23300467.3764
      2362.2094       1840.6794         44.0004         39.0004
  -7292668.09443  -5638929.86842  23639807.2294   23639814.2854   23639807.3034
     -3503.3004      -2729.8364         41.0004         36.0004
 04 12 26  1 44 30.0000000  0  8G23G 1G11G19G14G20G25G 3
   -880654.18043   -628045.22742  24005459.7874   24005463.6454   24005459.3294
      3556.1594       2771.0244         41.0004         36.0004
 -20346240.66643 -15804960.26442  20398094.9464   20398099.1654   20398094.6624
      -317.7904       -247.6344         51.0004         47.0004
 -18262376.77843 -14197647.52542  21122755.2664   21122757.9724   21122755.0574
      1885.8544       1469.4854         50.0004         45.0004
 -14363977.67243 -11145620.37942  21821593.2074   21821595.6134   21821592.3604
     -2646.3984      -2062.1284         49.0004         44.0004
  -4062460.15343  -3125440.63442  23067442.3194   23067446.6024   23067442.0294
     -2997.6004      -2335.7914         43.0004         38.0004
  -9390228.40143  -7284070.86142  22384463.1294   22384466.9754   22384462.6684
      1488.3344       1159.7304         46.0004         42.0004
  -2958633.29943  -2266242.54842  23287008.3474   23287013.8314   23287008.2404
      2352.7314       1833.2974         44.0004         39.0004
  -7187508.29243  -5556987.32042  23659818.3594   23659825.7854   23659818.6094
     -3506.6044      -2732.4154         41.0004         37.0004
                            4  1
RINEX FILE SPLICE; other post-header comments skipped       COMMENT
 04 12 26  1 45  0.0000000  0  8G23G 1G11G19G14G20G25G 3
   -987258.15143   -711113.11942  23985173.4374   23985177.4534   23985172.9834
      3549.6044       2765.9254         41.0004         36.0004
 -20336415.84743 -15797304.55342  20399964.5214   20399968.7454   20399964.2474
      -338.3694       -263.6714         51.0004         47.0004
 -18318809.82543 -14241621.32042  21112016.4054   21112019.0944   21112016.1914
      1875.3894       1461.3514         50.0004         45.0004
 -14284400.48243 -11083612.22642  21836736.2694   21836738.6974   21836735.3794
     -2659.6234      -2072.4404         48.0004         44.0004
  -3972395.39343  -3055260.32342  23084581.2294   23084585.2484   23084580.9444
     -3007.5434      -2343.5384         43.0004         39.0004
  -9434797.16143  -7318799.73642  22375982.0364   22375985.9194   22375981.4984
      1481.9354       1154.7414         46.0004         42.0004
  -3029086.37943  -2321140.99042  23273601.4364   23273606.9724   23273601.3524
      2342.8634       1825.5994         43.0004         39.0004
  -7082270.64743  -5474984.12342  23679844.4404   23679851.8524   23679844.7824
     -3510.3184      -2735.3154         41.0004         37.0004
 04 12 26  1 45 30.0000000  0  8G23G 1G11G19G14G20G25G 3
  -1093691.39343   -794047.99442  23964919.7174   23964923.5214   23964919.2304
      3545.5854       2762.7964         41.0004         36.0004
 -20325992.31343 -15789182.30742  20401948.1174   20401952.2434   20401947.7814
      -357.0684       -278.2314         51.0004         47.0004
 -18374947.49143 -14285364.94342  21101333.7764   21101336.4804   21101333.5324
      1866.6274       1454.5304         50.0004         45.0004
 -14204443.90643 -11021308.45042  21851951.5764   21851953.9814   21851950.6954
     -2671.0954      -2081.3704         48.0004         44.0004
  -3882050.36143  -2984861.62942  23101773.3954   23101777.3684   23101773.1104
     -3015.8974      -2350.0474         43.0004         39.0004
  -9479194.43743  -7353395.00142  22367533.4804   22367537.3954   22367532.9154
      1477.2064       1151.0764         46.0004         41.0004
  -3099261.10043  -2375822.52442  23260247.7414   23260252.8964   23260247.6274
      2334.6774       1819.2334         44.0004         39.0004
  -6976957.55443  -5392922.14142  23699885.2764   23699892.2234   23699885.4604
     -3511.3254      -2736.0934         41.0004         37.0004
 04 12 26  1 46  0.0000000  0  8G23G 1G11G19G14G20G25G 3
  -1199950.87443   -876847.45642  23944699.0864   23944702.8534   23944698.5844
      3539.5144       2758.0594         41.0004         37.0004
 -20314970.22043 -15780593.65342  20404045.5904   20404049.6844   20404045.2454
      -377.0224       -293.7824         51.0004         47.0004
 -18430787.23743 -14328876.41542  21090707.8094   21090710.5094   21090707.5404
      1856.6984       1446.7644         50.0004         45.0004
 -14124110.07543 -10958710.69942  21867238.4584   21867241.0514   21867237.7144
     -2683.6974      -2091.1964         48.0004         44.0004
  -3791427.18843  -2914246.22142  23119018.4164   23119022.5574   23119018.1314
     -3025.2234      -2357.3164         43.0004         39.0004
  -9523419.98243  -7387856.44542  22359117.5564   22359121.5044   22359117.0234
      1471.7494       1146.8144         46.0004         42.0004
  -3169153.30843  -2430283.92942  23246947.6514   23246952.8384   23246947.6464
      2325.3314       1811.9404         43.0004         39.0004
  -6871570.94043  -5310802.84642  23719939.7874   23719946.6894   23719940.0134
     -3513.6084      -2737.8714         41.0004         36.0004
 04 12 26  1 46 30.0000000  0  8G23G 1G11G19G14G20G25G 3
  -1306035.69943   -959510.82642  23924511.7514   23924515.4254   23924510.9884
      3533.7104       2753.5314         41.0004         37.0004
 -20303351.50843 -15771540.09842  20406256.5544   20406260.6574   20406256.2084
      -396.8954       -309.2624         51.0004         47.0004
 -18486328.10443 -14372155.00142  21080138.6614   21080141.4094   21080138.4734
      1846.6854       1439.0024         50.0004         45.0004
 -14043402.75343 -10895821.92142  21882596.5314   21882599.1754   21882595.7844
     -2696.0044      -2100.7694         48.0004         44.0004
  -3700529.60443  -2843416.98242  23136315.7914   23136319.8464   23136315.3874
     -3034.1004      -2364.2334         43.0004         39.0004
  -9567475.59943  -7422185.46942  22350734.0244   22350737.9464   22350733.5064
      1466.1214       1142.4354         46.0004         42.0004
  -3238760.87043  -2484523.51042  23233701.7234   23233706.8604   23233701.6604
      2315.6974       1804.4354         43.0004         39.0004
  -6766114.92843  -5228629.49742  23740007.6884   23740014.5524   23740007.6214
     -3516.0364      -2739.7634         41.0004         36.0004
 04 12 26  1 47  0.0000000  0  8G23G 1G11G19G14G20G25G 3
  -1411943.54843  -1042036.30942  23904358.1034   23904361.7644   23904357.4304
      3527.9384       2749.0464         41.0004         36.0004
 -20291137.27243 -15762022.50642  20408580.8274   20408584.9314   20408580.5034
      -416.7164       -324.7134         51.0004         47.0004
 -18541568.42543 -14415199.38342  21069626.6614   21069629.5144   21069626.5534
      1836.7334       1431.2204         50.0004         45.0004
 -13962324.42743 -10832644.04842  21898025.2584   21898027.8904   21898024.5164
     -2708.5304      -2110.5374         48.0004         44.0004
  -3609360.64343  -2772376.26742  23153664.7874   23153668.6854   23153664.4264
     -3043.0394      -2371.1954         43.0004         39.0004
  -9611361.65443  -7456382.37542  22342382.8294   22342386.6774   22342382.2934
      1460.4834       1138.0264         46.0004         42.0004
  -3308080.93343  -2538539.07542  23220510.3354   23220515.6184   23220510.3434
      2306.0654       1796.9314         43.0004         39.0004
  -6660592.28943  -5146404.25642  23760088.4024   23760095.0764   23760088.0044
     -3518.1124      -2741.3824         41.0004         36.0004
 04 12 26  1 47 30.0000000  0  8G23G 1G11G19G14G20G25G 3
  -1517671.65943  -1124421.70542  23884238.6094   23884242.1904   23884237.9714
      3520.8814       2743.5304         41.0004         37.0004
 -20278327.95543 -15752041.20942  20411018.3804   20411022.4244   20411018.0374
      -437.3034       -340.7554         51.0004         47.0004
 -18596505.08343 -14458007.15742  21059172.5974   21059175.4154   21059172.4444
      1825.6924       1422.6174         50.0004         45.0004
 -13880877.48943 -10769178.96142  21913524.1644   21913526.8304   21913523.3604
     -2721.4144      -2120.5834         48.0004         43.0004
  -3517922.32843  -2701125.67442  23171064.8094   23171068.8354   23171064.6704
     -3053.0564      -2378.9974         43.0004         38.0004
  -9655077.93943  -7490447.00142  22334063.9004   22334067.7204   22334063.3294
      1453.9954       1132.9994         46.0004         42.0004
  -3377109.99343  -2592327.86542  23207374.4874   23207379.8894   23207374.4174
      2295.3464       1788.5744         44.0004         39.0004
  -6555005.21943  -5064128.78542  23780181.2094   23780187.6814   23780180.5574
     -3520.8834      -2743.5314         41.0004         36.0004
 04 12 26  1 48  0.0000000  0  8G23G 1G11G19G14G20G25G 3
  -1623217.66143  -1206665.20642  23864153.8084   23864157.2844   23864153.1364
      3514.7124       2738.7324         41.0004         37.0004
 -20264924.46743 -15741596.92242  20413568.9694   20413573.0204   20413568.5894
      -456.8884       -356.0254         51.0004         47.0004
 -18651135.90143 -14500576.60342  21048776.6524   21048779.5274   21048776.5154
      1815.5674       1414.7134         50.0004         45.0004
 -13799064.63743 -10705428.73442  21929092.6804   21929095.3054   21929091.8904
     -2733.4204      -2129.9424         48.0004         43.0004
  -3426217.30943  -2629667.25542  23188515.6474   23188519.5004   23188515.5374
     -3061.5964      -2385.6604         43.0004         38.0004
  -9698624.75743  -7524379.56342  22325777.1124   22325780.9984   22325776.5364
      1448.4044       1128.6224         46.0004         42.0004
  -3445844.50443  -2645887.14142  23194294.6064   23194300.1814   23194294.6144
      2285.9044       1781.2314         44.0004         39.0004
  -6449356.13143  -4981804.98642  23800285.5534   23800292.1514   23800285.0274
     -3522.8334      -2745.0584         41.0004         36.0004
 04 12 26  1 48 30.0000000  0  8G23G 1G11G19G14G20G25G 3
  -1728580.24443  -1288765.79042  23844103.7854   23844107.5384   23844103.1674
      3509.2114       2734.4504         42.0004         37.0004
 -20250928.71543 -15730691.13542  20416232.1934   20416236.2774   20416231.8734
      -476.1864       -371.0604         51.0004         47.0004
 -18705459.77043 -14542906.87142  21038439.1654   21038441.9924   21038439.0164
      1805.9454       1407.2214         50.0004         45.0004
 -13716889.34743 -10641396.07742  21944730.1604   21944732.7884   21944729.3614
     -2744.8524      -2138.8454         48.0004         43.0004
  -3334249.28743  -2558003.88842  23206016.5464   23206020.3864   23206016.6224
     -3069.5024      -2391.8254         43.0004         38.0004
  -9742003.59543  -7558181.23042  22317522.4454   22317526.2654   22317521.8494
      1443.4834       1124.7904         46.0004         42.0004
  -3514282.00143  -2699214.99642  23181271.3564   23181276.7734   23181271.3144
      2276.7074       1774.0544         44.0004         39.0004
  -6343648.88943  -4899435.88742  23820401.1324   23820407.8464   23820400.4834
     -3524.2224      -2746.1394         41.0004         36.0004
 04 12 26  1 49  0.0000000  0  8G23G 1G11G19G14G20G25G 3
  -1833756.10243  -1370720.87642  23824089.1554   23824093.2374   23824088.6604
      3502.8264       2729.4744         42.0004         37.0004
 -20236340.65643 -15719323.80542  20419008.2374   20419012.3104   20419007.9064
      -495.8314       -386.3534         51.0004         47.0004
 -18759473.74743 -14584995.67042  21028160.5804   21028163.4734   21028160.4864
      1795.5924       1399.1574         50.0004         46.0004
 -13634353.41543 -10577082.41042  21960436.3324   21960438.8754   21960435.5064
     -2756.8504      -2148.1944         48.0004         43.0004
  -3242019.86443  -2486136.84542  23223567.2644   23223571.0734   23223567.3094
     -3078.2004      -2398.5934         43.0004         38.0004
  -9785213.92643  -7591851.59842  22309299.6864   22309303.6444   22309299.1144
      1437.8694       1120.4104         46.0004         42.0004
  -3582418.57643  -2752308.37942  23168305.1764   23168310.7454   23168305.3234
      2266.5694       1766.1554         44.0004         39.0004
  -6237885.40843  -4817022.99742  23840527.4874   23840534.3324   23840526.7464
     -3526.3014      -2747.7574         41.0004         36.0004
 04 12 26  1 49 30.0000000  0  8G23G 1G11G19G14G20G25G 3
  -1938744.14743  -1452529.61742  23804110.3844   23804114.5234   23804109.8344
      3497.1194       2725.0234         41.0004         37.0004
 -20221162.43243 -15707496.61642  20421896.5534   20421900.6584   20421896.2324
      -515.1754       -401.4344         51.0004         47.0004
 -18813176.63343 -14626842.05642  21017941.2824   21017944.1854   21017941.1374
      1785.5034       1391.3014         50.0004         46.0004
 -13551460.75043 -10512490.78142  21976210.3344   21976212.8814   21976209.4914
     -2768.4244      -2157.2054         48.0004         43.0004
  -3149532.65043  -2414068.92442  23241167.1294   23241170.8694   23241167.0384
     -3086.4264      -2405.0004         43.0004         38.0004
  -9828257.12543  -7625391.73342  22301108.7784   22301112.7064   22301108.2244
      1432.6774       1116.3664         46.0004         42.0004
  -3650252.13343  -2805165.61842  23155396.9044   23155402.4944   23155396.9994
      2256.7184       1758.4804         43.0004         39.0004
  -6132069.29543  -4734569.07142  23860663.8564   23860670.7214   23860663.1744
     -3527.3384      -2748.5804         41.0004         36.0004
 04 12 26  1 50  0.0000000  0  8G23G 1G11G19G14G20G25G 3
  -2043541.37043  -1534189.68542  23784167.9574   23784171.9664   23784167.2384
      3490.2174       2719.6414         41.0004         36.0004
 -20205394.32043 -15695209.76942  20424897.1034   20424901.1874   20424896.7864
      -535.0574       -416.9254         51.0004         47.0004
 -18866565.51743 -14668443.76942  21007781.7434   21007784.6064   21007781.5704
      1774.8974       1383.0424         50.0004         46.0004
 -13468213.22443 -10447622.62242  21992051.8164   21992054.3924   21992051.0214
     -2780.2384      -2166.4164         48.0004         43.0004
  -3056789.89543  -2341801.87842  23258815.6524   23258819.3234   23258815.3404
     -3095.2344      -2411.8634         43.0004         38.0004
  -9871132.71743  -7658801.26442  22292949.8614   22292953.7364   22292949.3134
      1426.8624       1111.8304         46.0004         42.0004
  -3717778.77343  -2857783.73042  23142546.9584   23142552.5524   23142546.9514
      2246.1064       1750.2134         43.0004         39.0004
  -6026202.61843  -4652075.74342  23880809.7984   23880816.6234   23880809.1754
     -3529.1404      -2749.9764         40.0004         36.0004
 04 12 26  1 50 30.0000000  0  8G23G 1G11G19G14G20G25G 3
  -2148146.10043  -1615699.73042  23764262.1264   23764266.0924   23764261.3304
      3484.1224       2714.9034         41.0004         36.0004
 -20189037.86843 -15682464.47442  20428009.6074   20428013.7054   20428009.3164
      -554.6704       -432.1994         51.0004         47.0004
 -18919638.56643 -14709799.37242  20997682.1994   20997685.1454   20997682.0814
      1764.2234       1374.7184         50.0004         46.0004
 -13384613.83043 -10382480.28542  22007960.2834   22007962.8524   22007959.5164
     -2792.2404      -2175.7664         48.0004         43.0004
  -2963794.39843  -2269337.89442  23276512.2074   23276515.8864   23276511.9564
     -3103.5714      -2418.3634         43.0004         38.0004
  -9913841.79443  -7692081.04142  22284822.5574   22284826.4644   22284822.0104
      1421.3494       1107.5534         46.0004         42.0004
  -3784995.73243  -2910160.51742  23129755.8434   23129761.5564   23129755.7874
      2236.0024       1742.3354         43.0004         39.0004
  -5920288.45943  -4569545.43742  23900964.8104   23900971.6814   23900964.2284
     -3530.9874      -2751.4044         40.0004         36.0004
 04 12 26  1 51  0.0000000  0  8G23G 1G11G19G14G20G25G 3
  -2252555.67943  -1697057.72342  23744393.3194   23744397.4004   23744392.6914
      3476.7664       2709.1594         41.0004         37.0004
 -20172093.71743 -15669261.23542  20431233.9604   20431238.0534   20431233.6694
      -574.6694       -447.7874         51.0004         47.0004
 -18972393.66043 -14750907.22542  20987643.2034   20987646.1764   20987643.0904
      1753.1204       1366.0674         50.0004         46.0004
 -13300665.17843 -10317065.79542  22023935.1914   22023937.7514   22023934.4444
     -2804.1674      -2185.0684         48.0004         43.0004
  -2870548.81743  -2196679.03942  23294256.3464   23294259.9994   23294256.2394
     -3112.3934      -2425.2424         43.0004         38.0004
  -9956384.16643  -7725230.91542  22276727.0544   22276730.9184   22276726.4504
      1415.2584       1102.8074         46.0004         42.0004
  -3851899.66243  -2962293.37642  23117024.4414   23117030.0414   23117024.2734
      2224.6914       1733.5244         43.0004         39.0004
  -5814329.22643  -4486979.98042  23921127.8864   23921135.2364   23921127.8564
     -3532.5364      -2752.6264         40.0004         35.0004
 04 12 26  1 51 30.0000000  0  8G23G 1G11G19G14G20G25G 3
  -2356768.54343  -1778262.44342  23724562.1964   23724566.1054   23724561.6474
      3469.7724       2703.7084         42.0004         37.0004
 -20154563.87443 -15655601.61642  20434569.7854   20434573.8994   20434569.4994
      -594.7414       -463.4404         51.0004         47.0004
 -19024829.37643 -14791766.20942  20977665.0754   20977667.9884   20977664.8844
      1741.8064       1357.2494         50.0004         46.0004
 -13216370.86143 -10251381.96542  22039975.9724   22039978.4674   22039975.1794
     -2816.0034      -2194.2874         48.0004         43.0004
  -2777056.44443  -2123827.88842  23312047.4434   23312051.0854   23312047.1734
     -3121.2834      -2432.1634         43.0004         38.0004
  -9998761.25143  -7758252.00642  22268662.9464   22268666.7784   22268662.3854
      1409.0564       1097.9564         46.0004         42.0004
  -3918488.15743  -3014180.44642  23104353.0034   23104358.5934   23104352.7754
      2213.6344       1724.9044         44.0004         39.0004
  -5708328.64543  -4404382.33942  23941299.6204   23941306.4314   23941299.3404
     -3534.4234      -2754.0974         40.0004         35.0004
 04 12 26  1 52  0.0000000  0  8G23G 1G11G19G14G20G25G 3
  -2460781.48043  -1859311.37142  23704769.2534   23704773.0074   23704768.6014
      3463.6624       2698.9494         42.0004         37.0004
 -20136448.55743 -15641485.78242  20438017.0314   20438021.1124   20438016.7414
      -613.7764       -478.2634         51.0004         47.0004
 -19076942.45543 -14832373.78742  20967748.2364   20967751.1884   20967748.0534
      1731.5534       1349.2734         50.0004         46.0004
 -13131732.40743 -10185429.97442  22056082.1374   22056084.6884   22056081.3594
     -2827.3014      -2203.0864         48.0004         43.0004
  -2683319.13343  -2050785.88142  23329885.1764   23329888.6854   23329884.8334
     -3128.8574      -2438.0754         43.0004         38.0004
 -10040972.54343  -7791143.90042  22260630.3964   22260634.1754   22260629.8224
      1404.2034       1094.1834         46.0004         42.0004
  -3984757.02243  -3065818.47642  23091742.4154   23091748.0274   23091742.3074
      2203.2444       1716.8094         44.0004         39.0004
  -5602288.29343  -4321753.67342  23961478.7774   23961485.5854   23961478.2544
     -3535.5514      -2754.9704         40.0004         36.0004
 04 12 26  1 52 30.0000000  0  8G23G 1G11G19G14G20G25G 3
  -2564593.87643  -1940204.02442  23685014.3814   23685018.2554   23685013.6044
      3457.3434       2694.0164         42.0004         37.0004
 -20117750.70243 -15626916.02042  20441575.0954   20441579.1894   20441574.8264
      -632.3244       -492.7214         51.0004         47.0004
 -19128732.06743 -14872729.32242  20957892.9874   20957895.9304   20957892.8474
      1721.5344       1341.4564         50.0004         46.0004
 -13046754.00143 -10119213.07842  22072252.9964   22072255.5914   22072252.2544
     -2837.6804      -2211.1754         48.0004         43.0004
  -2589340.81643  -1977556.06542  23347768.6204   23347772.2354   23347768.3754
     -3136.2054      -2443.7994         43.0004         38.0004
 -10083019.79943  -7823907.96442  22252629.0824   22252632.8354   22252628.4864
      1399.4504       1090.4834         47.0004         42.0004
  -4050704.54643  -3117206.08942  23079193.0394   23079198.3974   23079192.8394
      2193.5024       1709.2204         44.0004         39.0004
  -5496212.77843  -4239097.61342  23981664.0434   23981671.2974   23981663.8254
     -3535.3134      -2754.7734         40.0004         35.0004
 04 12 26  1 53  0.0000000  0  8G23G 1G11G19G14G20G25G 3
  -2668202.20743  -2020937.66142  23665297.9384   23665302.1814   23665297.3474
      3449.7144       2688.0824         42.0004         37.0004
 -20098469.95543 -15611892.06242  20445244.0564   20445248.2124   20445243.8024
      -652.6264       -508.5444         51.0004         47.0004
 -19180195.17043 -14912830.42742  20948099.9364   20948102.8204   20948099.7524
      1709.7204       1332.2494         50.0004         46.0004
 -12961437.39143 -10052732.65642  22088488.3024   22088490.8524   22088487.5064
     -2849.6934      -2220.5334         48.0004         43.0004
  -2495122.93843  -1904139.58142  23365697.7114   23365701.2094   23365697.3784
     -3144.4764      -2450.2424         42.0004         38.0004
 -10124902.14043  -7856543.53542  22244659.1204   22244662.8214   22244658.5624
      1392.9104       1085.3784         47.0004         42.0004
  -4116326.50943  -3168340.03242  23066705.4614   23066710.8084   23066705.3634
      2181.6444       1699.9834         44.0004         39.0004
  -5390103.09143  -4156414.96942  24001856.3424   24001863.3804   24001855.8434
     -3537.5664      -2756.5424         40.0004         35.0004
 04 12 26  1 53 30.0000000  0  8G23G 1G11G19G14G20G25G 3
  -2771605.17243  -2101511.27942  23645620.9974   23645624.9384   23645620.3344
      3443.4934       2683.2344         42.0004         37.0004
 -20078608.37943 -15596415.50742  20449023.6094   20449027.7444   20449023.3184
      -671.6674       -523.3854         51.0004         47.0004
 -19231330.35243 -14952676.01942  20938369.1634   20938372.0834   20938369.0314
      1699.0694       1323.9464         50.0004         46.0004
 -12875786.06443  -9985991.40942  22104787.2284   22104789.8124   22104786.4104
     -2860.4494      -2228.9164         48.0004         43.0004
  -2400669.20843  -1830539.30642  23383671.6364   23383675.2214   23383671.3554
     -3151.9444      -2456.0564         42.0004         38.0004
 -10166620.86043  -7889051.59842  22236720.2994   22236724.0584   22236719.7334
      1388.1844       1081.7024         47.0004         42.0004
  -4181620.53143  -3219218.44342  23054280.4074   23054285.6754   23054280.3524
      2171.2204       1691.8574         44.0004         39.0004
  -5283962.88043  -4073708.50442  24022054.3754   24022061.3454   24022053.9414
     -3538.5054      -2757.2624         40.0004         35.0004
 04 12 26  1 54  0.0000000  0  8G23G 1G11G19G14G20G25G 3
  -2874799.80943  -2181922.59242  23625983.5544   23625987.3564   23625982.7674
      3436.6474       2677.9064         42.0004         37.0004
 -20058166.65243 -15580486.88942  20452913.5734   20452917.6234   20452913.2714
      -690.7694       -538.2614         51.0004         47.0004
 -19282135.31043 -14992264.28942  20928701.3114   20928704.2074   20928701.2014
      1688.2124       1315.4844         50.0004         46.0004
 -12789802.62543  -9918991.38542  22121149.4014   22121151.9254   22121148.5354
     -2871.3914      -2237.4454         48.0004         43.0004
  -2305981.78643  -1756756.94342  23401690.1794   23401693.6874   23401689.7434
     -3160.0344      -2462.3554         42.0004         38.0004
 -10208175.70943  -7921431.97942  22228812.6584   22228816.3844   22228812.0484
      1382.7214       1077.4424         47.0004         42.0004
  -4246582.54543  -3269838.16342  23041918.4224   23041923.6954   23041918.4304
      2160.1164       1683.2104         44.0004         39.0004
  -5177793.87743  -3990979.60542  24042257.9764   24042264.8764   24042257.2894
     -3538.8214      -2757.5194         40.0004         36.0004
 04 12 26  1 54 30.0000000  0  8G23G 1G11G19G14G20G25G 3
  -2977784.72443  -2262170.45642  23606386.0134   23606389.9234   23606385.5724
      3429.7904       2672.5694         42.0004         37.0004
 -20037146.71143 -15564107.71142  20456913.5374   20456917.6084   20456913.2424
      -709.8734       -553.1464         51.0004         47.0004
 -19332608.39643 -15031593.95642  20919096.6414   20919099.4684   20919096.4974
      1677.2884       1306.9904         50.0004         46.0004
 -12703490.39143  -9851735.14442  22137574.1144   22137576.6374   22137573.2434
     -2882.1874      -2245.8574         48.0004         43.0004
  -2211063.97443  -1682795.06542  23419752.6394   23419755.9564   23419752.0764
     -3167.2634      -2467.9964         42.0004         38.0004
 -10249567.79743  -7953685.52142  22220935.8844   22220939.7414   22220935.2984
      1377.3594       1073.2754         47.0004         42.0004
  -4311210.69043  -3320197.69842  23029619.9784   23029625.4064   23029620.0954
      2149.0194       1674.5524         44.0004         39.0004
  -5071599.77243  -3908231.17042  24062466.3164   24062473.2534   24062465.5934
     -3539.4604      -2758.0084         40.0004         36.0004
 04 12 26  1 55  0.0000000  0  8G23G 1G11G19G14G20G25G 3
  -3080558.03843  -2342253.42442  23586828.8334   23586832.6664   23586828.4244
      3422.1864       2666.6284         42.0004         37.0004
 -20015550.04843 -15547279.14142  20461023.2394   20461027.3314   20461022.9474
      -729.3484       -568.3284         51.0004         47.0004
 -19382747.43643 -15070663.33042  20909555.4824   20909558.3434   20909555.3544
      1665.8974       1298.1154         50.0004         46.0004
 -12616852.01943  -9784224.77042  22154060.8194   22154063.3604   22154060.0504
     -2893.2344      -2254.4674         48.0004         43.0004
  -2115918.49843  -1608655.77742  23437858.2794   23437861.6254   23437857.8404
     -3175.0524      -2474.0634         42.0004         38.0004
 -10290797.82243  -7985812.79342  22213090.1994   22213093.9454   22213089.5564
      1371.8304       1068.9434         47.0004         42.0004
  -4375501.70643  -3370294.54842  23017385.9194   23017391.0704   23017385.9614
      2137.5834       1665.6454         44.0004         39.0004
  -4965383.58343  -3825465.54042  24082678.4694   24082685.6094   24082678.0544
     -3540.9584      -2759.1734         40.0004         35.0004
 04 12 26  1 55 30.0000000  0  8G23G 1G11G19G14G20G25G 3
  -3183116.78343  -2422169.20342  23567312.6454   23567316.2434   23567312.0914
      3415.1424       2661.1444         42.0004         37.0004
 -19993377.24443 -15530001.63442  20465242.6214   20465246.6344   20465242.2964
      -748.6624       -583.3784         51.0004         47.0004
 -19432549.43643 -15109470.08442  20900078.4694   20900081.3284   20900078.3524
      1654.4804       1289.2064         50.0004         46.0004
 -12529889.41143  -9716461.75242  22170609.3154   22170611.8374   22170608.5514
     -2904.0954      -2262.9354         48.0004         43.0004
  -2020546.90943  -1534340.30542  23456006.8964   23456010.3594   23456006.3504
     -3182.9024      -2480.1884         42.0004         38.0004
 -10331865.33943  -8017813.42242  22205275.2654   22205278.9674   22205274.6644
      1366.4044       1064.7344         47.0004         42.0004
  -4439451.98243  -3420125.87742  23005216.4654   23005221.7984   23005216.5664
      2125.9534       1656.5834         44.0004         40.0004
  -4859147.07043  -3742684.07342  24102894.6834   24102901.9064   24102894.1944
     -3541.6714      -2759.7364         40.0004         35.0004
 04 12 26  1 56  0.0000000  0  8G23G 1G11G19G14G20G25G 3
  -3285459.39243  -2501916.58142  23547837.4964   23547841.0284   23547836.9684
      3407.5274       2655.2084         42.0004         37.0004
 -19970630.45843 -15512276.85942  20469571.1474   20469575.1654   20469570.8354
      -767.8864       -598.3574         51.0004         47.0004
 -19482013.55743 -15148013.54542  20890665.8234   20890668.5864   20890665.6794
      1643.1034       1280.3414         50.0004         46.0004
 -12442606.68443  -9648449.28442  22187218.7014   22187221.2154   22187217.9624
     -2914.7744      -2271.2484         47.0004         43.0004
  -1924953.23243  -1459851.76342  23474197.5764   23474201.1864   23474197.1974
     -3189.7854      -2485.5504         42.0004         37.0004
 -10372771.62543  -8049688.42842  22197491.0244   22197494.7044   22197490.4344
      1360.7194       1060.2964         47.0004         42.0004
  -4503059.23243  -3469689.91842  22993112.3694   22993117.6634   22993112.4384
      2114.6614       1647.7864         44.0004         40.0004
  -4752894.02743  -3659889.70642  24123114.2514   24123121.3454   24123113.5344
     -3542.3344      -2760.2484         40.0004         35.0004
 04 12 26  1 56 30.0000000  0  8G23G 1G11G19G14G20G25G 3
  -3387583.88743  -2581493.99142  23528403.7124   23528407.3364   23528403.2964
      3400.1284       2649.4484         42.0004         37.0004
 -19947311.14643 -15494105.97342  20474008.6354   20474012.6874   20474008.3424
      -787.3884       -613.5534         51.0004         47.0004
 -19531137.65043 -15186292.05742  20881317.8524   20881320.5624   20881317.6914
      1631.2704       1271.1204         50.0004         46.0004
 -12355006.60943  -9580189.53842  22203888.5284   22203891.0364   22203887.6944
     -2925.6124      -2279.6954         47.0004         43.0004
  -1829139.83143  -1385192.02042  23492430.1214   23492433.9144   23492429.8634
     -3197.7914      -2491.7794         42.0004         38.0004
 -10413517.10243  -8081438.12742  22189737.4554   22189741.0264   22189736.8494
      1354.9994       1055.8434         47.0004         42.0004
  -4566320.31243  -3518984.21542  22981074.1494   22981079.4614   22981074.2534
      2102.2874       1638.1464         44.0004         40.0004
  -4646626.81643  -3577084.31142  24143336.3634   24143343.4704   24143335.5984
     -3543.2274      -2760.9454         40.0004         36.0004
 04 12 26  1 57  0.0000000  0  8G23G 1G11G19G14G20G25G 3
  -3489487.65743  -2660899.42242  23509011.9094   23509015.5924   23509011.5594
      3392.6494       2643.6094         42.0004         37.0004
 -19923420.31843 -15475489.74242  20478554.9124   20478558.9664   20478554.6164
      -806.1944       -628.2164         51.0004         47.0004
 -19579919.33543 -15224303.74842  20872035.0304   20872037.6734   20872034.8444
      1620.0164       1262.3414         50.0004         46.0004
 -12267091.58543  -9511684.38542  22220618.2234   22220620.7974   22220617.4644
     -2936.0954      -2287.8674         47.0004         43.0004
  -1733109.34743  -1310363.11542  23510704.0894   23510707.8824   23510703.8374
     -3204.6784      -2497.1594         42.0004         37.0004
 -10454101.70643  -8113062.47642  22182014.4534   22182017.9994   22182013.8854
      1349.9604       1051.9154         47.0004         42.0004
  -4629231.87043  -3568006.17842  22969102.5894   22969107.7814   22969102.5504
      2090.8664       1629.2434         44.0004         40.0004
  -4540347.58443  -3494269.57742  24163560.7324   24163568.2814   24163560.0154
     -3543.1534      -2760.8804         40.0004         35.0004
 04 12 26  1 57 30.0000000  0  8G23G 1G11G19G14G20G25G 3
  -3591168.78443  -2740131.30742  23489662.3674   23489666.2294   23489662.0134
      3385.5374       2638.0784         42.0004         37.0004
 -19898959.37543 -15456429.26942  20483209.6564   20483213.7244   20483209.3614
      -824.6264       -642.5694         51.0004         47.0004
 -19628356.23443 -15262046.77642  20862817.7554   20862820.4124   20862817.6084
      1608.9984       1253.7744         50.0004         46.0004
 -12178864.57243  -9442936.12342  22237407.3324   22237409.8654   22237406.5534
     -2945.8504      -2295.4584         47.0004         43.0004
  -1636864.18543  -1235366.94442  23529018.7934   23529022.9164   23529018.8214
     -3211.2904      -2502.3024         42.0004         37.0004
 -10494525.98043  -8144561.88042  22174321.9024   22174325.5774   22174321.3174
      1344.9134       1047.9794         47.0004         42.0004
  -4691790.86043  -3616753.39242  22957198.0294   22957203.1504   22957198.0264
      2079.5054       1620.3904         44.0004         40.0004
  -4434059.38343  -3411447.83642  24183786.7144   24183794.5094   24183786.1974
     -3543.0104      -2760.7764         40.0004         35.0004
 04 12 26  1 58  0.0000000  0  8G23G 1G11G19G14G20G25G 3
  -3692625.21243  -2819188.16842  23470355.6654   23470359.5404   23470355.3394
      3378.6534       2632.7124         42.0004         37.0004
 -19873930.14643 -15436925.97442  20487972.5554   20487976.6314   20487972.2664
      -843.5184       -657.2814         51.0004         47.0004
 -19676446.91243 -15299520.03042  20853666.4274   20853669.0154   20853666.2594
      1597.4354       1244.7594         51.0004         46.0004
 -12090328.65643  -9373947.14642  22254255.1174   22254257.7764   22254254.4334
     -2956.0174      -2303.3814         47.0004         43.0004
  -1540407.32843  -1160205.81342  23547373.8654   23547377.9094   23547373.8864
     -3218.3584      -2507.8074         42.0004         37.0004
 -10534790.78343  -8175937.03142  22166659.7374   22166663.4254   22166659.1954
      1339.6524       1043.8784         47.0004         42.0004
  -4753994.76743  -3665223.92142  22945360.9384   22945366.1534   22945361.0254
      2068.1504       1611.5424         44.0004         40.0004
  -4327765.02443  -3328621.29942  24204014.0754   24204021.8324   24204013.5974
     -3543.1614      -2760.8924         40.0004         35.0004
 04 12 26  1 58 30.0000000  0  8G23G 1G11G19G14G20G25G 3
  -3793854.89243  -2898068.31942  23451092.1644   23451095.7824   23451091.7104
      3370.9564       2626.7244         42.0004         37.0004
 -19848334.33743 -15416981.19442  20492843.2524   20492847.3414   20492842.9694
      -862.1704       -671.8064         51.0004         47.0004
 -19724189.49043 -15336722.03042  20844581.2844   20844583.9374   20844581.1284
      1585.9754       1235.8234         51.0004         46.0004
 -12001486.96043  -9304719.90542  22271161.1164   22271163.8314   22271160.4864
     -2965.9704      -2311.1454         47.0004         43.0004
  -1443741.55843  -1084881.90042  23565768.9114   23565772.9454   23565768.8244
     -3225.2984      -2513.2204         42.0004         37.0004
 -10574896.57543  -8207188.28542  22159027.8884   22159031.4844   22159027.3294
      1334.3984       1039.7974         47.0004         42.0004
  -4815840.72343  -3713415.50942  22933592.0934   22933597.1504   22933592.1204
      2055.9514       1602.0444         44.0004         40.0004
  -4221467.72243  -3245792.49042  24224241.7424   24224249.6024   24224241.3764
     -3542.9374      -2760.7154         40.0004         35.0004
 04 12 26  1 59  0.0000000  0  8G23G 1G11G19G14G20G25G 3
  -3894854.73443  -2976769.37742  23431872.4564   23431875.9644   23431872.0144
      3362.9474       2620.4714         42.0004         37.0004
 -19822172.03043 -15396594.97542  20497821.7864   20497825.8644   20497821.4824
      -881.4594       -686.8594         51.0004         47.0004
 -19771580.42943 -15373650.03042  20835563.1304   20835565.7374   20835562.9524
      1573.7004       1226.2474         51.0004         46.0004
 -11912340.98443  -9235255.56342  22288125.1384   22288127.8134   22288124.4154
     -2976.5304      -2319.3734         47.0004         43.0004
  -1346868.60443  -1009396.52742  23584203.3334   23584207.3474   23584203.3014
     -3232.5934      -2518.9084         42.0004         37.0004
 -10614842.43443  -8238314.90942  22151426.4564   22151430.0034   22151425.8854
      1328.6664       1035.3154         47.0004         42.0004
  -4877324.14043  -3761324.61342  22921892.1934   22921897.2444   22921892.2084
      2043.3114       1592.1894         45.0004         40.0004
  -4115168.39343  -3162962.12442  24244469.9354   24244478.0294   24244469.8534
     -3543.1254      -2760.8684         39.0004         34.0004
 04 12 26  1 59 30.0000000  0  8G23G 1G11G19G14G20G25G 3
  -3995624.97243  -3055291.51442  23412696.8844   23412699.9904   23412696.1474
      3354.1724       2613.6334         42.0004         38.0004
 -19795447.19043 -15375770.43042  20502907.2934   20502911.4344   20502907.0264
      -901.0274       -702.1034         51.0004         47.0004
 -19818620.20343 -15410304.39342  20826611.7524   20826614.3754   20826611.5934
      1561.2524       1216.5494         51.0004         46.0004
 -11822896.10243  -9165558.31042  22305146.0004   22305148.6784   22305145.2864
     -2987.3594      -2327.8164         47.0004         43.0004
  -1249793.32743   -933753.49442  23602676.2094   23602680.2424   23602676.0744
     -3240.0544      -2524.7234         41.0004         37.0004
 -10654631.25843  -8269319.16642  22143854.9244   22143858.4194   22143854.3154
      1322.7904       1030.7474         47.0004         42.0004
  -4938444.52243  -3808950.84042  22910261.3834   22910266.4144   22910261.3944
      2030.4904       1582.1994         45.0004         40.0004
  -4008872.17743  -3080134.16042  24264697.6944   24264705.6794   24264697.5404
     -3544.0884      -2761.6294         39.0004         34.0004
                            4  1
RINEX FILE SPLICE; other post-header comments skipped       COMMENT
 04 12 26  2  0  0.0000000  0  8G23G 1G11G19G14G20G25G 3
  -4096161.25943  -3133631.37842  23393565.5194   23393568.6984   23393564.8304
      3346.7794       2607.8704         42.0004         38.0004
 -19768159.27143 -15354507.11842  20508100.0134   20508104.1464   20508099.7134
      -919.6484       -716.6194         51.0004         47.0004
 -19865304.47443 -15446681.73842  20817728.0924   20817730.6654   20817727.8754
      1549.4614       1207.3664         51.0004         46.0004
 -11733152.90943  -9095628.60842  22322223.7344   22322226.2924   22322222.9244
     -2997.0434      -2335.3574         47.0004         42.0004
  -1152516.17443   -857953.15742  23621187.5444   23621191.3964   23621187.2284
     -3246.5424      -2529.7674         41.0004         37.0004
 -10694261.41343  -8300199.79242  22136313.4654   22136317.0394   22136312.8884
      1317.6804       1026.7524         47.0004         42.0004
  -4999196.85043  -3856290.27142  22898700.6114   22898705.5924   22898700.5754
      2018.1364       1572.5724         45.0004         40.0004
  -3902579.70543  -2997309.10842  24284924.6304   24284932.8414   24284924.3084
     -3543.6054      -2761.2564         39.0004         34.0004
 04 12 26  2  0 30.0000000  0  8G23G 1G11G19G14G20G25G 3
  -4196462.99543  -3211788.47942  23374478.6114   23374481.8214   23374478.1464
      3339.1084       2601.9034         43.0004         38.0004
 -19740311.21543 -15332807.33842  20513399.2644   20513403.4864   20513399.0104
      -938.0784       -730.9744         51.0004         47.0004
 -19911632.62643 -15482781.59242  20808912.0414   20808914.6984   20808911.8584
      1537.8984       1198.3684         51.0004         46.0004
 -11643115.80943  -9025469.88642  22339357.2334   22339359.7944   22339356.4724
     -3006.7054      -2342.8854         47.0004         43.0004
  -1055041.20943   -781998.70442  23639736.5244   23639740.3714   23639736.1154
     -3252.8504      -2534.6834         41.0004         37.0004
 -10733734.61043  -8330958.11242  22128802.0304   22128805.4994   22128801.4474
      1312.6534       1022.8514         47.0004         42.0004
  -5059579.41543  -3903341.57642  22887210.1114   22887215.1364   22887210.0704
      2005.8994       1563.0324         44.0004         40.0004
  -3796295.10443  -2914490.21842  24305150.3854   24305158.3644   24305149.8494
     -3543.3724      -2761.0484         39.0004         34.0004
 04 12 26  2  1  0.0000000  0  8G23G 1G11G19G14G20G25G 3
  -4296527.34343  -3289760.58442  23355437.1774   23355440.1034   23355436.5734
      3331.5494       2596.0024         43.0004         38.0004
 -19711904.02343 -15310671.86242  20518805.0044   20518809.2144   20518804.7344
      -956.5264       -745.3534         51.0004         47.0004
 -19957602.35143 -15518602.14542  20800164.3444   20800166.9504   20800164.1414
      1526.1454       1189.1974         51.0004         46.0004
 -11552787.09043  -8955083.92542  22356546.2444   22356548.8254   22356545.4964
     -3015.9974      -2350.1304         47.0004         42.0004
   -957370.62243   -705891.80942  23658322.5944   23658326.6004   23658322.2534
     -3259.0704      -2539.5334         41.0004         37.0004
 -10773050.65943  -8361593.97942  22121320.4444   22121323.8824   22121319.8474
      1307.7234       1019.0034         47.0004         43.0004
  -5119588.73943  -3950102.04442  22875790.6644   22875795.7014   22875790.6754
      1993.8614       1553.6504         44.0004         40.0004
  -3690020.36443  -2831678.98542  24325373.9404   24325381.8644   24325373.5334
     -3542.8604      -2760.6694         39.0004         34.0004
 04 12 26  2  1 30.0000000  0  8G23G 1G11G19G14G20G25G 3
  -4396352.45143  -3367546.29942  23336440.9764   23336443.7514   23336440.4704
      3323.4344       2589.6884         43.0004         38.0004
 -19682939.39443 -15288102.02842  20524316.7964   20524321.0004   20524316.5424
      -974.8084       -759.6034         51.0004         47.0004
 -20003211.33043 -15554141.61042  20791485.2684   20791487.8304   20791485.0474
      1514.3274       1179.9834         51.0004         46.0004
 -11462169.90643  -8884473.19342  22373790.0584   22373792.8394   22373789.3414
     -3025.4354      -2357.4844         47.0004         42.0004
   -859506.89443   -629634.40542  23676945.4454   23676949.6764   23676945.1464
     -3264.9814      -2544.1404         41.0004         37.0004
 -10812210.17843  -8392107.87042  22113868.5704   22113872.0704   22113868.0354
      1302.6944       1015.0854         47.0004         42.0004
  -5179221.87943  -3996569.36442  22864442.7884   22864447.8174   22864442.8754
      1981.3964       1543.9434         45.0004         40.0004
  -3583758.26643  -2748877.60742  24345595.1954   24345602.9054   24345594.6484
     -3541.8934      -2759.9114         39.0004         34.0004
 04 12 26  2  2  0.0000000  0  8G23G 1G11G19G14G20G25G 3
  -4495936.25343  -3445143.96042  23317490.5684   23317493.5104   23317490.1644
      3314.4484       2582.6754         43.0004         38.0004
 -19653418.98643 -15265099.11742  20529934.3274   20529938.5424   20529934.0814
      -993.9474       -774.5114         51.0004         47.0004
 -20048457.60143 -15589398.43742  20782875.1824   20782877.7464   20782874.9844
      1501.4314       1169.9464         51.0004         46.0004
 -11371267.12443  -8813639.91442  22391088.3144   22391091.1664   22391087.6204
     -3035.5314      -2365.3514         47.0004         42.0004
   -761452.77343   -553228.65542  23695604.6134   23695608.7864   23695604.2664
     -3272.1184      -2549.6994         41.0004         37.0004
 -10851213.61543  -8422500.14642  22106446.4684   22106449.9324   22106445.9014
      1296.8284       1010.5094         47.0004         42.0004
  -5238476.06243  -4042741.40642  22853167.0494   22853172.0594   22853167.0874
      1968.0654       1533.5564         45.0004         40.0004
  -3477511.40943  -2666088.17142  24365813.4874   24365821.3624   24365812.6234
     -3541.6264      -2759.7004         39.0004         34.0004
 04 12 26  2  2 30.0000000  0  8G23G 1G11G19G14G20G25G 3
  -4595276.79143  -3522552.09242  23298586.7454   23298589.5074   23298586.3074
      3308.1024       2577.7384         43.0004         38.0004
 -19623344.42343 -15241664.39542  20535657.2974   20535661.5504   20535657.0814
     -1010.9804       -787.7724         51.0004         47.0004
 -20093339.37043 -15624371.24142  20774334.4364   20774337.0374   20774334.2354
      1490.5594       1161.4824         51.0004         46.0004
 -11280081.66143  -8742586.36542  22408440.2464   22408443.2184   22408439.6084
     -3043.6904      -2371.6974         47.0004         42.0004
   -663211.05243   -476676.70942  23714299.2654   23714303.7164   23714299.1034
     -3277.1944      -2553.6594         41.0004         37.0004
 -10890061.44443  -8452771.16142  22099053.9184   22099057.4464   22099053.3384
      1293.0194       1007.5554         47.0004         42.0004
  -5297348.59743  -4088616.07242  22841963.9554   22841968.9114   22841963.9734
      1956.7324       1524.7294         45.0004         40.0004
  -3371282.53743  -2583312.72542  24386028.0794   24386035.4004   24386027.1584
     -3540.1004      -2758.5014         38.0004         33.0004
 04 12 26  2  3  0.0000000  0  8G23G 1G11G19G14G20G25G 3
  -4694372.32643  -3599769.29842  23279729.3424   23279732.1904   23279729.0344
      3298.6764       2570.3994         43.0004         39.0004
 -19592717.66243 -15217799.39142  20541485.4294   20541489.6534   20541485.1724
     -1030.3204       -802.8554         51.0004         47.0004
 -20137854.70343 -15659058.51042  20765863.4694   20765866.0564   20765863.2494
      1477.4714       1151.2774         51.0004         46.0004
 -11188616.77143  -8671315.08142  22425845.4584   22425848.4674   22425844.7884
     -3053.9034      -2379.6644         47.0004         42.0004
   -564784.62543   -399980.83842  23733029.1154   23733033.4484   23733029.0104
     -3284.0494      -2559.0014         41.0004         36.0004
 -10928754.29843  -8482921.43142  22091690.8494   22091694.3484   22091690.3114
      1286.9644       1002.8274         47.0004         42.0004
  -5355836.81643  -4134191.25542  22830833.9734   22830838.9924   22830833.9694
      1943.0504       1514.0614         45.0004         40.0004
  -3265074.47443  -2500553.52542  24406239.0054   24406247.8354   24406238.8394
     -3539.9834      -2758.4204         38.0004         34.0004
