     2.10           OBSERVATION DATA    G (GPS)             RINEX VERSION / TYPE
teqc  2003Apr29                         20041229 00:22:02UTCPGM / RUN BY / DATE
OBSERVATION MODE: IGS-Net                                   COMMENT
PERT Perth (PERT)                                           MARKER NAME
50133M001                                                   MARKER NUMBER
200313003           ASHTECH UZ-12        CJ00               REC # / TYPE / VERS
CR620023901         ASH701945C_M    NONE                    ANT # / TYPE
        0.0595        0.0000        0.0000                  ANTENNA: DELTA H/E/N
  -2368687.3258  4881316.3600  -3341795.7047                APPROX POSITION XYZ
  115.88525167  -31.80196644  12.5303  LonLatAlt  S/W       COMMENT
Solaris 2.7|Ultra 2|cc SC5.0|=+-|*Sparc                     COMMENT
MSWin2000|IAx86-PII|bcc32 5.0|MSWin95->XP|486/DX+           COMMENT
BIT 2 OF LLI FLAGS DATA COLLECTED UNDER A/S CONDITION       COMMENT
AUTOMATIC           ESA/ESOC                                OBSERVER / AGENCY
     1     1                                                WAVELENGTH FACT L1/2
     9    L1    L2    C1    P2    P1    D1    D2    S1    S2# / TYPES OF OBSERV
    30.0000                                                 INTERVAL
 SNR is mapped to RINEX snr flag value [1-9]                COMMENT
  L1: 1 -> 1;  90 -> 5; 210 -> 9                            COMMENT
  L2: 1 -> 1; 150 -> 5; 250 -> 9                            COMMENT
pseudorange smoothing corrections not applied               COMMENT
Checked by ROCK 1.0 [28.12.04-00:18]; status 2: file fixed  COMMENT
    28                                                      # OF SATELLITES
   G01   639   640   643   640   639   639   640   639   640PRN / # OF OBS
   G03   722   734   741   734   722   722   734   722   734PRN / # OF OBS
   G04   871   876   881   876   871   871   876   871   876PRN / # OF OBS
   G05   794   795   795   795   794   794   795   794   795PRN / # OF OBS
   G06   821   826   840   826   821   821   826   821   826PRN / # OF OBS
   G07   522   525   531   525   522   522   525   522   525PRN / # OF OBS
   G08   821   823   825   823   821   821   823   821   823PRN / # OF OBS
   G09   717   722   733   722   717   717   722   717   722PRN / # OF OBS
   G10   885   891   905   891   885   885   891   885   891PRN / # OF OBS
   G11   710   712   719   712   710   710   712   710   712PRN / # OF OBS
   G13   825   827   835   827   825   825   827   825   827PRN / # OF OBS
   G14   752   760   763   760   752   752   760   752   760PRN / # OF OBS
   G15   853   858   858   858   853   853   858   853   858PRN / # OF OBS
   G16   621   622   628   622   621   621   622   621   622PRN / # OF OBS
   G17   688   693   697   693   688   688   693   688   693PRN / # OF OBS
   G18   681   688   692   688   681   681   688   681   688PRN / # OF OBS
   G19   661   664   669   664   661   661   664   661   664PRN / # OF OBS
   G20   751   752   758   752   751   751   752   751   752PRN / # OF OBS
   G21   745   746   749   746   745   745   746   745   746PRN / # OF OBS
   G22   722   727   729   727   722   722   727   722   727PRN / # OF OBS
   G23   827   827   827   827   827   827   827   827   827PRN / # OF OBS
   G24   857   864   868   864   857   857   864   857   864PRN / # OF OBS
   G25   821   829   847   829   821   821   829   821   829PRN / # OF OBS
   G26   620   624   630   624   620   620   624   620   624PRN / # OF OBS
   G27   704   707   711   707   704   704   707   704   707PRN / # OF OBS
   G28   656   661   663   661   656   656   661   656   661PRN / # OF OBS
   G29   626   627   634   627   626   626   627   626   627PRN / # OF OBS
   G30   820   821   824   821   820   820   821   820   821PRN / # OF OBS
Checked by ROCK 1.0 [29.12.04-00:24]; status 0: file OK     COMMENT
  2004    12    28     0     0    0.0000000     GPS         TIME OF FIRST OBS
  2004    12    28    23    59   30.0000000     GPS         TIME OF LAST OBS
                                                            END OF HEADER
 04 12 28  0  0  0.0000000  0  7G15G 1G11G 3G19G14G22
  -5695195.60843  -4371889.17242  22873212.8374   22873217.2294   22873212.1694
     -1654.0244      -1288.8564         45.0004         41.0004
 -11368235.02343  -8804364.49642  22078608.8934   22078613.6424   22078608.6264
      3066.6414       2389.5904         47.0004         42.0004
  -5474826.42143  -4229570.39642  23804767.8534   23804770.6764   23804767.4984
      2674.3904       2083.9374         41.0004         36.0004
 -22672540.78843 -17630166.12442  20708028.6994   20708032.4514   20708028.4614
     -1343.0964      -1046.5724         50.0004         46.0004
 -20302661.94343 -15774167.62242  20688563.4804   20688564.3434   20688562.6184
       772.7954        602.1714         52.0004         47.0004
 -13428543.46343 -10419451.74742  21327182.3394   21327185.3254   21327181.9594
       212.7414        165.7714         49.0004         44.0004
 -12465968.37643  -9667036.73642  22584602.8764   22584604.7494   22584602.9654
     -2767.6824      -2156.6394         45.0004         41.0004
 04 12 28  0  0 30.0000000  0  7G15G 1G11G 3G19G14G22
  -5645516.02443  -4333177.84642  22882666.5244   22882670.9464   22882665.8654
     -1658.0634      -1291.9934         45.0004         41.0004
 -11460074.29243  -8875927.54242  22061132.4234   22061137.0834   22061132.2204
      3055.9044       2381.2214         47.0004         42.0004
  -5555080.80743  -4292106.25142  23789495.8464   23789498.5964   23789495.4884
      2674.9744       2084.3864         41.0004         36.0004
 -22631986.47343 -17598565.39742  20715745.9194   20715749.7194   20715745.7124
     -1360.6854      -1060.2674         50.0004         46.0004
 -20325579.72243 -15792025.64242  20684202.3324   20684203.2724   20684201.5034
       754.7954        588.1564         52.0004         47.0004
 -13434626.93443 -10424192.11342  21326024.7264   21326027.6834   21326024.3414
       192.5124        150.0124         49.0004         44.0004
 -12382879.85443  -9602292.47442  22600414.2724   22600416.0194   22600414.2384
     -2771.7324      -2159.7864         46.0004         41.0004
 04 12 28  0  1  0.0000000  0  7G15G 1G11G 3G19G14G22
  -5595712.96643  -4294370.29442  22892143.7424   22892148.1854   22892143.0824
     -1661.4594      -1294.6404         45.0004         41.0004
 -11551588.94143  -8947237.64142  22043717.9024   22043722.3874   22043717.6224
      3045.9434       2373.4684         47.0004         42.0004
  -5635336.92743  -4354643.45642  23774223.4174   23774226.3854   23774223.1184
      2676.1714       2085.3304         41.0004         36.0004
 -22590894.77443 -17566545.92742  20723565.4644   20723569.2324   20723565.2514
     -1377.8584      -1073.6314         50.0004         46.0004
 -20347950.41643 -15809457.36442  20679945.3604   20679946.2984   20679944.5204
       737.2974        574.5334         52.0004         47.0004
 -13440098.03443 -10428455.30542  21324983.6334   21324986.5584   21324983.2434
       173.1134        134.9094         49.0004         44.0004
 -12299670.96243  -9537454.42842  22616248.2354   22616250.2294   22616248.2934
     -2774.6924      -2162.0874         45.0004         41.0004
 04 12 28  0  1 30.0000000  0  7G15G 1G11G 3G19G14G22
  -5545785.85343  -4255466.08942  22901644.5574   22901649.0444   22901643.9614
     -1667.7204      -1299.5264         45.0004         40.0004
 -11642775.61943  -9018292.17042  22026365.6084   22026370.1484   22026365.3624
      3032.5124       2362.9964         47.0004         43.0004
  -5715593.94443  -4417181.35942  23758950.8684   23758954.0814   23758950.6844
      2673.7874       2083.4664         41.0004         36.0004
 -22549266.67043 -17534108.48042  20731487.0944   20731490.8244   20731486.8634
     -1398.0514      -1089.3924         50.0004         46.0004
 -20369772.90043 -15826461.90442  20675792.6674   20675793.6284   20675791.8554
       716.6584        558.4264         52.0004         47.0004
 -13444956.27243 -10432240.94142  21324059.0994   21324062.0744   21324058.7384
       150.1804        117.0124         49.0004         44.0004
 -12216343.61843  -9472524.07742  22632105.0234   22632106.9684   22632104.9934
     -2781.1114      -2167.1034         45.0004         41.0004
 04 12 28  0  2  0.0000000  0  7G15G 1G11G 3G19G14G22
  -5495734.08543  -4216464.74442  22911169.0474   22911173.6384   22911168.5644
     -1670.5244      -1301.7084         45.0004         41.0004
 -11733631.17243  -9089088.67542  22009076.3714   22009080.8904   22009076.1364
      3022.9134       2355.5114         47.0004         43.0004
  -5795851.04143  -4479719.33942  23743678.2764   23743681.7344   23743678.1274
      2675.6504       2084.9244         41.0004         36.0004
 -22507103.17343 -17501253.84942  20739510.6084   20739514.3154   20739510.3614
     -1414.3254      -1102.0644         50.0004         46.0004
 -20391045.51043 -15843037.97442  20671744.6524   20671745.5944   20671743.8134
       699.8464        545.3344         52.0004         47.0004
 -13449201.27543 -10435548.73642  21323251.2874   21323254.2324   21323250.9164
       131.2134        102.2424         49.0004         44.0004
 -12132899.42943  -9407502.67842  22647983.9254   22647985.9904   22647983.9694
     -2783.3704      -2168.8604         45.0004         41.0004
 04 12 28  0  2 30.0000000  0  7G15G 1G11G 3G19G14G22
  -5445557.62343  -4177366.23042  22920717.4294   22920721.9434   22920716.8774
     -1674.6004      -1304.8834         45.0004         40.0004
 -11824152.96643  -9159625.11042  21991850.5394   21991855.1704   21991850.3544
      3011.7694       2346.8334         47.0004         43.0004
  -5876107.39443  -4542256.72542  23728406.0604   23728409.5464   23728405.7764
      2675.4174       2084.7474         41.0004         36.0004
 -22464405.84443 -17467983.23442  20747635.6284   20747639.3974   20747635.4014
     -1432.0774      -1115.9124         50.0004         45.0004
 -20411767.36443 -15859184.88242  20667801.4164   20667802.3574   20667800.5874
       681.5504        531.0664         52.0004         47.0004
 -13452832.98043 -10438378.63242  21322560.1934   21322563.1064   21322559.8694
       110.7884         86.3224         49.0004         44.0004
 -12049340.51743  -9342391.89042  22663884.6714   22663886.7474   22663884.7114
     -2787.5354      -2172.1104         45.0004         40.0004
 04 12 28  0  3  0.0000000  0  7G15G 1G11G 3G19G14G22
  -5395255.26243  -4138169.62242  22930289.5504   22930294.2294   22930289.0504
     -1678.2784      -1307.7474         45.0004         40.0004
 -11914337.41643  -9229898.68642  21974689.0304   21974693.6024   21974688.8294
      3000.9424       2338.3894         47.0004         43.0004
  -5956361.83043  -4604792.62442  23713133.9224   23713137.6674   23713133.8264
      2675.6654       2084.9394         41.0004         37.0004
 -22421175.16043 -17434297.02342  20755862.1904   20755865.9664   20755861.9884
     -1449.3384      -1129.3544         50.0004         46.0004
 -20431936.44443 -15874901.06442  20663963.3704   20663964.3304   20663962.5634
       663.6184        517.1144         52.0004         47.0004
 -13455850.75943 -10440730.13942  21321985.9434   21321988.8464   21321985.6174
        90.9534         70.8814         49.0004         45.0004
 -11965668.39943  -9277192.88542  22679807.0394   22679809.1164   22679807.1344
     -2790.3644      -2174.3084         45.0004         41.0004
 04 12 28  0  3 30.0000000  0  7G15G 1G11G 3G19G14G22
  -5344826.98443  -4098874.88542  22939885.7264   22939890.3954   22939885.2784
     -1683.7934      -1312.0444         45.0004         40.0004
 -12004182.01743  -9299907.44442  21957592.1914   21957596.6944   21957591.9434
      2988.5704       2328.7374         47.0004         43.0004
  -6036613.93643  -4667326.69642  23697862.5004   23697866.1344   23697862.3914
      2674.3664       2083.9194         41.0004         36.0004
 -22377412.88543 -17400196.58742  20764189.9464   20764193.6714   20764189.7054
     -1468.2404      -1144.0974         50.0004         46.0004
 -20451552.13643 -15890186.02642  20660230.6084   20660231.5904   20660229.8124
       644.0464        501.8424         52.0004         47.0004
 -13458254.69643 -10442603.33442  21321528.4734   21321531.3834   21321528.1174
        69.1674         53.8814         49.0004         44.0004
 -11881885.39143  -9211907.48242  22695750.4574   22695752.5444   22695750.5194
     -2795.1864      -2178.0584         45.0004         41.0004
 04 12 28  0  4  0.0000000  0  7G15G 1G11G 3G19G14G22
  -5294272.55743  -4059481.85342  22949506.0724   22949510.5994   22949505.4994
     -1687.2854      -1314.7644         45.0004         40.0004
 -12093683.86343  -9369649.11242  21940560.5184   21940565.0424   21940560.2674
      2977.7644       2320.3434         47.0004         43.0004
  -6116862.87343  -4729858.29742  23682591.7994   23682595.1784   23682591.6944
      2675.0794       2084.4824         41.0004         37.0004
 -22333120.17043 -17365682.82042  20772618.6124   20772622.3294   20772618.3594
     -1485.1824      -1157.2764         50.0004         45.0004
 -20470613.35743 -15905038.93742  20656603.4334   20656604.3724   20656602.6054
       626.2104        487.9554         52.0004         47.0004
 -13460044.72843 -10443998.16242  21321187.7974   21321190.7244   21321187.4394
        49.4824         38.5724         49.0004         44.0004
 -11797993.55843  -9146537.28242  22711714.5044   22711716.7394   22711714.5624
     -2797.9494      -2180.2184         45.0004         40.0004
 04 12 28  0  4 30.0000000  0  7G15G 1G11G 3G19G14G22
  -5243590.96043  -4019989.73042  22959150.4074   22959154.9924   22959149.8364
     -1691.3084      -1317.8984         45.0004         40.0004
 -12182839.55843  -9439121.06042  21923594.7294   21923599.2974   21923594.4664
      2966.1834       2311.3044         47.0004         43.0004
  -6197107.56943  -4792386.60542  23667321.7774   23667324.9794   23667321.7434
      2674.6564       2084.1454         41.0004         37.0004
 -22288297.71443 -17330756.25842  20781148.0404   20781151.7554   20781147.8144
     -1502.6364      -1170.8894         50.0004         45.0004
 -20489118.28343 -15919458.36842  20653082.1074   20653082.9844   20653081.2504
       607.7724        473.5874         52.0004         47.0004
 -13461220.37543 -10444914.24042  21320964.0834   21320967.0154   21320963.7174
        29.1054         22.6824         49.0004         45.0004
 -11713993.96943  -9081083.08942  22727699.2494   22727701.3814   22727699.1984
     -2801.6134      -2183.0734         45.0004         41.0004
 04 12 28  0  5  0.0000000  0  7G15G 1G11G 3G19G14G22
  -5192782.22743  -3980398.54242  22968818.9094   22968823.6344   22968818.3984
     -1696.3674      -1321.8454         45.0004         40.0004
 -12271646.33643  -9508321.12142  21906695.4584   21906699.9214   21906695.1004
      2953.7004       2301.5884         47.0004         43.0004
  -6277347.80843  -4854911.43542  23652052.4824   23652055.7554   23652052.3934
      2673.9874       2083.6174         41.0004         37.0004
 -22242947.24343 -17295418.25242  20789777.9494   20789781.6584   20789777.7514
     -1521.0664      -1185.2544         50.0004         45.0004
 -20507066.12643 -15933443.70842  20649666.7044   20649667.6134   20649665.8854
       588.3834        458.4764         52.0004         47.0004
 -13461781.52243 -10445351.49042  21320857.3094   21320860.2254   21320856.9554
         7.7504          6.0314         49.0004         45.0004
 -11629889.04743  -9015546.82242  22743703.7744   22743706.0544   22743703.7524
     -2805.9754      -2186.4784         45.0004         40.0004
 04 12 28  0  5 30.0000000  0  7G15G 1G11G 3G19G14G22
  -5141845.80943  -3940707.86042  22978511.8304   22978516.5274   22978511.2814
     -1700.1164      -1324.7634         45.0004         40.0004
 -12360101.06743  -9577246.85742  21889862.9744   21889867.5284   21889862.6774
      2942.4824       2292.8524         47.0004         43.0004
  -6357582.34743  -4917431.81942  23636784.2764   23636787.4334   23636784.1164
      2674.4034       2083.9444         41.0004         37.0004
 -22197069.98543 -17259669.76442  20798508.1964   20798511.8444   20798507.9544
     -1538.1294      -1198.5344         50.0004         45.0004
 -20524455.77543 -15946994.09042  20646357.5774   20646358.5014   20646356.7424
       570.3724        444.4534         52.0004         47.0004
 -13461728.09443 -10445309.86242  21320867.4124   21320870.3704   21320867.0964
       -12.2154         -9.5134         49.0004         44.0004
 -11545680.65143  -8949929.93442  22759728.1224   22759730.3864   22759728.1134
     -2808.8974      -2188.7494         45.0004         40.0004
 04 12 28  0  6  0.0000000  0  7G15G 1G11G 3G19G14G22
  -5090780.62943  -3900916.84142  22988229.2464   22988233.9754   22988228.6334
     -1704.5784      -1328.2464         45.0004         40.0004
 -12448200.35543  -9645895.63442  21873098.2394   21873102.7314   21873097.9014
      2930.4114       2283.4424         47.0004         43.0004
  -6437809.85443  -4979946.73042  23621517.3904   23621520.6984   23621517.3754
      2673.9534       2083.6054         42.0004         37.0004
 -22150666.52743 -17223511.24442  20807338.4694   20807342.1864   20807338.2594
     -1555.8554      -1212.3474         50.0004         45.0004
 -20541285.42043 -15960108.11142  20643154.9524   20643155.9474   20643154.1444
       551.4974        429.7334         52.0004         47.0004
 -13461059.62043 -10444788.97242  21320994.5404   21320997.5504   21320994.2284
       -32.8104        -25.5684         49.0004         44.0004
 -11461370.01743  -8884233.36742  22775771.9654   22775774.1374   22775771.9934
     -2812.4034      -2191.4854         45.0004         40.0004
 04 12 28  0  6 30.0000000  0  7G15G 1G11G 3G19G14G22
  -5039587.07543  -3861025.79542  22997971.1274   22997975.8644   22997970.4974
     -1708.5434      -1331.3284         45.0004         40.0004
 -12535941.93043  -9714265.67042  21856401.4944   21856406.0434   21856401.1804
      2919.0524       2274.5854         47.0004         43.0004
  -6518030.06243  -5042455.93142  23606252.0094   23606255.4234   23606251.9974
      2673.8324       2083.4994         42.0004         37.0004
 -22103739.10043 -17186944.44442  20816268.4704   20816272.2174   20816268.2524
     -1572.8844      -1225.6164         50.0004         45.0004
 -20557554.62843 -15972785.42842  20640059.0414   20640060.0434   20640058.2324
       532.9614        415.2944         52.0004         47.0004
 -13459776.58043 -10443789.20642  21321238.7634   21321241.7664   21321238.4044
       -52.7954        -41.1364         49.0004         45.0004
 -11376959.60943  -8818459.06942  22791834.6974   22791836.9194   22791834.7644
     -2815.2494      -2193.6994         45.0004         40.0004
 04 12 28  0  7  0.0000000  0  7G15G 1G11G 3G19G14G22
  -4988264.41543  -3821034.14142  23007737.4764   23007742.2794   23007736.8804
     -1712.6044      -1334.4964         45.0004         40.0004
 -12623322.52743  -9782354.42542  21839773.4914   21839778.0614   21839773.1464
      2906.7294       2264.9854         47.0004         43.0004
  -6598242.17543  -5104958.85642  23590988.2734   23590991.6374   23590988.2764
      2673.6454       2083.3654         42.0004         37.0004
 -22056288.65943 -17149970.09842  20825297.9644   20825301.7244   20825297.7574
     -1590.3074      -1239.1834         50.0004         45.0004
 -20573262.16943 -15985025.07742  20637069.9844   20637071.0054   20637069.1854
       514.4164        400.8574         52.0004         47.0004
 -13457878.80943 -10442310.41642  21321599.8844   21321602.9044   21321599.5844
       -73.3524        -57.1684         49.0004         44.0004
 -11292451.28143  -8752608.45342  22807916.2124   22807918.1774   22807916.1724
     -2818.3514      -2196.1224         45.0004         40.0004
 04 12 28  0  7 30.0000000  0  7G15G 1G11G 3G19G14G22
  -4936812.26343  -3780941.59542  23017528.5394   23017533.3494   23017527.9604
     -1717.0394      -1337.9474         45.0004         40.0004
 -12710339.41143  -9850159.77142  21823214.7044   21823219.3054   21823214.3524
      2894.7644       2255.6564         47.0004         43.0004
  -6678445.49243  -5167454.92442  23575726.2164   23575729.5004   23575726.0234
      2673.7894       2083.4774         42.0004         37.0004
 -22008316.83343 -17112589.47142  20834426.6774   20834430.5024   20834426.4984
     -1607.4164      -1252.5274         50.0004         45.0004
 -20588407.23143 -15996826.43342  20634187.9774   20634188.9784   20634187.1684
       495.7644        386.3094         52.0004         47.0004
 -13455366.33343 -10440352.63242  21322077.9774   21322081.0034   21322077.6954
       -93.7674        -73.0694         49.0004         44.0004
 -11207846.84143  -8686682.96242  22824015.9514   22824017.9994   22824015.9134
     -2821.3474      -2198.4534         45.0004         40.0004
 04 12 28  0  8  0.0000000  0  7G15G 1G11G 3G19G14G22
  -4885229.95643  -3740747.63342  23027344.4324   23027349.1864   23027343.7494
     -1721.6254      -1341.5204         45.0004         40.0004
 -12796989.34043  -9917679.17342  21806725.7644   21806730.3694   21806725.3674
      2882.1194       2245.8094         47.0004         43.0004
  -6758638.78843  -5229943.15942  23560465.9134   23560469.1654   23560465.9514
      2672.7044       2082.6374         42.0004         38.0004
 -21959824.67543 -17074803.40942  20843654.3544   20843658.3054   20843654.2034
     -1625.0814      -1266.2734         50.0004         45.0004
 -20602988.34243 -16008188.34542  20631413.3204   20631414.3044   20631412.5084
       476.6494        371.4244         52.0004         47.0004
 -13452239.02443 -10437915.77542  21322673.0754   21322676.1104   21322672.8174
      -114.4584        -89.1774         49.0004         44.0004
 -11123147.82343  -8620683.78542  22840133.8084   22840135.7244   22840133.7564
     -2824.8664      -2201.1974         45.0004         40.0004
 04 12 28  0  8 30.0000000  0  7G15G 1G11G 3G19G14G22
  -4833517.12443  -3700451.96742  23037185.0904   23037189.8244   23037184.3734
     -1726.0774      -1344.9964         45.0004         40.0004
 -12883269.21743  -9984910.22142  21790307.2204   21790311.8754   21790306.8304
      2869.4534       2235.9464         48.0004         43.0004
  -6838820.92743  -5292422.70842  23545208.0094   23545211.1494   23545207.8254
      2671.9754       2082.0594         42.0004         38.0004
 -21910813.58343 -17036612.97742  20852980.8574   20852984.8664   20852980.6994
     -1642.6424      -1279.9894         50.0004         45.0004
 -20617004.40943 -16019109.95842  20628746.1524   20628747.1654   20628745.3624
       457.4334        356.4344         52.0004         47.0004
 -13448497.03943 -10434999.93342  21323385.1864   21323388.2064   21323384.9154
      -135.1724       -105.3434         49.0004         44.0004
 -11038356.03643  -8554612.32242  22856269.1444   22856271.1574   22856269.1414
     -2828.0664      -2203.6814         45.0004         40.0004
 04 12 28  0  9  0.0000000  0  7G15G 1G11G 3G19G14G22
  -4781673.65543  -3660054.50942  23047050.6514   23047055.1834   23047049.9784
     -1729.6924      -1347.8114         45.0004         40.0004
 -12969176.61643 -10051851.04242  21773959.4454   21773964.2234   21773959.1334
      2857.6834       2226.7654         48.0004         43.0004
  -6918991.60143  -5354893.32842  23529951.9274   23529955.2334   23529951.8694
      2672.6414       2082.5834         42.0004         38.0004
 -21861285.42843 -16998019.64042  20862405.7654   20862409.7664   20862405.6344
     -1659.0574      -1292.7654         50.0004         45.0004
 -20630454.94743 -16029590.90642  20626186.5834   20626187.6044   20626185.8054
       439.4294        342.4164         52.0004         47.0004
 -13444140.89243 -10431605.53142  21324214.1384   21324217.1914   21324213.8194
      -154.8704       -120.6794         49.0004         44.0004
 -10953473.42443  -8488470.06242  22872421.9054   22872423.8624   22872421.7974
     -2830.5384      -2205.6174         45.0004         40.0004
 04 12 28  0  9 30.0000000  0  7G15G 1G11G 3G19G14G22
  -4729698.31243  -3619554.30142  23056941.2214   23056945.8044   23056940.6324
     -1734.3524      -1351.4334         45.0004         40.0004
 -13054707.89843 -10118498.78542  21757683.3774   21757688.1054   21757683.0824
      2845.0914       2216.9514         48.0004         43.0004
  -6999149.17743  -5417353.77242  23514698.4454   23514701.5634   23514698.3044
      2671.7184       2081.8604         42.0004         38.0004
 -21811240.90043 -16959023.94642  20871928.9924   20871932.9194   20871928.8404
     -1676.4594      -1306.3274         50.0004         45.0004
 -20643338.26743 -16039629.86642  20623735.0184   20623735.9904   20623734.2294
       420.3864        327.5854         52.0004         48.0004
 -13439169.67243 -10427731.85942  21325160.2224   21325163.1594   21325159.8504
      -175.6674       -136.8744         49.0004         44.0004
 -10868501.24843  -8422258.04442  22888591.6134   22888593.5754   22888591.5304
     -2833.4904      -2207.9084         44.0004         40.0004
 04 12 28  0 10  0.0000000  0  7G15G 1G11G 3G19G14G22
  -4677591.24643  -3578951.46742  23066856.9624   23066861.5474   23066856.3024
     -1739.6794      -1355.5834         45.0004         40.0004
 -13139860.77243 -10184851.68142  21741479.2724   21741484.0104   21741479.0454
      2831.8004       2206.6014         48.0004         43.0004
  -7079293.41743  -5479803.81942  23499447.5844   23499450.6104   23499447.5064
      2670.6354       2081.0194         43.0004         38.0004
 -21760681.92543 -16919627.38242  20881550.0104   20881554.0154   20881549.8724
     -1694.2424      -1320.1774         49.0004         45.0004
 -20655653.86243 -16049226.45242  20621391.4674   20621392.4324   20621390.6504
       400.7174        312.2544         52.0004         48.0004
 -13433584.24143 -10423379.57742  21326223.0664   21326226.0154   21326222.7114
      -196.6774       -153.2494         49.0004         44.0004
 -10783442.01243  -8355978.16842  22904777.8944   22904779.8914   22904777.8054
     -2837.0554      -2210.6864         44.0004         40.0004
 04 12 28  0 10 30.0000000  0  7G15G 1G11G 3G19G14G22
  -4625351.64143  -3538245.33642  23076797.8094   23076802.4394   23076797.1784
     -1743.8274      -1358.8274         45.0004         40.0004
 -13224632.07443 -10250907.23342  21725347.9384   21725352.5404   21725347.6404
      2819.1954       2196.7664         48.0004         43.0004
  -7159423.07743  -5542242.49742  23484199.3054   23484202.4794   23484199.3384
      2670.6354       2081.0214         43.0004         38.0004
 -21709609.68843 -16879830.87442  20891268.7524   20891272.7954   20891268.6194
     -1710.9994      -1333.2574         49.0004         45.0004
 -20667400.50143 -16058379.68642  20619156.1554   20619157.1214   20619155.3394
       381.9184        297.5984         52.0004         48.0004
 -13427384.57843 -10418548.68142  21327402.8184   21327405.7724   21327402.4904
      -217.0944       -169.1604         49.0004         44.0004
 -10698296.76343  -8289631.27842  22920980.5194   22920982.5004   22920980.4004
     -2839.7494      -2212.7934         44.0004         40.0004
 04 12 28  0 11  0.0000000  0  7G15G 1G11G 3G19G14G22
  -4572979.04643  -3497435.57142  23086763.9574   23086768.6834   23086763.4424
     -1747.6424      -1361.7964         45.0004         40.0004
 -13309018.68843 -10316663.02942  21709289.6774   21709294.2764   21709289.4244
      2806.6464       2186.9964         48.0004         43.0004
  -7239537.03243  -5604668.93542  23468954.0764   23468957.1834   23468954.0364
      2670.3204       2080.7704         43.0004         38.0004
 -21658025.61743 -16839635.53742  20901084.9144   20901088.9484   20901084.7284
     -1727.8844      -1346.4064         49.0004         45.0004
 -20678577.13943 -16067088.76242  20617029.3614   20617030.2954   20617028.5264
       363.1534        282.9794         52.0004         48.0004
 -13420570.70943 -10413239.16742  21328699.4854   21328702.4234   21328699.1884
      -237.1984       -184.8394         49.0004         44.0004
 -10613067.49243  -8223218.90242  22937199.1514   22937201.0914   22937199.0844
     -2842.1974      -2214.6994         44.0004         40.0004
 04 12 28  0 11 30.0000000  0  7G15G 1G11G 3G19G14G22
  -4520472.65643  -3456521.54242  23096755.4954   23096760.4224   23096754.9454
     -1752.0494      -1365.2314         44.0004         40.0004
 -13393017.54543 -10382116.67542  21693305.2774   21693309.8264   21693305.0094
      2793.7464       2176.9474         48.0004         43.0004
  -7319634.00243  -5667082.13442  23453712.1304   23453715.1254   23453712.1404
      2670.0524       2080.5594         43.0004         38.0004
 -21605930.92743 -16799042.30542  20910998.2484   20911002.3004   20910998.0804
     -1744.6744      -1359.4634         49.0004         45.0004
 -20689182.70143 -16075352.84142  20615011.1924   20615012.1604   20615010.3714
       344.2984        268.2884         52.0004         48.0004
 -13413142.42043 -10407450.88642  21330113.0404   21330116.0184   21330112.7394
      -257.4264       -200.6044         49.0004         44.0004
 -10527755.56743  -8156742.14342  22953433.3764   22953435.4684   22953433.3994
     -2844.6804      -2216.6334         44.0004         40.0004
 04 12 28  0 12  0.0000000  0  7G15G 1G11G 3G19G14G22
  -4467833.13843  -3415503.78242  23106772.4974   23106777.4264   23106771.9424
     -1757.3704      -1369.3794         45.0004         40.0004
 -13476626.81143 -10447266.73442  21677395.0114   21677399.4334   21677394.7274
      2780.0654       2166.2864         48.0004         44.0004
  -7399714.25943  -5729482.28842  23438473.2544   23438476.2884   23438473.2724
      2668.6994       2079.5014         43.0004         38.0004
 -21553328.52143 -16758053.45042  20921008.2364   20921012.2634   20921008.0564
     -1762.3274      -1373.2494         50.0004         45.0004
 -20699217.48143 -16083172.15742  20613101.6324   20613102.5984   20613100.8314
       324.6384        252.9674         52.0004         48.0004
 -13405101.30043 -10401185.06642  21331643.1684   21331646.1714   21331642.8584
      -278.7664       -217.2264         49.0004         44.0004
 -10442363.84743  -8090203.17342  22969682.9004   22969685.0744   22969683.0114
     -2848.1464      -2219.3364         45.0004         40.0004
 04 12 28  0 12 30.0000000  0  7G15G 1G11G 3G19G14G22
  -4415058.95143  -3374381.08742  23116815.3234   23116820.1014   23116814.6664
     -1761.6604      -1372.7354         45.0004         40.0004
 -13559842.55343 -10512110.14742  21661559.6334   21661564.0434   21661559.3624
      2766.8844       2155.9954         48.0004         44.0004
  -7479775.84443  -5791867.90242  23423238.1004   23423241.1184   23423237.9704
      2667.8004       2078.7974         43.0004         38.0004
 -21500218.53043 -16716669.06842  20931114.7374   20931118.8024   20931114.5644
     -1779.1354      -1386.3454         49.0004         45.0004
 -20708679.19043 -16090544.92342  20611301.1224   20611302.1044   20611300.3114
       305.5874        238.0984         52.0004         48.0004
 -13396446.26043 -10394440.86642  21333290.1914   21333293.1514   21333289.8784
      -298.9314       -232.9514         49.0004         44.0004
 -10356892.76543  -8023602.36342  22985947.6264   22985949.7334   22985947.6504
     -2850.6694      -2221.2984         45.0004         40.0004
 04 12 28  0 13  0.0000000  0  7G15G 1G11G 3G19G14G22
  -4362150.61543  -3333153.84042  23126883.4504   23126888.2594   23126882.8534
     -1765.7784      -1375.9364         45.0004         40.0004
 -13642662.77243 -10576645.36542  21645799.5004   21645803.8614   21645799.1784
      2754.2414       2146.1564         48.0004         44.0004
  -7559818.43343  -5854238.71342  23408006.5394   23408009.6044   23408006.4144
      2667.6854       2078.7074         43.0004         38.0004
 -21446603.66843 -16674891.29042  20941317.3694   20941321.3894   20941317.1994
     -1795.5374      -1399.1204         49.0004         45.0004
 -20717568.31743 -16097471.52542  20609609.4524   20609610.5584   20609608.7344
       286.8104        223.4884         52.0004         48.0004
 -13387178.75943 -10387219.42342  21335053.7064   21335056.6764   21335053.4114
      -319.1104       -248.6594         49.0004         44.0004
 -10271345.10743  -7956941.88442  23002226.9364   23002228.9154   23002226.9334
     -2852.7304      -2222.9084         44.0004         40.0004
 04 12 28  0 13 30.0000000  0  7G15G 1G11G 3G19G14G22
  -4309107.02643  -3291821.22242  23136977.3094   23136982.1994   23136976.7194
     -1771.0514      -1380.0384         45.0004         40.0004
 -13725083.94443 -10640869.63942  21630115.2024   21630119.6344   21630114.9514
      2740.1014       2135.1354         48.0004         44.0004
  -7639840.96243  -5916593.91042  23392778.6954   23392781.7934   23392778.7514
      2666.6144       2077.8764         43.0004         38.0004
 -21392484.56343 -16632720.59042  20951615.9794   20951619.9324   20951615.7614
     -1813.0344      -1412.7674         49.0004         45.0004
 -20725883.51343 -16103950.91342  20608027.2034   20608028.2504   20608026.4344
       266.9934        208.0334         52.0004         48.0004
 -13377298.42443 -10379520.44542  21336933.8424   21336936.8314   21336933.5374
      -340.2674       -265.1474         49.0004         44.0004
 -10185721.79943  -7890222.48042  23018520.6014   23018522.5954   23018520.6224
     -2855.8454      -2225.3324         44.0004         40.0004
 04 12 28  0 14  0.0000000  0  7G15G 1G11G 3G19G14G22
  -4255928.07343  -3250383.12742  23147096.9974   23147101.8394   23147096.4474
     -1775.1374      -1383.2234         45.0004         40.0004
 -13807103.69543 -10704781.10442  21614507.4034   21614511.7794   21614507.1174
      2726.9964       2124.9534         48.0004         44.0004
  -7719842.18543  -5978932.49442  23377555.1434   23377558.1254   23377555.0104
      2666.0584       2077.4554         43.0004         38.0004
 -21337863.45643 -16590158.72242  20962010.0364   20962014.0534   20962009.8354
     -1829.4714      -1425.5434         49.0004         45.0004
 -20733623.99443 -16109982.47042  20606554.2684   20606555.3184   20606553.4724
       248.1154        193.3504         52.0004         48.0004
 -13366806.02943 -10371344.54042  21338930.4084   21338933.4644   21338930.1164
      -360.3034       -280.7444         49.0004         44.0004
 -10100025.08843  -7823445.86642  23034828.3114   23034830.2004   23034828.2744
     -2858.0864      -2227.0804         45.0004         40.0004
 04 12 28  0 14 30.0000000  0  7G15G 1G11G 3G19G14G22
  -4202612.35543  -3208838.45542  23157242.6714   23157247.5054   23157242.1264
     -1778.8614      -1386.1224         44.0004         40.0004
 -13888718.30143 -10768376.86942  21598976.6484   21598981.0504   21598976.3154
      2714.2224       2114.9834         49.0004         44.0004
  -7799820.47743  -6041253.19642  23362335.6464   23362338.7364   23362335.4984
      2666.0954       2077.4784         43.0004         38.0004
 -21282741.02343 -16547206.20942  20972499.5324   20972503.5294   20972499.3414
     -1845.1754      -1437.7974         49.0004         45.0004
 -20740788.02643 -16115564.84642  20605191.0094   20605192.0374   20605190.2284
       229.7174        179.0154         52.0004         48.0004
 -13355700.97843 -10362691.24542  21341043.5704   21341046.6774   21341043.3294
      -379.8414       -295.9764         49.0004         44.0004
 -10014255.65243  -7756612.57742  23051149.7854   23051151.6164   23051149.6714
     -2859.7184      -2228.3564         44.0004         40.0004
                            4  1
RINEX FILE SPLICE; other post-header comments skipped       COMMENT
 04 12 28  0 15  0.0000000  0  7G15G 1G11G 3G19G14G22
  -4149160.06443  -3167187.36142  23167414.3004   23167419.2524   23167413.7284
     -1783.6404      -1389.8484         44.0004         40.0004
 -13969925.51943 -10831655.21442  21583523.4134   21583527.7994   21583523.0984
      2700.2804       2104.1104         49.0004         44.0004
  -7879775.35543  -6103555.68442  23347120.6244   23347123.7684   23347120.5684
      2665.1514       2076.7354         43.0004         38.0004
 -21227119.62643 -16503864.88842  20983083.9544   20983087.9574   20983083.7564
     -1862.1684      -1451.0364         49.0004         45.0004
 -20747375.83543 -16120698.22342  20603937.4044   20603938.4114   20603936.6224
       210.1844        163.7804         52.0004         48.0004
 -13343984.13043 -10353561.20842  21343273.1954   21343276.3094   21343272.9314
      -400.5974       -312.1634         49.0004         44.0004
  -9928415.73343  -7689724.34642  23067484.5444   23067486.3314   23067484.3814
     -2862.2294      -2230.3174         44.0004         39.0004
 04 12 28  0 15 30.0000000  0  7G15G 1G11G 3G19G14G22
  -4095571.25943  -3125429.91042  23177611.9234   23177616.8544   23177611.3944
     -1788.5384      -1393.6584         44.0004         39.0004
 -14050723.07943 -10894614.32842  21568148.1844   21568152.5264   21568147.8684
      2686.6924       2093.5284         49.0004         44.0004
  -7959706.20443  -6165839.42442  23331910.1774   23331913.4374   23331910.1914
      2664.2544       2076.0494         43.0004         39.0004
 -21171001.28543 -16460136.34842  20993762.8744   20993766.9834   20993762.7374
     -1878.6274      -1463.8574         49.0004         45.0004
 -20753386.95043 -16125382.22342  20602793.4864   20602794.5374   20602792.7524
       191.1794        148.9794         52.0004         48.0004
 -13331656.55343 -10343955.29442  21345619.0034   21345622.1994   21345618.7544
      -420.8984       -327.9564         49.0004         44.0004
  -9842507.51443  -7622782.94142  23083832.3184   23083834.1624   23083832.2474
     -2864.2694      -2231.8954         44.0004         40.0004
 04 12 28  0 16  0.0000000  0  7G15G 1G11G 3G19G14G22
  -4041844.39243  -3083564.88342  23187835.9404   23187840.7524   23187835.3014
     -1792.9354      -1397.0904         44.0004         39.0004
 -14131107.06643 -10957251.17942  21552851.5574   21552855.9644   21552851.2954
      2672.9064       2082.7964         49.0004         44.0004
  -8039611.25943  -6228103.07342  23316704.7924   23316708.0334   23316704.8014
      2663.4744       2075.4414         43.0004         38.0004
 -21114386.52043 -16416020.97342  21004536.3844   21004540.4114   21004536.1964
     -1895.0234      -1476.6414         49.0004         45.0004
 -20758819.49243 -16129615.38342  20601759.6824   20601760.7984   20601758.9374
       171.8894        133.9434         52.0004         48.0004
 -13318717.69043 -10333873.05342  21348081.2534   21348084.3774   21348080.9444
      -440.8744       -343.5504         49.0004         44.0004
  -9756531.51743  -7555788.70542  23100193.1534   23100194.9154   23100193.1114
     -2866.4854      -2233.6274         44.0004         40.0004
 04 12 28  0 16 30.0000000  0  7G15G 1G11G 3G19G14G22
  -3987980.37043  -3041592.96542  23198085.9384   23198090.6964   23198085.3684
     -1797.1534      -1400.3774         44.0004         39.0004
 -14211075.76443 -11019564.43942  21537633.9824   21537638.3874   21537633.7024
      2659.4264       2072.2924         49.0004         44.0004
  -8119490.39943  -6290346.53742  23301504.3394   23301507.4264   23301504.2694
      2662.8024       2074.9214         43.0004         38.0004
 -21057278.19443 -16371521.01542  21015403.7404   21015407.7964   21015403.5734
     -1911.0504      -1489.1164         49.0004         45.0004
 -20763674.17543 -16133398.27342  20600835.8994   20600837.0064   20600835.1414
       152.9104        119.1564         52.0004         48.0004
 -13305169.04443 -10323315.66342  21350659.4714   21350662.6024   21350659.1694
      -461.0904       -359.3024         49.0004         44.0004
  -9670490.35043  -7488743.70042  23116566.3514   23116568.0934   23116566.2344
     -2868.2734      -2235.0164         44.0004         39.0004
 04 12 28  0 17  0.0000000  0  7G15G 1G11G 3G19G14G22
  -3933978.25143  -2999513.44342  23208362.2054   23208366.9524   23208361.6944
     -1802.3134      -1404.3984         44.0004         39.0004
 -14290626.22643 -11081551.78642  21522495.9744   21522500.4234   21522495.6884
      2644.4914       2060.6314         49.0004         44.0004
  -8199342.30643  -6352568.78042  23286309.1614   23286312.0654   23286309.0164
      2661.0684       2073.5594         43.0004         39.0004
 -20999677.69043 -16326637.53342  21026364.8204   21026368.8474   21026364.6224
     -1928.3494      -1502.5944         49.0004         45.0004
 -20767949.95243 -16136730.06042  20600022.2804   20600023.3574   20600021.5304
       132.7244        103.4284         52.0004         48.0004
 -13291010.93443 -10312283.35942  21353353.6984   21353356.7424   21353353.3584
      -482.2514       -375.7884         49.0004         44.0004
  -9584385.37443  -7421648.93542  23132951.5374   23132953.3984   23132951.4554
     -2871.5564      -2237.5734         44.0004         39.0004
 04 12 28  0 17 30.0000000  0  7G15G 1G11G 3G19G14G22
  -3879837.14443  -2957325.64342  23218665.0324   23218669.6784   23218664.4594
     -1807.2664      -1408.2624         44.0004         39.0004
 -14369755.22243 -11143210.72342  21507438.1734   21507442.6704   21507437.8804
      2630.2554       2049.5474         49.0004         44.0004
  -8279165.51643  -6414768.66342  23271119.3924   23271122.0754   23271119.2454
      2660.0924       2072.7984         43.0004         39.0004
 -20941586.45243 -16281371.67342  21037419.2094   21037423.2534   21037419.0064
     -1944.9474      -1515.5514         49.0004         45.0004
 -20771645.67943 -16139609.86242  20599319.0274   20599320.0974   20599318.2574
       113.1924         88.2064         52.0004         48.0004
 -13276243.52843 -10300776.28442  21356163.8474   21356166.8604   21356163.4674
      -502.7454       -391.7434         49.0004         44.0004
  -9498218.05343  -7354505.60642  23149348.7624   23149350.5064   23149348.6154
     -2873.9624      -2239.4544         44.0004         40.0004
 04 12 28  0 18  0.0000000  0  7G15G 1G11G 3G19G14G22
  -3825556.91043  -2915029.42042  23228994.1594   23228998.8644   23228993.6194
     -1811.3644      -1411.4534         44.0004         39.0004
 -14448460.22743 -11204539.27642  21492461.1164   21492465.6364   21492460.7814
      2616.6314       2038.9254         49.0004         44.0004
  -8358958.95543  -6476945.32442  23255935.1414   23255937.9394   23255935.0014
      2659.3954       2072.2554         43.0004         39.0004
 -20883006.70243 -16235725.15442  21048566.6104   21048570.6404   21048566.3924
     -1960.5994      -1527.7434         49.0004         44.0004
 -20774761.26143 -16142037.60242  20598726.1994   20598727.2324   20598725.3804
        94.2174         73.4174         52.0004         48.0004
 -13260867.43943 -10288794.91042  21359089.7704   21359092.8274   21359089.3914
      -522.6954       -407.3134         49.0004         44.0004
  -9411990.27943  -7287315.18442  23165757.3024   23165759.1884   23165757.2254
     -2874.9664      -2240.2344         44.0004         40.0004
 04 12 28  0 18 30.0000000  0  7G15G 1G11G 3G19G14G22
  -3771137.18743  -2872624.50442  23239349.9354   23239354.6554   23239349.4504
     -1815.8244      -1414.9234         44.0004         39.0004
 -14526738.45343 -11265535.27442  21477565.1124   21477569.7724   21477564.8894
      2602.4414       2027.8914         49.0004         44.0004
  -8438722.21443  -6539098.49242  23240756.5784   23240759.5554   23240756.5124
      2658.5954       2071.6304         43.0004         39.0004
 -20823940.12943 -16189699.29342  21059806.6264   21059810.6734   21059806.3904
     -1976.5934      -1540.1774         49.0004         45.0004
 -20777295.95443 -16144012.70442  20598243.8474   20598244.8994   20598243.0314
        75.3294         58.6984         52.0004         48.0004
 -13244883.54743 -10276339.92742  21362131.4114   21362134.5254   21362131.0264
      -542.6224       -422.8164         49.0004         44.0004
  -9325703.58043  -7220078.85942  23182177.0134   23182178.9944   23182176.9094
     -2876.7094      -2241.5814         44.0004         39.0004
 04 12 28  0 19  0.0000000  0  7G15G 1G11G 3G19G14G22
  -3716577.43043  -2830110.46842  23249732.3204   23249737.1574   23249731.8874
     -1820.9334      -1418.9084         44.0004         39.0004
 -14604587.20643 -11326196.62342  21462751.0444   21462755.6264   21462750.7534
      2587.9364       2016.5894         49.0004         44.0004
  -8518453.81543  -6601226.99842  23225584.2094   23225586.9874   23225583.9764
      2657.1314       2070.4864         43.0004         38.0004
 -20764388.37943 -16143295.36342  21071138.9794   21071143.0584   21071138.7584
     -1992.7794      -1552.8144         49.0004         45.0004
 -20779249.28443 -16145534.79442  20597872.1564   20597873.2244   20597871.3304
        55.5814         43.3104         52.0004         48.0004
 -13228292.20243 -10263411.60142  21365288.5874   21365291.7354   21365288.2404
      -562.8414       -438.5744         49.0004         44.0004
  -9239359.38143  -7152797.71442  23198607.8234   23198609.7244   23198607.6544
     -2878.9944      -2243.3684         44.0004         39.0004
 04 12 28  0 19 30.0000000  0  7G15G 1G11G 3G19G14G22
  -3661876.99043  -2787486.81542  23260141.5214   23260146.5574   23260141.0534
     -1825.4184      -1422.4044         44.0004         39.0004
 -14682003.62143 -11386521.07942  21448019.1644   21448023.7174   21448018.8584
      2573.6644       2005.4504         49.0004         44.0004
  -8598152.37143  -6663329.73942  23210417.9684   23210420.8304   23210417.7284
      2656.6234       2070.0904         43.0004         39.0004
 -20704353.03643 -16096514.62642  21082563.3674   21082567.4164   21082563.1334
     -2008.9584      -1565.4154         49.0004         44.0004
 -20780620.44043 -16146603.24442  20597611.2694   20597612.3074   20597610.4234
        36.3664         28.3394         52.0004         48.0004
 -13211094.06843 -10250010.45142  21368561.3244   21368564.4014   21368560.9784
      -582.9574       -454.2554         49.0004         44.0004
  -9152959.17343  -7085472.92642  23215049.3044   23215051.1694   23215049.1524
     -2880.2024      -2244.3114         44.0004         39.0004
 04 12 28  0 20  0.0000000  0  7G15G 1G11G 3G19G14G22
  -3607035.86443  -2744753.52742  23270577.6394   23270582.4834   23270577.0114
     -1830.2174      -1426.1404         44.0004         40.0004
 -14758985.45343 -11446506.91142  21433369.9584   21433374.5214   21433369.6834
      2559.1084       1994.1094         49.0004         44.0004
  -8677817.55543  -6725406.50942  23195258.1384   23195261.0434   23195257.8494
      2655.0444       2068.8674         43.0004         39.0004
 -20643836.47843 -16049358.91142  21094079.2644   21094083.3364   21094079.0444
     -2024.9464      -1577.8844         49.0004         44.0004
 -20781409.41343 -16147218.04542  20597461.1154   20597462.1924   20597460.2874
        16.7864         13.0754         52.0004         48.0004
 -13193290.16443 -10236137.27842  21371949.3094   21371952.3774   21371948.9794
      -603.3704       -470.1594         49.0004         44.0004
  -9066504.86543  -7018105.97742  23231501.0124   23231502.9634   23231500.9024
     -2882.3954      -2246.0174         44.0004         39.0004
 04 12 28  0 20 30.0000000  0  7G15G 1G11G 3G19G14G22
  -3552053.63143  -2701910.29142  23281040.4874   23281045.4494   23281039.8604
     -1834.8734      -1429.7674         44.0004         40.0004
 -14835529.98843 -11506151.99142  21418803.9504   21418808.5904   21418803.6584
      2544.1024       1982.4054         49.0004         44.0004
  -8757448.02343  -6787456.20542  23180104.8644   23180107.8294   23180104.6224
      2653.8214       2067.9134         43.0004         38.0004
 -20582840.53743 -16001829.64042  21105686.3574   21105690.5124   21105686.2064
     -2041.2384      -1590.5844         49.0004         44.0004
 -20781615.75843 -16147378.84742  20597421.9314   20597422.9334   20597421.0474
        -2.8584         -2.2274         52.0004         48.0004
 -13174881.26343 -10221792.68342  21375452.3624   21375455.4624   21375452.0724
      -623.8454       -486.1054         49.0004         44.0004
  -8979997.97043  -6950698.07342  23247962.6644   23247964.7424   23247962.5464
     -2884.4654      -2247.6304         43.0004         39.0004
 04 12 28  0 21  0.0000000  0  7G15G 1G11G 3G19G14G22
  -3496929.55343  -2658956.53542  23291530.2724   23291535.2104   23291529.5904
     -1839.6514      -1433.4894         44.0004         39.0004
 -14911634.22443 -11565453.97842  21404321.7754   21404326.4104   21404321.5104
      2529.5694       1971.0924         49.0004         44.0004
  -8837042.22343  -6849477.63042  23164958.6784   23164961.4424   23164958.3894
      2652.6674       2067.0064         43.0004         39.0004
 -20521366.72043 -15953928.00442  21117384.4274   21117388.6424   21117384.2904
     -2056.7774      -1602.6714         49.0004         44.0004
 -20781238.81243 -16147085.14042  20597493.6554   20597494.6624   20597492.7714
       -21.8794        -17.0304         52.0004         48.0004
 -13155867.84943 -10206977.03742  21379070.4654   21379073.5474   21379070.1684
      -643.6284       -501.5254         49.0004         44.0004
  -8893439.87743  -6883250.27442  23264434.0984   23264436.2464   23264434.0894
     -2885.4434      -2248.3934         44.0004         39.0004
 04 12 28  0 21 30.0000000  0  7G15G 1G11G 3G19G14G22
  -3441663.61343  -2615892.23142  23302047.0144   23302052.0094   23302046.4354
     -1844.7654      -1437.4824         44.0004         39.0004
 -14987295.71843 -11624410.97242  21389923.8644   21389928.5014   21389923.6164
      2514.2774       1959.1804         49.0004         44.0004
  -8916599.69643  -6911470.44642  23149819.3304   23149822.0664   23149819.0604
      2650.8054       2065.5604         43.0004         39.0004
 -20459417.24743 -15905655.72142  21129173.0644   21129177.2974   21129172.9354
     -2073.1314      -1615.4234         49.0004         44.0004
 -20780278.20643 -16146336.62742  20597676.5084   20597677.4784   20597675.6134
       -42.0894        -32.7944         52.0004         48.0004
 -13136250.80743 -10191691.02642  21382803.5854   21382806.5374   21382803.2194
      -664.1154       -517.4994         49.0004         44.0004
  -8806832.33543  -6815763.93142  23280915.0634   23280917.1564   23280914.9904
     -2888.0544      -2250.4294         44.0004         39.0004
 04 12 28  0 22  0.0000000  0  7G15G 1G11G 3G19G14G22
  -3386254.92343  -2572716.67142  23312590.9994   23312595.9644   23312590.4654
     -1849.1664      -1440.9094         44.0004         39.0004
 -15062511.44443 -11683020.61142  21375610.7694   21375615.3994   21375610.4864
      2499.9684       1948.0244         49.0004         44.0004
  -8996118.74443  -6973433.31542  23134687.2504   23134690.0854   23134686.9814
      2650.5044       2065.3254         43.0004         39.0004
 -20396993.56243 -15857013.91942  21141051.9564   21141056.1254   21141051.8254
     -2088.4094      -1627.3374         49.0004         44.0004
 -20778733.36343 -16145132.87342  20597970.4914   20597971.4814   20597969.6234
       -60.9074        -47.4594         52.0004         48.0004
 -13116030.57143 -10175935.00942  21386651.4414   21386654.3514   21386651.0084
      -683.6534       -532.7104         49.0004         44.0004
  -8720176.59743  -6748240.03142  23297405.1564   23297407.2294   23297405.1424
     -2889.1314      -2251.2714         44.0004         39.0004
 04 12 28  0 22 30.0000000  0  7G15G 1G11G 3G19G14G22
  -3330702.86743  -2529429.42142  23323162.2034   23323167.2264   23323161.7384
     -1854.8774      -1445.3574         43.0004         39.0004
 -15137278.77143 -11741280.85642  21361383.0894   21361387.6164   21361382.7414
      2484.1284       1935.6704         49.0004         44.0004
  -9075598.36543  -7035365.46442  23119562.6994   23119565.6634   23119562.5054
      2648.0894       2063.4414         43.0004         39.0004
 -20334097.76743 -15808004.24742  21153020.6404   21153024.8224   21153020.5164
     -2105.2564      -1640.4774         49.0004         44.0004
 -20776603.88943 -16143473.55542  20598375.6794   20598376.7234   20598374.8514
       -81.4114        -63.4474         52.0004         48.0004
 -13095208.00143 -10159709.63242  21390613.7634   21390616.7614   21390613.4204
      -704.7164       -549.1324         49.0004         44.0004
  -8633474.04643  -6680679.66242  23313904.0744   23313906.1454   23313903.9784
     -2891.6024      -2253.1914         43.0004         39.0004
 04 12 28  0 23  0.0000000  0  7G15G 1G11G 3G19G14G22
  -3275007.28743  -2486030.33042  23333760.7294   23333765.7204   23333760.1694
     -1858.9324      -1448.5194         43.0004         39.0004
 -15211595.06343 -11799189.64742  21347241.1084   21347245.6774   21347240.8274
      2469.6174       1924.3584         49.0004         44.0004
  -9155037.02243  -7097265.69242  23104445.8524   23104449.0204   23104445.7624
      2647.2784       2062.8114         43.0004         39.0004
 -20270731.75143 -15758628.16742  21165078.8674   21165083.0074   21165078.6874
     -2120.1194      -1652.0534         49.0004         44.0004
 -20773889.19943 -16141358.22942  20598892.2754   20598893.3194   20598891.4874
      -100.2404        -78.1264         52.0004         48.0004
 -13073783.93943 -10143015.56242  21394690.6484   21394693.5924   21394690.2864
      -724.2214       -564.3314         49.0004         44.0004
  -8546726.26543  -6613084.05842  23330411.5334   23330413.7584   23330411.5454
     -2892.4824      -2253.8834         43.0004         39.0004
 04 12 28  0 23 30.0000000  0  7G15G 1G11G 3G19G14G22
  -3219167.98443  -2442519.24842  23344386.7514   23344391.6154   23344386.0514
     -1863.4314      -1452.0194         43.0004         39.0004
 -15285457.93343 -11856745.13142  21333185.5614   21333190.0134   21333185.2354
      2454.8244       1912.8654         49.0004         44.0004
  -9234433.98743  -7159133.43842  23089337.2534   23089340.2244   23089337.1114
      2646.0364       2061.8484         43.0004         39.0004
 -20206897.73143 -15708887.39742  21177226.1784   21177230.2914   21177225.9464
     -2135.2374      -1663.8314         49.0004         44.0004
 -20770589.33743 -16138786.92442  20599520.2684   20599521.2844   20599519.4504
      -119.4734        -93.1004         52.0004         48.0004
 -13051759.54143 -10125853.69842  21398881.6684   21398884.6834   21398881.4144
      -743.8054       -579.5834         49.0004         44.0004
  -8459934.91843  -6545454.48142  23346927.5804   23346929.6344   23346927.4694
     -2893.7794      -2254.8924         43.0004         39.0004
 04 12 28  0 24  0.0000000  0  7G15G 1G11G 3G19G14G22
  -3163184.58843  -2398895.86842  23355039.9944   23355045.0084   23355039.4364
     -1868.1744      -1455.7214         44.0004         39.0004
 -15358865.01543 -11913945.44242  21319216.6454   21319221.0834   21319216.3214
      2439.8094       1901.1574         49.0004         44.0004
  -9313788.28843  -7220967.93742  23074236.6014   23074239.5824   23074236.4814
      2644.8464       2060.9154         43.0004         39.0004
 -20142597.66943 -15658783.49542  21189462.1464   21189466.2494   21189461.9164
     -2150.7284      -1675.8844         49.0004         44.0004
 -20766704.17143 -16135759.54042  20600259.5584   20600260.6324   20600258.7794
      -138.9064       -108.2384         52.0004         48.0004
 -13029135.66643 -10108224.70842  21403186.8174   21403189.8734   21403186.5744
      -763.6854       -595.0814         49.0004         44.0004
  -8373101.55843  -6477792.16942  23363451.4924   23363453.6134   23363451.4294
     -2894.5464      -2255.4944         43.0004         39.0004
 04 12 28  0 24 30.0000000  0  7G15G 1G11G 3G19G14G22
  -3107056.36143  -2355159.64242  23365721.0064   23365725.9144   23365720.4234
     -1873.3124      -1459.7244         44.0004         39.0004
 -15431813.34443 -11970788.29542  21305335.0354   21305339.4864   21305334.7194
      2423.9124       1888.7684         49.0004         44.0004
  -9393098.43343  -7282768.03242  23059144.4284   23059147.3194   23059144.3054
      2642.9694       2059.4574         43.0004         39.0004
 -20077832.92243 -15608317.49542  21201786.4864   21201790.5544   21201786.2474
     -2166.6034      -1688.2544         49.0004         44.0004
 -20762232.92743 -16132275.46842  20601110.4714   20601111.4734   20601109.6574
      -158.8014       -123.7254         52.0004         48.0004
 -13005912.82343 -10090128.99942  21407606.0924   21407609.0684   21407605.8114
      -784.2004       -611.0504         49.0004         44.0004
  -8286227.32743  -6410098.02242  23379983.1794   23379985.4274   23379983.1284
     -2896.5374      -2257.0434         43.0004         39.0004
 04 12 28  0 25  0.0000000  0  7G15G 1G11G 3G19G14G22
  -3050782.61043  -2311310.04142  23376429.5644   23376434.5794   23376428.9974
     -1878.6404      -1463.8754         44.0004         39.0004
 -15504300.02443 -12027271.41242  21291541.3294   21291545.7124   21291540.9784
      2408.2904       1876.5844         49.0004         45.0004
  -9472362.69543  -7344532.37242  23044060.9634   23044063.7914   23044060.7764
      2641.2864       2058.1414         43.0004         39.0004
 -20012605.44043 -15557490.93542  21214198.9024   21214202.9684   21214198.6084
     -2182.1094      -1700.3454         49.0004         44.0004
 -20757175.05643 -16128334.28842  20602072.9614   20602073.9394   20602072.1584
      -178.7394       -139.2854         52.0004         48.0004
 -12982091.61343 -10071567.03142  21412139.1774   21412142.1164   21412138.8734
      -804.3204       -626.7614         49.0004         44.0004
  -8199313.22043  -6342372.79542  23396522.3664   23396524.6304   23396522.2914
     -2898.0674      -2258.2314         43.0004         39.0004
 04 12 28  0 25 30.0000000  0  7G15G 1G11G 3G19G14G22
  -2994363.24143  -2267346.96542  23387165.8564   23387170.7944   23387165.1014
     -1883.2354      -1467.4524         43.0004         39.0004
 -15576323.04843 -12083393.23942  21277835.8644   21277840.2204   21277835.4764
      2392.8884       1864.5874         49.0004         45.0004
  -9551580.60743  -7406260.58242  23028986.1874   23028989.2014   23028986.0794
      2639.5404       2056.7854         44.0004         39.0004
 -19946917.82343 -15506305.81542  21226698.8214   21226702.9744   21226698.5874
     -2197.3194      -1712.2104         49.0004         44.0004
 -20751530.94943 -16123936.30442  20603147.0274   20603147.9904   20603146.2214
      -198.0524       -154.3294         52.0004         48.0004
 -12957673.51243 -10052539.94842  21416785.7824   21416788.7344   21416785.4514
      -824.0384       -642.1064         49.0004         44.0004
  -8112361.30343  -6274618.10642  23413068.7984   23413071.0094   23413068.6634
     -2899.2704      -2259.1714         43.0004         38.0004
 04 12 28  0 26  0.0000000  0  7G15G 1G11G 3G19G14G22
  -2937798.82543  -2223270.86542  23397929.9104   23397934.6334   23397929.0964
     -1888.0744      -1471.2304         43.0004         39.0004
 -15647880.55943 -12139152.33142  21264218.8884   21264223.2344   21264218.5184
      2377.1044       1852.2754         49.0004         45.0004
  -9630751.71343  -7467952.34942  23013920.4064   23013923.3444   23013920.2584
      2637.6874       2055.3384         43.0004         39.0004
 -19880772.99143 -15454764.43342  21239285.7224   21239289.9614   21239285.5594
     -2212.4474      -1724.0004         49.0004         44.0004
 -20745301.05243 -16119081.85442  20604332.5304   20604333.5194   20604331.7254
      -217.8784       -169.7774         52.0004         48.0004
 -12932660.40743 -10033049.22242  21421545.6454   21421548.5184   21421545.2844
      -844.0994       -657.7404         48.0004         44.0004
  -8025373.95343  -6206835.81642  23429621.8624   23429624.2324   23429621.8824
     -2900.3194      -2259.9884         43.0004         38.0004
 04 12 28  0 26 30.0000000  0  8G15G 1G11G 3G20G19G14G22
  -2881088.23743  -2179080.84842  23408721.6934   23408726.4174   23408720.8664
     -1892.9814      -1475.0464         44.0004         39.0004
 -15718969.42543 -12194546.24642  21250691.0934   21250695.4124   21250690.7364
      2361.7324       1840.3354         49.0004         45.0004
  -9709874.21843  -7529606.24042  22998863.7244   22998866.8784   22998863.6214
      2636.5364       2054.4474         44.0004         39.0004
 -19814172.36943 -15402867.88942  21251959.4154   21251963.6314   21251959.2304
     -2227.7074      -1735.8654         48.0004         44.0004
   -168949.89643    -85110.20342  23932344.2394   23932348.4544   23932343.4784
      2403.6014       1872.9414         51.0004         36.0004
 -20738484.57043 -16113770.32742  20605629.5804   20605630.6634   20605628.8544
      -237.1344       -184.7734         52.0004         47.0004
 -12907052.62943 -10013095.12142  21426418.6144   21426421.5064   21426418.2784
      -863.3854       -672.7604         48.0004         44.0004
  -7938352.06043  -6139026.60742  23446181.7424   23446184.1124   23446181.6444
     -2901.1364      -2260.6274         43.0004         39.0004
 04 12 28  0 27  0.0000000  0  8G15G 1G11G 3G20G19G14G22
  -2824230.37243  -2134776.08542  23419541.3604   23419546.1794   23419540.6734
     -1898.1484      -1479.0764         43.0004         39.0004
 -15789586.37343 -12249572.42042  21237253.1294   21237257.4234   21237252.7904
      2345.5604       1827.6964         49.0004         45.0004
  -9788945.86043  -7591220.49642  22983816.9794   22983819.9224   22983816.7254
      2634.5534       2052.8944         44.0004         39.0004
 -19747117.15043 -15350617.11542  21264719.7174   21264723.8364   21264719.4984
     -2243.1514      -1747.8984         48.0004         44.0004
   -240951.24643   -141215.17342  23918643.2654   23918647.0414   23918642.1644
      2395.9504       1866.9694         46.0004         36.0004
 -20731080.51143 -16108000.94842  20607038.5694   20607039.6334   20607037.8094
      -256.9694       -200.2224         52.0004         48.0004
 -12880850.54643  -9992677.92642  21431404.7224   21431407.6014   21431404.3824
      -883.6654       -688.5624         49.0004         44.0004
  -7851295.92843  -6071190.70642  23462748.2094   23462750.3624   23462748.0494
     -2902.7754      -2261.9024         43.0004         39.0004
 04 12 28  0 27 30.0000000  0  8G15G 1G11G 3G20G19G14G22
  -2767226.01843  -2090357.17042  23430388.9944   23430393.7824   23430388.2464
     -1902.1724      -1482.2064         43.0004         39.0004
 -15859730.28443 -12304230.00042  21223905.2594   21223909.4634   21223904.8664
      2330.5744       1816.0284         49.0004         45.0004
  -9867966.64143  -7652795.12742  22968779.7814   22968782.6404   22968779.5224
      2633.5164       2052.0914         44.0004         39.0004
 -19679610.73743 -15298014.75742  21277565.8614   21277569.9284   21277565.6144
     -2257.3284      -1758.9484         48.0004         44.0004
   -312748.67543   -197161.17842  23904980.6154   23904984.2504   23904979.4954
      2389.9614       1862.2974         42.0004         36.0004
 -20723090.25143 -16101774.78742  20608559.0484   20608560.1794   20608558.3134
      -275.9314       -215.0084         52.0004         47.0004
 -12854056.35643  -9971799.34442  21436503.5054   21436506.4394   21436503.1394
      -902.8314       -703.5174         49.0004         44.0004
  -7764208.44643  -6003330.39742  23479320.5514   23479322.6244   23479320.2754
     -2902.9294      -2262.0194         43.0004         38.0004
 04 12 28  0 28  0.0000000  0  8G15G 1G11G 3G20G19G14G22
  -2710073.66743  -2045822.94342  23441264.7314   23441269.6474   23441264.0854
     -1907.7664      -1486.5624         43.0004         39.0004
 -15929397.41743 -12358516.07342  21210648.0064   21210652.2594   21210647.6644
      2314.0694       1803.1754         49.0004         45.0004
  -9946934.53943  -7714328.54242  22953752.7194   22953755.4784   22953752.4724
      2631.2134       2050.2934         44.0004         39.0004
 -19611654.11243 -15245061.57842  21290497.5944   21290501.7014   21290497.3544
     -2272.9244      -1771.0854         48.0004         44.0004
   -384340.90343   -252947.33642  23891356.8714   23891360.5664   23891356.0904
      2382.9174       1856.8214         41.0004         36.0004
 -20714512.39143 -16095090.75842  20610191.4174   20610192.5124   20610190.6314
      -295.9244       -230.5894         52.0004         47.0004
 -12826669.99543  -9950459.33542  21441714.8794   21441717.9134   21441714.5344
      -922.8954       -719.1434         49.0004         44.0004
  -7677089.88343  -5935445.86242  23495898.4994   23495900.8074   23495898.4234
     -2904.5634      -2263.2924         43.0004         39.0004
 04 12 28  0 28 30.0000000  0  8G15G 1G11G 3G20G19G14G22
  -2652773.37143  -2001173.44042  23452168.7064   23452173.5754   23452168.1114
     -1913.0154      -1490.6694         43.0004         39.0004
 -15998585.54043 -12412428.87642  21197481.9484   21197486.2054   21197481.6044
      2297.8304       1790.5224         49.0004         45.0004
 -10025848.52443  -7775819.93742  22938735.8054   22938738.6504   22938735.6114
      2629.1824       2048.7144         44.0004         39.0004
 -19543249.61143 -15191759.43142  21303514.5824   21303518.6974   21303514.3654
     -2287.8774      -1782.7584         48.0004         44.0004
   -455728.09143   -308573.68242  23877772.2754   23877776.0724   23877771.5864
      2375.5314       1851.0694         41.0004         36.0004
 -20705347.22643 -16087949.08942  20611935.4554   20611936.6104   20611934.6944
      -315.6044       -245.9244         52.0004         47.0004
 -12798692.96343  -9928659.06242  21447038.7364   21447041.7004   21447038.3604
      -942.8814       -734.7074         48.0004         44.0004
  -7589941.70043  -5867538.24642  23512482.2034   23512484.6544   23512482.1974
     -2905.5134      -2264.0354         43.0004         38.0004
 04 12 28  0 29  0.0000000  0  8G15G 1G11G 3G20G19G14G22
  -2595325.10943  -1956408.62642  23463100.8814   23463105.7364   23463100.2634
     -1917.4444      -1494.1104         43.0004         39.0004
 -16067292.99543 -12465967.13842  21184407.3294   21184411.5494   21184406.9954
      2282.0074       1778.1744         49.0004         45.0004
 -10104707.78143  -7837268.70142  22923729.3124   22923732.2904   22923729.2144
      2627.6854       2047.5444         44.0004         39.0004
 -19474399.82343 -15138110.28442  21316616.2924   21316620.3724   21316616.0784
     -2302.5664      -1794.2034         48.0004         44.0004
   -526910.52343   -364040.48242  23864226.7244   23864230.3594   23864225.8644
      2369.2344       1846.1454         41.0004         36.0004
 -20695595.15343 -16080350.08842  20613791.2044   20613792.4044   20613790.4574
      -335.0914       -261.1174         52.0004         47.0004
 -12770126.73543  -9906399.68042  21452474.7244   21452477.6654   21452474.3414
      -962.1414       -749.7364         48.0004         44.0004
  -7502765.99243  -5799609.18642  23529071.1294   23529073.6054   23529071.0934
     -2906.2974      -2264.6444         43.0004         38.0004
 04 12 28  0 29 30.0000000  0  8G15G 1G11G 3G20G19G14G22
  -2537728.01143  -1911527.83342  23474061.3974   23474066.1774   23474060.6194
     -1922.2784      -1497.8704         43.0004         39.0004
 -16135516.69143 -12519128.44642  21171424.7574   21171428.9954   21171424.4514
      2266.0334       1765.7404         49.0004         45.0004
 -10183510.59843  -7898673.48142  22908733.6774   22908736.6034   22908733.5764
      2625.7064       2046.0044         44.0004         39.0004
 -19405106.43043 -15084115.48742  21329802.4304   21329806.5034   21329802.1934
     -2317.3224      -1805.7254         48.0004         44.0004
   -597887.53943   -419347.20942  23850720.2464   23850723.9464   23850719.5174
      2362.3624       1840.7914         41.0004         36.0004
 -20685255.60743 -16072293.31742  20615758.7624   20615759.9844   20615757.9994
      -354.4874       -276.2284         52.0004         47.0004
 -12740972.18443  -9883681.86442  21458022.7084   21458025.6234   21458022.3144
      -981.6934       -764.9664         48.0004         44.0004
  -7415563.55443  -5731659.30942  23545665.3014   23545667.8064   23545665.2354
     -2907.1484      -2265.2974         42.0004         38.0004
                            4  1
RINEX FILE SPLICE; other post-header comments skipped       COMMENT
 04 12 28  0 30  0.0000000  0  8G15G 1G11G 3G20G19G14G22
  -2479982.24443  -1866531.20642  23485050.0764   23485055.0104   23485049.2564
     -1926.7704      -1501.3794         43.0004         38.0004
 -16203254.90943 -12571911.47142  21158534.6654   21158538.7964   21158534.3324
      2250.1564       1753.3674         49.0004         45.0004
 -10262256.17743  -7960033.65342  22893748.9474   22893751.8494   22893748.8104
      2624.1964       2044.8314         44.0004         40.0004
 -19335372.30643 -15029777.24542  21343072.4814   21343076.5224   21343072.2134
     -2331.3654      -1816.6544         48.0004         44.0004
   -668659.73543   -474494.36842  23837252.6114   23837256.3734   23837252.0464
      2356.2154       1836.0064         41.0004         36.0004
 -20674329.37643 -16063779.38842  20617837.9904   20617839.2174   20617837.2144
      -373.4944       -291.0224         52.0004         47.0004
 -12711231.22243  -9860507.09842  21463682.2114   21463685.1434   21463681.8144
     -1000.7404       -779.7944         48.0004         44.0004
  -7328336.46643  -5663690.20742  23562264.0874   23562266.5594   23562264.0664
     -2907.5474      -2265.6184         42.0004         38.0004
 04 12 28  0 30 30.0000000  0  8G15G 1G11G 3G20G19G14G22
  -2422086.77043  -1821417.91542  23496067.2074   23496072.3084   23496066.4134
     -1931.7504      -1505.2554         43.0004         38.0004
 -16270504.41743 -12624313.66942  21145737.4704   21145741.6194   21145737.1464
      2233.9414       1740.7364         49.0004         45.0004
 -10340942.57743  -8021347.71342  22878775.5114   22878778.3324   22878775.3424
      2622.3624       2043.4024         44.0004         40.0004
 -19265198.73043 -14975096.58942  21356426.1794   21356430.2014   21356425.8474
     -2345.8464      -1827.9614         48.0004         44.0004
   -739226.03143   -529481.03842  23823824.1774   23823828.0664   23823823.6674
      2349.7024       1830.9284         41.0004         36.0004
 -20662815.72643 -16054807.73042  20620028.9914   20620030.1854   20620028.2154
      -392.8904       -306.1574         52.0004         47.0004
 -12680904.07143  -9836875.56542  21469453.3264   21469456.1744   21469452.8984
     -1020.0604       -794.8534         48.0004         44.0004
  -7241085.30543  -5595702.35542  23578867.2374   23578869.9874   23578867.3904
     -2908.0914      -2266.0474         42.0004         37.0004
 04 12 28  0 31  0.0000000  0  8G15G 1G11G 3G20G19G14G22
  -2364042.22143  -1776188.47742  23507112.7424   23507118.0004   23507112.0554
     -1937.4904      -1509.7294         43.0004         39.0004
 -16337263.88243 -12676334.02742  21133033.5584   21133037.6964   21133033.2274
      2216.9014       1727.4664         49.0004         45.0004
 -10419569.55843  -8082615.48242  22863813.4894   22863816.0704   22863813.2284
      2619.7834       2041.3874         44.0004         40.0004
 -19194588.97043 -14920076.04342  21369862.7134   21369866.8234   21369862.4434
     -2361.1694      -1839.8514         48.0004         44.0004
   -809587.52343   -584308.17042  23810434.9144   23810438.7824   23810434.4134
      2341.6394       1824.6534         41.0004         37.0004
 -20650715.60343 -16045379.07942  20622331.5514   20622332.7834   20622330.7874
      -413.2284       -321.9904         52.0004         48.0004
 -12649993.11143  -9812789.11442  21475335.5074   21475338.3234   21475335.0934
     -1040.1414       -810.5034         48.0004         44.0004
  -7153812.45943  -5527697.59942  23595474.7614   23595477.5334   23595474.8784
     -2909.7294      -2267.3174         42.0004         37.0004
 04 12 28  0 31 30.0000000  0  8G15G 1G11G 3G20G19G14G22
  -2305847.37443  -1730841.91942  23518186.9794   23518192.0834   23518186.2494
     -1942.4964      -1513.6354         43.0004         38.0004
 -16403530.13243 -12727970.05842  21120423.4294   21120427.6074   21120423.1334
      2200.4244       1714.6074         49.0004         45.0004
 -10498134.97743  -8143835.25442  22848862.8644   22848865.4624   22848862.7394
      2617.6854       2039.7574         44.0004         40.0004
 -19123544.64343 -14864716.86842  21383382.0654   21383386.0584   21383381.7514
     -2375.4564      -1851.0184         48.0004         43.0004
   -879743.36943   -638975.03942  23797084.6524   23797088.5564   23797083.9684
      2335.1304       1819.5804         41.0004         36.0004
 -20638028.20143 -16035492.80742  20624745.9724   20624747.1374   20624745.1814
      -432.7224       -337.1864         52.0004         47.0004
 -12618498.63743  -9788247.97042  21481328.6584   21481331.4914   21481328.2524
     -1059.6574       -825.6994         48.0004         44.0004
  -7066518.25643  -5459676.21242  23612086.2784   23612089.3024   23612086.4004
     -2910.0824      -2267.5964         42.0004         38.0004
 04 12 28  0 32  0.0000000  0  8G15G 1G11G 3G20G19G14G22
  -2247501.71643  -1685377.83342  23529289.7764   23529294.8214   23529289.0984
     -1947.4144      -1517.4644         43.0004         38.0004
 -16469300.72643 -12779219.86142  21107907.6684   21107911.8604   21107907.3504
      2183.9784       1701.7924         49.0004         45.0004
 -10576637.23543  -8205005.82242  22833924.3944   22833926.9214   22833924.2854
      2615.2484       2037.8474         44.0004         40.0004
 -19052067.63443 -14809020.54242  21396983.6554   21396987.7114   21396983.4004
     -2389.8184      -1862.1994         48.0004         43.0004
   -949692.98443   -693481.19742  23783773.6364   23783777.5094   23783773.0464
      2327.7304       1813.7974         41.0004         36.0004
 -20624753.62243 -16025149.00542  20627272.0184   20627273.2344   20627271.2644
      -452.4824       -352.5974         52.0004         48.0004
 -12586421.93043  -9763253.15142  21487432.6414   21487435.4604   21487432.2664
     -1078.9424       -840.7234         48.0004         44.0004
  -6979204.16543  -5391639.33142  23628701.6694   23628704.6854   23628701.6474
     -2910.9024      -2268.2284         42.0004         38.0004
 04 12 28  0 32 30.0000000  0  8G15G 1G11G 3G20G19G14G22
  -2189004.80743  -1639795.91242  23540421.3684   23540426.5634   23540420.7014
     -1952.2144      -1521.2034         43.0004         38.0004
 -16534573.21343 -12830081.53142  21095486.6394   21095490.9084   21095486.3384
      2167.8054       1689.2034         49.0004         45.0004
 -10655075.13243  -8266126.23642  22818998.0044   22819000.6884   22818997.9634
      2614.0144       2036.8954         44.0004         40.0004
 -18980160.10143 -14752988.73642  21410667.2244   21410671.3084   21410666.9744
     -2403.7724      -1873.0694         48.0004         43.0004
  -1019436.32943   -747826.63942  23770501.8244   23770505.5574   23770501.2264
      2321.6584       1809.0754         41.0004         36.0004
 -20610891.87243 -16014347.65942  20629909.8104   20629911.0644   20629909.0714
      -471.5514       -367.4404         52.0004         47.0004
 -12553764.07643  -9737805.48642  21493647.2224   21493650.1164   21493646.8834
     -1097.8064       -855.4264         48.0004         44.0004
  -6891871.17943  -5323587.71542  23645320.7174   23645323.5544   23645320.6464
     -2911.2184      -2268.4854         42.0004         38.0004
 04 12 28  0 33  0.0000000  0  8G15G 1G11G 3G20G19G14G22
  -2130356.97443  -1594096.37742  23551581.7044   23551586.9504   23551581.0184
     -1956.8484      -1524.8174         43.0004         38.0004
 -16599346.20043 -12880553.97242  21083160.7884   21083165.0204   21083160.4574
      2151.4014       1676.4394         49.0004         45.0004
 -10733448.07643  -8327196.03142  22804084.1804   22804086.8524   22804084.0764
      2611.8534       2035.2074         45.0004         40.0004
 -18907824.91343 -14696623.69342  21424432.2094   21424436.2804   21424431.9324
     -2417.6654      -1883.8804         48.0004         43.0004
  -1088974.35743   -802012.08742  23757269.1894   23757272.9864   23757268.5214
      2315.0914       1803.9764         41.0004         37.0004
 -20596443.87543 -16003089.50042  20632659.2054   20632660.4514   20632658.4364
      -490.6754       -382.3374         52.0004         47.0004
 -12520527.24543  -9711906.65942  21499972.0094   21499974.8684   21499971.6554
     -1116.9494       -870.3464         48.0004         44.0004
  -6804521.52743  -5255523.12842  23661942.8394   23661945.6704   23661942.7904
     -2911.6414      -2268.8034         42.0004         38.0004
 04 12 28  0 33 30.0000000  0  8G15G 1G11G 3G20G19G14G22
  -2071557.22543  -1548278.46742  23562771.0554   23562776.2384   23562770.3264
     -1962.7114      -1529.3914         43.0004         38.0004
 -16663616.59143 -12930634.77942  21070930.4724   21070934.7874   21070930.1844
      2133.6244       1662.5624         50.0004         45.0004
 -10811754.09843  -8388213.68242  22789183.0034   22789185.7994   22789182.9454
      2608.7494       2032.7924         45.0004         40.0004
 -18835063.72943 -14639926.71042  21438278.2884   21438282.3404   21438277.9384
     -2432.7394      -1895.6264         48.0004         43.0004
  -1158306.04943   -856036.74542  23744075.8044   23744079.6714   23744075.1624
      2307.2074       1797.8314         42.0004         37.0004
 -20581408.94843 -15991373.99442  20635520.2484   20635521.5354   20635519.4864
      -511.3414       -398.4574         52.0004         47.0004
 -12486711.98443  -9685557.12142  21506406.8924   21506409.6664   21506406.5214
     -1137.1934       -886.1424         48.0004         44.0004
  -6717155.73243  -5187445.96442  23678567.9604   23678570.9114   23678568.0604
     -2912.9444      -2269.8224         42.0004         38.0004
 04 12 28  0 34  0.0000000  0  8G15G 1G11G 3G20G19G14G22
  -2012606.09243  -1502342.59842  23573988.9604   23573994.2814   23573988.4504
     -1967.2054      -1532.8804         42.0004         38.0004
 -16727382.95443 -12980322.84542  21058796.0974   21058800.4414   21058795.8134
      2117.5154       1650.0234         50.0004         45.0004
 -10889992.52143  -8449178.66842  22774294.6994   22774297.5064   22774294.6314
      2607.2514       2031.6264         45.0004         40.0004
 -18761879.74843 -14582900.27142  21452204.6834   21452208.8534   21452204.3784
     -2445.9894      -1905.9584         48.0004         43.0004
  -1227432.17143   -909901.23342  23730921.4454   23730925.5184   23730920.7674
      2301.2594       1793.1874         42.0004         37.0004
 -20565788.42943 -15979202.18242  20638492.7754   20638494.0704   20638491.9874
      -530.0934       -413.0554         52.0004         47.0004
 -12452320.70843  -9658758.73942  21512951.3164   21512954.0834   21512950.9694
     -1155.5904       -900.4634         48.0004         43.0004
  -6629775.90543  -5119357.86042  23695196.0564   23695198.8704   23695195.9764
     -2912.4414      -2269.4284         42.0004         38.0004
 04 12 28  0 34 30.0000000  0  8G15G 1G11G 3G20G19G14G22
  -1953502.60543  -1456288.01642  23585236.1524   23585241.4114   23585235.5594
     -1973.7274      -1537.9694         42.0004         38.0004
 -16790642.29843 -13029615.82042  21046758.1834   21046762.6094   21046757.9274
      2099.0164       1635.6024         50.0004         45.0004
 -10968161.44343  -8510089.48542  22759419.6364   22759422.5384   22759419.5214
      2603.3434       2028.5804         45.0004         40.0004
 -18688274.67843 -14525545.72142  21466211.2704   21466215.5044   21466210.9964
     -2461.7734      -1918.2554         48.0004         43.0004
  -1296352.26643   -963605.19742  23717806.4514   23717810.5284   23717805.7404
      2292.7944       1786.5844         42.0004         37.0004
 -20549581.76943 -15966573.63842  20641576.8154   20641578.1274   20641576.0024
      -551.1354       -429.4424         52.0004         47.0004
 -12417354.00543  -9631511.96842  21519605.2464   21519608.0584   21519604.8604
     -1176.2284       -916.5384         48.0004         44.0004
  -6542382.56243  -5051259.24242  23711826.6574   23711829.2794   23711826.4634
     -2914.0884      -2270.7134         42.0004         38.0004
 04 12 28  0 35  0.0000000  0  8G15G 1G11G 3G20G19G14G22
  -1894246.14143  -1410114.22142  23596512.2334   23596517.7174   23596511.7174
     -1977.5204      -1540.9214         42.0004         38.0004
 -16853392.08743 -13078511.74242  21034817.3404   21034821.7614   21034817.0504
      2083.5674       1623.5844         50.0004         45.0004
 -11046259.31243  -8570944.93842  22744558.1214   22744561.0644   22744557.9404
      2602.4114       2027.8504         45.0004         40.0004
 -18614250.53543 -14467864.61742  21480297.5544   21480301.8994   21480297.3084
     -2474.1184      -1927.8784         48.0004         43.0004
  -1365065.59943  -1017148.03542  23704730.7914   23704734.7584   23704730.2354
      2287.4204       1782.4094         42.0004         37.0004
 -20532788.79243 -15953488.22342  20644772.4774   20644773.7414   20644771.6564
      -569.0634       -443.4104         52.0004         47.0004
 -12381813.14143  -9603817.80642  21526368.5094   21526371.3174   21526368.0994
     -1193.8934       -930.2874         48.0004         44.0004
  -6454976.67043  -4983150.81542  23728459.4794   23728462.1564   23728459.4744
     -2913.2364      -2270.0444         42.0004         38.0004
 04 12 28  0 35 30.0000000  0  8G15G 1G11G 3G20G19G14G22
  -1834837.32543  -1363821.70642  23607817.4204   23607822.8214   23607816.9554
     -1982.6914      -1544.9544         42.0004         38.0004
 -16915631.33343 -13127009.84742  21022973.5814   21022978.0474   21022973.3044
      2066.3844       1610.1814         50.0004         45.0004
 -11124285.65243  -8631744.65342  22729710.2224   22729713.1554   22729710.0534
      2600.0884       2026.0474         45.0004         40.0004
 -18539810.53043 -14409859.45942  21494462.9774   21494467.4124   21494462.8244
     -2487.9384      -1938.6554         48.0004         43.0004
  -1433573.46543  -1070530.77442  23691694.1094   23691698.1854   23691693.5854
      2280.4684       1776.9844         42.0004         37.0004
 -20515410.91143 -15939947.04342  20648079.4014   20648080.6264   20648078.5804
      -588.8034       -458.8084         52.0004         47.0004
 -12345700.59043  -9575678.16442  21533240.5734   21533243.3534   21533240.1444
     -1212.8874       -945.1004         48.0004         44.0004
  -6367560.78043  -4915034.61742  23745094.2184   23745096.9814   23745094.2184
     -2913.8704      -2270.5454         42.0004         38.0004
 04 12 28  0 36  0.0000000  0  8G15G 1G11G 3G20G19G14G22
  -1775275.05343  -1317409.61542  23619151.7564   23619157.0904   23619151.2844
     -1987.7224      -1548.8664         42.0004         37.0004
 -16977356.82943 -13175107.63042  21011227.6054   21011232.0964   21011227.3464
      2048.9164       1596.5684         50.0004         45.0004
 -11202237.98743  -8692486.70442  22714876.4834   22714879.3374   22714876.2094
      2597.1004       2023.7134         45.0004         40.0004
 -18464956.33943 -14351531.57242  21508707.1964   21508711.7504   21508707.0794
     -2502.0704      -1949.6724         48.0004         43.0004
  -1501874.62043  -1123752.44342  23678696.7214   23678700.8374   23678696.1464
      2273.6354       1771.6614         42.0004         37.0004
 -20497447.46743 -15925949.57342  20651497.6944   20651498.9924   20651496.9454
      -608.3564       -474.0324         52.0004         47.0004
 -12309016.73643  -9547093.34942  21540221.2554   21540224.0614   21540220.8204
     -1232.1084       -960.0684         48.0004         44.0004
  -6280135.09943  -4846910.78742  23761731.0524   23761733.7514   23761730.9524
     -2914.0144      -2270.6544         43.0004         38.0004
 04 12 28  0 36 30.0000000  0  8G15G 1G11G 3G20G19G14G22
  -1715559.32543  -1270877.94142  23630515.2724   23630520.7194   23630514.7634
     -1993.8674      -1553.6594         42.0004         37.0004
 -17038566.75943 -13222803.65942  20999579.7034   20999584.2384   20999579.4464
      2031.3474       1582.8574         50.0004         45.0004
 -11280115.84643  -8753170.72842  22700056.7294   22700059.5324   22700056.4874
      2594.1644       2021.4114         45.0004         40.0004
 -18389690.59543 -14292882.98842  21523029.8464   21523034.3914   21523029.7694
     -2516.2344      -1960.7064         48.0004         43.0004
  -1569969.39243  -1176813.27842  23665738.8154   23665742.8624   23665738.3194
      2266.2934       1765.9414         42.0004         37.0004
 -20478899.20943 -15911496.40642  20655027.3694   20655028.6454   20655026.5784
      -628.5724       -489.8034         52.0004         47.0004
 -12271763.68043  -9518065.00442  21547310.2694   21547313.1174   21547309.8574
     -1251.5534       -975.2354         48.0004         44.0004
  -6192701.18643  -4778780.54242  23778369.2364   23778371.8974   23778369.1604
     -2915.1144      -2271.5254         43.0004         38.0004
 04 12 28  0 37  0.0000000  0  8G15G 1G11G 3G20G19G14G22
  -1655690.04643  -1224226.60142  23641908.1264   23641913.4544   23641907.6114
     -1998.0154      -1556.8934         42.0004         37.0004
 -17099259.07843 -13270096.36942  20988030.3334   20988034.8744   20988030.0644
      2014.6284       1569.8414         50.0004         45.0004
 -11357917.56143  -8813795.42042  22685251.6004   22685254.3384   22685251.3404
      2592.3494       2020.0084         45.0004         41.0004
 -18314015.61743 -14233915.52542  21537430.4214   21537434.9344   21537430.2654
     -2529.0074      -1970.6714         48.0004         43.0004
  -1637858.03843  -1229713.47542  23652820.2554   23652824.0974   23652819.7654
      2259.5804       1760.7064         42.0004         37.0004
 -20459766.58543 -15896587.89342  20658668.2394   20658669.4734   20658667.4094
      -647.2414       -504.3534         52.0004         47.0004
 -12233942.83143  -9488594.22942  21554507.2904   21554510.2004   21554506.9054
     -1269.8004       -989.4504         48.0004         44.0004
  -6105260.43843  -4710644.98042  23795008.9394   23795011.3874   23795008.6414
     -2914.5974      -2271.1134         43.0004         38.0004
 04 12 28  0 37 30.0000000  0  8G15G 1G11G 3G20G19G14G22
  -1595666.60443  -1177455.16042  23653330.2884   23653335.5694   23653329.6704
     -2003.4564      -1561.1424         42.0004         37.0004
 -17159431.49043 -13316983.95342  20976579.8994   20976584.4314   20976579.6524
      1997.1274       1556.2024         50.0004         45.0004
 -11435641.58943  -8874359.57142  22670461.0944   22670463.8124   22670460.8844
      2589.5234       2017.8204         45.0004         40.0004
 -18237933.58543 -14174630.87342  21551908.3604   21551912.9394   21551908.2024
     -2542.8274      -1981.4334         48.0004         43.0004
  -1705540.42343  -1282452.97242  23639940.7234   23639944.7084   23639940.2214
      2252.7414       1755.3824         42.0004         37.0004
 -20440049.95843 -15881224.31142  20662420.2164   20662421.4344   20662419.3704
      -666.8944       -519.6504         52.0004         47.0004
 -12195555.81643  -9458682.27942  21561812.1374   21561815.0454   21561811.7274
     -1288.9384      -1004.3694         48.0004         44.0004
  -6017813.91043  -4642504.93242  23811649.4144   23811651.8774   23811649.2844
     -2915.1514      -2271.5454         42.0004         38.0004
 04 12 28  0 38  0.0000000  0  8G15G 1G11G 3G20G19G14G22
  -1535488.68343  -1130563.36642  23664781.8314   23664786.9774   23664781.1734
     -2008.9394      -1565.4044         42.0004         37.0004
 -17219082.03743 -13363464.88742  20965228.7814   20965233.3344   20965228.5134
      1979.3164       1542.3084         50.0004         45.0004
 -11513286.81543  -8934862.32842  22655685.6994   22655688.3934   22655685.4664
      2586.6964       2015.5994         45.0004         40.0004
 -18161447.11443 -14115031.06642  21566463.2034   21566467.8304   21566463.0924
     -2556.4004      -1991.9934         47.0004         43.0004
  -1773016.50643  -1335031.71642  23627100.3724   23627104.4004   23627100.0224
      2245.5784       1749.7954         42.0004         37.0004
 -20419749.73243 -15865405.97242  20666283.1944   20666284.4644   20666282.3824
      -686.5544       -534.9884         52.0004         47.0004
 -12156604.07043  -9428330.27042  21569224.4384   21569227.3024   21569224.0314
     -1307.9604      -1019.1844         48.0004         44.0004
  -5930362.86143  -4574361.32842  23828290.8284   23828293.2784   23828290.8634
     -2915.3494      -2271.6964         42.0004         38.0004
 04 12 28  0 38 30.0000000  0  8G15G 1G11G 3G20G19G14G22
  -1475155.44943  -1083550.52342  23676262.9314   23676268.1134   23676262.2074
     -2014.3944      -1569.6514         42.0004         37.0004
 -17278208.21043 -13409537.21442  20953977.4794   20953981.9834   20953977.2024
      1961.7804       1528.6644         50.0004         46.0004
 -11590851.10943  -8995302.01742  22640925.6074   22640928.3384   22640925.4654
      2583.7714       2013.3284         45.0004         40.0004
 -18084558.17643 -14055117.64942  21581094.6624   21581099.3414   21581094.5594
     -2570.0594      -2002.6404         47.0004         43.0004
  -1840285.97943  -1387449.46442  23614299.4434   23614303.2564   23614298.9744
      2238.5834       1744.3514         42.0004         37.0004
 -20398866.08343 -15849133.01942  20670257.2704   20670258.5174   20670256.4504
      -706.1234       -550.2414         52.0004         47.0004
 -12117088.94343  -9397539.27842  21576743.9264   21576746.7764   21576743.5024
     -1326.7334      -1033.8274         48.0004         43.0004
  -5842908.10043  -4506214.85442  23844932.9934   23844935.4384   23844933.0004
     -2915.4224      -2271.7604         42.0004         38.0004
 04 12 28  0 39  0.0000000  0  8G15G 1G11G 3G20G19G14G22
  -1414667.50743  -1036417.12342  23687773.4354   23687778.5664   23687772.6834
     -2019.1434      -1573.3614         42.0004         37.0004
 -17336808.72843 -13455199.93542  20942826.1404   20942830.6534   20942825.8804
      1944.1744       1514.9204         50.0004         46.0004
 -11668334.14243  -9055678.39442  22626181.0894   22626183.7804   22626180.8864
      2580.8874       2011.0744         45.0004         40.0004
 -18007269.98143 -13994893.13742  21595802.2074   21595806.8334   21595802.0784
     -2583.2664      -2012.9384         47.0004         43.0004
  -1907349.72743  -1439706.92142  23601537.5604   23601541.3474   23601537.0944
      2231.6014       1738.9024         42.0004         37.0004
 -20377400.28343 -15832406.44242  20674342.0594   20674343.3204   20674341.2494
      -725.5004       -565.3304         52.0004         47.0004
 -12077012.66343  -9366311.02042  21584370.1384   21584373.0934   21584369.7774
     -1345.4424      -1048.4004         48.0004         44.0004
  -5755451.84443  -4438067.20042  23861575.5434   23861577.8044   23861575.4754
     -2915.6024      -2271.8984         42.0004         37.0004
 04 12 28  0 39 30.0000000  0  8G15G 1G11G 3G20G19G14G22
  -1354024.08343   -989162.55642  23699313.6104   23699318.7184   23699312.6874
     -2024.3304      -1577.4084         42.0004         37.0004
 -17394881.05043 -13500451.08142  20931775.3924   20931779.8534   20931775.1054
      1926.5194       1501.1774         50.0004         46.0004
 -11745733.75043  -9115989.75442  22611452.4504   22611455.1524   22611452.1844
      2578.1864       2008.9724         45.0004         41.0004
 -17929584.49643 -13934359.04242  21610585.3604   21610589.9674   21610585.1964
     -2596.4734      -2023.2244         47.0004         43.0004
  -1974206.92843  -1491803.41842  23588814.9424   23588818.7804   23588814.6494
      2224.7944       1733.6074         42.0004         38.0004
 -20355352.02943 -15815226.00942  20678537.7184   20678538.9584   20678536.9184
      -745.0814       -580.5964         52.0004         47.0004
 -12036376.49143  -9334646.48742  21592102.9334   21592105.9434   21592102.6164
     -1364.1674      -1062.9934         48.0004         44.0004
  -5667994.40243  -4369918.62842  23878218.1954   23878220.5034   23878218.0314
     -2915.1104      -2271.5154         42.0004         37.0004
 04 12 28  0 40  0.0000000  0  8G15G 1G11G 3G20G19G14G22
  -1293225.09443   -941786.79742  23710883.2754   23710888.5424   23710882.4694
     -2028.7324      -1580.8364         42.0004         37.0004
 -17452423.50643 -13545289.34342  20920825.4404   20920829.9104   20920825.1384
      1909.6574       1488.0554         50.0004         46.0004
 -11823048.95643  -9176235.35042  22596739.8674   22596742.5394   22596739.6304
      2576.1674       2007.4084         45.0004         41.0004
 -17851504.31843 -13873517.39742  21625443.5924   21625448.1514   21625443.4184
     -2608.8024      -2032.8324         47.0004         43.0004
  -2040858.14343  -1543739.40242  23576131.6614   23576135.6234   23576131.1994
      2218.5884       1728.7674         42.0004         38.0004
 -20332722.22443 -15797592.41342  20682844.0494   20682845.3074   20682843.2464
      -763.6634       -595.0604         52.0004         47.0004
 -11995182.29343  -9302547.12242  21599941.9524   21599944.9584   21599941.6034
     -1381.9654      -1076.8684         48.0004         43.0004
  -5580537.37743  -4301770.39742  23894860.8154   23894862.9564   23894860.8844
     -2915.0364      -2271.4584         42.0004         37.0004
 04 12 28  0 40 30.0000000  0  8G15G 1G11G 3G20G19G14G22
  -1232269.22743   -894288.79142  23722482.7514   23722488.2574   23722482.0824
     -2035.3354      -1585.9784         42.0004         37.0004
 -17509433.18043 -13589712.45342  20909976.8284   20909981.3654   20909976.5464
      1890.8384       1473.3864         50.0004         46.0004
 -11900277.56743  -9236413.48442  22582043.6854   22582046.3844   22582043.5494
      2572.2334       2004.3424         45.0004         41.0004
 -17773030.91343 -13812369.33742  21640376.5484   21640381.1824   21640376.4194
     -2622.9014      -2043.8024         47.0004         43.0004
  -2107302.22443  -1595513.99042  23563487.7424   23563491.6714   23563487.2024
      2210.4934       1722.4644         42.0004         38.0004
 -20309510.54943 -15779505.42042  20687261.0984   20687262.3804   20687260.2944
      -784.0314       -610.9374         52.0004         47.0004
 -11953430.58043  -9270013.33042  21607887.0584   21607890.0554   21607886.7184
     -1401.9124      -1092.3974         48.0004         43.0004
  -5493080.95143  -4233622.60942  23911503.3444   23911505.3344   23911503.3064
     -2915.7904      -2272.0414         42.0004         37.0004
 04 12 28  0 41  0.0000000  0  8G15G 1G11G 3G20G19G14G22
  -1171157.25843   -846669.11742  23734112.1134   23734117.4884   23734111.4024
     -2038.6614      -1588.5634         42.0004         37.0004
 -17565908.79243 -13633719.40042  20899229.9014   20899234.3864   20899229.6114
      1874.5064       1460.6824         50.0004         46.0004
 -11977418.52543  -9296523.29442  22567364.2994   22567366.9904   22567364.1374
      2570.7624       2003.1874         45.0004         41.0004
 -17694167.83243 -13750917.64042  21655383.7954   21655388.4204   21655383.6274
     -2634.3984      -2052.7644         47.0004         43.0004
  -2173540.44343  -1647128.17442  23550883.0164   23550886.8494   23550882.5944
      2205.7854       1718.7984         42.0004         38.0004
 -20285718.30243 -15760966.03042  20691788.6634   20691789.9074   20691787.8404
      -801.9464       -624.8814         52.0004         47.0004
 -11911124.15043  -9237047.29642  21615937.7084   21615940.7224   21615937.3974
     -1418.5054      -1105.3204         48.0004         44.0004
  -5405627.11543  -4165476.85542  23928145.4594   23928147.1834   23928145.4074
     -2914.0634      -2270.6964         42.0004         37.0004
 04 12 28  0 41 30.0000000  0  8G15G 1G11G 3G20G19G14G22
  -1109888.30343   -798927.14742  23745771.3434   23745776.4984   23745770.5354
     -2044.7074      -1593.2674         42.0004         37.0004
 -17621847.82343 -13677308.24342  20888585.1094   20888589.5424   20888584.7854
      1855.8324       1446.0974         50.0004         46.0004
 -12054469.77043  -9356563.22442  22552701.9904   22552704.6044   22552701.8394
      2567.2354       2000.4364         45.0004         41.0004
 -17614916.83843 -13689163.67442  21670464.8044   21670469.4194   21670464.6284
     -2648.1034      -2063.4624         47.0004         43.0004
  -2239571.95743  -1698581.26742  23538317.6934   23538321.4834   23538317.2194
      2197.5454       1712.3774         42.0004         38.0004
 -20261345.61143 -15741974.34342  20696426.6514   20696427.8844   20696425.8224
      -821.9604       -640.4774         52.0004         47.0004
 -11868264.06143  -9203649.83542  21624093.7594   21624096.7674   21624093.4104
     -1437.9124      -1120.4494         48.0004         44.0004
  -5318176.50143  -4097333.59842  23944786.8684   23944788.7804   23944786.6504
     -2914.9124      -2271.3574         42.0004         37.0004
 04 12 28  0 42  0.0000000  0  8G15G 1G11G 3G20G19G14G22
  -1048463.04543   -751063.39542  23757460.1414   23757465.3584   23757459.3424
     -2049.8384      -1597.2814         42.0004         37.0004
 -17677249.23143 -13720478.15642  20878042.5524   20878046.9814   20878042.2554
      1837.9314       1432.1474         50.0004         46.0004
 -12131431.01943  -9416532.99942  22538056.8174   22538059.3284   22538056.6334
      2564.1014       1998.0034         46.0004         41.0004
 -17535281.39343 -13627110.13242  21685618.9624   21685623.5704   21685618.8374
     -2660.6674      -2073.2424         47.0004         43.0004
  -2305397.76943  -1749874.10542  23525791.3534   23525795.0724   23525791.0314
      2191.1564       1707.3974         42.0004         38.0004
 -20236394.00743 -15722531.55742  20701174.7464   20701176.0314   20701173.9484
      -841.1514       -655.4424         52.0004         47.0004
 -11824853.13343  -9169823.14442  21632354.5624   21632357.5904   21632354.2184
     -1455.9354      -1134.4904         48.0004         43.0004
  -5230731.20543  -4029194.49242  23961427.1674   23961429.2224   23961426.9684
     -2914.5524      -2271.0764         42.0004         37.0004
 04 12 28  0 42 30.0000000  0  8G15G 1G11G 3G20G19G14G22
   -986880.63243   -703077.16942  23769178.9344   23769184.2864   23769178.1124
     -2055.5104      -1601.6974         42.0004         37.0004
 -17732110.53843 -13763227.21242  20867602.7634   20867607.2214   20867602.4714
      1819.7074       1417.9464         50.0004         46.0004
 -12208300.20743  -9476431.06142  22523429.0834   22523431.5994   22523428.8454
      2560.8734       1995.4784         46.0004         41.0004
 -17455263.42243 -13564758.52942  21700846.0184   21700850.5534   21700845.8534
     -2673.5814      -2083.3044         47.0004         43.0004
  -2371017.48743  -1801006.33342  23513304.4914   23513308.1144   23513303.8954
      2183.5374       1701.4534         42.0004         38.0004
 -20210863.72243 -15702637.85442  20706033.0274   20706034.3074   20706032.2264
      -860.6874       -670.6634         52.0004         47.0004
 -11780892.54043  -9135568.15142  21640719.9834   21640723.0334   21640719.6364
     -1474.6494      -1149.0674         48.0004         43.0004
  -5143291.60043  -3961059.82442  23978066.2854   23978068.5014   23978066.0104
     -2914.7804      -2271.2564         41.0004         36.0004
 04 12 28  0 43  0.0000000  0  8G15G 1G11G 3G20G19G14G22
   -925140.89043   -654968.35042  23780927.6484   23780932.9604   23780927.0004
     -2060.6284      -1605.6864         42.0004         37.0004
 -17786429.95343 -13805554.01242  20857266.0784   20857270.5734   20857265.7964
      1801.6314       1403.8644         50.0004         46.0004
 -12285075.81843  -9536256.19342  22508819.2024   22508821.7114   22508818.8754
      2557.5634       1992.9064         46.0004         41.0004
 -17374865.55443 -13502110.88542  21716145.4164   21716149.8284   21716145.1894
     -2686.2404      -2093.1604         47.0004         42.0004
  -2436431.22743  -1851978.04142  23500856.5594   23500860.2344   23500856.1214
      2176.5994       1696.0404         42.0004         38.0004
 -20184755.21943 -15682293.58642  20711001.3194   20711002.6304   20711000.5534
      -879.9224       -685.6574         52.0004         47.0004
 -11736384.10443  -9100886.25742  21649189.6264   21649192.6894   21649189.3274
     -1492.9144      -1163.3144         48.0004         43.0004
  -5055859.04443  -3892930.65442  23994704.0464   23994706.4574   23994704.1274
     -2914.3294      -2270.9034         41.0004         36.0004
 04 12 28  0 43 30.0000000  0  8G15G 1G11G 3G20G19G14G22
   -863243.16543   -606736.43842  23792706.4804   23792711.6344   23792705.8494
     -2065.7764      -1609.6944         42.0004         37.0004
 -17840205.30143 -13847456.86442  20847032.9754   20847037.4634   20847032.6854
      1783.6604       1389.8774         50.0004         46.0004
 -12361756.17043  -9596007.10642  22494227.3394   22494229.9394   22494227.0944
      2554.7634       1990.7194         46.0004         41.0004
 -17294089.97343 -13439168.92342  21731516.6024   21731520.9584   21731516.2984
     -2698.7454      -2102.9204         47.0004         42.0004
  -2501638.71043  -1902789.03242  23488448.0264   23488451.5814   23488447.5614
      2170.0584       1690.9504         43.0004         38.0004
 -20158069.09943 -15661499.23442  20716079.4864   20716080.8384   20716078.7434
      -899.0674       -700.5794         52.0004         47.0004
 -11691329.21343  -9065778.55442  21657763.3624   21657766.3774   21657763.0614
     -1510.7914      -1177.2484         48.0004         43.0004
  -4968434.36343  -3824807.61942  24011340.4804   24011343.0494   24011340.5444
     -2913.6174      -2270.3574         41.0004         37.0004
 04 12 28  0 44  0.0000000  0  8G15G 1G11G 3G20G19G14G22
   -801187.13243   -558381.18442  23804515.4474   23804520.7144   23804514.8724
     -2071.1294      -1613.8614         42.0004         37.0004
 -17893434.63343 -13888934.25542  20836903.7324   20836908.2034   20836903.4494
      1765.1404       1375.4414         50.0004         46.0004
 -12438339.69143  -9655682.56442  22479653.9124   22479656.5334   22479653.7024
      2551.1364       1987.9104         46.0004         41.0004
 -17212939.15443 -13375934.57042  21746959.0224   21746963.4974   21746958.7714
     -2711.4194      -2112.7924         47.0004         43.0004
  -2566640.15843  -1953439.48342  23476078.7204   23476082.2284   23476077.9674
      2163.3124       1685.7004         43.0004         38.0004
 -20130805.98643 -15640255.27242  20721267.5424   20721268.8474   20721266.7814
      -918.3874       -715.6254         52.0004         47.0004
 -11645729.73143  -9030246.50142  21666440.6804   21666443.5454   21666440.3534
     -1528.9854      -1191.4164         48.0004         43.0004
  -4881018.40943  -3756691.38942  24027975.2894   24027978.0054   24027975.1464
     -2913.7314      -2270.4294         41.0004         37.0004
 04 12 28  0 44 30.0000000  0  8G15G 1G11G 3G20G19G14G22
   -738972.82943   -509902.57842  23816354.5044   23816360.0024   23816353.9634
     -2076.3314      -1617.9224         42.0004         37.0004
 -17946116.46943 -13929985.01142  20826878.7324   20826883.1014   20826878.4284
      1746.8964       1361.2254         50.0004         46.0004
 -12514825.37843  -9715281.77642  22465099.1194   22465101.8224   22465098.8894
      2547.7404       1985.2504         46.0004         41.0004
 -17131416.21543 -13312410.25742  21762472.3704   21762476.8694   21762472.1024
     -2723.6964      -2122.3584         47.0004         43.0004
  -2631435.84443  -2003929.60042  23463748.5304   23463752.0484   23463747.8234
      2156.3454       1680.2664         43.0004         38.0004
 -20102966.93943 -15618562.53342  20726565.1744   20726566.4954   20726564.4074
      -937.6504       -730.6284         52.0004         47.0004
 -11599587.79443  -8994291.75542  21675221.2314   21675224.0604   21675220.9354
     -1546.9294      -1205.4154         48.0004         43.0004
  -4793612.71843  -3688583.18942  24044608.1044   24044610.8314   24044607.8964
     -2913.1564      -2269.9874         41.0004         37.0004
                            4  1
RINEX FILE SPLICE; other post-header comments skipped       COMMENT
 04 12 28  0 45  0.0000000  0  8G15G 1G11G 3G20G19G14G22
   -676599.92943   -461300.40342  23828223.6984   23828229.1924   23828223.0714
     -2081.3434      -1621.8144         41.0004         37.0004
 -17998248.68143 -13970607.50642  20816958.3144   20816962.5924   20816957.9984
      1728.9724       1347.2674         50.0004         46.0004
 -12591211.28743  -9774803.25442  22450563.3224   22450565.9554   22450563.1334
      2544.5594       1982.7834         46.0004         41.0004
 -17049523.29443 -13248597.64342  21778056.1154   21778060.6504   21778055.8644
     -2735.6244      -2131.6504         47.0004         43.0004
  -2696025.38843  -2054259.09442  23451457.5354   23451461.0984   23451456.7664
      2149.9494       1675.2874         43.0004         38.0004
 -20074552.43243 -15596421.38442  20731972.2754   20731973.6144   20731971.5094
      -956.2794       -745.1424         52.0004         47.0004
 -11552904.85943  -8957915.45542  21684104.7884   21684107.5074   21684104.4444
     -1564.6974      -1219.2414         48.0004         43.0004
  -4706218.01643  -3620483.50342  24061238.7544   24061241.4494   24061238.7564
     -2912.5264      -2269.4894         41.0004         36.0004
 04 12 28  0 45 30.0000000  0  8G15G 1G11G 3G20G19G14G22
   -614068.61043   -412574.79142  23840123.0494   23840128.4014   23840122.3394
     -2086.9644      -1626.2044         41.0004         37.0004
 -18049830.06343 -14010800.76842  20807142.6684   20807146.9484   20807142.3644
      1710.1114       1332.5514         50.0004         46.0004
 -12667496.17943  -9834246.00942  22436046.8014   22436049.4264   22436046.5784
      2541.2404       1980.1884         46.0004         41.0004
 -16967263.32143 -13184499.01342  21793709.7744   21793714.2814   21793709.4884
     -2747.9034      -2141.2294         47.0004         42.0004
  -2760409.55443  -2104428.54142  23439205.5634   23439209.1434   23439204.7444
      2142.9084       1669.8024         43.0004         38.0004
 -20045563.68243 -15573832.77342  20737488.7094   20737490.0204   20737487.8964
      -975.8524       -760.4064         52.0004         47.0004
 -11505683.34843  -8921119.48742  21693090.7644   21693093.4864   21693090.4114
     -1583.0234      -1233.5264         48.0004         43.0004
  -4618835.85543  -3552393.61742  24077867.0744   24077869.6854   24077867.0724
     -2912.6774      -2269.6214         40.0004         35.0004
 04 12 28  0 46  0.0000000  0  8G15G 1G11G 3G20G19G14G22
   -551378.03743   -363725.08442  23852052.9084   23852057.9804   23852052.1874
     -2092.2484      -1630.3114         41.0004         37.0004
 -18100858.30943 -14050563.02542  20797432.2404   20797436.5844   20797431.9674
      1691.7854       1318.2844         50.0004         46.0004
 -12743678.07443  -9893608.50942  22421549.7554   22421552.5254   22421549.6264
      2537.6474       1977.3954         46.0004         41.0004
 -16884638.18743 -13120115.84742  21809432.7844   21809437.4104   21809432.5634
     -2760.0504      -2150.6884         47.0004         42.0004
  -2824587.96043  -2154437.67542  23426992.7094   23426996.4124   23426991.9354
      2135.7674       1664.2314         43.0004         38.0004
 -20016001.24643 -15550797.13142  20743114.2914   20743115.6004   20743113.4694
      -994.7714       -775.1354         52.0004         47.0004
 -11457924.83243  -8883905.07742  21702178.8764   21702181.6464   21702178.5414
     -1600.6494      -1247.2514         48.0004         43.0004
  -4531466.86043  -3484313.97142  24094492.8244   24094495.1674   24094492.8124
     -2911.9624      -2269.0754         40.0004         35.0004
 04 12 28  0 46 30.0000000  0  8G15G 1G11G 3G20G19G14G22
   -488528.21643   -314751.26442  23864012.7444   23864017.9654   23864012.1394
     -2097.9514      -1634.7744         41.0004         36.0004
 -18151331.82343 -14089893.01742  20787827.4164   20787831.7754   20787827.1284
      1672.9734       1303.6144         50.0004         46.0004
 -12819755.72043  -9952889.78542  22407072.6504   22407075.3654   22407072.5514
      2534.1954       1974.6994         46.0004         41.0004
 -16801650.95443 -13055450.51442  21825224.7934   21825229.3894   21825224.5824
     -2772.3004      -2160.2264         47.0004         42.0004
  -2888560.87443  -2204286.66742  23414819.0114   23414822.7964   23414818.1874
      2128.5744       1658.6284         42.0004         38.0004
 -19985865.91443 -15527315.07942  20748848.8684   20748850.2074   20748848.0464
     -1014.0974       -790.2024         52.0004         47.0004
 -11409631.16843  -8846273.66242  21711368.8714   21711371.6254   21711368.5134
     -1618.8284      -1261.4174         48.0004         43.0004
  -4444112.53543  -3416245.74742  24111116.0094   24111118.3434   24111116.0274
     -2911.3424      -2268.5824         40.0004         36.0004
 04 12 28  0 47  0.0000000  0  8G15G 1G11G 3G20G19G14G22
   -425518.86943   -265653.14542  23876003.1724   23876008.3994   23876002.5544
     -2102.8044      -1638.5414         41.0004         36.0004
 -18201248.68143 -14128789.25642  20778328.5324   20778332.8714   20778328.2344
      1654.7934       1289.4514         50.0004         46.0004
 -12895727.39743 -10012088.47942  22392615.7544   22392618.4934   22392615.5084
      2531.1334       1972.3104         46.0004         41.0004
 -16718304.17543 -12990505.02942  21841085.2264   21841089.8004   21841084.9694
     -2783.9414      -2169.3014         47.0004         42.0004
  -2952328.31243  -2253975.57742  23402684.4714   23402688.0844   23402683.7364
      2122.3664       1653.7844         43.0004         38.0004
 -19955158.56943 -15503387.30742  20754692.3104   20754693.6294   20754691.4924
     -1032.8344       -804.8014         52.0004         47.0004
 -11360804.13143  -8808226.65042  21720660.3464   21720663.1604   21720659.9784
     -1636.3424      -1275.0574         48.0004         43.0004
  -4356773.37743  -3348189.35642  24127735.9764   24127738.7734   24127736.2084
     -2910.6184      -2268.0084         40.0004         36.0004
 04 12 28  0 47 30.0000000  0  8G15G 1G11G 3G20G19G14G22
   -362349.78943   -216430.57242  23888023.9044   23888029.2264   23888023.2604
     -2108.2524      -1642.7964         41.0004         37.0004
 -18250607.45843 -14167250.62942  20768935.8314   20768940.2104   20768935.5494
      1635.9314       1274.7534         50.0004         46.0004
 -12971591.86943 -10071203.65242  22378179.1914   22378181.9174   22378178.9574
      2527.0614       1969.1444         46.0004         41.0004
 -16634600.40043 -12925281.36542  21857013.5344   21857018.1694   21857013.3274
     -2796.0214      -2178.7044         47.0004         42.0004
  -3015890.45643  -2303504.48442  23390588.8964   23390592.5724   23390588.1844
      2115.1694       1648.1864         43.0004         38.0004
 -19923880.10443 -15479014.51142  20760644.4304   20760645.7814   20760643.6234
     -1052.2684       -819.9514         52.0004         47.0004
 -11311445.91143  -8769765.71542  21730052.8894   21730055.7294   21730052.5664
     -1654.0664      -1288.8664         48.0004         43.0004
  -4269450.53243  -3280145.68042  24144353.0304   24144356.0134   24144353.1954
     -2910.6244      -2268.0254         40.0004         36.0004
 04 12 28  0 48  0.0000000  0  8G15G 1G11G 3G20G19G14G22
   -299021.20743   -167083.69842  23900075.0004   23900080.3774   23900074.3844
     -2113.9234      -1647.2154         41.0004         37.0004
 -18299406.92043 -14205276.17342  20759649.6104   20759653.9654   20759649.3194
      1617.0384       1260.0294         50.0004         46.0004
 -13047347.78443 -10130234.22242  22363763.2744   22363766.0234   22363763.0744
      2523.1004       1966.0454         46.0004         41.0004
 -16550542.63043 -12859781.86542  21873009.2094   21873013.8364   21873008.9774
     -2807.9944      -2188.0534         47.0004         42.0004
  -3079247.76743  -2352873.78342  23378532.4384   23378536.1024   23378531.6894
      2108.4634       1642.9654         43.0004         38.0004
 -19892031.94343 -15454197.78642  20766704.9394   20766706.3154   20766704.1434
     -1071.2094       -834.7024         52.0004         47.0004
 -11261558.87643  -8730892.71942  21739546.0994   21739548.9314   21739545.7244
     -1671.9794      -1302.8464         48.0004         43.0004
  -4182145.61943  -3212115.98342  24160966.6364   24160969.8004   24160966.7294
     -2910.2164      -2267.7074         40.0004         36.0004
 04 12 28  0 48 30.0000000  0  8G15G 1G11G 3G20G19G14G22
   -235532.62743   -117612.17542  23912156.5284   23912161.9924   23912156.0854
     -2119.3044      -1651.4014         42.0004         37.0004
 -18347645.01943 -14242864.29042  20750470.2134   20750474.5394   20750469.9334
      1598.0674       1245.2464         50.0004         46.0004
 -13122993.25743 -10189178.74442  22349368.4384   22349371.1614   22349368.2474
      2519.3644       1963.1464         46.0004         41.0004
 -16466133.24443 -12794008.37342  21889071.7614   21889076.4584   21889071.5754
     -2819.9394      -2197.3514         47.0004         42.0004
  -3142400.12743  -2402083.38442  23366514.7484   23366518.4384   23366514.0584
      2101.1234       1637.2424         43.0004         38.0004
 -19859614.68643 -15428937.61542  20772873.6934   20772875.1574   20772872.9134
     -1090.6434       -849.8504         51.0004         47.0004
 -11211144.50743  -8691608.80342  21749139.6234   21749142.4774   21749139.2884
     -1689.6604      -1316.6184         48.0004         43.0004
  -4094859.33543  -3144100.80842  24177576.6344   24177580.0924   24177576.7554
     -2909.8734      -2267.4234         41.0004         36.0004
 04 12 28  0 49  0.0000000  0  8G15G 1G11G 3G20G19G14G22
   -171882.92943    -68015.09042  23924268.7004   23924274.1774   23924268.2324
     -2123.4284      -1654.6164         41.0004         37.0004
 -18395319.21043 -14280012.99742  20741398.1244   20741402.4164   20741397.8334
      1580.4534       1231.5224         50.0004         46.0004
 -13198525.79243 -10248035.25542  22334995.0414   22334997.8374   22334994.8434
      2516.6304       1961.0094         46.0004         41.0004
 -16381373.90443 -12727962.19742  21905200.9164   21905205.6164   21905200.7524
     -2830.4364      -2205.5314         46.0004         42.0004
  -3205346.83043  -2451132.73342  23354536.4374   23354540.0464   23354535.6774
      2095.1944       1632.6244         43.0004         38.0004
 -19826628.45643 -15403234.08942  20779150.7884   20779152.2324   20779149.9924
     -1108.3784       -863.6584         51.0004         47.0004
 -11160204.29743  -8651915.15242  21758833.2114   21758836.0894   21758832.8824
     -1705.9494      -1329.3104         48.0004         43.0004
  -4007591.60543  -3076100.08442  24194183.4114   24194186.5584   24194183.1854
     -2908.2134      -2266.1474         41.0004         36.0004
 04 12 28  0 49 30.0000000  0  8G15G 1G11G 3G20G19G14G22
   -108073.37843    -18293.44242  23936411.4764   23936416.7444   23936410.8764
     -2129.6514      -1659.4714         41.0004         36.0004
 -18442429.44243 -14316722.25542  20732433.3064   20732437.6174   20732433.0234
      1560.7134       1216.1264         50.0004         46.0004
 -13273945.42443 -10306803.79742  22320643.0694   22320645.8484   22320642.9754
      2512.1464       1957.5184         46.0004         41.0004
 -16296268.62343 -12661646.45442  21921395.9734   21921400.7004   21921395.7794
     -2842.9214      -2215.2654         46.0004         42.0004
  -3268089.71843  -2500023.28042  23342596.8424   23342600.5304   23342596.0734
      2088.1414       1627.1204         43.0004         38.0004
 -19793075.76443 -15377089.17042  20785535.7424   20785537.1324   20785534.9234
     -1128.0214       -878.9804         51.0004         47.0004
 -11108741.64543  -8611814.39642  21768626.2954   21768629.1054   21768625.9504
     -1724.3134      -1343.6284         48.0004         43.0004
  -3920345.08843  -3008115.86742  24210785.8504   24210788.9834   24210785.8484
     -2908.1214      -2266.0694         41.0004         36.0004
 04 12 28  0 50  0.0000000  0  8G15G 1G11G 3G20G19G14G22
    -44102.49343     31553.90942  23948584.7634   23948590.1704   23948584.1634
     -2135.7834      -1664.2414         41.0004         36.0004
 -18488972.88943 -14352989.87442  20723576.3714   20723580.6704   20723576.1054
      1541.4194       1201.1024         51.0004         46.0004
 -13349249.29443 -10365482.12742  22306313.0914   22306316.0834   22306313.0154
      2507.8434       1954.1564         46.0004         41.0004
 -16210819.02743 -12595062.41642  21937656.5684   21937661.3204   21937656.3284
     -2854.6754      -2224.4274         46.0004         42.0004
  -3330627.64943  -2548754.13042  23330696.2944   23330699.9544   23330695.5094
      2080.7474       1621.3654         43.0004         38.0004
 -19758956.13543 -15350502.47242  20792028.4724   20792029.8984   20792027.6684
     -1147.2344       -893.9574         51.0004         47.0004
 -11056757.25343  -8571307.10042  21778518.6254   21778521.4564   21778518.2874
     -1742.0924      -1357.4814         48.0004         43.0004
  -3833119.62743  -2940148.06842  24227384.3524   24227387.5374   24227384.2064
     -2907.8934      -2265.8964         40.0004         36.0004
 04 12 28  0 50 30.0000000  0  8G15G 1G11G 3G20G19G14G22
     20029.09243     81526.50842  23960788.6494   23960794.0914   23960788.0894
     -2140.2224      -1667.7054         41.0004         36.0004
 -18534948.55243 -14388815.05242  20714827.4904   20714831.7854   20714827.2494
      1522.8934       1186.6634         51.0004         46.0004
 -13424436.35843 -10424069.45142  22292005.4134   22292008.4624   22292005.3864
      2504.2154       1951.3374         46.0004         41.0004
 -16125028.43243 -12528212.65942  21953982.0134   21953986.7524   21953981.7584
     -2865.1974      -2232.6134         46.0004         42.0004
  -3392961.20543  -2597325.68942  23318834.7154   23318838.4114   23318833.9254
      2074.4574       1616.4574         43.0004         38.0004
 -19724271.53443 -15323475.54642  20798628.6724   20798630.1854   20798627.9024
     -1165.7034       -908.3384         51.0004         47.0004
 -11004253.67943  -8530395.24242  21788509.6804   21788512.5784   21788509.3334
     -1758.8414      -1370.5374         48.0004         43.0004
  -3745916.81043  -2872197.95042  24243978.4894   24243981.6694   24243978.4274
     -2906.5024      -2264.7984         40.0004         36.0004
 04 12 28  0 51  0.0000000  0  8G15G 1G11G 3G20G19G14G22
     84322.15343    131624.90742  23973023.2234   23973028.7914   23973022.5354
     -2145.8724      -1672.1094         41.0004         36.0004
 -18580354.40343 -14424196.22342  20706187.0734   20706191.3184   20706186.7874
      1504.0714       1172.0214         51.0004         46.0004
 -13499504.39743 -10482564.01842  22277720.5344   22277723.4994   22277720.4134
      2500.4174       1948.3724         46.0004         41.0004
 -16038899.04943 -12461098.91042  21970371.9124   21970376.6824   21970371.6524
     -2876.6754      -2241.5564         46.0004         42.0004
  -3455089.92243  -2645737.65642  23307011.9584   23307015.6614   23307011.1304
      2067.5774       1611.0954         43.0004         38.0004
 -19689022.49043 -15296008.78442  20805336.4034   20805337.8884   20805335.5824
     -1184.3374       -922.8494         51.0004         47.0004
 -10951232.86943  -8489080.34642  21798599.2354   21798602.1424   21798598.8724
     -1775.9244      -1383.8274         48.0004         43.0004
  -3658736.67943  -2804265.49742  24260568.3234   24260571.7314   24260568.4054
     -2905.6484      -2264.1464         40.0004         36.0004
 04 12 28  0 51 30.0000000  0  8G15G 1G11G 3G20G19G14G22
    148775.94943    181848.55342  23985288.3364   23985294.1344   23985287.6524
     -2150.2964      -1675.5514         41.0004         36.0004
 -18625189.86143 -14459132.92942  20697655.2064   20697659.4144   20697654.8764
      1485.9204       1157.8584         51.0004         46.0004
 -13574452.72243 -10540965.31442  22263458.3884   22263461.2804   22263458.2544
      2497.3764       1946.0074         46.0004         42.0004
 -15952434.38443 -12393723.91742  21986825.5554   21986830.3954   21986825.2824
     -2886.8294      -2249.4694         46.0004         41.0004
  -3517015.15543  -2693991.06542  23295227.7984   23295231.5804   23295227.1584
      2061.7014       1606.5274         43.0004         38.0004
 -19653210.79243 -15268103.60342  20812151.1824   20812152.6514   20812150.3394
     -1202.1424       -936.7164         51.0004         47.0004
 -10897697.40343  -8447364.41642  21808786.7354   21808789.5824   21808786.3394
     -1792.2604      -1396.5664         48.0004         43.0004
  -3571581.22843  -2736352.26342  24277153.4254   24277156.9584   24277153.5864
     -2903.8324      -2262.7304         40.0004         36.0004
 04 12 28  0 52  0.0000000  0  8G15G 1G11G 3G20G19G14G22
    213391.42443    232198.18442  23997584.3884   23997590.1824   23997583.7584
     -2156.4374      -1680.3354         41.0004         36.0004
 -18669452.77543 -14493623.50442  20689232.2244   20689236.4584   20689231.9264
      1465.8994       1142.2514         51.0004         46.0004
 -13649278.96543 -10599271.47242  22249219.4434   22249222.3254   22249219.3674
      2492.1674       1941.9484         46.0004         42.0004
 -15865636.39943 -12326089.18742  22003342.7394   22003347.5724   22003342.4884
     -2898.7214      -2258.7414         46.0004         42.0004
  -3578736.36843  -2742085.48442  23283482.7064   23283486.2324   23283482.0064
      2053.7334       1600.3114         43.0004         38.0004
 -19616837.01943 -15239760.43442  20819072.8514   20819074.3704   20819072.0454
     -1221.8374       -952.0894         51.0004         47.0004
 -10843648.85943  -8405248.69442  21819071.7964   21819074.6744   21819071.4704
     -1810.2114      -1410.5634         48.0004         43.0004
  -3484450.76243  -2668458.47842  24293733.9984   24293737.3154   24293734.0774
     -2904.1324      -2262.9604         40.0004         36.0004
 04 12 28  0 52 30.0000000  0  8G15G 1G11G 3G20G19G14G22
    278169.32243    282674.40242  24009911.2804   24009917.0604   24009910.5304
     -2162.1674      -1684.8134         40.0004         36.0004
 -18713140.93343 -14527666.20942  20680918.7024   20680922.8664   20680918.3714
      1446.6044       1127.2294         51.0004         46.0004
 -13723981.06143 -10657480.88442  22235004.2324   22235006.9154   22235004.0954
      2487.8084       1938.5464         46.0004         42.0004
 -15778507.27743 -12258196.42442  22019922.9054   22019927.7304   22019922.6524
     -2909.8284      -2267.4054         46.0004         41.0004
  -3640253.05643  -2790020.54342  23271776.4974   23271779.9644   23271775.8804
      2047.1324       1595.1614         43.0004         38.0004
 -19579901.70543 -15210979.69942  20826101.4314   20826102.9614   20826100.6074
     -1240.6334       -966.7324         51.0004         47.0004
 -10789088.79943  -8362734.38242  21829454.1974   21829457.1604   21829453.9184
     -1827.0584      -1423.6784         48.0004         43.0004
  -3397345.72143  -2600584.50942  24310309.8524   24310312.9844   24310309.9314
     -2903.1474      -2262.1884         41.0004         36.0004
 04 12 28  0 53  0.0000000  0  8G15G 1G11G 3G20G19G14G22
    343108.39143    333276.21442  24022268.5444   24022274.6184   24022267.8844
     -2167.2434      -1688.7594         40.0004         35.0004
 -18756254.39743 -14561261.11242  20672714.4774   20672718.6424   20672714.1464
      1427.7804       1112.5624         51.0004         46.0004
 -13798558.69343 -10715593.32642  22220812.5334   22220815.2764   22220812.4664
      2484.0174       1935.5914         46.0004         42.0004
 -15691050.90343 -12190048.67242  22036565.3564   22036570.2144   22036565.1494
     -2920.5374      -2275.7414         46.0004         41.0004
  -3701566.72543  -2837797.41842  23260108.8164   23260112.3614   23260108.1394
      2040.4134       1589.9294         43.0004         38.0004
 -19542407.34343 -15181763.34642  20833236.4364   20833237.9344   20833235.6104
     -1258.9644       -981.0134         51.0004         47.0004
 -10734020.59543  -8319824.11742  21839933.3254   21839936.3244   21839933.0734
     -1843.8864      -1436.7824         48.0004         43.0004
  -3310268.22743  -2532732.01042  24326880.1414   24326883.3864   24326880.2364
     -2901.8814      -2261.1994         40.0004         36.0004
 04 12 28  0 53 30.0000000  0  8G15G 1G11G 3G20G19G14G22
    408210.07643    384004.69442  24034657.0634   24034662.9414   24034656.5444
     -2172.8974      -1693.1694         40.0004         36.0004
 -18798790.57043 -14594406.16442  20664620.0724   20664624.2584   20664619.7444
      1408.0874       1097.1964         51.0004         46.0004
 -13873008.86843 -10773606.43842  22206645.2044   22206647.8484   22206645.0624
      2479.4594       1932.0334         46.0004         42.0004
 -15603268.85843 -12121647.15042  22053269.7654   22053274.6414   22053269.4854
     -2931.2884      -2284.1184         46.0004         41.0004
  -3762676.38043  -2885415.29942  23248479.9914   23248483.6424   23248479.2704
      2033.5714       1584.5934         43.0004         38.0004
 -19504353.97743 -15152111.41042  20840477.7864   20840479.2964   20840476.9504
     -1277.8324       -995.7214         51.0004         47.0004
 -10678445.28043  -8276518.70442  21850509.0004   21850511.9784   21850508.7044
     -1861.0124      -1450.1474         48.0004         43.0004
  -3223218.06243  -2464900.83742  24343444.8944   24343448.6374   24343445.0774
     -2901.4404      -2260.8624         40.0004         35.0004
 04 12 28  0 54  0.0000000  0  8G15G 1G11G 3G20G19G14G22
    473474.29543    434859.85542  24047076.6274   24047082.3974   24047075.8274
     -2178.3784      -1697.4344         40.0004         36.0004
 -18840748.40843 -14627100.57642  20656635.7264   20656639.9464   20656635.4574
      1388.7434       1082.1304         51.0004         46.0004
 -13947330.36043 -10831519.27942  22192502.2354   22192504.8884   22192502.1454
      2475.0364       1928.6034         46.0004         42.0004
 -15515164.13643 -12052994.17242  22070035.5654   22070040.4124   22070035.3194
     -2942.3744      -2292.7574         46.0004         41.0004
  -3823582.60743  -2932874.67942  23236890.0504   23236893.5284   23236889.4204
      2026.6084       1579.1694         43.0004         38.0004
 -19465743.07143 -15122025.02542  20847825.2154   20847826.7384   20847824.4034
     -1296.4964      -1010.2524         51.0004         47.0004
 -10622365.32843  -8232820.06742  21861180.6684   21861183.6694   21861180.4174
     -1877.9414      -1463.3374         48.0004         43.0004
  -3136196.50343  -2397091.97142  24360004.7564   24360008.3884   24360004.8144
     -2899.9684      -2259.7054         40.0004         36.0004
 04 12 28  0 54 30.0000000  0  8G15G 1G11G 3G20G19G14G22
    538900.54143    485841.28242  24059526.9264   24059532.7824   24059526.1494
     -2183.6634      -1701.5554         40.0004         36.0004
 -18882127.01243 -14659343.63342  20648761.6054   20648765.8504   20648761.3534
      1369.0454       1066.7884         51.0004         46.0004
 -14021522.01843 -10889330.95342  22178384.0364   22178386.6954   22178383.9574
      2470.5154       1925.0834         46.0004         42.0004
 -15426740.10543 -11984092.39442  22086862.2174   22086866.9974   22086861.8964
     -2953.2624      -2301.2414         46.0004         41.0004
  -3884286.23943  -2980176.20442  23225338.5164   23225342.0194   23225337.9024
      2019.7914       1573.8654         43.0004         38.0004
 -19426576.35943 -15091505.53542  20855278.4024   20855279.9274   20855277.5794
     -1315.2574      -1024.8894         51.0004         47.0004
 -10565783.60043  -8188730.44342  21871947.8534   21871950.8584   21871947.5554
     -1894.6924      -1476.3904         47.0004         43.0004
  -3049204.89343  -2329306.42442  24376558.8664   24376562.4484   24376558.9844
     -2899.2494      -2259.1694         40.0004         36.0004
 04 12 28  0 55  0.0000000  0  8G15G 1G11G 3G20G19G14G22
    604489.23943    536949.28642  24072007.9474   24072014.1164   24072007.3754
     -2189.0724      -1705.7574         40.0004         36.0004
 -18922924.49943 -14691133.87842  20640998.1084   20641002.3234   20640997.8364
      1350.2464       1052.1434         51.0004         46.0004
 -14095581.75343 -10947039.82642  22164291.1114   22164293.5324   22164290.8484
      2466.4144       1921.8724         47.0004         42.0004
 -15337999.03243 -11914943.57142  22103749.0664   22103753.9414   22103748.8464
     -2963.2504      -2309.0234         46.0004         41.0004
  -3944786.89343  -3027319.55242  23213825.5754   23213829.2314   23213824.8894
      2013.2074       1568.7304         43.0004         38.0004
 -19386854.52043 -15060553.48542  20862837.2594   20862838.7684   20862836.4264
     -1333.3114      -1038.9344         51.0004         47.0004
 -10508701.64143  -8144251.02142  21882810.2464   21882813.2884   21882809.9114
     -1911.1714      -1489.2294         47.0004         43.0004
  -2962243.70043  -2261544.57642  24393107.2284   24393110.7074   24393107.2074
     -2897.9654      -2258.1434         40.0004         36.0004
 04 12 28  0 55 30.0000000  0  8G15G 1G11G 3G20G19G14G22
    670239.98143    588183.55942  24084520.0624   24084526.1964   24084519.4324
     -2194.6144      -1710.0874         40.0004         36.0004
 -18963140.15443 -14722470.73542  20633345.3614   20633349.5234   20633345.0644
      1330.6854       1036.9064         51.0004         46.0004
 -14169508.31343 -11004644.92642  22150223.2224   22150225.7764   22150223.0854
      2461.7364       1918.2484         47.0004         42.0004
 -15248944.11443 -11845550.18742  22120695.6814   22120700.6084   22120695.4624
     -2973.6714      -2317.1394         46.0004         41.0004
  -4005085.28343  -3074305.30342  23202351.0714   23202354.7474   23202350.4704
      2006.4024       1563.4284         43.0004         38.0004
 -19346579.72243 -15029170.56042  20870501.4064   20870502.8144   20870500.5644
     -1351.9024      -1053.4404         51.0004         47.0004
 -10451122.32343  -8099384.04642  21893767.2174   21893770.2574   21893766.8964
     -1927.8474      -1502.2254         47.0004         43.0004
  -2875314.28843  -2193807.48542  24409649.4294   24409652.7574   24409649.5024
     -2897.3994      -2257.6944         40.0004         35.0004
 04 12 28  0 56  0.0000000  0  8G15G 1G11G 3G20G19G14G22
    736153.83043    639544.89642  24097063.1994   24097069.2854   24097062.5134
     -2199.7294      -1714.0714         41.0004         36.0004
 -19002772.04543 -14753352.71742  20625803.6564   20625807.7924   20625803.3414
      1311.4654       1021.9274         51.0004         46.0004
 -14243299.76543 -11062144.76542  22136181.2214   22136183.7424   22136181.0304
      2457.4654       1914.9174         47.0004         42.0004
 -15159577.65343 -11775914.04642  22137701.5134   22137706.5424   22137701.3614
     -2983.9374      -2325.1384         46.0004         41.0004
  -4065181.12343  -3121133.22142  23190915.1284   23190918.8574   23190914.6284
      2000.0714       1558.5014         43.0004         39.0004
 -19305752.52343 -14997357.18442  20878270.6074   20878271.9774   20878269.7924
     -1370.0714      -1067.5814         51.0004         47.0004
 -10393047.29043  -8054130.81242  21904818.5934   21904821.5714   21904818.2444
     -1944.0934      -1514.8684         47.0004         43.0004
  -2788417.10143  -2126095.51242  24426185.6484   24426188.8914   24426185.3604
     -2895.7434      -2256.4104         40.0004         36.0004
 04 12 28  0 56 30.0000000  0  8G15G 1G11G 3G20G19G14G22
    802231.24043    691033.74242  24109637.3704   24109643.4204   24109636.6824
     -2205.9124      -1718.8844         40.0004         36.0004
 -19041818.67243 -14783778.64942  20618373.2664   20618377.4744   20618372.9994
      1291.3634       1006.2594         51.0004         46.0004
 -14316953.65543 -11119537.40942  22122165.3364   22122167.7764   22122165.1304
      2452.3494       1910.9054         47.0004         42.0004
 -15069901.71343 -11706036.75242  22154766.3584   22154771.3364   22154766.1724
     -2994.6974      -2333.5304         46.0004         41.0004
  -4125074.32943  -3167803.23042  23179517.7784   23179521.5564   23179517.2814
      1992.4864       1552.5814         43.0004         39.0004
 -19264373.82543 -14965114.07942  20886144.6824   20886146.1514   20886143.8804
     -1388.8554      -1082.2154         51.0004         47.0004
 -10334478.23643  -8008492.62242  21915963.9774   21915966.9014   21915963.6074
     -1960.9974      -1528.0594         47.0004         43.0004
  -2701552.61743  -2058409.02342  24442715.4304   24442718.9124   24442715.2084
     -2895.5734      -2256.3024         40.0004         36.0004
 04 12 28  0 57  0.0000000  0  8G15G 1G11G 3G20G19G14G22
    868471.35443    742649.32042  24122242.4744   24122248.5734   24122241.9854
     -2211.0064      -1722.8594         40.0004         36.0004
 -19080279.61143 -14813748.20042  20611054.3144   20611058.6084   20611054.0864
      1271.9034        991.0864         51.0004         46.0004
 -14390469.17443 -11176822.21642  22108175.8074   22108178.2754   22108175.5594
      2447.9704       1907.5134         47.0004         42.0004
 -14979920.00543 -11635921.19742  22171889.3184   22171894.2854   22171889.1954
     -3004.7224      -2341.3384         45.0004         41.0004
  -4184765.82543  -3214316.05542  23168158.9014   23168162.7104   23168158.3044
      1986.0014       1547.5244         43.0004         39.0004
 -19222445.95743 -14932443.04142  20894123.3064   20894124.8034   20894122.4894
     -1407.0324      -1096.3884         51.0004         47.0004
 -10275418.41243  -7962472.01442  21927202.7484   21927205.6424   21927202.3634
     -1977.1374      -1540.6254         47.0004         43.0004
  -2614722.15043  -1990749.05642  24459238.7934   24459242.3474   24459238.5594
     -2893.6574      -2254.8004         40.0004         36.0004
 04 12 28  0 57 30.0000000  0  8G15G 1G11G 3G20G19G14G22
    934874.47843    794391.95942  24134878.4414   24134884.7194   24134878.0014
     -2215.5674      -1726.4114         40.0004         36.0004
 -19118153.28843 -14843260.14642  20603847.1684   20603851.4994   20603846.9394
      1253.2914        976.5894         51.0004         46.0004
 -14463844.08843 -11233997.46942  22094212.9404   22094215.4594   22094212.7704
      2443.9314       1904.3744         47.0004         42.0004
 -14889634.99743 -11565569.30642  22189070.0564   22189075.0374   22189069.9234
     -3013.7624      -2348.3684         45.0004         41.0004
  -4244255.60543  -3260671.71942  23156838.3084   23156842.2214   23156837.7134
      1980.1294       1542.9614         43.0004         39.0004
 -19179969.80143 -14899344.77042  20902206.2844   20902207.8084   20902205.5034
     -1424.5024      -1109.9864         51.0004         46.0004
 -10215869.75843  -7916070.50742  21938534.5404   21938537.4244   21938534.1414
     -1992.3864      -1552.4964         47.0004         43.0004
  -2527926.26843  -1923116.06242  24475755.6004   24475759.0974   24475755.4074
     -2891.7854      -2253.3334         40.0004         35.0004
 04 12 28  0 58  0.0000000  0  8G15G 1G11G 3G20G19G14G22
   1001441.18743    846262.04942  24147545.7314   24147551.9924   24147545.3724
     -2222.2994      -1731.6554         40.0004         36.0004
 -19155438.04943 -14872313.18842  20596752.1234   20596756.4454   20596751.8884
      1232.2944        960.2214         51.0004         46.0004
 -14537076.54143 -11291061.70742  22080277.2514   22080279.8404   22080277.0994
      2438.0394       1899.7674         47.0004         43.0004
 -14799049.06643 -11494982.94042  22206308.0964   22206313.0174   22206307.9254
     -3025.1894      -2357.2934         45.0004         41.0004
  -4303543.60743  -3306870.14542  23145556.2584   23145559.9984   23145555.6294
      1972.1734       1536.7534         43.0004         39.0004
 -19136946.20243 -14865819.91542  20910393.3974   20910394.9324   20910392.6234
     -1443.9834      -1125.1844         51.0004         46.0004
 -10155834.28943  -7869289.65342  21949958.9284   21949961.8314   21949958.5244
     -2010.0434      -1566.2634         47.0004         42.0004
  -2441165.68743  -1855510.57842  24492265.5804   24492269.3244   24492265.4224
     -2892.5224      -2253.8984         40.0004         35.0004
 04 12 28  0 58 30.0000000  0  8G15G 1G11G 3G20G19G14G22
   1068170.46743    898258.78342  24160244.0094   24160250.1784   24160243.6734
     -2225.8524      -1734.4274         40.0004         36.0004
 -19192133.75843 -14900907.24342  20589769.1864   20589773.4894   20589768.9174
      1214.2104        946.1484         51.0004         46.0004
 -14610165.75743 -11348014.33642  22066368.8994   22066371.4084   22066368.7104
      2434.7094       1897.1864         47.0004         42.0004
 -14708166.38943 -11424165.33242  22223602.5234   22223607.4914   22223602.4004
     -3033.4354      -2363.7104         45.0004         41.0004
  -4362631.07843  -3352912.31342  23134312.2304   23134315.9424   23134311.6844
      1967.1024       1532.8084         43.0004         39.0004
 -19093378.02743 -14831870.71742  20918684.1264   20918685.6954   20918683.3784
     -1460.4424      -1137.9984         51.0004         46.0004
 -10095314.87043  -7822131.69342  21961475.3344   21961478.3104   21961474.9924
     -2024.4964      -1577.5314         47.0004         42.0004
  -2354442.21243  -1787933.95142  24508768.6454   24508772.3144   24508768.3604
     -2889.1774      -2251.3154         40.0004         35.0004
 04 12 28  0 59  0.0000000  0  8G15G 1G11G 3G20G19G14G22
   1135062.93543    950382.71842  24172973.2604   24172979.5094   24172972.8744
     -2232.7464      -1739.7984         40.0004         35.0004
 -19228238.98643 -14929041.17442  20582898.6104   20582902.8634   20582898.3194
      1193.4064        929.9364         51.0004         46.0004
 -14683109.91343 -11404853.93242  22052488.0864   22052490.6484   22052487.8764
      2428.7904       1892.5584         47.0004         42.0004
 -14616988.95543 -11353118.05542  22240953.1144   22240958.0264   22240952.9434
     -3044.4454      -2372.2924         45.0004         41.0004
  -4421517.83143  -3398798.06242  23123106.4024   23123110.1964   23123105.8764
      1959.3344       1526.7524         43.0004         39.0004
 -19049266.19743 -14797497.89742  20927078.3124   20927079.9334   20927077.5724
     -1479.6994      -1153.0164         51.0004         46.0004
 -10034313.86843  -7774598.47542  21973083.5194   21973086.4954   21973083.1334
     -2041.7204      -1590.9524         47.0004         42.0004
  -2267756.10543  -1720386.47142  24525264.6624   24525268.3444   24525264.3564
     -2889.0684      -2251.2214         40.0004         36.0004
 04 12 28  0 59 30.0000000  0  8G15G 1G11G 3G20G19G14G22
   1202119.38143   1002634.38242  24185733.7974   24185740.0784   24185733.2624
     -2238.0164      -1743.9034         40.0004         36.0004
 -19263751.77043 -14956713.45642  20576140.6894   20576144.9824   20576140.4234
      1174.1444        914.9074         51.0004         46.0004
 -14755906.00243 -11461578.16242  22038635.4744   22038637.9394   22038635.2894
      2424.2664       1889.0374         47.0004         43.0004
 -14525518.80643 -11281842.68842  22258359.4514   22258364.2624   22258359.2404
     -3053.7714      -2379.5654         45.0004         40.0004
  -4480203.29143  -3444526.97942  23111938.8904   23111942.6094   23111938.3334
      1953.4674       1522.1814         43.0004         39.0004
 -19004611.29643 -14762701.90542  20935575.8954   20935577.5034   20935575.1184
     -1497.3074      -1166.7294         51.0004         46.0004
  -9972832.75843  -7726691.14742  21984782.9484   21984786.0144   21984782.5854
     -2057.2734      -1603.0744         47.0004         42.0004
  -2181107.59343  -1652868.31142  24541753.3774   24541757.0554   24541753.1174
     -2887.2044      -2249.7654         39.0004         34.0004
                            4  1
RINEX FILE SPLICE; other post-header comments skipped       COMMENT
 04 12 28  1  0  0.0000000  0  8G15G 1G11G 3G20G19G14G22
   1269339.60843   1055013.70642  24198525.3904   24198531.8214   24198524.8674
     -2243.7794      -1748.4034         40.0004         35.0004
 -19298671.17543 -14983923.37342  20569495.7524   20569500.0424   20569495.4674
      1153.7204        898.9974         51.0004         46.0004
 -14828553.03243 -11518186.21542  22024811.1334   22024813.6504   22024811.0004
      2418.7454       1884.7244         47.0004         43.0004
 -14433758.95743 -11210341.57042  22275820.7464   22275825.5904   22275820.6214
     -3063.6914      -2387.2804         45.0004         41.0004
  -4538688.11443  -3490099.55842  23100809.5684   23100813.2874   23100809.0364
      1945.9904       1516.3554         43.0004         39.0004
 -18959414.92043 -14727483.98642  20944176.4924   20944178.1384   20944175.7274
     -1515.9374      -1181.2584         51.0004         46.0004
  -9910874.16743  -7678411.75742  21996573.2584   21996576.3164   21996572.9164
     -2073.6164      -1615.8004         47.0004         42.0004
  -2094497.61243  -1585380.15742  24558234.6384   24558238.4014   24558234.3744
     -2886.3704      -2249.1314         39.0004         34.0004
 04 12 28  1  0 30.0000000  0  8G15G 1G11G 3G20G19G14G22
   1336723.32943   1107520.42042  24211348.2554   24211354.7784   24211347.6064
     -2249.7154      -1753.0194         40.0004         36.0004
 -19332996.81343 -15010670.60842  20562963.8244   20562968.0874   20562963.5214
      1133.5174        883.2654         51.0004         46.0004
 -14901049.36743 -11574676.86742  22011015.6204   22011018.0324   22011015.4554
      2413.2544       1880.4544         47.0004         43.0004
 -14341712.80243 -11138617.36942  22293336.6264   22293341.4274   22293336.4504
     -3073.8384      -2395.2024         45.0004         41.0004
  -4596973.11243  -3535516.43042  23089718.3974   23089721.9774   23089717.8234
      1938.6904       1510.6724         43.0004         39.0004
 -18913679.26643 -14691845.84542  20952879.6844   20952881.4084   20952878.9484
     -1534.2024      -1195.4784         51.0004         46.0004
  -9848440.96543  -7629762.54242  22008453.8894   22008457.0144   22008453.5524
     -2089.6484      -1628.2894         47.0004         42.0004
  -2007927.28143  -1517922.87942  24574708.2824   24574712.3014   24574707.9604
     -2885.9074      -2248.7404         39.0004         34.0004
 04 12 28  1  1  0.0000000  0  8G15G 1G11G 3G20G19G14G22
   1404270.89143   1160154.78942  24224202.2844   24224208.6114   24224201.5964
     -2254.2094      -1756.5214         40.0004         35.0004
 -19366727.22943 -15036954.03842  20556545.1304   20556549.3734   20556544.8184
      1114.4604        868.4074         51.0004         46.0004
 -14973392.87343 -11631048.42042  21997249.0444   21997251.5234   21997248.9334
      2409.1544       1877.2464         47.0004         43.0004
 -14249382.77543 -11066671.96742  22310906.4334   22310911.3244   22310906.3104
     -3082.0784      -2401.6184         45.0004         40.0004
  -4655057.99843  -3580777.37442  23078665.1394   23078668.7184   23078664.6324
      1932.9064       1506.1624         43.0004         39.0004
 -18867405.46443 -14655788.37042  20961685.3074   20961687.0534   20961684.5684
     -1551.1494      -1208.6944         51.0004         46.0004
  -9785534.98943  -7580744.93442  22020424.4934   22020427.6074   22020424.1954
     -2104.4624      -1639.8484         47.0004         42.0004
  -1921397.17543  -1450497.01042  24591174.5754   24591178.5974   24591174.3284
     -2883.5674      -2246.9304         39.0004         35.0004
 04 12 28  1  1 30.0000000  0  8G15G 1G11G 3G20G19G14G22
   1471982.07243   1212916.66942  24237087.3004   24237093.4374   24237086.6624
     -2260.0004      -1761.0524         40.0004         35.0004
 -19399861.74543 -15062773.13042  20550239.7994   20550244.0594   20550239.5134
      1093.7044        852.2254         51.0004         46.0004
 -15045582.32143 -11687299.90842  21983511.7994   21983514.3364   21983511.6974
      2402.9354       1872.4134         47.0004         43.0004
 -14156772.06743 -10994507.84742  22328529.7134   22328534.6394   22328529.5804
     -3092.6164      -2409.8244         45.0004         40.0004
  -4712943.23643  -3625882.75242  23067649.8824   23067653.4634   23067649.3684
      1925.2044       1500.1574         44.0004         39.0004
 -18820595.35943 -14619313.00042  20970592.9904   20970594.7514   20970592.2324
     -1570.0274      -1223.4074         51.0004         46.0004
  -9722158.90043  -7531361.00642  22032484.6684   22032487.7044   22032484.3824
     -2121.1494      -1652.8404         47.0004         42.0004
  -1834908.30643  -1383103.25842  24607633.1074   24607637.0874   24607632.8764
     -2882.5024      -2246.1014         40.0004         36.0004
 04 12 28  1  2  0.0000000  0  8G15G 1G11G 3G20G19G14G22
   1539857.71443   1265806.65342  24250003.6864   24250009.9484   24250003.1874
     -2265.5104      -1765.3384         40.0004         35.0004
 -19432398.62443 -15088126.52642  20544048.2074   20544052.5084   20544047.9184
      1074.6444        837.3904         51.0004         46.0004
 -15117614.99543 -11743429.25642  21969804.3584   21969806.9654   21969804.3454
      2398.6414       1869.0714         47.0004         43.0004
 -14063882.58243 -10922126.52942  22346205.9434   22346211.0894   22346205.8734
     -3100.7214      -2416.1444         45.0004         40.0004
  -4770628.44843  -3670832.24642  23056672.8074   23056676.3714   23056672.2194
      1919.5694       1495.7644         44.0004         39.0004
 -18773249.61343 -14582420.25442  20979602.6154   20979604.3644   20979601.8354
     -1587.2144      -1236.7864         50.0004         46.0004
  -9658314.27943  -7481611.97942  22044633.9174   22044636.9924   22044633.6034
     -2135.9774      -1664.3944         47.0004         42.0004
  -1748460.64843  -1315741.61842  24624083.8124   24624087.6044   24624083.5864
     -2880.9884      -2244.9234         41.0004         36.0004
 04 12 28  1  2 30.0000000  0  8G15G 1G11G 3G20G19G14G22
   1607897.60843   1318824.64742  24262951.0924   24262957.6344   24262950.5534
     -2270.6944      -1769.3714         40.0004         35.0004
 -19464337.10243 -15113013.64342  20537970.4924   20537974.8074   20537970.2224
      1054.6554        821.8124         51.0004         46.0004
 -15189489.40943 -11799435.28942  21956127.1594   21956129.7424   21956127.1084
      2393.0604       1864.7064         47.0004         43.0004
 -13970717.23743 -10849530.24942  22363934.7154   22363939.9664   22363934.6044
     -3109.9234      -2423.3104         45.0004         40.0004
  -4828114.32943  -3715626.41642  23045733.5844   23045737.2304   23045733.0344
      1912.7814       1490.4854         44.0004         39.0004
 -18725370.26043 -14545111.70542  20988713.7814   20988715.5354   20988712.9814
     -1604.7854      -1250.4744         50.0004         46.0004
  -9594004.01043  -7431500.12342  22056871.6904   22056874.9124   22056871.3864
     -2151.4414      -1676.4484         47.0004         42.0004
  -1662055.14443  -1248412.79142  24640526.3414   24640530.1584   24640526.2054
     -2879.1804      -2243.5184         41.0004         36.0004
 04 12 28  1  3  0.0000000  0  8G15G 1G11G 3G20G19G14G22
   1676101.28443   1371970.27642  24275929.8424   24275936.6004   24275929.3854
     -2276.9534      -1774.2524         40.0004         35.0004
 -19495676.90943 -15137434.25342  20532006.7154   20532011.0494   20532006.4374
      1034.2144        805.8754         51.0004         46.0004
 -15261204.62343 -11855317.26842  21942480.1464   21942482.8254   21942480.1334
      2387.2394       1860.1894         47.0004         43.0004
 -13877279.61643 -10776721.79242  22381715.4024   22381720.6214   22381715.2814
     -3119.6814      -2430.9224         45.0004         40.0004
  -4885401.68543  -3760265.88542  23034832.2444   23034835.8074   23034831.5904
      1905.7074       1484.9654         44.0004         39.0004
 -18676959.56743 -14507389.12542  20997926.0504   20997927.7754   20997925.2394
     -1623.0804      -1264.7364         50.0004         46.0004
  -9529231.13443  -7381027.78342  22069197.5864   22069200.8114   22069197.2254
     -2167.1934      -1688.7164         47.0004         42.0004
  -1575693.03143  -1181117.79042  24656960.6094   24656964.5144   24656960.4104
     -2878.5744      -2243.0334         40.0004         36.0004
 04 12 28  1  3 30.0000000  0  8G15G 1G11G 3G20G19G14G22
   1744468.75943   1425243.50142  24288939.8464   24288946.7504   24288939.1564
     -2281.5524      -1777.8394         40.0004         36.0004
 -19526417.05243 -15161387.60242  20526157.0444   20526161.3374   20526156.7734
      1014.8724        790.8164         51.0004         46.0004
 -15332758.25643 -11911073.33842  21928863.9934   21928866.5544   21928863.8894
      2382.6654       1856.6364         47.0004         43.0004
 -13783572.42043 -10703703.27342  22399547.4054   22399552.5364   22399547.2644
     -3127.8554      -2437.2884         45.0004         40.0004
  -4942490.70043  -3804750.81642  23023968.6994   23023972.0364   23023967.9694
      1899.9364       1480.4704         44.0004         39.0004
 -18628018.91043 -14469253.58342  21007239.1704   21007240.9034   21007238.3744
     -1639.8394      -1277.7914         50.0004         46.0004
  -9463997.67443  -7330196.54342  22081611.2344   22081614.3914   22081610.8444
     -2181.8814      -1700.1714         47.0004         42.0004
  -1489375.11743  -1113857.23142  24673386.4824   24673390.3604   24673386.3584
     -2876.1534      -2241.1554         40.0004         35.0004
 04 12 28  1  4  0.0000000  0  8G15G 1G11G 3G20G19G14G22
   1813000.35343   1478644.65842  24301981.1974   24301987.8344   24301980.6174
     -2287.2734      -1782.2824         40.0004         36.0004
 -19556556.14543 -15184872.59142  20520421.7894   20520426.0254   20520421.4854
       994.3044        774.7754         51.0004         46.0004
 -15404148.06343 -11966701.74842  21915278.9954   21915281.5314   21915278.9154
      2376.5604       1851.8714         47.0004         43.0004
 -13689598.10243 -10630476.62842  22417430.4244   22417435.3954   22417430.1374
     -3137.3524      -2444.6894         45.0004         40.0004
  -4999381.39543  -3849081.21042  23013142.6974   23013145.9944   23013142.0144
      1892.7334       1474.8594         44.0004         39.0004
 -18578549.51743 -14430706.03942  21016652.9174   21016654.6564   21016652.1124
     -1658.2294      -1292.1304         50.0004         46.0004
  -9398305.70643  -7279008.03042  22094112.0404   22094115.1354   22094111.6534
     -2197.8174      -1712.5914         47.0004         42.0004
  -1403101.78343  -1046631.41542  24689803.8874   24689807.6864   24689803.5324
     -2875.6724      -2240.7544         39.0004         35.0004
 04 12 28  1  4 30.0000000  0  8G15G 1G11G 3G20G19G14G22
   1881696.15743   1532173.74542  24315053.6994   24315060.4074   24315053.1814
     -2293.2374      -1786.9434         40.0004         36.0004
 -19586093.46143 -15207888.66842  20514800.9804   20514805.2214   20514800.6914
       974.1444        759.0594         51.0004         46.0004
 -15475372.75743 -12022201.51242  21901725.4544   21901727.8294   21901725.3024
      2370.7894       1847.3504         47.0004         43.0004
 -13595359.60543 -10557044.12142  22435363.4594   22435368.4474   22435363.2594
     -3146.0864      -2451.4924         45.0004         40.0004
  -5056074.04343  -3893257.28642  23002354.3944   23002357.7534   23002353.7244
      1885.9154       1469.5464         44.0004         39.0004
 -18528553.20443 -14391747.91042  21026166.9474   21026168.6714   21026166.1184
     -1675.9094      -1305.9054         50.0004         46.0004
  -9332158.05243  -7227464.42842  22106699.5794   22106702.6034   22106699.1564
     -2213.0104      -1724.4184         46.0004         42.0004
  -1316873.74043   -979440.87842  24706212.6024   24706216.2444   24706212.1154
     -2873.8924      -2239.3914         39.0004         35.0004
 04 12 28  1  5  0.0000000  0  8G15G 1G11G 3G20G19G14G22
   1950556.28943   1585830.87742  24328157.6174   24328164.1424   24328156.9024
     -2298.5604      -1791.0944         40.0004         35.0004
 -19615027.98643 -15230435.04342  20509294.9474   20509299.1624   20509294.6584
       953.9084        743.2824         51.0004         46.0004
 -15546430.17243 -12077570.91542  21888203.5384   21888206.0274   21888203.5084
      2365.1724       1842.9844         47.0004         43.0004
 -13500859.58843 -10483407.82842  22453346.2654   22453351.2874   22453346.0774
     -3154.9444      -2458.3954         44.0004         40.0004
  -5112568.77943  -3937279.15142  22991603.9094   22991607.1644   22991603.2354
      1879.4214       1464.4774         44.0004         39.0004
 -18478031.42543 -14352380.32542  21035780.9444   21035782.6514   21035780.1184
     -1693.3584      -1319.5134         50.0004         46.0004
  -9265556.81843  -7175567.38042  22119373.4144   22119376.3814   22119373.0054
     -2228.1734      -1736.2354         46.0004         42.0004
  -1230691.45543   -912286.00342  24722612.6904   24722616.3434   24722612.3374
     -2872.2284      -2238.1104         39.0004         35.0004
 04 12 28  1  5 30.0000000  0  8G15G 1G11G 3G20G19G14G22
   2019580.16043   1639615.60942  24341292.5814   24341298.8884   24341291.7424
     -2303.7224      -1795.1044         40.0004         35.0004
 -19643359.54143 -15252511.56542  20503903.5914   20503907.8114   20503903.3174
       934.2314        727.9754         51.0004         46.0004
 -15617319.05243 -12132808.99642  21874713.8524   21874716.2864   21874713.7984
      2360.0384       1838.9854         48.0004         43.0004
 -13406101.57243 -10409570.51042  22471378.0774   22471383.2134   22471377.9184
     -3162.8164      -2464.5254         44.0004         40.0004
  -5168866.67743  -3981147.62742  22980890.7824   22980894.0164   22980890.1584
      1873.2414       1459.6704         44.0004         39.0004
 -18426986.71643 -14312605.26142  21045494.4664   21045496.1664   21045493.6554
     -1710.1784      -1332.6094         50.0004         46.0004
  -9198505.22943  -7123319.41742  22132132.9264   22132135.9014   22132132.5254
     -2242.6924      -1747.5504         46.0004         42.0004
  -1144556.33043   -845167.83742  24739003.8014   24739007.2894   24739003.5114
     -2870.0664      -2236.4314         39.0004         34.0004
 04 12 28  1  6  0.0000000  0  8G15G 1G11G 3G20G19G14G22
   2088768.74443   1693528.70042  24354458.8174   24354464.9214   24354458.0884
     -2308.0474      -1798.4864         40.0004         35.0004
 -19671086.29543 -15274116.81842  20498627.4004   20498631.6024   20498627.1314
       914.6484        712.7194         51.0004         46.0004
 -15688036.80443 -12187913.74742  21861256.7804   21861259.1214   21861256.6674
      2354.8734       1834.9704         48.0004         43.0004
 -13311087.48743 -10335533.65142  22489458.7094   22489463.9414   22489458.6014
     -3170.8314      -2470.7784         44.0004         40.0004
  -5224967.09843  -4024862.24042  22970215.2334   22970218.4024   22970214.6064
      1867.1754       1454.9364         44.0004         39.0004
 -18375419.85643 -14272423.32642  21055307.3644   21055309.0294   21055306.5514
     -1727.1394      -1345.8234         50.0004         46.0004
  -9131004.84243  -7070721.73242  22144977.7694   22144980.7854   22144977.4804
     -2256.8984      -1758.6244         46.0004         41.0004
  -1058467.92543   -778086.11042  24755385.9554   24755389.6794   24755385.7984
     -2868.0954      -2234.8634         38.0004         33.0004
 04 12 28  1  6 30.0000000  0  8G15G 1G11G 3G20G19G14G22
   2158121.12043   1747569.41042  24367656.0974   24367662.3444   24367655.5784
     -2314.5904      -1803.5814         40.0004         35.0004
 -19698208.51243 -15295251.00242  20493466.2154   20493470.3704   20493465.9254
       894.2894        696.8294         51.0004         46.0004
 -15758582.36743 -12242884.31542  21847832.3394   21847834.7134   21847832.2574
      2348.8854       1830.3044         48.0004         43.0004
 -13215820.80243 -10261299.94942  22507587.4404   22507592.6524   22507587.3404
     -3179.2844      -2477.3624         44.0004         40.0004
  -5280871.26343  -4068423.91142  22959576.9844   22959580.3094   22959576.4054
      1860.4554       1449.7014         44.0004         39.0004
 -18323333.48643 -14231836.58242  21065219.1764   21065220.7764   21065218.3264
     -1744.6434      -1359.4734         50.0004         46.0004
  -9063058.86043  -7017776.83042  22157907.3974   22157910.5234   22157907.1904
     -2271.9874      -1770.3804         46.0004         42.0004
   -972427.89743   -711042.08942  24771758.6494   24771762.7754   24771758.7414
     -2866.5664      -2233.6804         38.0004         33.0004
 04 12 28  1  7  0.0000000  0  8G15G 1G11G 3G20G19G14G22
   2227637.83343   1801738.13042  24380884.7714   24380891.2124   24380884.2864
     -2320.3324      -1808.0624         40.0004         35.0004
 -19724725.00343 -15315913.19142  20488420.2594   20488424.4364   20488419.9574
       873.7684        680.8344         51.0004         46.0004
 -15828953.30943 -12297718.82142  21834441.2664   21834443.5484   21834441.0964
      2342.6334       1825.4194         48.0004         43.0004
 -13120304.01443 -10186871.36442  22525763.8004   22525769.0734   22525763.5894
     -3188.1194      -2484.2494         44.0004         40.0004
  -5336578.72243  -4111832.32142  22948976.1664   22948979.5324   22948975.6404
      1853.6764       1444.4174         44.0004         39.0004
 -18270728.53843 -14190845.74742  21075229.6154   21075231.1704   21075228.7614
     -1762.1754      -1373.1244         50.0004         46.0004
  -8994669.33043  -6964486.31242  22170921.4404   22170924.6944   22170921.3014
     -2287.1184      -1782.1754         46.0004         41.0004
   -886436.36743   -644035.88042  24788122.2774   24788126.5214   24788122.3364
     -2865.8514      -2233.1364         38.0004         33.0004
 04 12 28  1  7 30.0000000  0  8G15G 1G11G 3G20G19G14G22
   2297318.51143   1856034.65342  24394144.7264   24394151.0424   24394144.1334
     -2325.1254      -1811.7894         40.0004         35.0004
 -19750635.36343 -15336103.07442  20483489.7304   20483493.8394   20483489.4064
       853.7594        665.2804         51.0004         47.0004
 -15899148.23043 -12352416.18342  21821083.6134   21821085.8654   21821083.4824
      2337.1134       1821.1294         48.0004         43.0004
 -13024540.40043 -10112250.44442  22543987.0914   22543992.3474   22543986.8314
     -3195.9174      -2490.3234         44.0004         40.0004
  -5392090.36243  -4155088.14242  22938412.6184   22938416.0684   22938412.0714
      1847.3154       1439.4634         44.0004         40.0004
 -18217607.39443 -14149452.67642  21085338.1994   21085339.8124   21085337.3954
     -1779.1494      -1386.3274         50.0004         46.0004
  -8925839.19743  -6910852.46742  22184019.4814   22184022.6484   22184019.2344
     -2301.4914      -1793.3674         46.0004         41.0004
   -800494.19643   -577068.11742  24804476.6514   24804482.4564   24804477.4414
     -2863.9254      -2231.6294         38.0004         33.0004
 04 12 28  1  8  0.0000000  0  8G15G 1G11G 3G20G19G14G22
   2367163.39643   1910459.12442  24407435.8704   24407442.0804   24407435.3904
     -2330.3734      -1815.8694         40.0004         35.0004
 -19775938.80243 -15355820.02942  20478674.6604   20478678.7014   20478674.3204
       834.3424        650.1554         51.0004         46.0004
 -15969165.06343 -12406974.76342  21807759.8554   21807762.1184   21807759.7144
      2331.7224       1816.9444         48.0004         43.0004
 -12928532.73643 -10037439.35142  22562256.8084   22562262.0194   22562256.5684
     -3203.5884      -2496.2964         44.0004         40.0004
  -5447406.24143  -4198191.41942  22927886.3334   22927889.6784   22927885.7664
      1841.3974       1434.8584         44.0004         40.0004
 -18163971.95543 -14107658.86442  21095544.7384   21095546.3464   21095543.8944
     -1795.5644      -1399.1384         50.0004         46.0004
  -8856570.57743  -6856876.95142  22197200.8704   22197204.1364   22197200.5824
     -2315.2144      -1804.0554         46.0004         41.0004
   -714602.04243   -510139.36542  24820821.7084   24820826.5854   24820822.0284
     -2861.3384      -2229.6034         38.0004         33.0004
 04 12 28  1  8 30.0000000  0  8G15G 1G11G 3G20G19G14G22
   2437172.88443   1965011.85442  24420758.3484   24420764.5624   24420757.7204
     -2336.4124      -1820.5584         40.0004         35.0004
 -19800634.22643 -15375063.21042  20473975.1604   20473979.3034   20473974.8924
       813.0114        633.5214         51.0004         46.0004
 -16039001.31643 -12461392.60142  21794470.4574   21794472.7094   21794470.3534
      2324.8294       1811.5504         48.0004         43.0004
 -12832283.08843  -9962439.69942  22580572.5164   22580577.7364   22580572.3304
     -3212.3504      -2503.1264         44.0004         39.0004
  -5502526.33043  -4241142.12242  22917397.2774   22917400.7424   22917396.7484
      1834.2544       1429.2904         44.0004         39.0004
 -18109823.27243 -14065465.11742  21105848.9274   21105850.5904   21105848.0824
     -1813.3674      -1413.0214         50.0004         46.0004
  -8786865.49743  -6802561.30942  22210465.3414   22210468.5044   22210465.0194
     -2330.5934      -1816.0514         46.0004         41.0004
   -628759.92543   -443249.56242  24837157.2114   24837162.2504   24837157.3104
     -2860.4374      -2228.8684         38.0004         34.0004
 04 12 28  1  9  0.0000000  0  8G15G 1G11G 3G20G19G14G22
   2507346.10543   2019692.18442  24434111.8204   24434118.0154   24434111.2064
     -2341.1754      -1824.2904         40.0004         35.0004
 -19824721.71143 -15393832.67142  20469391.4564   20469395.5994   20469391.1814
       793.2114        618.0874         51.0004         46.0004
 -16108655.98343 -12515668.95042  21781215.6854   21781217.8664   21781215.5644
      2319.3674       1807.3014         48.0004         43.0004
 -12735795.16543  -9887254.39342  22598933.5654   22598938.9194   22598933.3764
     -3219.7774      -2508.9134         44.0004         40.0004
  -5557451.50443  -4283940.95142  22906945.4354   22906948.7834   22906944.8324
      1828.3024       1424.6554         44.0004         39.0004
 -18055163.79443 -14022873.34442  21116250.3324   21116251.9384   21116249.4694
     -1829.9184      -1425.9034         50.0004         46.0004
  -8716727.55743  -6747908.38542  22223812.0854   22223815.3954   22223811.7724
     -2344.5184      -1826.8894         46.0004         41.0004
   -542969.22643   -376399.81442  24853482.7024   24853488.2814   24853483.0664
     -2856.7234      -2227.1274         38.0004         33.0004
 04 12 28  1  9 30.0000000  0  8G15G 1G11G 3G20G19G14G22
   2577683.65343   2074500.57542  24447496.7624   24447503.0994   24447495.9594
     -2346.6814      -1828.5824         40.0004         35.0004
 -19848200.12743 -15412127.53542  20464923.6964   20464927.8174   20464923.4194
       772.8634        602.2334         51.0004         46.0004
 -16178126.60643 -12569801.88942  21767995.8804   21767998.0954   21767995.7614
      2312.9194       1802.2694         48.0004         43.0004
 -12639071.32043  -9811885.25542  22617339.6004   22617345.0594   22617339.3744
     -3227.5814      -2514.9944         44.0004         40.0004
  -5612181.71543  -4326587.85742  22896530.6154   22896534.0314   22896530.0094
      1821.8564       1419.6324         44.0004         40.0004
 -17999995.12843 -13979884.80842  21126748.6094   21126750.2184   21126747.7394
     -1846.9734      -1439.1814         50.0004         46.0004
  -8646158.65743  -6692919.66042  22237240.9334   22237244.1674   22237240.5424
     -2358.9194      -1838.1074         46.0004         41.0004
   -457230.07943   -309590.28142  24869798.2664   24869803.8274   24869798.6374
     -2856.8354      -2226.0874         38.0004         33.0004
 04 12 28  1 10  0.0000000  0  8G15G 1G11G 3G20G19G14G22
   2648185.72243   2129437.17942  24460912.9504   24460919.2064   24460912.0824
     -2352.9874      -1833.4724         39.0004         34.0004
 -19871068.69243 -15429947.18642  20460571.9884   20460576.1034   20460571.6984
       752.0704        586.0274         51.0004         47.0004
 -16247411.21143 -12623789.88642  21754811.4164   21754813.6604   21754811.2704
      2306.2094       1797.0574         48.0004         43.0004
 -12542114.48643  -9736334.56042  22635790.0594   22635795.3544   22635789.7784
     -3235.7884      -2521.3934         44.0004         39.0004
  -5666717.11243  -4369082.95742  22886152.8684   22886156.1844   22886152.2434
      1814.3534       1413.7834         44.0004         40.0004
 -17944318.92743 -13936500.79142  21137343.4064   21137345.0694   21137342.5814
     -1864.4924      -1452.8484         50.0004         45.0004
  -8575160.95943  -6637596.80442  22250751.3874   22250754.5914   22250750.9824
     -2373.8044      -1849.7124         46.0004         41.0004
   -371542.88243   -242821.24242  24886104.2594   24886109.4274   24886104.4694
     -2855.2924      -2224.8954         37.0004         33.0004
 04 12 28  1 10 30.0000000  0  8G15G 1G11G 3G20G19G14G22
   2718851.25143   2184501.10342  24474360.2904   24474366.5934   24474359.3454
     -2358.7374      -1837.9704         39.0004         35.0004
 -19893327.85743 -15447291.98642  20456336.2144   20456340.2964   20456335.8984
       731.4814        569.9754         51.0004         46.0004
 -16316508.84143 -12677632.20542  21741662.5874   21741664.8004   21741662.4164
      2299.8604       1792.0904         48.0004         43.0004
 -12444928.21643  -9660605.07542  22654283.9944   22654289.3544   22654283.8364
     -3243.7434      -2527.5794         44.0004         39.0004
  -5721059.22143  -4411427.43742  22875811.9054   22875815.2134   22875811.2884
      1807.8314       1408.6944         44.0004         40.0004
 -17888137.95143 -13892723.44442  21148034.2154   21148035.9744   21148033.4384
     -1881.4124      -1466.0394         50.0004         45.0004
  -8503738.26543  -6581942.76942  22264342.7584   22264345.8714   22264342.3664
     -2388.0814      -1860.8494         46.0004         41.0004
                   -176093.70442  24902399.843    24902400.9804
                     -2223.6664                         32.0004
 04 12 28  1 11  0.0000000  0  8G15G 1G11G 3G20G19G14G22
   2789680.70443   2239692.80342  24487838.6864   24487844.8024   24487837.8004
     -2362.7664      -1841.0994         39.0004         34.0004
 -19914976.46143 -15464161.01642  20452216.5744   20452220.6904   20452216.2874
       711.7504        554.6254         51.0004         47.0004
 -16385416.89743 -12731326.78242  21728549.8004   21728552.0744   21728549.6374
      2294.0694       1787.5954         48.0004         43.0004
 -12347514.83743  -9584698.62642  22672821.1414   22672826.6004   22672821.0184
     -3250.5324      -2532.8794         44.0004         39.0004
  -5775207.57143  -4453620.93442  22865507.7514   22865511.0564   22865507.1584
      1802.0324       1404.1824         44.0004         39.0004
 -17831453.48543 -13848553.76642  21158820.9384   21158822.7054   21158820.1754
     -1897.4464      -1478.5254         50.0004         46.0004
  -8431892.48743  -6525959.06442  22278014.6634   22278017.7454   22278014.2274
     -2401.4714      -1871.2774         46.0004         41.0004
                   -109408.06142  24918685.511    24918687.4794
                     -2221.6804                         32.0004
 04 12 28  1 11 30.0000000  0  8G15G 1G11G 3G20G19G14G22
   2860674.32143   2295012.41742  24501348.4034   24501354.5234   24501347.5544
     -2369.0234      -1845.9974         39.0004         34.0004
 -19936013.82443 -15480553.76742  20448213.2584   20448217.3944   20448212.9754
       691.2134        538.6064         51.0004         46.0004
 -16454133.07643 -12784871.86242  21715473.5644   21715475.7834   21715473.3524
      2287.4504       1782.4434         48.0004         43.0004
 -12249876.74743  -9508617.09142  22691401.1624   22691406.5584   22691401.0984
     -3258.3364      -2538.9614         44.0004         39.0004
  -5829162.17443  -4495663.45342  22855240.4014   22855243.7834   22855239.8824
      1795.4574       1399.0634         44.0004         39.0004
 -17774267.41043 -13803993.22742  21169703.0984   21169704.8744   21169702.3484
     -1914.3904      -1491.7264         50.0004         45.0004
  -8359625.70943  -6469647.30942  22291766.5174   22291769.7024   22291766.1794
     -2415.7534      -1882.3914         46.0004         41.0004
   -114802.32843    -42764.17542  24934960.6964   24934966.0024   24934960.3794
     -2849.9064      -2220.6834         37.0004         32.0004
 04 12 28  1 12  0.0000000  0  8G15G 1G11G 3G20G19G14G22
   2931831.00643   2350459.10042  24514889.0614   24514895.3774   24514888.3734
     -2374.2704      -1850.0834         39.0004         35.0004
 -19956440.55643 -15496470.68742  20444326.1374   20444330.3254   20444325.8704
       670.9104        522.7824         51.0004         46.0004
 -16522656.98243 -12838267.10942  21702433.8164   21702436.1554   21702433.6024
      2281.1684       1777.5164         48.0004         43.0004
 -12152017.97943  -9432363.58142  22710023.1784   22710028.4694   22710023.0214
     -3265.4104      -2544.4844         44.0004         39.0004
  -5882924.58943  -4537556.23742  22845009.6544   22845013.0694   22845009.2354
      1789.1224       1394.1184         44.0004         39.0004
 -17716582.81543 -13759044.23342  21180680.1664   21180681.9514   21180679.3854
     -1930.8724      -1504.5734         50.0004         45.0004
  -8286941.84643  -6413010.55842  22305597.8504   22305600.8964   22305597.5174
     -2429.5354      -1893.1424         46.0004         41.0004
                     23836.62742  24951225.397    24951231.9394
                     -2218.7844                         32.0004
 04 12 28  1 12 30.0000000  0  8G15G 1G11G 3G20G19G14G22
   3003151.67143   2406033.50942  24528460.9804   24528467.2984   24528460.2494
     -2380.4034      -1854.8594         39.0004         34.0004
 -19976255.11943 -15511910.60042  20440555.6064   20440559.7434   20440555.3104
       650.2074        506.6754         51.0004         47.0004
 -16590985.18743 -12891509.86742  21689431.5344   21689433.7544   21689431.2074
      2274.1694       1772.0764         48.0004         43.0004
 -12053940.39343  -9355939.58342  22728686.8574   22728692.0634   22728686.6054
     -3272.9984      -2550.3794         44.0004         39.0004
  -5936494.03343  -4579298.63642  22834815.7274   22834819.1424   22834815.2564
      1782.3534       1388.8484         44.0004         40.0004
 -17658400.34243 -13713707.27442  21191751.9414   21191753.7924   21191751.1904
     -1947.6854      -1517.6674         50.0004         45.0004
  -8213842.23043  -6356049.83742  22319508.3294   22319511.2344   22319507.9674
     -2443.4084      -1903.9514         46.0004         41.0004
                                  24967479.664

 04 12 28  1 13  0.0000000  0  8G15G 1G11G 3G20G19G14G22
   3074635.90643   2461735.40942  24542063.7424   24542070.3414   24542063.4274
     -2385.2804      -1858.6364         39.0004         34.0004
 -19995457.55843 -15526873.53142  20436901.4714   20436905.6464   20436901.1904
       630.0724        490.9644         51.0004         47.0004
 -16659116.30343 -12944599.06142  21676466.5084   21676468.8164   21676466.2264
      2267.8844       1767.1764         48.0004         43.0004
 -11955647.27443  -9279347.62242  22747391.5134   22747396.7944   22747391.2004
     -3279.9874      -2555.8274         44.0004         39.0004
  -5989871.33843  -4620891.31742  22824658.3474   22824661.8004   22824657.8384
      1776.0714       1383.9434         44.0004         40.0004
 -17599722.42143 -13667984.25542  21202918.0194   21202919.8724   21202917.2594
     -1964.1664      -1530.5274         50.0004         45.0004
  -8140330.01043  -6298767.61742  22333497.2534   22333500.2674   22333496.9284
     -2457.1664      -1914.6764         46.0004         41.0004
                    156909.24242  24983723.419    24983727.8654
                     -2216.4024                         32.0004
 04 12 28  1 13 30.0000000  0  8G15G 1G11G 3G20G19G14G22
   3146283.64143   2517564.70542  24555697.7724   24555704.6394   24555697.2934
     -2390.8244      -1862.9714         39.0004         34.0004
 -20014047.28443 -15541359.02442  20433363.9614   20433368.1604   20433363.6714
       609.3074        474.7754         51.0004         46.0004
 -16727048.44843 -12997533.21342  21663539.3704   21663541.7454   21663539.1984
      2260.8464       1761.6914         48.0004         43.0004
 -11857141.28643  -9202589.79842  22766136.7114   22766142.0304   22766136.3464
     -3287.1794      -2561.4394         44.0004         39.0004
  -6043056.62643  -4662334.38442  22814537.4984   22814540.9284   22814536.9864
      1769.6164       1378.9184         44.0004         40.0004
 -17540551.00843 -13621876.70242  21214177.9254   21214179.8814   21214177.1854
     -1980.8114      -1543.4754         50.0004         45.0004
  -8066407.44443  -6241165.63942  22347564.2164   22347567.2764   22347563.9744
     -2471.2794      -1925.6724         46.0004         41.0004
                    223380.11542  24999956.837    24999962.1334
                     -2215.1124                         32.0004
 04 12 28  1 14  0.0000000  0  7G15G 1G11G 3G20G19G14
   3218094.47243   2573521.06442  24569363.0404   24569370.0254   24569362.6514
     -2396.3714      -1867.2984         39.0004         35.0004
 -20032024.43443 -15555367.18342  20429942.9954   20429947.1874   20429942.7384
       588.9934        458.9544         51.0004         47.0004
 -16794779.90543 -13050310.97842  21650650.5424   21650652.9064   21650650.3174
      2254.3274       1756.6204         48.0004         43.0004
 -11758425.94443  -9125668.85242  22784921.4654   22784927.0184   22784921.2704
     -3294.0664      -2566.7944         44.0004         39.0004
  -6096050.84743  -4703628.56542  22804453.0374   22804456.4814   22804452.5674
      1763.2114       1373.9394         44.0004         39.0004
 -17480888.55943 -13575386.52742  21225531.3184   21225533.2784   21225530.5704
     -1996.9254      -1556.0484         50.0004         45.0004
  -7992077.72143  -6183246.38642  22361708.6634   22361711.7624   22361708.4674
     -2484.2704      -1935.7864         46.0004         41.0004
 04 12 28  1 14 30.0000000  0  8G15G 1G11G 3G20G19G14G22
   3290068.50943   2629604.61042  24583059.2914   24583066.0914   24583058.9514
     -2401.2964      -1871.1234         39.0004         34.0004
 -20049388.50243 -15568897.62242  20426638.7034   20426642.9134   20426638.4424
       569.0074        443.3994         51.0004         47.0004
 -16862308.53243 -13102930.68142  21637800.1474   21637802.6484   21637799.9844
      2247.8984       1751.5984         48.0004         44.0004
 -11659503.88943  -9048586.83742  22803745.7114   22803751.2554   22803745.5834
     -3300.3194      -2571.6714         44.0004         39.0004
  -6148854.27343  -4744774.08342  22794404.8354   22794408.3134   22794404.4454
      1757.3424       1369.3554         44.0004         40.0004
 -17420737.02043 -13528515.23542  21236977.7764   21236979.7474   21236977.0684
     -2012.7204      -1568.3474         50.0004         45.0004
  -7917343.29143  -6125011.77842  22375930.1704   22375933.2044   22375929.9434
     -2497.4334      -1946.0494         46.0004         41.0004
                                  25032390.129

                            4  1
RINEX FILE SPLICE; other post-header comments skipped       COMMENT
 04 12 28  1 15  0.0000000  0  7G15G 1G11G 3G20G19G14
   3362206.54443   2685815.96642  24596786.8884   24596793.6254   24596786.3794
     -2407.5184      -1875.9794         39.0004         34.0004
 -20066138.14643 -15581949.27842  20423451.4134   20423455.5164   20423451.1344
       547.8504        426.8694         51.0004         47.0004
 -16929631.54443 -13155390.17342  21624988.9324   21624991.5064   21624988.8354
      2240.3654       1745.7264         48.0004         44.0004
 -11560376.84743  -8971345.06542  22822609.0804   22822614.6784   22822608.7984
     -3307.8224      -2577.5224         43.0004         39.0004
  -6201466.23443  -4785770.40442  22784393.1894   22784396.6054   22784392.6824
      1750.2454       1363.8264         45.0004         40.0004
 -17360097.52843 -13481263.73142  21248517.1784   21248519.1324   21248516.4684
     -2029.6844      -1581.5834         50.0004         45.0004
  -7842205.63343  -6066462.97842  22390228.4904   22390231.5814   22390228.2154
     -2511.3774      -1956.9194         46.0004         41.0004
 04 12 28  1 15 30.0000000  0  7G15G 1G11G 3G20G19G14
   3434507.41643   2742154.17042  24610545.3754   24610552.1164   24610544.7494
     -2413.6864      -1880.7994         39.0004         34.0004
 -20082274.30043 -15594522.90142  20420380.7914   20420384.9394   20420380.5304
       526.8724        410.5244         51.0004         47.0004
 -16996747.97643 -13207688.68742  21612217.1164   21612219.7034   21612217.0334
      2233.0074       1740.0104         48.0004         44.0004
 -11461049.10043  -8893946.90142  22841510.6404   22841516.2584   22841510.2904
     -3314.8544      -2583.0054         43.0004         39.0004
  -6253888.16843  -4826618.65042  22774417.6514   22774421.0244   22774417.1114
      1743.5064       1358.5724         44.0004         40.0004
 -17298973.32443 -13433634.51942  21260148.7554   21260150.7844   21260148.0294
     -2046.1744      -1594.4284         50.0004         45.0004
  -7766669.02743  -6007603.29042  22404602.6174   22404605.7354   22404602.4034
     -2525.2694      -1967.7514         46.0004         41.0004
 04 12 28  1 16  0.0000000  0  7G15G 1G11G 3G20G19G14
   3506970.69343   2798618.94642  24624334.7404   24624341.5204   24624334.3004
     -2417.5544      -1883.8024         39.0004         34.0004
 -20097797.09443 -15606618.57942  20417426.8594   20417431.0444   20417426.6364
       506.9614        395.0334         51.0004         47.0004
 -17063656.22443 -13259824.98242  21599484.9184   21599487.4814   21599484.8114
      2226.5784       1734.9934         48.0004         43.0004
 -11361523.78543  -8816394.78442  22860449.8434   22860455.3624   22860449.4034
     -3321.0414      -2587.8244         43.0004         39.0004
  -6306120.67343  -4867319.28342  22764478.1334   22764481.4864   22764477.5744
      1737.6794       1354.0414         44.0004         40.0004
 -17237366.68743 -13385629.40142  21271872.1044   21271874.1874   21271871.4114
     -2061.7854      -1606.5714         50.0004         45.0004
  -7690735.92443  -5948434.66542  22419052.2144   22419055.3934   22419051.9784
     -2538.0304      -1977.6814         46.0004         41.0004
 04 12 28  1 16 30.0000000  0  7G15G 1G11G 3G20G19G14
   3579596.39943   2855210.28042  24638155.0654   24638161.8914   24638154.6554
     -2422.7004      -1887.8124         39.0004         34.0004
 -20112706.01643 -15618235.91542  20414589.8294   20414593.9714   20414589.5554
       486.9504        379.4424         51.0004         46.0004
 -17130354.26143 -13311797.47642  21586792.7944   21586795.2224   21586792.6024
      2220.0464       1729.8974         48.0004         44.0004
 -11261803.44443  -8738690.70742  22879425.8694   22879431.6094   22879425.6034
     -3326.8744      -2592.3594         43.0004         39.0004
  -6358163.88443  -4907872.43442  22754574.6644   22754577.9074   22754574.0934
      1732.0464       1349.6444         44.0004         40.0004
 -17175279.62543 -13337249.91942  21283686.9764   21283689.0034   21283686.2524
     -2077.3554      -1618.7104         50.0004         45.0004
  -7614408.86243  -5888959.04642  22433576.7624   22433579.8914   22433576.5234
     -2550.5834      -1987.4684         45.0004         41.0004
 04 12 28  1 17  0.0000000  0  7G15G 1G11G 3G20G19G14
   3652385.75443   2911929.15342  24652006.7584   24652013.2164   24652006.0244
     -2429.1594      -1892.8394         39.0004         34.0004
 -20126999.47343 -15629373.66742  20411869.8914   20411873.9974   20411869.5884
       466.4834        363.4894         51.0004         46.0004
 -17196838.53643 -13363603.40642  21574141.2394   21574143.6874   21574141.0444
      2212.8594       1724.3144         48.0004         44.0004
 -11161889.49743  -8660835.75442  22898438.8924   22898444.7364   22898438.8244
     -3333.4144      -2597.4604         43.0004         39.0004
  -6410016.91943  -4948277.39442  22744707.3634   22744710.6464   22744706.8914
      1725.6084       1344.6324         45.0004         40.0004
 -17112712.69043 -13288496.50242  21295593.1124   21295595.1394   21295592.3924
     -2093.2004      -1631.0744         50.0004         45.0004
  -7537689.30543  -5829177.60142  22448176.1034   22448179.1644   22448175.7744
     -2563.6044      -1997.6174         46.0004         41.0004
 04 12 28  1 17 30.0000000  0  7G15G 1G11G 3G20G19G14
   3725337.49643   2968774.57142  24665889.1404   24665895.5374   24665888.5194
     -2433.4984      -1896.2504         39.0004         34.0004
 -20140678.48543 -15640032.63342  20409266.8474   20409270.9514   20409266.5504
       446.2044        347.7034         51.0004         47.0004
 -17263108.35643 -13415242.21842  21561530.5054   21561532.9734   21561530.3304
      2205.8334       1718.8284         48.0004         44.0004
 -11061786.02543  -8582833.15142  22917487.9194   22917493.7624   22917487.9774
     -3339.4184      -2602.1404         43.0004         39.0004
  -6461681.34643  -4988535.38342  22734876.0034   22734879.1704   22734875.4954
      1719.4684       1339.8484         45.0004         40.0004
 -17049669.14043 -13239371.69942  21307589.8784   21307591.9684   21307589.1904
     -2108.8624      -1643.2544         50.0004         45.0004
  -7460580.81143  -5769093.08342  22462849.4794   22462852.4874   22462849.0954
     -2576.3274      -2007.5264         46.0004         41.0004
 04 12 28  1 18  0.0000000  0  8G15G 1G11G 3G20G19G14G25
   3798451.48943   3025746.38442  24679802.5774   24679808.9004   24679801.7754
     -2440.3204      -1901.5564         38.0004         34.0004
 -20153743.19743 -15650212.92742  20406780.6734   20406784.7964   20406780.4114
       425.1754        331.3044         51.0004         46.0004
 -17329161.96943 -13466712.57442  21548960.8854   21548963.3864   21548960.7394
      2197.9414       1712.6794         48.0004         44.0004
 -10961496.12843  -8504685.27842  22936572.5394   22936578.4674   22936572.5704
     -3346.2794      -2607.4864         43.0004         38.0004
  -6513157.84043  -5028646.91842  22725080.3124   22725083.5114   22725079.7714
      1712.8984       1334.7264         45.0004         40.0004
 -16986151.68143 -13189877.61642  21319676.9364   21319678.9814   21319676.2204
     -2125.1964      -1655.9854         50.0004         45.0004
  -7383086.39643  -5708707.83842  22477596.2204   22477599.2524   22477595.7764
     -2589.8314      -2018.0564         46.0004         41.0004
   -180315.26643   -104883.04042  23805808.0154   23805814.4944   23805809.0714
      2616.9064       2039.1484         50.0004         37.0004
 04 12 28  1 18 30.0000000  0  8G15G 1G11G 3G20G19G14G25
   3871727.84743   3082844.72142  24693746.4684   24693752.9404   24693745.9744
     -2444.6304      -1904.9104         38.0004         34.0004
 -20166192.79043 -15659913.89942  20404411.5554   20404415.7424   20404411.2964
       404.9184        315.5224         51.0004         46.0004
 -17394996.76243 -13518012.41342  21536432.9274   21536435.4264   21536432.7334
      2190.8364       1707.1544         48.0004         44.0004
 -10861022.29943  -8426394.09542  22955692.2204   22955698.1434   22955692.2004
     -3352.1384      -2612.0484         43.0004         38.0004
  -6564446.17943  -5068611.85042  22715320.3334   22715323.6674   22715319.9054
      1706.5654       1329.7874         45.0004         40.0004
 -16922161.82043 -13140015.42342  21331853.8504   21331855.8784   21331853.1214
     -2140.7854      -1668.1464         50.0004         45.0004
  -7305208.08143  -5648023.46642  22492415.9474   22492419.0684   22492415.6074
     -2602.5974      -2028.0044         45.0004         41.0004
   -258741.75143   -165994.56342  23790884.0334   23790890.1234   23790884.9364
      2611.8304       2035.1944         45.0004         37.0004
 04 12 28  1 19  0.0000000  0  8G15G 1G11G 3G20G19G14G25
   3945165.87243   3140069.08342  24707721.1694   24707728.2654   24707720.8214
     -2450.3324      -1909.3454         39.0004         34.0004
 -20178027.86643 -15669136.03342  20402159.3994   20402163.6134   20402159.1654
       384.7534        299.8224         51.0004         47.0004
 -17460611.44143 -13569140.72942  21523946.8394   21523949.4484   21523946.6554
      2183.7334       1701.6034         48.0004         44.0004
 -10760367.84643  -8347962.15242  22974846.1294   22974852.1094   22974846.1354
     -3357.7394      -2616.4104         43.0004         38.0004
  -6615547.38043  -5108430.94942  22705596.0554   22705599.4214   22705595.6344
      1700.5314       1325.0894         45.0004         40.0004
 -16857702.46643 -13089787.40142  21344120.1074   21344122.1364   21344119.3414
     -2156.3294      -1680.2584         50.0004         45.0004
  -7226949.15343  -5587042.50342  22507308.1214   22507311.2584   22507307.7684
     -2614.6394      -2037.3854         45.0004         41.0004
   -337006.00043   -226979.64242  23775991.0434   23775996.9484   23775991.3574
      2606.2574       2030.8484         42.0004         37.0004
 04 12 28  1 19 30.0000000  0  8G15G 1G11G 3G20G19G14G25
   4018765.86543   3197419.60642  24721726.9124   24721734.0354   24721726.6524
     -2455.3934      -1913.2904         38.0004         34.0004
 -20189247.78843 -15677878.82842  20400024.3464   20400028.5104   20400024.1004
       363.6424        283.3594         51.0004         46.0004
 -17526003.55543 -13620095.63242  21511503.1044   21511505.7214   21511502.9674
      2175.7974       1695.4394         48.0004         44.0004
 -10659535.21343  -8269391.35142  22994033.8844   22994039.9474   22994033.9694
     -3364.0854      -2621.3584         43.0004         38.0004
  -6666461.37243  -5148104.18542  22695907.4584   22695910.8444   22695907.0434
      1693.8684       1319.8974         45.0004         40.0004
 -16792775.14543 -13039194.72542  21356475.3384   21356477.4154   21356474.6184
     -2172.2394      -1692.6494         50.0004         45.0004
  -7148311.98143  -5525766.79042  22522272.3144   22522275.3704   22522271.9574
     -2627.4244      -2047.3434         45.0004         40.0004
   -415104.45343   -287835.53042  23761129.3614   23761135.2784   23761129.5894
      2600.4964       2026.3634         42.0004         37.0004
 04 12 28  1 20  0.0000000  0  8G15G 1G11G 3G20G19G14G25
   4092527.94243   3254896.40342  24735763.4204   24735769.5664   24735763.7044
     -2461.7974      -1918.2844         38.0004         34.0004
 -20199852.37643 -15686142.14042  20398006.4204   20398010.4884   20398006.1214
       342.9324        267.2104         51.0004         46.0004
 -17591170.71643 -13670875.23242  21499102.1834   21499104.8424   21499102.0934
      2168.2954       1689.5704         48.0004         44.0004
 -10558527.01443  -8190683.75142  23013255.2264   23013261.2074   23013255.2714
     -3369.8964      -2625.8904         43.0004         38.0004
  -6717188.34143  -5187631.68442  22686254.3894   22686257.8314   22686253.9414
      1687.5664       1314.9854         45.0004         40.0004
 -16727382.03743 -12988239.09442  21368919.3034   21368921.3384   21368918.5214
     -2187.7754      -1704.7654         50.0004         45.0004
  -7069298.80543  -5464198.10942  22537308.0164   22537311.1474   22537307.6824
     -2640.1544      -2057.2654         45.0004         41.0004
   -493033.78443   -348559.64642  23746299.8794   23746305.8484   23746300.1654
      2594.5404       2021.7134         42.0004         37.0004
 04 12 28  1 20 30.0000000  0  8G15G 1G11G 3G20G19G14G25
   4166450.92043   3312498.59142  24749830.8204   24749837.2194   24749830.7054
     -2465.8114      -1921.3884         38.0004         34.0004
 -20209842.85643 -15693926.92442  20396105.2474   20396109.3604   20396104.9594
       323.4384        252.0344         51.0004         46.0004
 -17656112.10943 -13721478.91242  21486744.2784   21486746.9284   21486744.1544
      2161.5444       1684.3274         49.0004         44.0004
 -10457347.26643  -8111842.47042  23032509.2174   23032515.1184   23032509.1874
     -3374.7584      -2629.6834         43.0004         38.0004
  -6767729.75243  -5227014.58942  22676636.6584   22676640.0404   22676636.1604
      1682.1674       1310.7714         45.0004         40.0004
 -16661526.39843 -12936923.04842  21381451.2814   21381453.2944   21381450.4804
     -2202.1184      -1715.9384         50.0004         45.0004
  -6989913.65043  -5402339.56342  22552414.4944   22552417.6384   22552414.2034
     -2651.5544      -2066.1494         45.0004         40.0004
   -570791.72443   -409150.21842  23731502.9994   23731509.0294   23731503.2874
      2589.5624       2017.8374         42.0004         38.0004
 04 12 28  1 21  0.0000000  0  8G15G 1G11G 3G20G19G14G25
   4240535.55743   3370226.80042  24763928.9124   24763935.2304   24763928.5294
     -2471.6234      -1925.9464         38.0004         33.0004
 -20219218.17143 -15701232.36042  20394321.1724   20394325.2994   20394320.8854
       302.4264        235.6524         51.0004         46.0004
 -17720824.52643 -13771904.17442  21474429.9744   21474432.5444   21474429.8364
      2153.3724       1677.9414         49.0004         44.0004
 -10355997.78943  -8032868.93242  23051795.4674   23051801.4274   23051795.4124
     -3380.6874      -2634.3014         43.0004         38.0004
  -6818084.77243  -5266252.26642  22667054.3864   22667057.7764   22667053.9304
      1675.7004       1305.7374         45.0004         40.0004
 -16595209.47243 -12885247.55942  21394071.0294   21394072.9804   21394070.2214
     -2218.0764      -1728.3674         50.0004         45.0004
  -6910157.83443  -5340192.21042  22567591.4814   22567594.6594   22567591.1954
     -2664.3074      -2076.0854         45.0004         40.0004
   -648374.10143   -469603.97242  23716739.6144   23716745.5904   23716739.9274
      2583.4214       2013.0564         42.0004         38.0004
 04 12 28  1 21 30.0000000  0  8G15G 1G11G 3G20G19G14G25
   4314781.00743   3428080.25142  24778057.4574   24778063.8944   24778057.4014
     -2477.5034      -1930.5264         38.0004         34.0004
 -20227978.89943 -15708058.90542  20392654.0494   20392658.2194   20392653.7694
       281.4834        219.3414         51.0004         46.0004
 -17785306.65343 -13822149.98342  21462159.4874   21462162.0464   21462159.3794
      2145.4394       1671.7684         49.0004         44.0004
 -10254481.77643  -7953765.63642  23071113.4184   23071119.4664   23071113.3264
     -3386.4964      -2638.8244         43.0004         38.0004
  -6868254.50343  -5305345.54842  22657507.4284   22657510.7884   22657506.9914
      1669.1134       1300.6094         45.0004         40.0004
 -16528434.03443 -12833214.79442  21406777.9314   21406779.9484   21406777.1794
     -2233.5924      -1740.4544         49.0004         45.0004
  -6830034.56243  -5277758.51742  22582838.4424   22582841.6754   22582838.2194
     -2676.9954      -2085.9704         45.0004         41.0004
   -725778.17743   -529918.78142  23702010.2094   23702015.9954   23702010.3374
      2576.8664       2007.9424         43.0004         38.0004
 04 12 28  1 22  0.0000000  0  8G15G 1G11G 3G20G19G14G25
   4389187.23243   3486058.97042  24792216.5284   24792226.3034   24792216.3174
     -2483.0784      -1934.8464         38.0004         33.0004
 -20236125.17643 -15714406.65142  20391103.8614   20391108.0134   20391103.5884
       261.3014        203.6114         51.0004         46.0004
 -17849556.46343 -13872214.77542  21449933.1104   21449935.6874   21449933.0274
      2137.7684       1665.7994         49.0004         44.0004
 -10152802.51443  -7874535.13442  23090462.5734   23090468.3574   23090462.2964
     -3392.1174      -2643.2044         43.0004         38.0004
  -6918239.36643  -5344294.78442  22647995.6454   22647998.9634   22647995.1784
      1663.0534       1295.8814         45.0004         40.0004
 -16461202.36043 -12780826.52242  21419571.7194   21419573.7604   21419570.9434
     -2248.5204      -1752.0954         49.0004         45.0004
  -6749546.92443  -5215040.91142  22598154.6634   22598158.0844   22598154.3504
     -2689.1064      -2095.4134         45.0004         40.0004
   -803000.86143   -590092.27542  23687315.2504   23687321.0454   23687315.2804
      2571.1554       2003.5004         43.0004         38.0004
 04 12 28  1 22 30.0000000  0  8G15G 1G11G 3G20G19G14G25
   4463753.71343   3544162.61042  24806405.6694   24806413.1784   24806405.8184
     -2488.9394      -1939.4294         38.0004         33.0004
 -20243657.09843 -15720275.67542  20389670.6114   20389674.7024   20389670.2954
       239.8104        186.8564         51.0004         46.0004
 -17913572.05443 -13922097.04542  21437751.3964   21437753.9104   21437751.2724
      2128.9164       1658.9054         49.0004         44.0004
 -10050962.89243  -7795179.68342  23109842.1014   23109847.7394   23109841.8504
     -3398.3014      -2648.0214         43.0004         38.0004
  -6968040.04243  -5383100.49542  22638518.9094   22638522.2164   22638518.4254
      1656.0974       1290.4524         45.0004         40.0004
 -16393517.08743 -12728084.79642  21432451.8744   21432453.8864   21432451.0464
     -2264.6454      -1764.6644         49.0004         45.0004
  -6668697.61843  -5152041.49042  22613539.7224   22613543.2384   22613539.4854
     -2702.1264      -2105.5574         45.0004         40.0004
   -880038.86143   -650121.83742  23672655.5124   23672661.1324   23672655.4414
      2563.6394       1997.6324         43.0004         38.0004
 04 12 28  1 23  0.0000000  0  8G15G 1G11G 3G20G19G14G25
                   3602391.68942  24820625.991    24820633.6884
                     -1942.8344                         33.0004
 -20250573.93643 -15725665.41642  20388354.3604   20388358.4754   20388354.0324
       220.2454        171.6114         51.0004         47.0004
 -17977350.54243 -13971794.56042  21425614.7244   21425617.2604   21425614.6314
      2121.8254       1653.3634         49.0004         44.0004
  -9948964.69243  -7715700.65842  23129251.6594   23129257.4764   23129251.5364
     -3402.4794      -2651.2784         43.0004         38.0004
  -7017655.91543  -5421762.21142  22629077.3054   22629080.6104   22629076.7844
      1650.8174       1286.3524         45.0004         40.0004
 -16325379.28343 -12674990.44242  21445418.1354   21445420.1254   21445417.2804
     -2278.9094      -1775.7744         49.0004         45.0004
  -6587488.34943  -5088761.57542  22628993.4864   22628996.8214   22628993.1694
     -2713.1304      -2114.1284         45.0004         40.0004
   -956888.31043   -710004.49842  23658031.4594   23658037.1834   23658031.3484
      2557.9724       1993.2294         43.0004         38.0004
 04 12 28  1 23 30.0000000  0  8G15G 1G11G 3G20G19G14G25
   4613369.01743   3660745.68542  24834876.5914   24834884.3514   24834876.3064
     -2498.3544      -1946.7684         38.0004         33.0004
 -20256876.41443 -15730576.43642  20387154.9704   20387159.1344   20387154.7044
       199.9834        155.8454         51.0004         47.0004
 -18040890.36843 -14021306.11342  21413523.5294   21413526.0264   21413523.4214
      2114.0864       1647.3374         49.0004         44.0004
  -9846811.29543  -7636100.70742  23148691.0564   23148696.8054   23148690.7774
     -3407.7514      -2655.3894         43.0004         38.0004
  -7067087.89243  -5460280.63242  22619670.6544   22619673.9814   22619670.2124
      1644.9844       1281.8124         45.0004         40.0004
 -16256792.10243 -12621545.92642  21458469.9104   21458471.8774   21458469.0104
     -2293.5514      -1787.1844         49.0004         45.0004
  -6505922.41943  -5025203.74642  22644515.0094   22644518.3334   22644514.7154
     -2724.4314      -2122.9354         45.0004         40.0004
  -1033546.42643   -769738.05842  23643443.8514   23643449.5614   23643443.6914
      2552.1004       1988.6534         43.0004         38.0004
 04 12 28  1 24  0.0000000  0  8G15G 1G11G 3G20G19G14G25
   4688416.63243   3719224.20942  24849157.7004   24849165.6934   24849157.9564
     -2503.9814      -1951.1604         38.0004         33.0004
 -20262565.02443 -15735009.11842  20386072.4974   20386076.6214   20386072.1974
       179.1014        139.5614         51.0004         47.0004
 -18104189.75443 -14070630.30542  21401478.1134   21401480.5544   21401477.9454
      2105.6444       1640.7564         49.0004         44.0004
  -9744506.18243  -7556382.53042  23168159.2424   23168164.8824   23168158.8004
     -3413.1374      -2659.5774         42.0004         38.0004
  -7116336.87043  -5498656.44842  22610298.8914   22610302.2044   22610298.4074
      1638.1144       1276.4554         45.0004         40.0004
 -16187758.15143 -12567753.28242  21471606.6674   21471608.6614   21471605.7224
     -2308.8404      -1799.0894         49.0004         45.0004
  -6424002.83443  -4961370.33542  22660103.7514   22660107.1824   22660103.4834
     -2736.8724      -2132.6224         45.0004         40.0004
  -1110010.39643   -829320.31842  23628893.1204   23628898.9694   23628893.0264
      2545.1644       1983.2554         43.0004         38.0004
 04 12 28  1 24 30.0000000  0  8G15G 1G11G 3G20G19G14G25
   4763623.80843   3777827.07842  24863469.2334   24863477.2704   24863469.3544
     -2509.7394      -1955.6344         38.0004         33.0004
 -20267640.12943 -15738963.73942  20385106.7524   20385110.8744   20385106.4664
       158.9924        123.9034         51.0004         47.0004
 -18167246.82743 -14119765.68342  21389478.7574   21389481.1914   21389478.6164
      2097.8494       1634.7144         49.0004         44.0004
  -9642052.22743  -7476548.38342  23187655.5024   23187661.2654   23187655.2004
     -3417.5954      -2663.0554         42.0004         38.0004
  -7165403.04143  -5536889.83442  22600961.8364   22600965.2204   22600961.3484
      1632.6274       1272.1804         45.0004         40.0004
 -16118279.84343 -12513614.38542  21484827.8344   21484829.9504   21484826.9974
     -2323.1734      -1810.2614         49.0004         44.0004
  -6341732.41043  -4897263.53942  22675759.2974   22675762.7884   22675758.9994
     -2748.1494      -2141.4134         45.0004         40.0004
  -1186276.72343   -888748.57942  23614380.1144   23614385.8984   23614379.9534
      2538.9124       1978.3734         43.0004         38.0004
 04 12 28  1 25  0.0000000  0  8G15G 1G11G 3G20G19G14G25
   4838990.05043   3836553.92242  24877811.2194   24877819.0484   24877811.1864
     -2513.6094      -1960.0884         38.0004         33.0004
 -20272101.84243 -15742440.39342  20384257.6764   20384261.8634   20384257.4204
       138.1484        107.6384         51.0004         47.0004
 -18230059.43843 -14168710.57042  21377525.9474   21377528.3404   21377525.7334
      2089.2524       1627.9914         49.0004         44.0004
  -9539452.06743  -7396600.29642  23207179.6654   23207185.4364   23207179.3304
     -3422.6934      -2667.0374         42.0004         37.0004
  -7214287.21843  -5574981.37542  22591659.5244   22591662.8944   22591658.9374
      1626.2634       1267.2144         45.0004         40.0004
 -16048359.57243 -12459131.09642  21498133.1884   21498135.3314   21498132.3934
     -2338.4504      -1822.1734         49.0004         44.0004
  -6259113.79843  -4832885.44342  22691480.9564   22691484.5244   22691480.7084
     -2759.9774      -2150.6274         44.0004         40.0004
  -1262342.54043   -948020.60042  23599905.2394   23599910.8804   23599905.0284
      2531.8694       1972.8784         43.0004         38.0004
 04 12 28  1 25 30.0000000  0  8G15G 1G11G 3G20G19G14G25
   4914515.88643   3895405.01242  24892183.4504   24892191.3784   24892183.2404
     -2519.8624      -1963.5214         38.0004         34.0004
 -20275949.72843 -15745438.74842  20383525.4484   20383529.6304   20383525.1734
       118.1924         92.0964         51.0004         47.0004
 -18292624.88143 -14217462.86542  21365620.1114   21365622.5104   21365619.9434
      2081.5594       1621.9944         49.0004         44.0004
  -9436707.93743  -7316540.03342  23226731.4614   23226736.9994   23226730.9554
     -3427.0394      -2670.4204         42.0004         37.0004
  -7262988.78443  -5612930.64442  22582391.8694   22582395.2444   22582391.3414
      1620.7484       1262.9224         45.0004         40.0004
 -15977998.97743 -12404304.70942  21511522.4084   21511524.5734   21511521.5994
     -2352.4764      -1833.0994         49.0004         44.0004
  -6176148.94043  -4768237.53942  22707268.6544   22707272.2574   22707268.4084
     -2771.2194      -2159.3954         44.0004         40.0004
  -1338203.77343  -1007133.22142  23585469.0404   23585474.9934   23585469.1134
      2525.2564       1967.7354         42.0004         38.0004
 04 12 28  1 26  0.0000000  0  8G15G 1G11G 3G20G19G14G25
   4990199.98443   3954379.50242  24906585.9584   24906593.1244   24906585.6374
     -2525.7204      -1968.1014         38.0004         33.0004
 -20279185.15843 -15747959.86342  20382909.7684   20382913.9274   20382909.5184
        98.1434         76.4844         51.0004         47.0004
 -18354942.48343 -14266022.03442  21353761.5674   21353763.8664   21353761.3234
      2073.6684       1615.8494         49.0004         44.0004
  -9333823.96543  -7236370.81042  23246309.8594   23246315.2274   23246309.2064
     -3431.3284      -2673.7524         42.0004         37.0004
  -7311509.24543  -5650738.79042  22573158.7614   22573162.1894   22573158.1854
      1614.9474       1258.4044         45.0004         41.0004
 -15907201.73143 -12349138.07342  21524994.7314   21524996.8474   21524993.8834
     -2366.8974      -1844.3284         49.0004         44.0004
  -6092841.84243  -4703322.96042  22723121.4434   22723125.1334   22723121.1964
     -2782.3114      -2168.0364         44.0004         40.0004
  -1413858.50643  -1066084.92542  23571072.3854   23571078.3484   23571072.3174
      2518.9114       1962.7944         42.0004         38.0004
 04 12 28  1 26 30.0000000  0  8G15G 1G11G 3G20G19G14G25
                   4013477.59642  24921018.368    24921025.4254
                     -1971.9584                         33.0004
 -20281807.99143 -15750003.62042  20382410.6834   20382414.8014   20382410.4034
        77.3434         60.2634         51.0004         47.0004
 -18417009.37043 -14314385.84142  21341950.5924   21341952.9264   21341950.3664
      2065.0874       1609.1654         49.0004         44.0004
  -9230802.38243  -7156094.34242  23265914.1444   23265919.7484   23265913.5854
     -3436.2124      -2677.5664         42.0004         38.0004
  -7359848.68143  -5688405.86642  22563960.0444   22563963.5494   22563959.4474
      1608.3284       1253.2404         45.0004         41.0004
 -15835969.65743 -12293632.60942  21538549.7684   21538551.9494   21538548.9444
     -2381.3244      -1855.5774         49.0004         44.0004
  -6009194.57143  -4638143.30342  22739039.0904   22739042.7704   22739038.6864
     -2793.5514      -2176.7854         44.0004         39.0004
  -1489302.98843  -1124872.80042  23556715.8044   23556721.4974   23556715.7694
      2511.2404       1956.8154         42.0004         38.0004
 04 12 28  1 27  0.0000000  0  8G15G 1G11G 3G20G19G14G25
                   4072699.08742  24935481.216    24935488.8054
                     -1976.3754                         33.0004
 -20283818.64043 -15751570.35342  20382028.0984   20382032.2304   20382027.8194
        56.6404         44.1424         51.0004         47.0004
 -18478823.53843 -14362552.72942  21330187.6644   21330190.0984   21330187.5124
      2056.0124       1602.0844         49.0004         45.0004
  -9127646.03643  -7075712.88242  23285543.9354   23285549.9104   23285543.7314
     -3440.8094      -2681.1464         42.0004         38.0004
  -7408007.43243  -5725932.15742  22554795.7204   22554799.2314   22554795.1124
      1602.0804       1248.3744         45.0004         41.0004
 -15764305.18743 -12237790.20542  21552187.0744   21552189.2824   21552186.2564
     -2396.2264      -1867.1954         49.0004         44.0004
  -5925209.86943  -4572700.70642  22755020.8944   22755024.4934   22755020.4184
     -2805.3554      -2185.9884         44.0004         39.0004
  -1564533.89343  -1183494.23442  23542399.7544   23542405.4954   23542399.7284
      2503.9904       1951.1624         42.0004         38.0004
 04 12 28  1 27 30.0000000  0  8G15G 1G11G 3G20G19G14G25
   5218202.94843   4132043.68942  24949973.9224   24949981.1694   24949973.8514
     -2541.4624      -1980.3364         37.0004         33.0004
 -20285217.67243 -15752660.50342  20381761.8574   20381765.9844   20381761.5894
        36.4474         28.4054         51.0004         47.0004
 -18540383.03843 -14410521.17842  21318473.2844   21318475.7684   21318473.1064
      2047.7044       1595.6114         49.0004         45.0004
  -9024357.92643  -6995228.74042  23305199.0764   23305205.1344   23305198.9714
     -3444.9724      -2684.3844         42.0004         38.0004
  -7455986.04843  -5763318.07742  22545665.7544   22545669.2294   22545665.1424
      1596.2224       1243.8104         45.0004         41.0004
 -15692210.83943 -12181612.83642  21565906.1874   21565908.4174   21565905.3844
     -2410.2724      -1878.1294         49.0004         44.0004
  -5840890.70243  -4506997.50942  22771066.1494   22771069.9904   22771065.7044
     -2816.0364      -2194.3124         44.0004         39.0004
  -1639548.02443  -1241946.77142  23528124.9744   23528130.7234   23528125.0514
      2496.6644       1945.4484         42.0004         37.0004
 04 12 28  1 28  0.0000000  0  8G15G 1G11G 3G20G19G14G25
   5294519.89143   4191511.31842  24964496.4944   24964504.4844   24964496.4624
     -2546.6294      -1984.3954         37.0004         33.0004
 -20286005.24743 -15753274.19242  20381612.0054   20381616.1154   20381611.7294
        15.7384         12.2574         51.0004         47.0004
 -18601685.55443 -14458289.37642  21306807.8144   21306810.2934   21306807.6304
      2038.8074       1588.6674         49.0004         45.0004
  -8920940.87643  -6914644.11842  23324878.7094   23324884.9094   23324878.6454
     -3449.4354      -2687.8644         42.0004         37.0004
  -7503784.76543  -5800563.82842  22536569.8344   22536573.4434   22536569.3904
      1590.1164       1239.0484         45.0004         41.0004
 -15619688.74143 -12125102.15642  21579706.6694   21579708.9474   21579705.9324
     -2424.8164      -1889.4674         49.0004         44.0004
  -5756239.43543  -4441035.53142  22787174.7714   22787178.5914   22787174.3154
     -2827.4664      -2203.2194         44.0004         39.0004
  -1714342.00943  -1300227.75242  23513892.0414   23513897.8484   23513892.1794
      2489.0224       1939.4984         42.0004         38.0004
 04 12 28  1 28 30.0000000  0  8G15G 1G11G 3G20G19G14G25
                   4251101.82042  24979049.375    24979056.8824
                     -1988.2404                         32.0004
 -20286181.73943 -15753411.70742  20381578.4284   20381582.4904   20381578.1504
        -4.0154         -3.1164         51.0004         47.0004
 -18662729.08943 -14505855.76942  21295191.5594   21295194.1194   21295191.4214
      2030.7254       1582.3924         49.0004         45.0004
  -8817397.39843  -6833961.01042  23344582.3794   23344588.7914   23344582.2744
     -3453.0574      -2690.6914         42.0004         37.0004
  -7551404.03343  -5837669.73542  22527508.2284   22527511.8074   22527507.6724
      1584.7784       1234.8914         45.0004         41.0004
 -15546741.50143 -12068260.20242  21593588.1284   21593590.4004   21593587.3704
     -2438.4874      -1900.1184         49.0004         44.0004
  -5671258.85343  -4374816.93142  22803346.0184   22803349.9544   22803345.6924
     -2837.8294      -2211.2914         44.0004         39.0004
  -1788912.46043  -1358334.55842  23499701.7484   23499707.6044   23499701.8904
      2482.2654       1934.2364         42.0004         38.0004
 04 12 28  1 29  0.0000000  0  8G15G 1G11G 3G20G19G14G25
                   4310814.70442  24993631.937    24993639.3924
                     -1992.3764                         33.0004
 -20285747.76243 -15753073.53742  20381660.9844   20381665.0714   20381660.7194
       -24.6984        -19.2324         51.0004         47.0004
 -18723511.99843 -14553219.08642  21283624.9434   21283627.5474   21283624.8324
      2021.7314       1575.3704         49.0004         45.0004
  -8713730.81543  -6753181.96742  23364309.5654   23364316.0224   23364309.4444
     -3458.0854      -2694.5994         41.0004         37.0004
  -7598844.68443  -5874636.46742  22518480.6344   22518484.1764   22518480.0384
      1578.1374       1229.7284         45.0004         41.0004
 -15473371.99143 -12011089.20942  21607550.0444   21607552.2474   21607549.1884
     -2452.6384      -1911.1404         49.0004         44.0004
  -5585952.14643  -4308344.22542  22819579.3224   22819583.4274   22819579.0894
     -2848.9794      -2219.9804         44.0004         39.0004
  -1863256.67243  -1416265.10142  23485554.5554   23485560.2044   23485554.6374
      2474.2624       1928.0004         42.0004         38.0004
 04 12 28  1 29 30.0000000  0  8G15G 1G11G 3G20G19G14G25
   5524414.00143   4370649.19242  25008244.2424   25008251.8734   25008243.8334
     -2562.0854      -1996.4274         38.0004         33.0004
 -20284704.43543 -15752260.54942  20381859.5124   20381863.6284   20381859.2674
       -45.0384        -35.0994         51.0004         47.0004
 -18784032.74043 -14600378.10842  21272108.2224   21272110.8094   21272108.1124
      2012.9274       1568.5014         49.0004         45.0004
  -8609944.48043  -6672309.59442  23384059.5594   23384065.7994   23384059.3454
     -3461.6314      -2697.3774         41.0004         37.0004
  -7646107.56443  -5911464.68442  22509486.7904   22509490.3894   22509486.2184
      1572.1574       1225.0634         45.0004         41.0004
 -15399583.12743 -11953591.44142  21621591.6774   21621593.8224   21621590.8054
     -2466.8204      -1922.1944         49.0004         44.0004
  -5500322.41243  -4241619.79342  22835874.1704   22835878.2644   22835873.9424
     -2859.6324      -2228.2814         44.0004         39.0004
  -1937371.97243  -1474017.25342  23471450.8824   23471456.4934   23471451.0354
      2466.6624       1922.0704         42.0004         38.0004
                            4  1
RINEX FILE SPLICE; other post-header comments skipped       COMMENT
 04 12 28  1 30  0.0000000  0  8G15G 1G11G 3G20G19G14G25
   5601358.21643   4430605.56342  25022886.2894   25022893.8184   25022885.7854
     -2567.3864      -2000.5484         38.0004         33.0004
 -20283051.49643 -15750972.53642  20382174.0944   20382178.1774   20382173.8054
       -65.4014        -50.9784         51.0004         47.0004
 -18844288.30143 -14647330.50242  21260641.9614   21260644.5684   21260641.8404
      2003.8984       1561.4754         49.0004         45.0004
  -8506040.45143  -6591345.52442  23403832.0404   23403838.2364   23403831.6764
     -3465.5504      -2700.4244         41.0004         37.0004
  -7693192.28843  -5948154.05842  22500526.8684   22500530.4764   22500526.3054
      1566.5704       1220.7014         46.0004         41.0004
 -15325376.69343 -11895768.30242  21635712.7204   21635714.8624   21635711.8714
     -2480.8144      -1933.0994         49.0004         44.0004
  -5414371.71743  -4174645.26242  22852230.0684   22852234.0534   22852229.8504
     -2870.4244      -2236.6964         44.0004         39.0004
  -2011254.52443  -1531588.06242  23457391.3784   23457397.0694   23457391.6574
      2458.6284       1915.8154         43.0004         38.0004
 04 12 28  1 30 30.0000000  0  8G15G 1G11G 3G20G19G14G25
   5678459.01343   4490683.95342  25037558.2224   25037565.6584   25037557.6254
     -2572.1054      -2004.2264         37.0004         33.0004
 -20280789.06243 -15749209.59742  20382604.6014   20382608.7154   20382604.3054
       -85.3284        -66.4914         51.0004         47.0004
 -18904276.38943 -14694074.47742  21249226.6504   21249229.2054   21249226.4984
      1995.2504       1554.7324         49.0004         45.0004
  -8402021.25643  -6510291.69942  23423626.4344   23423632.5684   23423626.0994
     -3469.0624      -2703.1684         41.0004         37.0004
  -7740099.01843  -5984704.74242  22491600.8404   22491604.3444   22491600.2804
      1560.9034       1216.2864         46.0004         41.0004
 -15250754.79843 -11837621.42242  21649912.8944   21649915.0224   21649911.9884
     -2494.0104      -1943.3794         49.0004         44.0004
  -5328102.37443  -4107422.45242  22868646.6524   22868650.5114   22868646.4394
     -2880.5824      -2244.6114         43.0004         39.0004
  -2084900.67843  -1588974.65042  23443376.9804   23443382.5134   23443377.2184
      2451.0714       1909.9254         43.0004         38.0004
 04 12 28  1 31  0.0000000  0  8G15G 1G11G 3G20G19G14G25
   5755715.37543   4550883.54142  25052259.7214   25052267.3694   25052259.5124
     -2577.0424      -2008.0754         38.0004         33.0004
 -20277918.47243 -15746972.76642  20383150.8114   20383154.9874   20383150.5564
      -105.2204        -81.9884         51.0004         47.0004
 -18963995.74743 -14740609.04942  21237862.4664   21237865.0034   21237862.2894
      1986.7184       1548.1094         49.0004         45.0004
  -8297890.49143  -6429150.94342  23443441.8784   23443448.1774   23443441.6204
     -3472.0194      -2705.4614         41.0004         37.0004
  -7786829.02843  -6021117.72142  22482708.4444   22482711.8874   22482707.8554
      1555.0604       1211.7364         46.0004         41.0004
 -15175720.88443 -11779153.48342  21664191.4144   21664193.5744   21664190.5564
     -2507.5234      -1953.9064         49.0004         44.0004
  -5241517.84043  -4039954.01342  22885123.3864   22885127.0114   22885123.0214
     -2891.0664      -2252.7784         43.0004         39.0004
  -2158307.78343  -1646174.93842  23429408.0374   23429413.6624   23429408.3014
      2443.2644       1903.8444         43.0004         38.0004
 04 12 28  1 31 30.0000000  0  8G15G 1G11G 3G20G19G14G25
   5833126.86243   4611204.03842  25066990.6934   25066998.0714   25066991.9144
     -2583.1754      -2012.8614         38.0004         33.0004
 -20274440.32343 -15744262.51642  20383812.6654   20383816.8694   20383812.3854
      -126.0204        -98.1824         51.0004         47.0004
 -19023443.94643 -14786932.32842  21226549.7574   21226552.3644   21226549.6564
      1977.1734       1540.6664         49.0004         45.0004
  -8193651.03943  -6347925.50242  23463278.2404   23463284.2844   23463277.9864
     -3476.2784      -2708.7944         42.0004         37.0004
  -7833382.65243  -6057393.27342  22473849.5594   22473852.9794   22473848.9744
      1549.0564       1207.0564         46.0004         41.0004
 -15100277.34243 -11720366.36242  21678547.9244   21678550.0734   21678547.0594
     -2521.4214      -1964.7404         49.0004         44.0004
  -5154620.95843  -3972242.20242  22901659.3584   22901663.0554   22901658.9594
     -2901.6184      -2260.9954         43.0004         39.0004
  -2231472.92943  -1703186.73142  23415485.1724   23415490.7714   23415485.3054
      2434.7674       1897.2174         43.0004         38.0004
 04 12 28  1 32  0.0000000  0  8G15G 1G11G 3G20G19G14G25
   5910693.33743   4671645.33342  25081751.2194   25081756.5964   25081751.7004
     -2589.0014      -2017.3784         38.0004         33.0004
 -20270355.08143 -15741079.21142  20384590.0294   20384594.2454   20384589.7424
      -146.7294       -114.3344         51.0004         47.0004
 -19082618.96343 -14833042.73942  21215289.1384   21215291.7464   21215289.0004
      1967.5474       1533.1574         49.0004         45.0004
  -8089305.62443  -6266617.48542  23483134.5624   23483140.7394   23483134.3144
     -3480.2674      -2711.8964         41.0004         37.0004
  -7879759.98943  -6093531.44742  22465024.2044   22465027.6924   22465023.6704
      1542.4684       1201.9194         46.0004         41.0004
 -15024426.68243 -11661262.01342  21692981.9344   21692984.0634   21692981.0214
     -2535.6644      -1975.8454         49.0004         44.0004
  -5067414.54043  -3904289.19142  22918254.1624   22918257.9194   22918253.8234
     -2912.6824      -2269.6254         43.0004         39.0004
  -2304392.49343  -1760007.12942  23401609.2054   23401614.5974   23401609.3194
      2426.2894       1890.6174         43.0004         38.0004
 04 12 28  1 32 30.0000000  0  8G15G 1G11G 3G20G19G14G25
   5988414.28443   4732206.91842  25096541.1994   25096550.0714   25096541.9674
     -2593.7634      -2021.0914         38.0004         33.0004
 -20265663.65043 -15737423.54442  20385482.7494   20385486.9974   20385482.4854
      -166.9024       -130.0544         51.0004         47.0004
 -19141518.86443 -14878938.77042  21204080.8424   21204083.4604   21204080.6844
      1958.3064       1525.9544         49.0004         45.0004
  -7984857.29943  -6185229.28542  23503010.4174   23503016.5654   23503010.2884
     -3483.6344      -2714.5184         41.0004         36.0004
  -7925962.04443  -6129533.03042  22456232.3184   22456235.7204   22456231.7434
      1536.4184       1197.2104         46.0004         41.0004
 -14948171.70843 -11601842.59042  21707492.8314   21707494.9414   21707491.9304
     -2548.8174      -1986.0894         49.0004         44.0004
  -4979901.19543  -3836097.01342  22934907.3854   22934911.2234   22934907.0574
     -2922.5874      -2277.3414         43.0004         39.0004
  -2377063.58743  -1816633.92942  23387780.2304   23387785.7654   23387780.3654
      2417.8364       1884.0284         43.0004         39.0004
 04 12 28  1 33  0.0000000  0  8G15G 1G11G 3G20G19G14G25
   6066289.55943   4792888.79242  25111360.3624   25111372.3214   25111360.6344
     -2597.5094      -2024.0264         38.0004         33.0004
 -20260366.41943 -15733295.83142  20386490.8104   20386495.0284   20386490.5264
      -186.4954       -145.3234         51.0004         47.0004
 -19200141.49343 -14924618.74642  21192925.3784   21192927.9354   21192925.2244
      1949.4604       1519.0734         49.0004         45.0004
  -7880308.57843  -6103762.85042  23522905.3484   23522911.5384   23522905.1804
     -3486.3884      -2716.6594         41.0004         36.0004
  -7971988.78643  -6165398.01342  22447473.7204   22447477.1134   22447473.1594
      1531.4194       1193.3144         46.0004         41.0004
 -14871514.76843 -11542109.96342  21722080.1814   21722082.3544   21722079.3114
     -2561.6654      -1996.0984         49.0004         44.0004
  -4892083.36143  -3767667.57442  22951618.6224   22951622.5434   22951618.2364
     -2932.2134      -2284.8414         43.0004         39.0004
  -2449482.78543  -1873064.44742  23373999.3664   23374004.8604   23373999.4214
      2409.6984       1877.6934         43.0004         39.0004
 04 12 28  1 33 30.0000000  0  8G15G 1G11G 3G20G19G14G25
   6144318.84343   4853690.61642  25126209.0924   25126218.8614   25126209.3054
     -2602.6404      -2028.2874         38.0004         33.0004
 -20254463.83643 -15728696.41242  20387614.0184   20387618.2474   20387613.7354
      -206.8554       -161.1794         51.0004         47.0004
 -19258484.67443 -14970080.95642  21181823.0444   21181825.6214   21181822.9104
      1940.0584       1511.7374         49.0004         45.0004
  -7775662.22343  -6022220.32742  23542818.7934   23542825.1234   23542818.8534
     -3489.6574      -2719.2094         41.0004         36.0004
  -8017840.55743  -6201126.65442  22438748.4394   22438751.8134   22438747.8704
      1525.4414       1188.6554         46.0004         41.0004
 -14794458.32943 -11482066.03342  21736743.6054   21736745.7964   21736742.7064
     -2575.1284      -2006.5944         49.0004         44.0004
  -4803963.72143  -3699002.95442  22968387.2044   22968391.0524   22968386.8694
     -2942.3124      -2292.7084         43.0004         39.0004
  -2521646.78643  -1929296.11142  23360267.0434   23360272.4164   23360267.1054
      2401.4114       1871.2274         43.0004         39.0004
 04 12 28  1 34  0.0000000  0  8G15G 1G11G 3G20G19G14G25
   6222501.02043   4914611.65242  25141086.8204   25141096.2314   25141087.0044
     -2608.4824      -2032.5604         38.0004         34.0004
 -20247957.38943 -15723626.45242  20388852.1474   20388856.3564   20388851.8654
      -226.9284       -176.8234         51.0004         47.0004
 -19316546.75843 -15015324.14142  21170774.1904   21170776.7404   21170774.0554
      1930.7084       1504.4364         49.0004         45.0004
  -7670921.78443  -5940604.49942  23562750.2994   23562756.6524   23562750.3254
     -3493.2154      -2721.9814         41.0004         36.0004
  -8063518.44643  -6236719.79542  22430056.2034   22430059.5834   22430055.5914
      1519.5264       1184.0534         46.0004         41.0004
 -14717005.54043 -11421713.26442  21751482.4004   21751484.6084   21751481.4624
     -2588.4124      -2016.9474         49.0004         44.0004
  -4715545.89443  -3630105.98542  22985212.6034   22985216.2884   22985212.2734
     -2952.0164      -2300.2754         43.0004         39.0004
  -2593553.18343  -1985327.03142  23346583.7624   23346589.0714   23346583.8134
      2392.5314       1864.3144         43.0004         39.0004
 04 12 28  1 34 30.0000000  0  9G23G15G 1G11G 3G20G19G14G25
   -289979.22943   -176840.72342  24082263.8124   24082265.6584   24082263.4104
      3577.0824       2787.3314         48.0004         36.0004
   6300836.38143   4975651.99542  25155993.4914   25156002.5944   25155991.7244
     -2613.5404      -2036.5154         38.0004         33.0004
 -20240847.39943 -15718086.19842  20390205.1974   20390209.3334   20390204.8884
      -246.9904       -192.4494         51.0004         47.0004
 -19374325.39043 -15060346.44542  21159779.2704   21159781.8404   21159779.1364
      1921.1964       1497.0494         49.0004         45.0004
  -7566089.53843  -5858917.11942  23582699.3184   23582705.7364   23582699.2564
     -3495.5754      -2723.8314         41.0004         36.0004
  -8109022.37943  -6272177.39342  22421397.0404   22421400.4324   22421396.4404
      1513.9014       1179.6664         46.0004         41.0004
 -14639158.67243 -11361053.41342  21766296.1534   21766298.4394   21766295.2654
     -2601.1894      -2026.8954         49.0004         44.0004
  -4626832.02443  -3560978.33642  23002094.2754   23002098.0554   23002093.8734
     -2962.2534      -2308.2454         43.0004         39.0004
  -2665198.11743  -2041154.23442  23332950.1504   23332955.5394   23332950.2014
      2383.7894       1857.4944         43.0004         39.0004
 04 12 28  1 35  0.0000000  0  8G23G 1G11G 3G20G19G14G25
   -397208.77743   -260396.13042  24061858.3114   24061861.2924   24061858.1724
      3572.4724       2783.7404         43.0004         36.0004
 -20233134.69943 -15712076.30342  20391672.8414   20391677.0424   20391672.5684
      -266.4114       -207.5814         51.0004         47.0004
 -19431818.61343 -15105146.35942  21148838.7204   21148841.2564   21148838.5634
      1912.3154       1490.1294         49.0004         45.0004
  -7461168.22843  -5777160.33942  23602665.2264   23602671.8104   23602665.2464
     -3497.9664      -2725.6884         41.0004         36.0004
  -8154353.27143  -6307500.16342  22412770.7984   22412774.2174   22412770.2194
      1509.0304       1175.8744         46.0004         41.0004
 -14560920.21443 -11300088.43742  21781184.4644   21781186.7414   21781183.6024
     -2613.6324      -2036.5934         49.0004         44.0004
  -4537824.91843  -3491622.20042  23019031.8284   23019035.5424   23019031.3344
     -2971.3404      -2315.3274         43.0004         38.0004
  -2736578.54743  -2096775.32442  23319366.9414   23319372.2794   23319366.9494
      2375.4104       1850.9704         44.0004         39.0004
 04 12 28  1 35 30.0000000  0  8G23G 1G11G 3G20G19G14G25
   -504276.01343   -343825.08542  24041483.9624   24041486.8494   24041483.9374
      3566.7444       2779.2794         42.0004         36.0004
 -20224820.16143 -15705597.44342  20393255.0794   20393259.2504   20393254.7844
      -287.1444       -223.7594         51.0004         47.0004
 -19489024.13443 -15149722.08642  21137952.9184   21137955.3934   21137952.7344
      1902.0594       1482.1124         50.0004         45.0004
  -7356160.73943  -5695336.41342  23622647.5274   23622654.0984   23622647.5544
     -3501.7764      -2728.6634         41.0004         36.0004
  -8199511.19043  -6342688.13242  22404177.5044   22404180.9624   22404176.9254
      1502.5434       1170.8104         46.0004         41.0004
 -14482292.91943 -11238820.45442  21796146.7804   21796149.0464   21796145.9024
     -2627.1894      -2047.1544         48.0004         44.0004
  -4448527.32143  -3422039.70442  23036024.7054   23036028.3864   23036024.2114
     -2981.3314      -2323.1094         43.0004         38.0004
  -2807691.26143  -2152187.78542  23305834.5934   23305840.0504   23305834.6224
      2365.9984       1843.6334         44.0004         39.0004
 04 12 28  1 36  0.0000000  0  8G23G 1G11G 3G20G19G14G25
   -611179.41143   -427126.38642  24021141.1514   24021143.7064   24021140.8534
      3560.4334       2774.3694         41.0004         36.0004
 -20215905.07743 -15698650.61542  20394951.5884   20394955.7254   20394951.2814
      -307.3024       -239.4514         51.0004         47.0004
 -19545940.62443 -15194072.61042  21127122.0704   21127124.5174   21127121.8964
      1892.3194       1474.5364         50.0004         45.0004
  -7251070.59043  -5613448.09142  23642645.7374   23642652.2194   23642645.5464
     -3504.3844      -2730.6824         41.0004         37.0004
  -8244497.13643  -6377742.10042  22395616.9254   22395620.3984   22395616.3084
      1496.4654       1166.0804         46.0004         41.0004
 -14403280.49443 -11177252.39242  21811182.2944   21811184.6744   21811181.4154
     -2640.1944      -2057.2984         48.0004         44.0004
  -4358942.71343  -3352233.56342  23053072.1264   23053075.8344   23053071.7134
     -2990.9214      -2330.5874         43.0004         38.0004
  -2878533.78043  -2207389.70842  23292353.7144   23292359.1564   23292353.7214
      2356.4964       1836.2274         44.0004         39.0004
 04 12 28  1 36 30.0000000  0  8G23G 1G11G 3G20G19G14G25
   -717915.79743   -510297.53642  24000829.6964   24000832.2534   24000829.5304
      3554.8454       2770.0024         41.0004         36.0004
 -20206389.48343 -15691235.86442  20396762.2774   20396766.4574   20396762.0204
      -327.4814       -255.1774         51.0004         47.0004
 -19602565.01043 -15238195.51142  21116346.7754   21116349.2594   21116346.6284
      1882.4374       1466.8404         50.0004         45.0004
  -7145899.55743  -5531496.73642  23662659.1254   23662665.8024   23662659.1914
     -3507.0764      -2732.7704         41.0004         37.0004
  -8289310.90343  -6412661.91242  22387089.0764   22387092.6074   22387088.5084
      1490.8724       1161.7154         46.0004         41.0004
 -14323884.30043 -11115385.28342  21826290.9404   21826293.3194   21826290.0624
     -2653.0404      -2067.3054         48.0004         44.0004
  -4269072.66143  -3282205.01142  23070173.9084   23070177.6464   23070173.5494
     -3000.6614      -2338.1734         43.0004         38.0004
  -2949101.92543  -2262377.82642  23278924.8564   23278930.4044   23278924.9854
      2347.5954       1829.2904         44.0004         39.0004
 04 12 28  1 37  0.0000000  0  8G23G 1G11G 3G20G19G14G25
   -824483.59643   -593337.29342  23980550.3104   23980552.9734   23980550.0994
      3548.7884       2765.2904         41.0004         36.0004
 -20196274.86643 -15683354.34842  20398687.1084   20398691.1824   20398686.7814
      -347.7324       -270.9834         51.0004         47.0004
 -19658895.85443 -15282089.67842  21105627.3504   21105629.8944   21105627.2324
      1871.9714       1458.6704         50.0004         45.0004
  -7040651.45843  -5449485.33442  23682687.3154   23682693.9614   23682687.2794
     -3510.2774      -2735.2804         41.0004         36.0004
  -8333953.43443  -6447448.27942  22378593.8734   22378597.4414   22378593.3534
      1484.4354       1156.6994         46.0004         41.0004
 -14244107.62443 -11053221.68842  21841472.0624   21841474.3624   21841471.1164
     -2666.3114      -2077.6464         48.0004         44.0004
  -4178920.94443  -3211956.95942  23087329.4584   23087332.9954   23087328.9424
     -3010.4224      -2345.7864         43.0004         38.0004
  -3019393.16043  -2317150.19442  23265548.9644   23265554.1884   23265548.9784
      2337.8844       1821.7254         43.0004         39.0004
 04 12 28  1 37 30.0000000  0  8G23G 1G11G 3G20G19G14G25
   -930880.21543   -676243.66242  23960303.4304   23960306.1794   23960303.2344
      3544.0824       2761.6204         41.0004         36.0004
 -20185561.50943 -15675006.27242  20400725.7614   20400729.8604   20400725.4594
      -366.8864       -285.8724         51.0004         47.0004
 -19714930.63543 -15325753.15342  21094964.3194   21094966.8424   21094964.1604
      1863.0624       1451.7584         50.0004         45.0004
  -6935328.36143  -5367415.47642  23702729.8924   23702736.1564   23702729.8164
     -3512.1064      -2736.6944         41.0004         36.0004
  -8378424.79443  -6482101.28242  22370131.2634   22370134.8094   22370130.6894
      1479.8824       1153.1624         46.0004         41.0004
 -14163952.93343 -10990763.53942  21856724.9214   21856727.3774   21856724.0824
     -2677.7734      -2086.5694         48.0004         44.0004
  -4088489.60743  -3141491.04642  23104537.9974   23104541.5394   23104537.4794
     -3018.2004      -2351.8394         43.0004         38.0004
  -3089404.15543  -2371704.18442  23252226.3564   23252231.4794   23252226.2614
      2329.2644       1815.0154         43.0004         39.0004
 04 12 28  1 38  0.0000000  0  8G23G 1G11G 3G20G19G14G25
  -1037103.23843   -759014.79342  23940089.8834   23940092.5654   23940089.4924
      3537.6814       2756.6394         41.0004         36.0004
 -20174250.32243 -15666192.35142  20402878.2204   20402882.3154   20402877.9074
      -386.8104       -301.4024         51.0004         47.0004
 -19770667.27743 -15369184.30542  21084358.0114   21084360.5064   21084357.7974
      1852.9024       1443.8234         50.0004         45.0004
  -6829933.02843  -5285289.33342  23722786.2064   23722792.3114   23722785.9704
     -3514.1624      -2738.3084         40.0004         36.0004
  -8422725.29543  -6516621.14642  22361701.1884   22361704.6564   22361700.6214
      1474.0334       1148.6114         46.0004         41.0004
 -14083422.57243 -10928012.66142  21872049.3214   21872051.7674   21872048.5164
     -2690.5274      -2096.5054         48.0004         43.0004
  -3997781.25643  -3070809.27342  23121799.1984   23121802.8354   23121798.7154
     -3027.9384      -2359.4314         43.0004         38.0004
  -3159131.49143  -2426037.16642  23238957.6864   23238962.8324   23238957.5894
      2319.6574       1807.5224         43.0004         39.0004
 04 12 28  1 38 30.0000000  0  8G23G 1G11G 3G20G19G14G25
  -1143150.69543   -841649.10942  23919909.9124   23919912.2554   23919909.2854
      3532.3484       2752.4854         41.0004         37.0004
 -20162342.79343 -15656913.76042  20405144.1254   20405148.2254   20405143.8194
      -406.5194       -316.7744         51.0004         47.0004
 -19826104.01143 -15412381.76642  21073808.7094   21073811.2624   21073808.5274
      1843.3364       1436.3724         50.0004         45.0004
  -6724468.61443  -5203109.39942  23742855.6364   23742861.6384   23742855.2064
     -3516.2014      -2739.8934         40.0004         36.0004
  -8466855.96343  -6551008.66342  22353303.4284   22353306.8744   22353302.8464
      1468.5954       1144.3524         46.0004         41.0004
 -14002519.65043 -10864971.48742  21887444.6624   21887447.1234   21887443.8544
     -2702.7154      -2106.0164         48.0004         43.0004
  -3906799.19943  -2999914.22242  23139112.5194   23139116.3284   23139112.0864
     -3036.7304      -2366.2784         43.0004         39.0004
  -3228572.23343  -2480146.80842  23225743.4554   23225748.7114   23225743.2524
      2310.2554       1800.2054         43.0004         39.0004
 04 12 28  1 39  0.0000000  0  8G23G 1G11G 3G20G19G14G25
  -1249020.77543   -924145.22842  23899763.5484   23899765.7234   23899762.8594
      3525.4984       2747.1344         41.0004         37.0004
 -20149840.24443 -15647171.50842  20407523.2964   20407527.3684   20407523.0054
      -427.0914       -332.8074         51.0004         47.0004
 -19881239.16243 -15455344.22842  21063316.7654   21063319.3834   21063316.6284
      1832.4684       1427.8974         50.0004         45.0004
  -6618938.48543  -5120878.20242  23762937.3834   23762943.3634   23762936.9934
     -3519.1324      -2742.1894         40.0004         36.0004
  -8510817.40243  -6585264.31842  22344937.8964   22344941.3514   22344937.2624
      1462.2754       1139.4274         46.0004         41.0004
 -13921247.37443 -10801642.49542  21902910.3044   21902912.7994   21902909.5024
     -2715.5174      -2115.9944         48.0004         43.0004
  -3815546.40543  -2928808.21542  23156477.3584   23156481.2784   23156476.9124
     -3046.5784      -2373.9594         43.0004         38.0004
  -3297723.69543  -2534031.04442  23212584.3464   23212589.6254   23212584.3044
      2299.4974       1791.8134         43.0004         39.0004
 04 12 28  1 39 30.0000000  0  8G23G 1G11G 3G20G19G14G25
  -1354710.90843  -1006501.09242  23879651.1234   23879653.4324   23879650.5154
      3520.2104       2743.0124         41.0004         36.0004
 -20136743.08543 -15636965.93142  20410015.6154   20410019.6784   20410015.3094
      -445.7674       -347.3504         51.0004         47.0004
 -19936070.06743 -15498069.61742  21052882.8374   21052885.4244   21052882.6894
      1823.2004       1420.6704         50.0004         45.0004
  -6513344.73043  -5038597.47542  23783031.2344   23783037.4014   23783030.6924
     -3520.0784      -2742.9104         40.0004         36.0004
  -8554609.48843  -6619388.01142  22336604.5194   22336607.9504   22336603.9014
      1457.6764       1135.8504         46.0004         42.0004
 -13839608.06943 -10738027.50642  21918445.8294   21918448.3014   21918445.0014
     -2726.4804      -2124.5224         48.0004         43.0004
  -3724025.27443  -2857493.11042  23173893.2684   23173897.1324   23173892.9994
     -3054.4774      -2380.1074         43.0004         38.0004
  -3366582.28043  -2587687.03942  23199480.9104   23199486.2934   23199480.8704
      2290.9434       1785.1474         43.0004         39.0004
 04 12 28  1 40  0.0000000  0  8G23G 1G11G 3G20G19G14G25
  -1460218.88943  -1088715.04542  23859573.5774   23859575.8344   23859572.9224
      3513.8974       2738.0984         41.0004         37.0004
 -20123052.38843 -15626297.85442  20412620.8494   20412624.9034   20412620.5574
      -466.1524       -363.2314         51.0004         46.0004
 -19990594.95443 -15540556.54242  21042507.0814   21042509.6944   21042506.9394
      1812.3694       1412.2314         50.0004         45.0004
  -6407690.19343  -4956269.35242  23803136.5824   23803142.9354   23803136.0494
     -3522.7274      -2744.9804         40.0004         36.0004
  -8598232.78643  -6653380.17642  22328303.2734   22328306.6384   22328302.6694
      1451.2704       1130.8584         46.0004         41.0004
 -13757604.31643 -10674128.53542  21934050.6664   21934053.1404   21934049.8204
     -2739.5724      -2134.7224         48.0004         43.0004
  -3632238.47043  -2785970.96842  23191359.7764   23191363.4774   23191359.5394
     -3063.8954      -2387.4484         43.0004         38.0004
  -3435145.00743  -2641112.50842  23186433.7614   23186439.2074   23186433.7134
      2280.5004       1777.0124         43.0004         39.0004
 04 12 28  1 40 30.0000000  0  8G23G 1G11G 3G20G19G14G25
  -1565542.14443  -1170785.07442  23839531.1134   23839533.6024   23839530.4814
      3508.0474       2733.5464         41.0004         37.0004
 -20108768.70343 -15615167.70642  20415338.8784   20415342.9784   20415338.6474
      -485.8174       -378.5464         51.0004         47.0004
 -20044810.71943 -15582802.59442  21032190.1894   21032192.8274   21032190.0344
      1802.4364       1404.5034         50.0004         45.0004
  -6301977.48843  -4873895.93842  23823253.3024   23823259.6324   23823252.6584
     -3524.5534      -2746.4104         40.0004         36.0004
  -8641687.71343  -6687241.13942  22320034.0744   22320037.4734   22320033.4234
      1446.0074       1126.7674         46.0004         41.0004
 -13675238.44843 -10609947.39542  21949724.4334   21949726.8834   21949723.5834
     -2751.1954      -2143.7824         48.0004         43.0004
  -3540188.48043  -2714243.76242  23208876.3824   23208880.0534   23208876.1744
     -3072.4614      -2394.1214         43.0004         38.0004
  -3503408.09443  -2694304.51442  23173443.5844   23173449.1544   23173443.5604
      2270.7124       1769.3834         43.0004         39.0004
 04 12 28  1 41  0.0000000  0  8G23G 1G11G 3G20G19G14G25
  -1670679.35143  -1252710.10642  23819524.0654   23819526.5724   23819523.3524
      3501.1044       2728.1324         42.0004         37.0004
 -20093894.37143 -15603577.31942  20418169.4004   20418173.5034   20418169.1444
      -505.9244       -394.2284         51.0004         47.0004
 -20098716.92043 -15624807.42542  21021932.1834   21021934.8354   21021932.0374
      1791.4584       1395.9474         50.0004         45.0004
  -6196210.27043  -4791480.03142  23843380.3564   23843386.6774   23843379.6354
     -3526.8314      -2748.1774         40.0004         36.0004
  -8684975.48243  -6720971.86142  22311796.6974   22311800.1414   22311796.0274
      1439.7634       1121.8944         46.0004         42.0004
 -13592514.43543 -10545487.18742  21965466.3024   21965468.8054   21965465.4494
     -2763.5854      -2153.4454         48.0004         43.0004
  -3447879.04943  -2642314.40242  23226442.4154   23226446.0464   23226442.0834
     -3081.5794      -2401.2314         43.0004         38.0004
  -3571369.66243  -2747261.54742  23160510.9174   23160516.4944   23160510.8084
      2259.9674       1761.0104         43.0004         39.0004
 04 12 28  1 41 30.0000000  0  8G23G 1G11G 3G20G19G14G25
  -1775628.30743  -1334488.46842  23799552.7954   23799555.4484   23799551.9544
      3494.9794       2723.3564         41.0004         37.0004
 -20078430.13643 -15591527.26742  20421112.1474   20421116.2654   20421111.9014
      -525.3474       -409.3634         51.0004         47.0004
 -20152311.15043 -15666569.16242  21011733.5584   21011736.2154   21011733.3844
      1781.1644       1387.9164         50.0004         45.0004
  -6090391.24043  -4709023.74142  23863517.1344   23863523.6004   23863516.3894
     -3528.2054      -2749.2594         40.0004         36.0004
  -8728096.35543  -6754572.54142  22303591.0574   22303594.5084   22303590.3894
      1434.5014       1117.7894         46.0004         41.0004
 -13509434.79343 -10480749.86442  21981275.8794   21981278.3604   21981275.0324
     -2775.6114      -2162.8134         48.0004         43.0004
  -3355312.59243  -2570184.75642  23244057.2304   23244060.8254   23244056.9044
     -3090.0794      -2407.8534         43.0004         38.0004
  -3639026.18243  -2799980.89742  23147636.2944   23147641.8094   23147636.2804
      2250.0444       1753.2794         43.0004         39.0004
 04 12 28  1 42  0.0000000  0  8G23G 1G11G 3G20G19G14G25
  -1880385.90843  -1416117.72642  23779617.8034   23779620.7084   23779617.0904
      3488.2084       2718.0804         41.0004         36.0004
 -20062376.48743 -15579017.92542  20424167.0344   20424171.1504   20424166.7884
      -545.5284       -425.0954         51.0004         47.0004
 -20205590.77643 -15708085.75742  21001594.7824   21001597.4684   21001594.6124
      1770.1624       1379.3494         50.0004         45.0004
  -5984522.37143  -4626528.61142  23883663.2134   23883669.8864   23883662.9024
     -3530.0174      -2750.6524         40.0004         36.0004
  -8771050.14543  -6788043.02042  22295417.2514   22295420.6044   22295416.6144
      1428.3034       1112.9724         46.0004         42.0004
 -13426001.41343 -10415736.89542  21997152.7644   21997155.2674   21997151.9554
     -2787.5744      -2172.1384         48.0004         43.0004
  -3262491.18743  -2497856.44442  23261720.5854   23261724.2234   23261720.3124
     -3098.8374      -2414.6774         43.0004         38.0004
  -3706374.11843  -2852459.77442  23134820.2804   23134825.9894   23134820.2674
      2238.8514       1744.5544         43.0004         39.0004
 04 12 28  1 42 30.0000000  0  8G23G 1G11G 3G20G19G14G25
  -1984950.56543  -1497596.62642  23759719.5374   23759722.6004   23759718.9264
      3481.9794       2713.2194         41.0004         36.0004
 -20045734.99343 -15566050.52942  20427333.8304   20427337.9244   20427333.5624
      -564.6114       -439.9684         51.0004         47.0004
 -20258553.63843 -15749355.52942  20991516.2644   20991519.0214   20991516.0764
      1759.9644       1371.3634         50.0004         45.0004
  -5878606.94843  -4543997.21542  23903818.1274   23903824.9494   23903817.9344
     -3531.7694      -2752.0304         40.0004         35.0004
  -8813837.70043  -6821383.96042  22287274.9514   22287278.3984   22287274.3794
      1423.3854       1109.1234         46.0004         42.0004
 -13342217.96443 -10350451.14742  22013096.2554   22013098.8074   22013095.4554
     -2798.7694      -2180.8604         48.0004         43.0004
  -3169417.97043  -2425331.92042  23279431.8164   23279435.6084   23279431.6814
     -3106.7254      -2420.8344         43.0004         38.0004
  -3773410.67443  -2904695.99342  23122063.6704   23122069.2614   23122063.6434
      2228.8444       1736.7574         43.0004         39.0004
 04 12 28  1 43  0.0000000  0  8G23G 1G11G 3G20G19G14G25
  -2089319.95343  -1578923.38042  23739858.5134   23739861.8194   23739857.9524
      3475.4404       2708.1264         41.0004         37.0004
 -20028506.91643 -15552626.06142  20430612.2254   20430616.3094   20430611.9694
      -584.5514       -455.4984         51.0004         47.0004
 -20311197.93843 -15790377.06842  20981498.3784   20981501.1364   20981498.2124
      1748.9604       1362.8194         50.0004         45.0004
  -5772647.50143  -4461431.51342  23923981.5184   23923988.5864   23923981.2864
     -3533.3764      -2753.2744         40.0004         35.0004
  -8856459.48343  -6854595.72642  22279164.2674   22279167.7304   22279163.6934
      1417.6074       1104.6294         46.0004         42.0004
 -13258086.99543 -10284894.60942  22029105.8824   22029108.4004   22029105.0944
     -2810.7614      -2190.2114         48.0004         43.0004
  -3076095.68643  -2352613.32042  23297190.4364   23297194.3694   23297190.2734
     -3115.2464      -2427.4624         43.0004         38.0004
  -3840133.00843  -2956687.37542  23109366.8034   23109372.3724   23109366.7014
      2218.3844       1728.6184         43.0004         39.0004
 04 12 28  1 43 30.0000000  0  8G23G 1G11G 3G20G19G14G25
  -2193492.61543  -1660096.85842  23720035.0554   23720038.0744   23720034.4894
      3468.8664       2703.0054         41.0004         37.0004
 -20010693.99443 -15538745.85942  20434001.9554   20434005.9994   20434001.6764
      -604.1274       -470.7524         51.0004         47.0004
 -20363522.73343 -15831149.64342  20971541.3054   20971544.0564   20971541.1384
      1738.3134       1354.5204         50.0004         45.0004
  -5666647.61443  -4378834.30242  23944152.8684   23944159.7764   23944152.6744
     -3534.3054      -2754.0044         40.0004         35.0004
  -8898916.62743  -6887679.21342  22271084.9514   22271088.4294   22271084.3634
      1412.3954       1100.5644         46.0004         42.0004
 -13173611.99043 -10219069.98742  22045180.9934   22045183.5084   22045180.2454
     -2821.9324      -2198.9104         48.0004         43.0004
  -2982527.87243  -2279703.39842  23314995.7394   23314999.7154   23314995.6184
     -3123.7634      -2434.1054         43.0004         38.0004
  -3906538.42543  -3008431.81042  23096730.2054   23096735.8454   23096730.1464
      2207.7174       1720.2994         44.0004         39.0004
 04 12 28  1 44  0.0000000  0  8G23G 1G11G 3G20G19G14G25
  -2297465.54743  -1741114.67442  23700249.6364   23700252.5694   23700248.9124
      3462.6884       2698.2064         42.0004         37.0004
 -19992296.34743 -15524410.04042  20437502.9314   20437506.9544   20437502.6474
      -622.8974       -485.3764         51.0004         47.0004
 -20415524.43543 -15871670.46542  20961645.6974   20961648.4564   20961645.5384
      1728.1334       1346.5814         50.0004         45.0004
  -5560608.95443  -4296206.87242  23964331.6264   23964338.2604   23964331.4334
     -3534.8464      -2754.4454         40.0004         35.0004
  -8941208.46743  -6920633.87742  22263037.0194   22263040.5834   22263036.4754
      1407.1124       1096.4464         46.0004         42.0004
 -13088794.56543 -10152978.55142  22061321.3084   22061323.7744   22061320.5144
     -2832.9244      -2207.4694         48.0004         43.0004
  -2888716.11843  -2206603.40842  23332847.6714   23332851.7594   23332847.5014
     -3131.2174      -2439.9084         43.0004         38.0004
  -3972622.83343  -3059926.11242  23084154.7744   23084160.3094   23084154.7274
      2197.6614       1712.4624         44.0004         39.0004
 04 12 28  1 44 30.0000000  0  8G23G 1G11G 3G20G19G14G25
  -2401236.68843  -1821975.26042  23680502.6674   23680505.7334   23680502.0554
      3456.0174       2692.9934         42.0004         37.0004
 -19973315.66243 -15509619.89842  20441114.7954   20441118.8974   20441114.5354
      -641.8874       -500.1724         51.0004         47.0004
 -20467201.42343 -15911938.25842  20951811.8474   20951814.6514   20951811.7504
      1717.5534       1338.3664         50.0004         46.0004
  -5454534.87743  -4213551.84142  23984516.6354   23984523.7074   23984516.7854
     -3535.9414      -2755.2824         40.0004         35.0004
  -8983335.90243  -6953460.45242  22255020.4854   22255023.9674   22255019.8954
      1402.0044       1092.4714         46.0004         42.0004
 -13003637.97243 -10086622.81042  22077526.1634   22077528.5604   22077525.3664
     -2843.6974      -2215.8674         47.0004         43.0004
  -2794663.65043  -2133315.83242  23350745.3864   23350749.4544   23350745.1914
     -3138.5504      -2445.6154         43.0004         38.0004
  -4038383.25843  -3111167.93842  23071640.9644   23071646.3484   23071640.8444
      2187.1434       1704.2664         44.0004         39.0004
                            4  1
RINEX FILE SPLICE; other post-header comments skipped       COMMENT
 04 12 28  1 45  0.0000000  0  8G23G 1G11G 3G20G19G14G25
  -2504803.60943  -1902676.73042  23660794.3574   23660797.3934   23660793.8074
      3448.7274       2687.3294         41.0004         37.0004
 -19953752.79743 -15494376.11742  20444837.4854   20444841.5964   20444837.2074
      -661.7314       -515.6454         51.0004         47.0004
 -20518551.12143 -15951951.02342  20942040.3034   20942043.1484   20942040.2344
      1706.2364       1329.5454         50.0004         46.0004
  -5348427.73243  -4130871.09442  24004708.1784   24004715.1384   24004708.3434
     -3537.4824      -2756.4874         40.0004         35.0004
  -9025299.11643  -6986159.06442  22247035.1934   22247038.5614   22247034.6234
      1396.1154       1087.8884         46.0004         42.0004
 -12918144.62143 -10020004.66842  22093794.9654   22093797.4764   22093794.1964
     -2855.3184      -2224.9174         47.0004         43.0004
  -2700372.59843  -2059842.33342  23368688.5284   23368692.4834   23368688.4044
     -3147.0624      -2452.2494         42.0004         38.0004
  -4103816.34443  -3162154.72642  23059189.4874   23059194.8634   23059189.3474
      2175.6614       1695.3214         44.0004         39.0004
 04 12 28  1 45 30.0000000  0  8G23G 1G11G 3G20G19G14G25
  -2608164.34443  -1983217.50342  23641125.5404   23641128.4604   23641124.8834
      3441.8174       2681.9354         41.0004         37.0004
 -19933609.22843 -15478679.83542  20448670.7254   20448674.7674   20448670.4294
      -681.1184       -530.7504         51.0004         47.0004
 -20569571.82143 -15991707.42042  20932331.4534   20932334.2474   20932331.3434
      1695.1724       1320.9194         50.0004         46.0004
  -5242290.31343  -4048166.70742  24024905.8754   24024912.1464   24024905.5794
     -3538.5664      -2757.3284         40.0004         35.0004
  -9067098.50543  -7018730.00942  22239081.0924   22239084.4284   22239080.5544
      1390.5864       1083.5624         46.0004         42.0004
 -12832317.71743  -9953126.61842  22110127.4104   22110129.8554   22110126.5784
     -2866.4094      -2233.5774         47.0004         43.0004
  -2605845.92843  -1986185.24542  23386676.3644   23386680.3914   23386676.1274
     -3154.9464      -2458.4044         42.0004         37.0004
  -4168919.39443  -3212884.34642  23046800.7434   23046806.1294   23046800.5074
      2164.5004       1686.6174         44.0004         39.0004
 04 12 28  1 46  0.0000000  0  8G23G 1G11G 3G20G19G14G25
  -2711317.55243  -2063596.62442  23621495.9224   23621498.8574   23621495.5204
      3433.9584       2675.8084         42.0004         37.0004
 -19912887.38143 -15462532.94942  20452613.9674   20452618.0214   20452613.6844
      -701.1954       -546.3884         51.0004         47.0004
 -20620262.44543 -16031206.62342  20922685.3744   20922688.1274   20922685.2484
      1683.3364       1311.6954         50.0004         46.0004
  -5136125.99343  -3965441.34542  24045108.3634   24045114.7104   24045108.2264
     -3540.4674      -2758.8074         40.0004         35.0004
  -9108735.63843  -7051174.52242  22231157.7624   22231161.0964   22231157.2024
      1384.3964       1078.7424         46.0004         42.0004
 -12746160.86943  -9885991.46742  22126522.5224   22126524.9784   22126521.6784
     -2878.1674      -2242.7194         47.0004         43.0004
  -2511087.50343  -1912347.58042  23404708.3794   23404712.2514   23404707.9634
     -3163.1874      -2464.8174         42.0004         38.0004
  -4233690.19143  -3263355.05842  23034475.2314   23034480.5884   23034475.0554
      2152.6674       1677.4064         44.0004         39.0004
 04 12 28  1 46 30.0000000  0  8G23G 1G11G 3G20G19G14G25
  -2814260.08243  -2143811.51642  23601906.5314   23601909.4634   23601906.1504
      3428.0054       2671.1714         42.0004         37.0004
 -19891587.29243 -15445935.48142  20456667.2394   20456671.3064   20456666.9444
      -719.6114       -560.7254         51.0004         47.0004
 -20670619.70743 -16070446.05142  20913102.7764   20913105.4524   20913102.6124
      1672.8724       1303.5274         50.0004         46.0004
  -5029936.56043  -3882696.44042  24065315.8814   24065321.8234   24065315.5584
     -3539.9504      -2758.3944         40.0004         35.0004
  -9150209.65643  -7083491.93542  22223265.4354   22223268.8774   22223264.8994
      1379.6174       1075.0354         46.0004         42.0004
 -12659675.89543  -9818600.63542  22142980.1794   22142982.6034   22142979.3124
     -2888.4464      -2250.7434         47.0004         43.0004
  -2416098.52743  -1838330.26542  23422784.2214   23422788.0584   23422783.7724
     -3170.1604      -2470.2454         42.0004         38.0004
  -4298124.50143  -3313563.54142  23022213.7674   23022218.9474   23022213.5924
      2142.1734       1669.2314         44.0004         39.0004
 04 12 28  1 47  0.0000000  0  8G23G 1G11G 3G20G19G14G25
  -2916990.80343  -2223861.37142  23582357.5514   23582360.5324   23582357.0634
      3421.0264       2665.7384         42.0004         37.0004
 -19869711.39443 -15428889.33042  20460830.0684   20460834.1464   20460829.7754
      -738.6004       -575.5264         51.0004         47.0004
 -20720642.54843 -16109424.90042  20903583.7604   20903586.4404   20903583.6264
      1661.9594       1295.0294         50.0004         46.0004
  -4923725.86743  -3799934.92942  24085527.0424   24085533.2224   24085526.6624
     -3540.6744      -2758.9704         40.0004         35.0004
  -9191522.19143  -7115683.51542  22215403.9914   22215407.3664   22215403.4044
      1374.4524       1071.0024         46.0004         42.0004
 -12572866.60943  -9750957.08942  22159499.4574   22159501.8874   22159498.6314
     -2899.0734      -2259.0114         47.0004         43.0004
  -2320882.82243  -1764136.26742  23440903.1534   23440907.1224   23440902.7974
     -3177.4864      -2475.9604         42.0004         37.0004
  -4362220.44443  -3363508.38242  23010016.6914   23010021.8284   23010016.5704
      2131.0794       1660.5784         44.0004         39.0004
 04 12 28  1 47 30.0000000  0  8G23G 1G11G 3G20G19G14G25
  -3019507.16943  -2303744.21742  23562849.5224   23562852.3704   23562849.0004
      3413.7534       2660.0634         42.0004         37.0004
 -19847260.65043 -15411395.25542  20465102.3184   20465106.3384   20465102.0434
      -757.8944       -590.5764         51.0004         47.0004
 -20770328.58043 -16148141.29142  20894128.8384   20894131.5054   20894128.7094
      1650.5794       1286.1554         50.0004         46.0004
  -4817496.40543  -3717158.82942  24105741.8374   24105748.4104   24105741.7014
     -3541.3154      -2759.4684         40.0004         36.0004
  -9232673.37843  -7147749.37242  22207573.2174   22207576.5384   22207572.6194
      1369.0444       1066.7834         46.0004         42.0004
 -12485735.36343  -9683062.66442  22176079.9974   22176082.4854   22176079.2174
     -2909.8904      -2267.4454         47.0004         43.0004
  -2225442.97043  -1689767.62442  23459064.8004   23459068.7924   23459064.4024
     -3185.0504      -2481.8614         42.0004         37.0004
  -4425974.47943  -3413186.81042  22997884.6994   22997889.8454   22997884.7254
      2119.5544       1651.6014         44.0004         39.0004
 04 12 28  1 48  0.0000000  0  8G23G 1G11G 3G20G19G14G25
  -3121806.39643  -2383457.86342  23543382.6584   23543385.3784   23543382.0884
      3406.1064       2654.1044         42.0004         37.0004
 -19824235.72943 -15393453.76142  20469483.8104   20469487.8584   20469483.5224
      -777.2354       -605.6334         51.0004         47.0004
 -20819674.99743 -16186593.05542  20884738.5434   20884741.1824   20884738.4104
      1639.1204       1277.2504         50.0004         46.0004
  -4711250.33043  -3634369.79842  24125960.2404   24125966.5774   24125959.7124
     -3541.6904      -2759.7524         40.0004         35.0004
  -9273662.90643  -7179689.26642  22199773.1114   22199776.4154   22199772.5424
      1363.4804       1062.4654         46.0004         42.0004
 -12398284.51443  -9614919.20342  22192721.4244   22192723.9084   22192720.6464
     -2920.7004      -2275.8664         47.0004         43.0004
  -2129780.65443  -1615225.61242  23477268.6154   23477272.7384   23477268.3564
     -3192.8334      -2487.9194         42.0004         37.0004
  -4489383.14643  -3462596.08942  22985818.4184   22985823.4554   22985818.4984
      2107.7334       1642.3954         44.0004         40.0004
 04 12 28  1 48 30.0000000  0  8G23G 1G11G 3G20G19G14G25
  -3223886.65643  -2463000.87242  23523957.3294   23523960.1844   23523956.8404
      3399.4734       2648.9384         42.0004         37.0004
 -19800638.47443 -15375066.29442  20473974.2244   20473978.2774   20473973.9504
      -795.5424       -619.9094         51.0004         47.0004
 -20868680.16943 -16224778.90742  20875413.2384   20875415.8084   20875413.0804
      1628.2714       1268.7824         50.0004         46.0004
  -4604990.51543  -3551570.04742  24146180.6804   24146187.2004   24146180.2204
     -3541.9174      -2759.9244         40.0004         35.0004
  -9314491.50743  -7211503.75142  22192003.6714   22192007.0004   22192003.1414
      1358.7174       1058.7424         47.0004         42.0004
 -12310517.28343  -9546529.21242  22209423.0184   22209425.4714   22209422.2324
     -2930.2894      -2283.3444         47.0004         43.0004
  -2033899.32743  -1540512.95442  23495514.2034   23495518.2524   23495514.1234
     -3199.0964      -2492.7964         42.0004         37.0004
  -4552443.66743  -3511734.11042  22973818.4344   22973823.4594   22973818.4034
      2096.5414       1633.6754         44.0004         40.0004
 04 12 28  1 49  0.0000000  0  8G23G 1G11G 3G20G19G14G25
  -3325746.64543  -2542372.28342  23504573.9384   23504576.7654   23504573.5344
      3391.8204       2642.9774         42.0004         37.0004
 -19776471.06043 -15356234.55042  20478573.0914   20478577.1434   20478572.8344
      -815.0264       -635.0824         51.0004         46.0004
 -20917342.76243 -16262697.81842  20866153.0844   20866155.6204   20866152.8964
      1616.4954       1259.6284         50.0004         46.0004
  -4498720.50643  -3468762.37942  24166403.2554   24166409.7724   24166402.5514
     -3542.3224      -2760.2514         40.0004         35.0004
  -9355160.44143  -7243193.83042  22184264.6044   22184267.9684   22184264.1014
      1353.1054       1054.3734         47.0004         42.0004
 -12222437.09543  -9477895.35442  22226184.1904   22226186.6244   22226183.3774
     -2941.1144      -2291.7754         47.0004         43.0004
  -1937802.38943  -1465632.27042  23513800.9034   23513805.0784   23513800.8514
     -3206.4784      -2498.5484         42.0004         37.0004
  -4615153.72543  -3560599.04342  22961884.9964   22961890.0884   22961885.0144
      2084.5664       1624.3384         44.0004         39.0004
 04 12 28  1 49 30.0000000  0  8G23G 1G11G 3G20G19G14G25
  -3427384.14943  -2621570.25642  23485233.0324   23485235.8014   23485232.6244
      3384.5244       2637.2904         42.0004         38.0004
 -19751734.74543 -15336959.50442  20483280.2554   20483284.3054   20483280.0064
      -833.6724       -649.6214         51.0004         47.0004
 -20965660.53043 -16300348.02442  20856958.5244   20856961.0234   20856958.3444
      1605.1614       1250.7794         50.0004         46.0004
  -4392442.76743  -3385948.66242  24186627.1184   24186633.7974   24186626.6214
     -3542.5644      -2760.4294         39.0004         35.0004
  -9395670.04943  -7274759.76242  22176555.8974   22176559.2984   22176555.3964
      1348.0574       1050.4424         47.0004         42.0004
 -12134047.04843  -9409020.04842  22243004.2044   22243006.7414   22243003.4764
     -2951.0754      -2299.5364         47.0004         43.0004
  -1841492.10343  -1390585.37342  23532128.1414   23532132.3724   23532128.0454
     -3213.4834      -2504.0094         42.0004         37.0004
  -4677509.98943  -3609188.29442  22950019.0634   22950024.0824   22950019.0514
      2072.9074       1615.2534         44.0004         40.0004
 04 12 28  1 50  0.0000000  0  8G23G 1G11G 3G20G19G14G25
  -3528796.44443  -2700592.79042  23465934.9714   23465937.5184   23465934.4324
      3377.5254       2631.8444         42.0004         37.0004
 -19726430.56843 -15317241.97342  20488095.4894   20488099.5734   20488095.2194
      -851.9064       -663.8094         51.0004         47.0004
 -21013631.10043 -16337727.69142  20847830.0184   20847832.5334   20847829.8464
      1594.1534       1242.2094         50.0004         46.0004
  -4286159.38243  -3303130.54842  24206852.1774   24206858.7924   24206851.7994
     -3541.5564      -2759.6554         39.0004         35.0004
  -9436020.21243  -7306201.45542  22168877.4974   22168880.8884   22168877.0044
      1343.3784       1046.7934         47.0004         42.0004
 -12045349.30543  -9339904.99242  22259882.8684   22259885.3744   22259882.0944
     -2960.5734      -2306.9314         47.0004         42.0004
  -1744970.58443  -1315373.86242  23550495.5924   23550499.9724   23550495.4634
     -3220.1454      -2509.2074         42.0004         37.0004
  -4739509.04843  -3657499.21142  22938221.0144   22938226.0394   22938221.0404
      2061.6044       1606.4434         44.0004         40.0004
 04 12 28  1 50 30.0000000  0  8G23G 1G11G 3G20G19G14G25
  -3629981.43543  -2779438.21142  23446679.8994   23446682.4034   23446679.4914
      3368.8894       2625.1194         42.0004         37.0004
 -19700559.98343 -15297083.08642  20493018.5184   20493022.5664   20493018.2264
      -872.3234       -679.7264         51.0004         46.0004
 -21061252.34543 -16374835.16242  20838767.9944   20838770.5314   20838767.8274
      1581.0374       1231.9834         50.0004         46.0004
  -4179872.95443  -3220310.04142  24227077.8074   24227084.4464   24227077.2084
     -3543.5724      -2761.2404         39.0004         34.0004
  -9476211.36543  -7337519.22542  22161229.4484   22161232.7614   22161228.9314
      1336.5534       1041.4704         47.0004         42.0004
 -11956346.75043  -9270552.40042  22276819.5684   22276822.0704   22276818.8134
     -2972.2464      -2316.0324         47.0004         42.0004
  -1648240.71343  -1240000.01542  23568902.7524   23568907.2194   23568902.5964
     -3228.5344      -2515.7324         42.0004         37.0004
  -4801147.99943  -3705529.50342  22926491.5294   22926496.4904   22926491.5294
      2048.1884       1595.9994         44.0004         40.0004
 04 12 28  1 51  0.0000000  0  8G23G 1G11G 3G20G19G14G25
  -3730936.98643  -2858104.82842  23427468.6894   23427471.1464   23427468.0714
      3361.6624       2619.4744         42.0004         37.0004
 -19674124.37143 -15276483.91842  20498049.0044   20498053.0844   20498048.7254
      -890.3134       -693.7574         51.0004         46.0004
 -21108522.35643 -16411668.94142  20829772.8474   20829775.3484   20829772.6854
      1570.1864       1223.5164         50.0004         46.0004
  -4073586.19343  -3137489.30542  24247303.3984   24247310.2484   24247302.8094
     -3542.6594      -2760.5094         39.0004         35.0004
  -9516243.98043  -7368713.47442  22153611.5494   22153614.8064   22153611.0344
      1332.2404       1038.1114         47.0004         42.0004
 -11867042.29743  -9200964.58042  22293813.5464   22293816.2824   22293812.8524
     -2981.5144      -2323.2574         47.0004         42.0004
  -1551305.21843  -1164465.90942  23587349.2114   23587353.4474   23587348.8524
     -3234.2484      -2520.1864         42.0004         37.0004
  -4862423.97743  -3753276.95742  22914831.0324   22914836.0674   22914831.0054
      2036.8814       1587.1844         44.0004         40.0004
 04 12 28  1 51 30.0000000  0  8G23G 1G11G 3G20G19G14G25
  -3831661.21843  -2936591.18042  23408301.6064   23408304.0034   23408300.8824
      3353.2164       2612.8974         42.0004         38.0004
 -19647125.56743 -15255445.89942  20503186.6844   20503190.8184   20503186.4054
      -909.4994       -708.6964         51.0004         46.0004
 -21155439.07043 -16448227.43042  20820844.9174   20820847.4044   20820844.7384
      1557.8394       1213.8974         50.0004         46.0004
  -3967302.34643  -3054670.84642  24267528.6134   24267535.4174   24267528.3074
     -3542.9254      -2760.7034         39.0004         34.0004
  -9556118.83843  -7399784.78542  22146023.6304   22146026.8174   22146023.0934
      1326.5214       1033.6504         47.0004         42.0004
 -11777438.98843  -9131143.90342  22310864.5904   22310867.3144   22310863.8364
     -2992.0434      -2331.4634         47.0004         42.0004
  -1454166.76243  -1088773.67642  23605834.2224   23605838.2784   23605833.7744
     -3241.6644      -2525.9684         41.0004         37.0004
  -4923334.22643  -3800739.45942  22903240.1354   22903245.2104   22903240.1554
      2024.0514       1577.1784         45.0004         40.0004
 04 12 28  1 52  0.0000000  0  8G23G 1G11G 3G20G19G14G25
  -3932152.09143  -3014895.70642  23389178.8824   23389181.2524   23389178.0644
      3345.7354       2607.0704         42.0004         38.0004
 -19619565.27143 -15233970.35342  20508431.2394   20508435.3484   20508430.9274
      -928.0714       -723.1784         51.0004         46.0004
 -21202000.44843 -16484509.02542  20811984.6324   20811987.0994   20811984.3854
      1546.1114       1204.7584         50.0004         46.0004
  -3861023.99543  -2971856.66042  24287752.9154   24287759.7574   24287752.6064
     -3542.2594      -2760.1814         39.0004         34.0004
  -9595836.05843  -7430733.25942  22138465.6614   22138468.8724   22138465.1604
      1321.2914       1029.5724         47.0004         42.0004
 -11687539.86343  -9061092.69742  22327971.8944   22327974.5924   22327971.1774
     -3001.4824      -2338.8154         47.0004         42.0004
  -1356828.11143  -1012925.43142  23624357.1154   23624361.2814   23624356.7904
     -3248.1524      -2531.0254         41.0004         36.0004
  -4983875.47843  -3847914.42042  22891719.5124   22891724.5734   22891719.5454
      2011.5144       1567.4104         44.0004         40.0004
 04 12 28  1 52 30.0000000  0  8G23G 1G11G 3G20G19G14G25
  -4032407.36543  -3093016.65842  23370101.0314   23370103.3614   23370100.2274
      3337.3354       2600.5204         42.0004         38.0004
 -19591444.90643 -15212058.39142  20513782.3934   20513786.5124   20513782.0924
      -947.3374       -738.1874         51.0004         46.0004
 -21248204.50043 -16520512.19442  20803192.2544   20803194.7494   20803192.0614
      1533.4864       1194.9254         50.0004         46.0004
  -3754753.42543  -2889048.54242  24307975.5724   24307982.4204   24307975.2134
     -3542.4604      -2760.3504         39.0004         34.0004
  -9635396.09543  -7461559.26142  22130937.6324   22130940.8574   22130937.0974
      1315.4714       1025.0314         47.0004         42.0004
 -11597347.49143  -8990812.99642  22345134.9664   22345137.6834   22345134.2344
     -3011.7154      -2346.7924         47.0004         42.0004
  -1259291.93043   -936923.28642  23642917.7144   23642921.8274   23642917.2854
     -3254.9834      -2536.3544         41.0004         37.0004
  -5044044.81743  -3894799.58842  22880269.5414   22880274.6814   22880269.5794
      1999.0504       1557.7014         44.0004         40.0004
 04 12 28  1 53  0.0000000  0  8G23G 1G11G 3G20G19G14G25
  -4132426.05643  -3170953.26242  23351068.1934   23351070.4064   23351067.4344
      3329.9994       2594.8074         43.0004         38.0004
 -19562767.00443 -15189711.98442  20519239.6464   20519243.7644   20519239.3444
      -964.9394       -751.9054         51.0004         46.0004
 -21294049.94043 -16556235.91842  20794468.1194   20794470.6624   20794467.9714
      1522.4144       1186.2964         50.0004         46.0004
  -3648494.39643  -2806249.40942  24328195.9534   24328203.0634   24328195.3944
     -3542.1914      -2760.1504         39.0004         34.0004
  -9674800.52043  -7492264.00242  22123439.2044   22123442.4194   22123438.6534
      1310.9924       1021.5464         47.0004         42.0004
 -11506866.03543  -8920308.03942  22362352.9594   22362355.7904   22362352.2844
     -3020.3014      -2353.4864         47.0004         42.0004
  -1161561.81543   -860770.00942  23661515.1484   23661519.2984   23661514.8874
     -3260.5574      -2540.6984         41.0004         37.0004
  -5103840.22243  -3941393.37742  22868890.8624   22868895.8894   22868890.8284
      1986.8424       1548.1814         44.0004         40.0004
 04 12 28  1 53 30.0000000  0  8G23G 1G11G 3G20G19G14G25
  -4232205.56943  -3248703.49242  23332080.7344   23332082.9684   23332080.1064
      3321.7074       2588.3384         43.0004         38.0004
 -19533532.63643 -15166931.97842  20524802.6994   20524806.8984   20524802.4434
      -983.4934       -766.3514         51.0004         46.0004
 -21339534.69043 -16591678.58742  20785812.6834   20785815.2104   20785812.5064
      1510.3634       1176.9174         51.0004         46.0004
  -3542249.04143  -2723460.96442  24348413.8574   24348420.9414   24348413.3824
     -3541.3144      -2759.4624         39.0004         34.0004
  -9714049.00943  -7522847.24542  22115970.4414   22115973.7344   22115969.8964
      1305.8624       1017.5474         47.0004         42.0004
 -11416097.81743  -8849579.63942  22379625.6044   22379628.5024   22379624.9144
     -3029.8764      -2360.9394         47.0004         42.0004
  -1063639.79543   -784467.21242  23680149.0224   23680153.3184   23680148.8044
     -3267.0364      -2545.7314         41.0004         36.0004
  -5163258.11943  -3987692.99842  22857583.9524   22857589.0204   22857583.8794
      1974.2424       1538.3704         44.0004         40.0004
 04 12 28  1 54  0.0000000  0  8G23G 1G11G 3G20G19G14G25
  -4331742.85543  -3326264.95742  23313139.2664   23313141.5894   23313138.7374
      3312.9854       2581.5444         43.0004         38.0004
 -19503742.60043 -15143718.97242  20530471.5494   20530475.7644   20530471.3204
     -1003.1074       -781.6554         51.0004         46.0004
 -21384655.43543 -16626837.61442  20777226.4864   20777229.0094   20777226.2834
      1497.1044       1166.5574         51.0004         46.0004
  -3436019.32843  -2640684.70042  24368628.9374   24368635.8304   24368628.0404
     -3541.4024      -2759.5424         38.0004         33.0004
  -9753141.02743  -7553308.55642  22108531.4264   22108534.6884   22108530.9104
      1299.8454       1012.8524         47.0004         42.0004
 -11325044.76643  -8778629.28142  22396952.4724   22396955.3884   22396951.8054
     -3040.3894      -2369.1274         47.0004         42.0004
   -965527.73443   -708016.32742  23698819.1524   23698823.4884   23698818.9504
     -3274.4514      -2551.5294         41.0004         36.0004
  -5222294.82143  -4033695.59942  22846349.6094   22846354.6834   22846349.5594
      1960.6594       1527.7844         45.0004         40.0004
 04 12 28  1 54 30.0000000  0  8G23G 1G11G 3G20G19G14G25
  -4431036.51243  -3403636.60642  23294244.3254   23294246.5714   23294243.8054
      3306.1784       2576.2454         43.0004         38.0004
 -19473399.21643 -15120074.78542  20536245.7584   20536249.9014   20536245.5004
     -1020.1134       -794.8834         51.0004         46.0004
 -21429410.56743 -16661711.74942  20768709.8464   20768712.3884   20768709.6664
      1486.2614       1158.1364         51.0004         46.0004
  -3329808.20743  -2557922.91642  24388840.2104   24388847.3534   24388839.7554
     -3539.0224      -2757.6564         38.0004         33.0004
  -9792077.89843  -7583648.97042  22101121.9914   22101125.1774   22101121.4364
      1295.8484       1009.7524         47.0004         42.0004
 -11233710.55043  -8707459.84442  22414332.8144   22414335.8184   22414332.1444
     -3048.3114      -2375.3114         47.0004         42.0004
   -867228.71243   -631419.75942  23717524.8994   23717529.1154   23717524.6974
     -3278.9954      -2555.0584         41.0004         36.0004
  -5280948.16343  -4079399.48142  22835188.3054   22835193.3404   22835188.2234
      1949.1604       1518.8214         45.0004         40.0004
 04 12 28  1 55  0.0000000  0  8G23G 1G11G 3G20G19G14G25
  -4530085.15143  -3480817.32142  23275395.8884   23275398.2924   23275395.4414
      3297.5824       2569.5464         43.0004         38.0004
 -19442504.78443 -15096001.21242  20542124.8074   20542128.9204   20542124.5084
     -1038.8924       -809.5014         51.0004         46.0004
 -21473799.18443 -16696300.28542  20760262.9994   20760265.5384   20760262.8004
      1473.4614       1148.1534         51.0004         46.0004
  -3223618.93343  -2475178.18942  24409047.5024   24409054.5864   24409046.8524
     -3539.2084      -2757.8524         38.0004         33.0004
  -9830860.51643  -7613869.19642  22093741.8614   22093745.0694   22093741.3294
      1290.1604       1005.3194         47.0004         42.0004
 -11142098.59343  -8636073.97842  22431766.0004   22431769.0784   22431765.3734
     -3058.5234      -2383.2684         47.0004         42.0004
   -768746.04343   -554680.07842  23736265.6164   23736269.6804   23736265.5624
     -3285.9234      -2560.4454         40.0004         36.0004
  -5339215.66643  -4124802.70642  22824100.3254   22824105.3944   22824100.2564
      1935.8074       1508.4294         45.0004         40.0004
 04 12 28  1 55 30.0000000  0  8G23G 1G11G 3G20G19G14G25
  -4628886.31543  -3557805.18642  23256594.7534   23256596.9584   23256594.2274
      3288.8674       2562.7584         43.0004         39.0004
 -19411060.51643 -15071499.20142  20548108.4654   20548112.5834   20548108.1644
     -1057.2604       -823.8524         51.0004         46.0004
 -21517818.88643 -16730601.35042  20751886.2964   20751888.8884   20751886.1284
      1461.3404       1138.7024         51.0004         46.0004
  -3117454.16743  -2392452.50942  24429249.8944   24429257.2994   24429249.4244
     -3538.6794      -2757.4094         39.0004         34.0004
  -9869488.96443  -7643969.28142  22086390.9864   22086394.2684   22086390.5284
      1285.2154       1001.4664         47.0004         42.0004
 -11050211.31543  -8564473.56242  22449251.6834   22449254.7104   22449251.0024
     -3067.2544      -2390.0684         47.0004         42.0004
   -670082.03243   -477799.12942  23755041.0164   23755044.7904   23755040.8064
     -3291.7824      -2565.0144         40.0004         36.0004
  -5397094.04943  -4169902.72142  22813086.4174   22813091.4894   22813086.3044
      1922.8424       1498.3144         44.0004         40.0004
 04 12 28  1 56  0.0000000  0  8G23G 1G11G 3G20G19G14G25
  -4727437.51043  -3634598.28442  23237841.1554   23237843.2934   23237840.6974
      3280.0304       2555.8604         43.0004         39.0004
 -19379067.77043 -15046569.79942  20554196.5084   20554200.6324   20554196.2204
     -1076.4924       -838.8374         51.0004         46.0004
 -21561467.14143 -16764612.98242  20743580.2994   20743582.9274   20743580.1324
      1447.6964       1128.0654         51.0004         46.0004
  -3011315.81543  -2309747.44542  24449447.6944   24449454.8274   24449447.2724
     -3538.9054      -2757.5984         39.0004         34.0004
  -9907963.22143  -7673949.22742  22079069.5884   22079072.8044   22079069.0954
      1278.8164        996.4664         47.0004         42.0004
 -10958051.65643  -8492660.92142  22466789.1634   22466792.2304   22466788.4304
     -3077.4404      -2398.0054         46.0004         42.0004
   -571238.76443   -400778.48942  23773850.4144   23773853.9854   23773850.2034
     -3298.6424      -2570.3714         41.0004         36.0004
  -5454580.08943  -4214697.02542  22802147.1814   22802152.3024   22802147.0874
      1908.9744       1487.5104         44.0004         40.0004
 04 12 28  1 56 30.0000000  0  8G23G 1G11G 3G20G19G14G25
  -4825737.28343  -3711195.45842  23219135.3074   23219137.4644   23219134.9384
      3272.0454       2549.6414         43.0004         39.0004
 -19346528.88743 -15021214.84242  20560388.4254   20560392.5874   20560388.1624
     -1094.1844       -852.6264         51.0004         46.0004
 -21604742.36043 -16798333.93542  20735345.3294   20735347.9364   20735345.1514
      1435.9114       1118.8934         51.0004         46.0004
  -2905207.09843  -2227065.51542  24469639.4054   24469647.0644   24469639.0884
     -3537.9394      -2756.8364         39.0004         34.0004
  -9946284.46143  -7703809.94142  22071777.3804   22071780.6004   22071776.8164
      1274.4044        993.0404         47.0004         42.0004
 -10865623.01143  -8420638.67342  22484377.8264   22484380.8514   22484377.1004
     -3085.6484      -2404.3994         46.0004         42.0004
   -472219.71743   -323620.84842  23792693.1694   23792696.7724   23792692.9604
     -3303.7804      -2574.3754         41.0004         36.0004
  -5511671.53543  -4259183.86042  22791282.9214   22791288.1474   22791282.8704
      1896.0594       1477.4494         44.0004         40.0004
 04 12 28  1 57  0.0000000  0  8G23G 1G11G 3G20G19G14G25
  -4923783.82243  -3787595.31342  23200477.6044   23200479.8094   23200477.2854
      3264.3904       2543.6774         44.0004         39.0004
 -19313445.75243 -14995435.78142  20566683.9794   20566688.0914   20566683.7014
     -1111.4774       -866.0974         51.0004         46.0004
 -21647642.85143 -16831762.89342  20727181.6434   20727184.2304   20727181.4884
      1424.1204       1109.7034         51.0004         46.0004
  -2799130.60543  -2144408.61842  24489825.1334   24489832.8254   24489824.9604
     -3534.9054      -2754.4614         38.0004         34.0004
  -9984453.02843  -7733551.68342  22064514.2064   22064517.3934   22064513.6124
      1270.0564        989.6604         47.0004         42.0004
 -10772928.39843  -8348409.17242  22502017.0324   22502020.0824   22502016.3054
     -3093.7984      -2410.7504         46.0004         42.0004
   -373027.42443   -246328.23842  23811568.8794   23811572.7404   23811568.5684
     -3308.9944      -2578.4274         41.0004         36.0004
  -5568365.68843  -4303361.11742  22780494.4614   22780499.5634   22780494.4224
      1883.6014       1467.7364         45.0004         40.0004
 04 12 28  1 57 30.0000000  0  8G23G 1G11G 3G20G19G14G25
  -5021573.63643  -3863795.12342  23181868.7944   23181871.1114   23181868.4654
      3254.7874       2536.1954         44.0004         39.0004
 -19279818.72243 -14969232.91342  20573083.0274   20573087.1124   20573082.7204
     -1130.3844       -880.8254         51.0004         46.0004
 -21690165.29143 -16864897.26942  20719089.9154   20719092.4834   20719089.7394
      1410.7804       1099.3004         51.0004         46.0004
  -2693087.68543  -2061777.87242  24510004.5124   24510012.0974   24510004.1994
     -3534.5644      -2754.1954         38.0004         34.0004
 -10022468.04043  -7763173.77742  22057280.1664   22057283.4194   22057279.5974
      1264.1134        985.0264         47.0004         42.0004
 -10679969.51543  -8275973.76242  22519706.6114   22519709.5754   22519705.9044
     -3103.2874      -2418.1454         46.0004         42.0004
   -273663.14643   -168901.59542  23830477.1914   23830481.1704   23830476.9564
     -3315.5724      -2583.5524         41.0004         36.0004
  -5624658.33343  -4347225.50142  22769782.2994   22769787.3644   22769782.2194
      1869.0754       1456.4174         45.0004         40.0004
 04 12 28  1 58  0.0000000  0  8G23G 1G11G 3G20G19G14G25
  -5119106.55943  -3939794.76542  23163308.9124   23163311.2744   23163308.5474
      3246.7634       2529.9514         44.0004         39.0004
 -19245651.40643 -14942609.04242  20579584.8364   20579588.9694   20579584.5524
     -1148.1704       -894.6894         51.0004         46.0004
 -21732309.73843 -16897737.10442  20711070.0674   20711072.6684   20711069.9134
      1398.2364       1089.5384         51.0004         46.0004
  -2587082.67343  -1979176.68942  24530176.7084   24530184.1614   24530176.3534
     -3533.8214      -2753.6104         39.0004         34.0004
 -10060331.37043  -7792677.66542  22050074.9774   22050078.2714   22050074.4244
      1259.3994        981.3494         47.0004         42.0004
 -10586750.89443  -8203335.94342  22537445.6114   22537448.5574   22537444.8904
     -3111.9644      -2424.9064         46.0004         42.0004
   -174131.31243    -91344.41342  23849417.5284   23849421.7034   23849417.2814
     -3320.5854      -2587.4724         41.0004         36.0004
  -5680548.25843  -4390776.06742  22759146.7974   22759151.8234   22759146.7364
      1856.1084       1446.3144         45.0004         40.0004
 04 12 28  1 58 30.0000000  0  8G23G 1G11G 3G20G19G14G25
  -5216379.96943  -4015592.18942  23144798.3384   23144800.6764   23144797.9334
      3237.4484       2522.6834         44.0004         39.0004
 -19210944.79343 -14915564.93842  20586189.2914   20586193.4054   20586189.0164
     -1166.5394       -909.0034         51.0004         46.0004
 -21774072.71643 -16930279.69242  20703122.8044   20703125.4064   20703122.6774
      1385.1614       1079.3504         51.0004         46.0004
  -2481117.57043  -1896606.60242  24550341.1154   24550348.5884   24550341.0244
     -3531.8024      -2752.0554         39.0004         34.0004
 -10098043.01843  -7822063.37042  22042898.6714   22042901.9914   22042898.1144
      1253.8844        977.0464         47.0004         42.0004
 -10493274.75543  -8130497.47442  22555233.6774   22555236.4414   22555232.8984
     -3120.6184      -2431.6464         46.0004         41.0004
    -74433.48043    -13657.87642  23868389.5294   23868393.6494   23868389.1354
     -3327.0464      -2592.5054         41.0004         36.0004
  -5736031.98643  -4434010.12542  22748588.5394   22748593.5144   22748588.4924
      1842.2154       1435.4894         45.0004         40.0004
 04 12 28  1 59  0.0000000  0  8G23G 1G11G 3G20G19G14G25
  -5313391.66943  -4091185.67142  23126337.5734   23126339.9714   23126337.1734
      3229.0404       2516.1364         44.0004         40.0004
 -19175700.85643 -14888102.13442  20592896.0144   20592900.1224   20592895.7374
     -1184.1794       -922.7374         51.0004         46.0004
 -21815452.87243 -16962523.97942  20695248.4684   20695251.0434   20695248.3024
      1372.5304       1069.4944         51.0004         46.0004
  -2375195.08043  -1814069.80442  24570497.7124   24570505.0164   24570497.8294
     -3530.7964      -2751.2744         38.0004         34.0004
 -10135603.40343  -7851331.20342  22035751.2074   22035754.5084   22035750.5654
      1248.9914        973.2334         47.0004         42.0004
 -10399544.15043  -8057460.71142  22573070.0484   22573072.9064   22573069.2574
     -3129.1024      -2438.2614         46.0004         42.0004
     25427.51343     64155.80842  23887392.5934   23887396.6824   23887392.0714
     -3331.8914      -2596.2874         41.0004         36.0004
  -5791106.71543  -4476925.48442  22738108.1014   22738113.2044   22738108.0874
      1828.6104       1424.8854         45.0004         40.0004
 04 12 28  1 59 30.0000000  0  8G23G 1G11G 3G20G19G14G25
  -5410140.28343  -4166574.16542  23107926.7904   23107929.3094   23107926.4594
      3220.3774       2509.3804         44.0004         39.0004
 -19139921.80143 -14860222.36342  20599704.5314   20599708.6624   20599704.2434
     -1201.8144       -936.4854         51.0004         46.0004
 -21856448.51543 -16994468.64542  20687447.2304   20687449.8464   20687447.0914
      1359.9494       1059.7044         51.0004         46.0004
  -2269317.74643  -1731568.20542  24590645.4144   24590652.8634   24590645.7604
     -3528.5214      -2749.4894         38.0004         33.0004
 -10173013.29843  -7880481.76742  22028632.2834   22028635.6794   22028631.6824
      1244.3834        969.6514         47.0004         42.0004
 -10305562.25543  -7984228.14342  22590954.2724   22590957.1784   22590953.4074
     -3137.0594      -2444.4604         46.0004         41.0004
    125448.66743    142094.30542  23906426.1194   23906430.0454   23906425.5064
     -3336.6644      -2599.9864         41.0004         36.0004
  -5845769.93243  -4519520.18642  22727706.0444   22727711.1344   22727705.9194
      1814.8864       1414.2024         45.0004         40.0004
                            4  1
RINEX FILE SPLICE; other post-header comments skipped       COMMENT
 04 12 28  2  0  0.0000000  0  8G23G 1G11G 3G20G19G14G25
  -5506623.13243  -4241755.57642  23089566.7684   23089569.0484   23089566.4064
      3212.2094       2503.0224         44.0004         40.0004
 -19103608.79743 -14831926.52542  20606614.6624   20606618.8324   20606614.3874
     -1218.7224       -949.6494         51.0004         46.0004
 -21897057.02443 -17026111.65042  20679719.6524   20679722.3394   20679719.5404
      1347.9404       1050.3574         51.0004         46.0004
  -2163487.68543  -1649103.29142  24610784.5804   24610791.7294   24610784.0144
     -3526.0334      -2747.5294         38.0004         34.0004
 -10210272.42743  -7909514.84642  22021542.1774   22021545.5544   22021541.5324
      1240.1014        966.3264         47.0004         43.0004
 -10211331.87843  -7910801.94942  22608885.8414   22608888.5704   22608884.9274
     -3144.3814      -2450.1594         46.0004         41.0004
    225628.00643    220156.04442  23925489.7744   23925493.6184   23925489.0584
     -3341.5234      -2603.7724         41.0004         36.0004
  -5900018.08443  -4561791.46642  22717382.8094   22717388.0294   22717382.8164
      1802.0214       1404.1694         45.0004         40.0004
 04 12 28  2  0 30.0000000  0  8G23G 1G11G 3G20G19G14G25
  -5602838.76543  -4316728.74342  23071257.5394   23071259.8524   23071257.2984
      3202.6994       2495.6104         44.0004         40.0004
 -19066764.33543 -14803216.56542  20613625.9374   20613630.1004   20613625.6424
     -1237.0374       -963.9344         51.0004         46.0004
 -21937276.93843 -17057451.85342  20672066.0664   20672068.7284   20672065.9484
      1334.0574       1039.5294         51.0004         46.0004
  -2057707.97643  -1566677.70742  24630913.8974   24630920.9894   24630913.8564
     -3524.9974      -2746.7524         38.0004         33.0004
 -10247381.68543  -7938431.15642  22014480.5474   22014483.8654   22014479.9184
      1234.5584        961.9964         47.0004         43.0004
 -10116856.28343  -7837184.67642  22626864.0894   22626866.7524   22626863.1524
     -3153.3084      -2457.1194         46.0004         41.0004
    325962.41043    298338.62942  23944582.7044   23944586.7124   23944582.1114
     -3347.2714      -2608.2534         40.0004         36.0004
  -5953849.10643  -4603737.69942  22707139.1464   22707144.4584   22707139.0484
      1787.2924       1392.6964         45.0004         40.0004
 04 12 28  2  1  0.0000000  0  8G23G 1G11G 3G20G19G14G25
  -5698784.76243  -4391491.82042  23052999.6824   23053001.9544   23052999.4344
      3193.7724       2488.6534         44.0004         40.0004
 -19029389.68243 -14774093.46642  20620738.1194   20620742.2504   20620737.8364
     -1254.4964       -977.5344         51.0004         46.0004
 -21977105.82343 -17088487.35442  20664486.8834   20664489.5494   20664486.7474
      1321.0834       1029.4094         51.0004         46.0004
  -1951980.65443  -1484292.92042  24651033.2084   24651040.5464   24651032.9164
     -3523.3544      -2745.4684         38.0004         33.0004
 -10284340.92643  -7967230.56542  22007447.3954   22007450.7754   22007446.7824
      1229.5804        958.1074         47.0004         43.0004
 -10022137.70043  -7763378.07142  22644888.3124   22644891.2144   22644887.5404
     -3161.1664      -2463.2464         46.0004         41.0004
    426449.95143    376640.53242  23963704.8624   23963709.0674   23963704.4374
     -3351.7544      -2611.7564         41.0004         36.0004
  -6007259.83943  -4645356.42342  22696975.3214   22696980.7024   22696975.2744
      1773.5634       1381.9924         45.0004         40.0004
 04 12 28  2  1 30.0000000  0  8G23G 1G11G 3G20G19G14G25
  -5794460.16643  -4466044.05942  23034793.2304   23034795.5254   23034792.9114
      3184.0134       2481.0514         44.0004         40.0004
 -18991487.78243 -14744559.52842  20627950.6524   20627954.7024   20627950.3194
     -1272.6594       -991.6824         51.0004         46.0004
 -22016542.41143 -17119217.18042  20656982.3094   20656984.9964   20656982.2244
      1307.4644       1018.7944         51.0004         46.0004
                  -1401951.65042  24671142.119    24671148.7424
                     -2744.6114                         33.0004
 -10321151.63243  -7995914.23642  22000442.5744   22000445.9534   22000441.9474
      1223.9654        953.7334         47.0004         43.0004
  -9927180.23143  -7689385.30742  22662958.1854   22662961.1074   22662957.4064
     -3169.7584      -2469.9384         46.0004         41.0004
    527087.10243    455058.99842  23982855.6424   23982859.5784   23982855.2334
     -3357.2844      -2616.0574         41.0004         36.0004
  -6060248.30943  -4686646.12642  22686891.9554   22686897.2774   22686891.9054
      1758.5834       1370.3234         45.0004         40.0004
 04 12 28  2  2  0.0000000  0  8G23G 1G11G 3G20G19G14G25
  -5889862.34343  -4540383.38342  23016638.8764   23016641.0314   23016638.4654
      3176.5424       2475.2314         44.0004         40.0004
 -18953059.90543 -14714615.74342  20635263.2514   20635267.3304   20635262.9364
     -1288.5224      -1004.0354         51.0004         46.0004
 -22055584.79143 -17149639.82642  20649552.7644   20649555.4684   20649552.7014
      1295.8604       1009.7754         51.0004         46.0004
  -1740695.70443  -1319655.53442  24691239.5524   24691247.0984   24691239.8734
     -3518.6904      -2741.8514         38.0004         34.0004
 -10357813.42643  -8024481.86742  21993466.1274   21993469.4414   21993465.4724
      1220.7394        951.2384         47.0004         43.0004
  -9831986.15443  -7615208.17542  22681073.0874   22681075.9914   22681072.3254
     -3175.8884      -2474.7144         46.0004         41.0004
    627871.98043    533592.58442  24002034.4614   24002038.3894   24002034.2174
     -3360.8904      -2618.8774         40.0004         36.0004
  -6112811.14843  -4727604.16742  22676889.4864   22676894.7624   22676889.5414
      1746.1904       1360.6684         45.0004         40.0004
 04 12 28  2  2 30.0000000  0  8G23G 1G11G 3G20G19G14G25
  -5984988.84343  -4614507.90542  22998536.8594   22998538.9464   22998536.4864
      3166.6364       2467.5074         44.0004         40.0004
 -18914107.64943 -14684263.34942  20642675.6024   20642679.7104   20642675.3114
     -1306.9224      -1018.3734         51.0004         46.0004
 -22094230.20343 -17179753.14542  20642198.8264   20642201.5074   20642198.7194
      1281.7014        998.7304         51.0004         46.0004
  -1635141.97143  -1237406.04342  24711325.9014   24711332.4374   24711327.4434
     -3517.2394      -2740.7074         38.0004         33.0004
 -10394326.32043  -8052933.47442  21986517.9294   21986521.2704   21986517.3074
      1214.9624        946.7354         47.0004         43.0004
  -9736558.06043  -7540848.70042  22699232.5604   22699235.5194   22699231.7394
     -3184.5764      -2481.4824         46.0004         41.0004
    728802.60743    612239.74742  24021241.0174   24021244.8554   24021240.7784
     -3366.3864      -2623.1514         40.0004         36.0004
  -6164945.24243  -4768228.10942  22666968.7294   22666973.9484   22666968.7904
      1730.9024       1348.7534         45.0004         40.0004
 04 12 28  2  3  0.0000000  0  8G23G 1G11G 3G20G19G14G25
  -6079838.77543  -4688416.92142  22980487.5014   22980489.6014   22980487.1194
      3156.9664       2459.9774         44.0004         40.0004
 -18874634.10243 -14653504.74842  20650187.1334   20650191.2474   20650186.8624
     -1324.5404      -1032.1144         51.0004         46.0004
 -22132478.13143 -17209556.73742  20634920.4204   20634923.1714   20634920.3304
      1268.2464        988.2544         51.0004         46.0004
  -1529652.08743  -1155206.30242  24731399.9364   24731407.5574   24731400.6714
     -3514.9964      -2738.9744         38.0004         33.0004
 -10430691.73343  -8081270.15842  21979597.7524   21979601.1644   21979597.2164
      1209.6724        942.6064         47.0004         43.0004
  -9640900.03943  -7466310.07342  22717435.7944   22717438.7804   22717434.9154
     -3192.6384      -2487.7654         45.0004         41.0004
    829875.32543    690997.60542  24040474.5294   24040478.2994   24040474.3614
     -3371.5864      -2627.2204         40.0004         35.0004
  -6216648.98343  -4808516.71442  22657129.8134   22657135.0474   22657129.8464
      1716.4014       1337.4574         45.0004         40.0004
 04 12 28  2  3 30.0000000  0  8G23G 1G11G 3G20G19G14G25
  -6174409.27643  -4762108.19142  22962491.3884   22962493.3864   22962490.9384
      3147.3224       2452.4604         44.0004         40.0004
 -18834640.16643 -14622340.65742  20657797.7114   20657801.8574   20657797.4364
     -1342.2424      -1045.9074         51.0004         46.0004
 -22170325.23643 -17239048.00142  20627718.4404   20627721.1114   20627718.3084
      1254.6224        977.6384         51.0004         46.0004
  -1424227.18243  -1073057.21242  24751461.3384   24751469.6034   24751462.1204
     -3513.2664      -2737.5854         38.0004         34.0004
 -10466909.09343  -8109491.48142  21972705.8594   21972709.2124   21972705.3064
      1204.3504        938.4654         47.0004         43.0004
  -9545013.97543  -7391593.73842  22735682.2904   22735685.3584   22735681.4984
     -3200.1024      -2493.5804         45.0004         41.0004
    931088.31943    769864.78542  24059734.7534   24059738.5864   24059734.4994
     -3376.2684      -2630.8634         40.0004         35.0004
  -6267918.72843  -4848467.14042  22647373.4264   22647378.7654   22647373.4244
      1701.2074       1325.6104         45.0004         40.0004
