     2.10           OBSERVATION DATA    G (GPS)             RINEX VERSION / TYPE
teqc  2003Apr29                         20041226 00:22:15UTCPGM / RUN BY / DATE
OBSERVATION MODE: IGS-Net                                   COMMENT
PERT Perth (PERT)                                           MARKER NAME
50133M001                                                   MARKER NUMBER
200313003           ASHTECH UZ-12        CJ00               REC # / TYPE / VERS
CR620023901         ASH701945C_M    NONE                    ANT # / TYPE
        0.0595        0.0000        0.0000                  ANTENNA: DELTA H/E/N
  -2368687.1709  4881316.4489  -3341795.7050                APPROX POSITION XYZ
  115.88524979  -31.80196638  12.5410  LonLatAlt  S/W       COMMENT
Solaris 2.7|Ultra 2|cc SC5.0|=+-|*Sparc                     COMMENT
MSWin2000|IAx86-PII|bcc32 5.0|MSWin95->XP|486/DX+           COMMENT
BIT 2 OF LLI FLAGS DATA COLLECTED UNDER A/S CONDITION       COMMENT
AUTOMATIC           ESA/ESOC                                OBSERVER / AGENCY
     1     1                                                WAVELENGTH FACT L1/2
     9    L1    L2    C1    P2    P1    D1    D2    S1    S2# / TYPES OF OBSERV
    30.0000                                                 INTERVAL
 SNR is mapped to RINEX snr flag value [1-9]                COMMENT
  L1: 1 -> 1;  90 -> 5; 210 -> 9                            COMMENT
  L2: 1 -> 1; 150 -> 5; 250 -> 9                            COMMENT
pseudorange smoothing corrections not applied               COMMENT
Checked by ROCK 1.0 [25.12.04-00:18]; status 2: file fixed  COMMENT
    30                                                      # OF SATELLITES
   G01   633   635   636   635   633   633   635   633   635PRN / # OF OBS
   G02   874   876   876   876   874   874   876   874   876PRN / # OF OBS
   G03   719   730   737   730   719   719   730   719   730PRN / # OF OBS
   G04   822   829   839   829   822   822   829   822   829PRN / # OF OBS
   G05   804   806   806   806   804   804   806   804   806PRN / # OF OBS
   G06   827   831   841   831   827   827   831   827   831PRN / # OF OBS
   G07   527   529   535   529   527   527   529   527   529PRN / # OF OBS
   G08   797   800   803   800   797   797   800   797   800PRN / # OF OBS
   G09   694   695   695   695   694   694   695   694   695PRN / # OF OBS
   G10   898   907   919   907   898   898   907   898   907PRN / # OF OBS
   G11   717   724   742   724   717   717   724   717   724PRN / # OF OBS
   G13   818   822   831   822   818   818   822   818   822PRN / # OF OBS
   G14   725   731   733   731   725   725   731   725   731PRN / # OF OBS
   G15   861   870   876   870   861   861   870   861   870PRN / # OF OBS
   G16   603   605   611   605   603   603   605   603   605PRN / # OF OBS
   G17   699   711   718   711   699   699   711   699   711PRN / # OF OBS
   G18   610   618   622   618   610   610   618   610   618PRN / # OF OBS
   G19   675   676   681   676   675   675   676   675   676PRN / # OF OBS
   G20   766   769   772   769   766   766   769   766   769PRN / # OF OBS
   G21   718   719   720   719   718   718   719   718   719PRN / # OF OBS
   G22   698   703   706   703   698   698   703   698   703PRN / # OF OBS
   G23   848   853   856   853   848   848   853   848   853PRN / # OF OBS
   G24   846   848   853   848   846   846   848   846   848PRN / # OF OBS
   G25   806   814   833   814   806   806   814   806   814PRN / # OF OBS
   G26   619   625   633   625   619   619   625   619   625PRN / # OF OBS
   G27   704   705   709   705   704   704   705   704   705PRN / # OF OBS
   G28   650   656   658   656   650   650   656   650   656PRN / # OF OBS
   G29   624   628   634   628   624   624   628   624   628PRN / # OF OBS
   G30   822   823   826   823   822   822   823   822   823PRN / # OF OBS
   G31   780   788   790   788   780   780   788   780   788PRN / # OF OBS
Checked by ROCK 1.0 [26.12.04-00:24]; status 0: file OK     COMMENT
  2004    12    25     0     0    0.0000000     GPS         TIME OF FIRST OBS
  2004    12    25    23    59   30.0000000     GPS         TIME OF LAST OBS
                                                            END OF HEADER
 04 12 25  0  0  0.0000000  0  7G15G19G 3G 1G11G22G14
  -6384091.50243  -4922594.22142  22644738.7554   22644743.6034   22644738.2454
     -1554.6084      -1211.3804         46.0004         42.0004
 -19593474.96643 -15230224.33342  20832832.5224   20832833.9934   20832831.7284
      1208.9384        942.0374         51.0004         47.0004
 -20022437.90043 -15564163.10542  20554482.1094   20554486.1004   20554481.9274
      -895.6734       -697.9164         51.0004         46.0004
  -8078953.25543  -6245391.37142  22530928.3634   22530933.8674   22530928.2004
      3301.3214       2572.4594         45.0004         41.0004
  -2125119.54543  -1621485.24142  24181478.6424   24181482.1114   24181478.3924
      2666.8714       2078.0774         40.0004         35.0004
 -16840889.76543 -13077257.73542  22208272.7564   22208274.8124   22208272.7204
     -2648.0034      -2063.3804         47.0004         42.0004
 -12811531.89743  -9944733.26742  21394389.2224   21394392.7474   21394388.9584
       706.4134        550.4594         49.0004         44.0004
 04 12 25  0  0 30.0000000  0  7G15G19G 3G 1G11G22G14
  -6337387.51543  -4886201.55342  22653626.2984   22653631.1434   22653625.7494
     -1558.0824      -1214.0804         46.0004         42.0004
 -19629480.12343 -15258280.29842  20825981.0204   20825982.4424   20825980.2084
      1192.4834        929.2194         51.0004         47.0004
 -19995277.56043 -15542999.23542  20559650.5564   20559654.5584   20559650.3664
      -913.9034       -712.1314         51.0004         46.0004
  -8177852.99743  -6322456.06942  22512108.4144   22512113.7674   22512108.1504
      3293.2344       2566.1554         45.0004         41.0004
  -2205120.90043  -1683823.95942  24166254.8024   24166258.2834   24166254.6474
      2667.7704       2078.7824         40.0004         36.0004
 -16761352.22643 -13015280.47342  22223408.3754   22223410.3264   22223408.2824
     -2653.3574      -2067.5704         47.0004         42.0004
 -12832422.31243  -9961011.50442  21390413.9844   21390417.4444   21390413.7034
       687.1354        535.4294         49.0004         44.0004
 04 12 25  0  1  0.0000000  0  7G15G19G 3G 1G11G22G14
  -6290571.14943  -4849721.32842  22662535.2494   22662540.0824   22662534.7044
     -1561.5484      -1216.7904         46.0004         41.0004
 -19664977.62743 -15285940.68742  20819226.0454   20819227.4674   20819225.2564
      1175.5164        915.9844         51.0004         47.0004
 -19967560.91743 -15521401.87442  20564924.9074   20564928.8964   20564924.7054
      -932.3394       -726.5094         51.0004         46.0004
  -8276504.85843  -6399327.62742  22493335.5764   22493340.8744   22493335.2694
      3285.0564       2559.7834         45.0004         41.0004
  -2285140.52143  -1746176.90442  24151027.5964   24151031.0234   24151027.4144
      2668.1914       2079.1064         40.0004         36.0004
 -16681645.07643 -12953171.04142  22238576.0694   22238578.0224   22238576.0514
     -2658.9154      -2071.8804         47.0004         42.0004
 -12852717.74243  -9976826.12742  21386551.9674   21386555.3514   21386551.6514
       667.2734        519.9584         49.0004         44.0004
 04 12 25  0  1 30.0000000  0  7G15G19G 3G 1G11G22G14
  -6243641.80643  -4813153.05242  22671465.6434   22671470.5014   22671465.0864
     -1566.3914      -1220.5594         46.0004         41.0004
 -19699965.40743 -15313203.89542  20812568.0494   20812569.4944   20812567.2654
      1157.6624        902.0654         51.0004         47.0004
 -19939288.18643 -15499371.20042  20570305.1204   20570309.0454   20570304.8454
      -951.7774       -741.6564         51.0004         46.0004
  -8374905.57643  -6476003.47742  22474610.4814   22474615.7954   22474610.1764
      3275.4744       2552.3144         45.0004         41.0004
  -2365177.53643  -1808543.36842  24135796.8854   24135800.6594   24135796.7264
      2667.9924       2078.9524         40.0004         36.0004
 -16601770.27943 -12890930.98642  22253775.7254   22253777.6994   22253775.7234
     -2665.3404      -2076.8824         47.0004         42.0004
 -12872416.83843  -9992176.07942  21382803.2924   21382806.7464   21382803.0334
       646.6844        503.8944         49.0004         44.0004
 04 12 25  0  2  0.0000000  0  7G15G19G 3G 1G11G22G14
  -6196598.76643  -4776496.19042  22680417.6884   22680422.4184   22680417.1174
     -1570.2454      -1223.5764         46.0004         41.0004
 -19734441.24443 -15340068.18742  20806007.5054   20806008.9784   20806006.7434
      1140.4184        888.6214         51.0004         47.0004
 -19910459.32043 -15476907.17842  20575791.0934   20575795.0434   20575790.8294
      -970.4004       -756.1714         51.0004         46.0004
  -8473051.59343  -6552480.87342  22455933.8474   22455939.2104   22455933.6074
      3267.0404       2545.7394         46.0004         41.0004
  -2445231.06443  -1870922.75042  24120563.2104   24120566.9514   24120563.1204
      2668.6724       2079.5024         40.0004         36.0004
 -16521729.37343 -12828561.50142  22269007.1194   22269009.0734   22269007.0494
     -2670.9104      -2081.2284         47.0004         42.0004
 -12891518.20243 -10007060.25442  21379168.3904   21379171.8684   21379168.1374
       626.5334        488.1954         49.0004         44.0004
 04 12 25  0  2 30.0000000  0  7G15G19G 3G 1G11G22G14
  -6149442.58243  -4739751.15542  22689391.2534   22689395.9544   22689390.7144
     -1574.1234      -1226.5864         46.0004         41.0004
 -19768404.23343 -15366532.85542  20799544.5324   20799546.0354   20799543.7944
      1123.1734        875.1984         51.0004         47.0004
 -19881075.83343 -15454010.98242  20581382.5944   20581386.5524   20581382.3444
      -989.0734       -770.7124         51.0004         46.0004
  -8570940.70643  -6628758.07542  22437306.2844   22437311.5334   22437306.0094
      3258.3694       2538.9884         46.0004         41.0004
  -2525301.33043  -1933315.15342  24105326.3014   24105329.7864   24105326.2494
      2669.1324       2079.8324         40.0004         36.0004
 -16441525.38443 -12766064.93242  22284269.3634   22284271.4614   22284269.3584
     -2676.4994      -2085.5894         47.0004         42.0004
 -12910021.82643 -10021478.66042  21375647.2874   21375650.7644   21375647.0214
       606.4854        472.5964         49.0004         44.0004
 04 12 25  0  3  0.0000000  0  7G15G19G 3G 1G11G22G14
  -6102171.79843  -4702916.83942  22698386.7514   22698391.3804   22698386.0974
     -1578.1584      -1229.7324         46.0004         41.0004
 -19801851.91643 -15392595.98942  20793179.6554   20793181.1634   20793178.9294
      1105.7404        861.6144         51.0004         47.0004
 -19851137.61343 -15430682.52442  20587079.6454   20587083.6314   20587079.3814
     -1007.7284       -785.2464         51.0004         46.0004
  -8668568.86843  -6704831.93342  22418728.2154   22418733.4404   22418727.8424
      3249.3864       2531.9864         46.0004         41.0004
  -2605386.62143  -1995719.24742  24090086.7404   24090090.3064   24090086.5164
      2669.3604       2080.0234         41.0004         36.0004
 -16361159.73443 -12703442.40742  22299562.4634   22299564.4734   22299562.4524
     -2682.0964      -2089.9434         47.0004         42.0004
 -12927925.89043 -10035429.88242  21372240.1764   21372243.7834   21372239.9534
       586.3274        456.8754         49.0004         44.0004
 04 12 25  0  3 30.0000000  0  7G15G19G 3G 1G11G22G14
  -6054786.13343  -4665992.99242  22707403.8324   22707408.5704   22707403.3504
     -1581.4854      -1232.3264         46.0004         41.0004
 -19834782.83043 -15418256.45142  20786913.0854   20786914.6354   20786912.3744
      1089.0144        848.5824         51.0004         47.0004
 -19820645.56743 -15406922.51642  20592882.0684   20592886.1024   20592881.8384
     -1025.6704       -799.2154         51.0004         46.0004
  -8765933.33043  -6780700.31942  22400200.2724   22400205.5604   22400199.9664
      3240.8884       2525.3594         46.0004         41.0004
  -2685486.90743  -2058135.03742  24074844.0624   24074847.6744   24074843.7644
      2670.0734       2080.5704         41.0004         36.0004
 -16280634.56343 -12640695.55342  22314886.0354   22314888.0304   22314885.9894
     -2686.9004      -2093.6874         47.0004         42.0004
 -12945229.83743 -10048913.47142  21368947.3724   21368950.9154   21368947.1364
       566.7624        441.6284         49.0004         44.0004
 04 12 25  0  4  0.0000000  0  7G15G19G 3G 1G11G22G14
  -6007284.22743  -4628978.57042  22716443.2154   22716447.9154   22716442.7194
     -1585.7804      -1235.6724         46.0004         41.0004
 -19867194.41843 -15443512.24442  20780745.4184   20780746.9404   20780744.6474
      1071.2834        834.7544         51.0004         47.0004
 -19789599.27643 -15382730.62742  20598790.0184   20598794.0374   20598789.7884
     -1044.5514       -813.9504         51.0004         46.0004
  -8863029.97843  -6856360.01842  22381723.4234   22381728.6894   22381723.0834
      3231.7014       2518.2044         46.0004         41.0004
  -2765600.93443  -2120561.54742  24059598.8824   24059602.4554   24059598.4984
      2670.0574       2080.5634         41.0004         36.0004
 -16199951.18243 -12577825.43842  22330239.4334   22330241.6234   22330239.4434
     -2692.4204      -2097.9864         46.0004         42.0004
 -12961931.87443 -10061928.03942  21365769.0964   21365772.5884   21365768.8654
       546.3824        425.7474         49.0004         44.0004
 04 12 25  0  4 30.0000000  0  7G15G19G 3G 1G11G22G14
  -5959667.23143  -4591874.47342  22725504.5194   22725509.1884   22725503.9774
     -1589.6014      -1238.6454         46.0004         41.0004
 -19899086.42643 -15468363.16942  20774676.5834   20774678.0654   20774675.7734
      1054.0274        821.3104         51.0004         47.0004
 -19758000.73243 -15358108.41142  20604803.0514   20604807.0674   20604802.8014
     -1062.8934       -828.2264         50.0004         46.0004
  -8959857.15943  -6931809.74642  22363297.9354   22363303.0814   22363297.4744
      3222.5134       2511.0484         46.0004         41.0004
  -2845729.20743  -2182999.14542  24044351.0374   24044354.4654   24044350.6694
      2670.8674       2081.2044         41.0004         37.0004
 -16119113.17043 -12514834.82242  22345622.4564   22345624.6384   22345622.4944
     -2697.6084      -2102.0234         46.0004         42.0004
 -12978032.34343 -10074473.85742  21362705.2874   21362708.7444   21362705.0514
       526.3974        410.1734         49.0004         44.0004
 04 12 25  0  5  0.0000000  0  7G15G19G 3G 1G11G22G14
  -5911934.53543  -4554680.21042  22734587.7164   22734592.5024   22734587.2674
     -1592.9584      -1241.2674         46.0004         41.0004
 -19930457.04443 -15492807.81642  20768706.9544   20768708.4434   20768706.1464
      1036.9594        808.0294         51.0004         47.0004
 -19725850.54443 -15333056.34342  20610921.0174   20610925.1104   20610920.7814
     -1080.8774       -842.2394         50.0004         46.0004
  -9056411.65443  -7007046.98542  22344924.1994   22344929.3524   22344923.7974
      3213.9074       2504.3434         46.0004         41.0004
  -2925870.99143  -2245447.25942  24029100.6294   24029104.2004   24029100.2374
      2671.3604       2081.5764         41.0004         37.0004
 -16038122.42643 -12451725.19942  22361034.4664   22361036.6704   22361034.5484
     -2702.3294      -2105.6994         46.0004         42.0004
 -12993530.66243 -10086550.46942  21359756.0944   21359759.5044   21359755.8084
       506.4314        394.6254         49.0004         44.0004
 04 12 25  0  5 30.0000000  0  7G15G19G 3G 1G11G22G14
  -5864085.34543  -4517395.17842  22743693.2384   22743697.9524   22743692.8064
     -1596.5994      -1244.1044         46.0004         41.0004
 -19961304.22543 -15516844.58342  20762836.9684   20762838.4574   20762836.1614
      1019.8014        794.6574         51.0004         47.0004
 -19693149.34143 -15307574.91642  20617143.8334   20617147.9424   20617143.6174
     -1099.0404       -856.3834         50.0004         46.0004
  -9152689.87643  -7082068.94842  22326602.9804   22326608.1584   22326602.6164
      3205.1164       2497.4954         46.0004         41.0004
  -3006025.33443  -2307905.15342  24013847.4954   24013851.2254   24013847.3374
      2672.4994       2082.4714         41.0004         36.0004
 -15956980.47143 -12388497.74742  22376475.3644   22376477.6004   22376475.3844
     -2706.9724      -2109.3234         46.0004         42.0004
 -13008425.55043 -10098156.88142  21356921.7644   21356925.1724   21356921.4454
       486.7654        379.3004         49.0004         45.0004
 04 12 25  0  6  0.0000000  0  7G15G19G 3G 1G11G22G14
  -5816118.63543  -4480018.56042  22752821.0504   22752825.7224   22752820.5844
     -1600.8624      -1247.4334         46.0004         41.0004
 -19991625.70143 -15540471.71842  20757066.9874   20757068.4954   20757066.1904
      1001.8004        780.6184         51.0004         47.0004
 -19659897.19043 -15281664.17942  20623471.5454   20623475.6404   20623471.3074
     -1117.6434       -870.8904         50.0004         46.0004
  -9248688.21143  -7156872.82542  22308334.9964   22308340.2334   22308334.7134
      3195.1294       2489.7154         46.0004         41.0004
  -3086191.12343  -2370371.99642  23998592.3214   23998596.0554   23998592.1224
      2672.3924       2082.3814         41.0004         36.0004
 -15875688.98443 -12325153.77842  22391944.6704   22391946.8404   22391944.6764
     -2712.3914      -2113.5494         46.0004         42.0004
 -13022715.68043 -10109292.04642  21354202.5134   21354205.8474   21354202.1614
       466.1714        363.2544         49.0004         44.0004
 04 12 25  0  6 30.0000000  0  7G15G19G 3G 1G11G22G14
  -5768034.24843  -4442550.25442  22761971.2594   22761975.8994   22761970.7644
     -1605.2324      -1250.8324         46.0004         41.0004
 -20021420.49743 -15563688.44542  20751397.2854   20751398.7054   20751396.4624
       984.0874        766.8104         51.0004         47.0004
 -19626095.33043 -15255325.09442  20629903.8694   20629907.9574   20629903.5894
     -1136.1724       -885.3364         50.0004         46.0004
  -9344403.94943  -7231456.48542  22290120.9664   22290126.1254   22290120.5504
      3185.5494       2482.2414         46.0004         41.0004
  -3166368.18443  -2432847.61042  23983335.1014   23983338.8864   23983334.8134
      2672.2624       2082.2834         41.0004         36.0004
 -15794250.30743 -12261695.10542  22407441.9114   22407444.0504   22407441.9374
     -2717.1864      -2117.2914         46.0004         41.0004
 -13036400.60643 -10119955.62642  21351598.3324   21351601.6584   21351597.9894
       445.8054        347.3654         49.0004         44.0004
 04 12 25  0  7  0.0000000  0  7G15G19G 3G 1G11G22G14
  -5719831.78443  -4404989.92042  22771143.9494   22771148.4984   22771143.4384
     -1608.3084      -1253.2184         45.0004         41.0004
 -20050686.80243 -15586493.36142  20745828.1034   20745829.5164   20745827.2554
       967.1864        753.6534         51.0004         47.0004
 -19591744.38343 -15228558.15142  20636440.5764   20636444.7304   20636440.3634
     -1153.7834       -899.0484         50.0004         46.0004
  -9439833.98243  -7305817.52842  22271961.1864   22271966.3804   22271960.8494
      3176.7034       2475.3534         46.0004         42.0004
  -3246555.49843  -2495331.20442  23968075.8414   23968079.8774   23968075.6194
      2673.4304       2083.1894         41.0004         37.0004
 -15712666.57043 -12198123.40042  22422966.6974   22422968.9874   22422966.7794
     -2721.4624      -2120.6304         46.0004         42.0004
 -13049479.67743 -10130147.11442  21349109.4084   21349112.8274   21349109.0714
       426.4984        332.3464         49.0004         44.0004
 04 12 25  0  7 30.0000000  0  7G15G19G 3G 1G11G22G14
  -5671511.39343  -4367337.73142  22780339.0064   22780343.5664   22780338.5004
     -1612.6624      -1256.6214         45.0004         41.0004
 -20079423.62543 -15608885.69142  20740359.6424   20740361.0734   20740358.8164
       949.0264        739.4994         51.0004         47.0004
 -19556845.81943 -15201364.49342  20643081.5414   20643085.7174   20643081.3304
     -1172.3974       -913.5614         50.0004         46.0004
  -9534975.79743  -7379953.97442  22253856.2894   22253861.4924   22253855.9874
      3166.4014       2467.3204         46.0004         42.0004
  -3326753.11443  -2557822.84042  23952814.6854   23952818.7674   23952814.4344
      2673.2954       2083.0844         41.0004         37.0004
 -15630940.26443 -12134440.61142  22438518.7014   22438520.9854   22438518.7854
     -2726.4474      -2124.5024         46.0004         42.0004
 -13061952.71543 -10139866.36842  21346735.8754   21346739.2874   21346735.5134
       405.5964        316.0414         49.0004         44.0004
 04 12 25  0  8  0.0000000  0  7G15G19G 3G 1G11G22G14
  -5623071.81143  -4329592.63642  22789556.7934   22789561.4344   22789556.2614
     -1616.7714      -1259.8124         45.0004         41.0004
 -20107628.50443 -15630863.52442  20734992.4404   20734993.8374   20734991.6244
       931.2174        725.6294         51.0004         47.0004
 -19521399.20143 -15173743.78342  20649826.8294   20649830.9924   20649826.6374
     -1190.7814       -927.8844         50.0004         46.0004
  -9629825.16443  -7453862.56042  22235807.0794   22235812.1754   22235806.8054
      3156.8144       2459.8514         46.0004         42.0004
  -3406959.55843  -2620321.34542  23937551.9404   23937555.8954   23937551.8294
      2673.8834       2083.5484         41.0004         37.0004
 -15549072.45443 -12070647.54342  22454097.7664   22454099.9574   22454097.7684
     -2731.0884      -2128.1164         46.0004         41.0004
 -13073817.98743 -10149112.03042  21344477.9774   21344481.4954   21344477.6524
       385.2634        300.2074         49.0004         44.0004
 04 12 25  0  8 30.0000000  0  7G15G19G 3G 1G11G22G14
  -5574512.69843  -4291754.41342  22798797.3204   22798801.9564   22798796.7864
     -1620.3124      -1262.5794         46.0004         41.0004
 -20135300.15943 -15652425.85942  20729726.7374   20729728.0964   20729725.8934
       913.7774        712.0244         51.0004         47.0004
 -19485405.95643 -15145697.13042  20656676.1574   20656680.3294   20656675.9594
     -1208.6014       -941.7784         50.0004         46.0004
  -9724379.48743  -7527541.22742  22217813.9304   22217819.0244   22217813.6914
      3147.0804       2452.2694         46.0004         42.0004
  -3487174.21243  -2682826.25442  23922287.5674   23922291.2794   23922287.4244
      2674.0504       2083.6844         41.0004         36.0004
 -15467065.15343 -12006745.78742  22469703.2784   22469705.4274   22469703.2604
     -2735.4354      -2131.5074         46.0004         41.0004
 -13085075.42243 -10157884.06442  21342335.7054   21342339.3324   21342335.4094
       365.3564        284.7074         49.0004         44.0004
 04 12 25  0  9  0.0000000  0  7G15G19G 3G 1G11G22G14
  -5525833.95743  -4253822.97042  22808060.6884   22808065.2834   22808060.0884
     -1624.3524      -1265.7304         46.0004         41.0004
 -20162437.49743 -15673571.84242  20724562.7084   20724564.0344   20724561.8554
       895.8994        698.1074         51.0004         47.0004
 -19448867.34843 -15117225.51542  20663629.2394   20663633.4164   20663629.0484
     -1226.9414       -956.0434         50.0004         46.0004
  -9818635.92243  -7600987.77342  22199877.4004   22199882.5644   22199877.3144
      3136.9254       2444.3614         46.0004         42.0004
  -3567397.08543  -2745337.58242  23907021.8064   23907025.4924   23907021.6074
      2674.3884       2083.9384         41.0004         36.0004
 -15384921.12643 -11942737.50242  22485334.7784   22485337.0034   22485334.7264
     -2740.1164      -2135.1514         46.0004         41.0004
 -13095724.69543 -10166182.20142  21340309.2464   21340312.8184   21340308.9284
       344.9604        268.8064         49.0004         44.0004
 04 12 25  0  9 30.0000000  0  7G15G19G 3G 1G11G22G14
  -5477035.37443  -4215798.14742  22817346.6934   22817351.3714   22817346.1394
     -1629.4344      -1269.6874         46.0004         41.0004
 -20189039.19043 -15694300.44142  20719500.5714   20719501.9334   20719499.7114
       876.9534        683.3264         51.0004         47.0004
 -19411784.31543 -15088329.67142  20670685.9274   20670690.0974   20670685.7304
     -1245.9414       -970.8864         50.0004         46.0004
  -9912591.55143  -7674199.93142  22181998.3004   22182003.3374   22181998.1544
      3126.0264       2435.8564         46.0004         42.0004
  -3647627.62643  -2807854.86942  23891754.4344   23891757.9244   23891754.2604
      2673.8524       2083.5214         41.0004         36.0004
 -15302642.49043 -11878624.31742  22500992.0394   22500994.1154   22500991.9104
     -2745.7024      -2139.5194         46.0004         41.0004
 -13105765.36843 -10174006.09742  21338398.5864   21338402.0914   21338398.2564
       323.6654        252.1944         49.0004         44.0004
 04 12 25  0 10  0.0000000  0  7G15G19G 3G 1G11G22G14
  -5428115.44043  -4177678.75842  22826656.0094   22826660.6104   22826655.3774
     -1631.9364      -1271.6324         46.0004         41.0004
 -20215102.43943 -15714609.47242  20714540.9614   20714542.3124   20714540.0654
       860.5324        670.5514         52.0004         47.0004
 -19374156.56943 -15059009.37642  20677846.2814   20677850.4454   20677846.0784
     -1262.5664       -983.8134         50.0004         46.0004
 -10006242.06243  -7747174.32442  22164177.1664   22164182.2314   22164177.0194
      3117.2704       2429.0534         47.0004         42.0004
  -3727863.63743  -2870376.39542  23876485.9394   23876489.4924   23876485.8534
      2675.2624       2084.6224         41.0004         36.0004
 -15220229.98743 -11814406.82942  22516674.6164   22516676.7224   22516674.4804
     -2748.8294      -2141.9454         46.0004         41.0004
 -13115195.58943 -10181354.32742  21336604.0694   21336607.6024   21336603.7644
       305.0734        237.7194         49.0004         44.0004
 04 12 25  0 10 30.0000000  0  7G15G19G 3G 1G11G22G14
  -5379074.47743  -4139465.07042  22835988.2494   22835992.9204   22835987.6394
     -1636.9154      -1275.5184         45.0004         41.0004
 -20240627.03143 -15734498.76842  20709683.8094   20709685.1504   20709682.9214
       841.6134        655.8014         52.0004         47.0004
 -19335986.15243 -15029266.21442  20685109.9054   20685114.0714   20685109.7034
     -1281.6014       -998.6664         50.0004         46.0004
 -10099585.51443  -7819909.45542  22146414.4764   22146419.5624   22146414.2914
      3106.0034       2420.2664         47.0004         42.0004
  -3808105.50243  -2932902.51742  23861216.3894   23861220.0034   23861216.3814
      2674.1854       2083.7924         41.0004         36.0004
 -15137686.71643 -11750087.44342  22532382.0664   22532384.2744   22532381.9514
     -2753.7524      -2145.7704         46.0004         41.0004
 -13124015.98643 -10188227.36742  21334925.6564   21334929.1314   21334925.3384
       283.4964        220.8984         49.0004         44.0004
 04 12 25  0 11  0.0000000  0  7G15G19G 3G 1G11G22G14
  -5329911.80843  -4101156.55542  22845343.5054   22845348.2924   22845342.9214
     -1641.0884      -1278.7704         45.0004         41.0004
 -20265611.20943 -15753966.96342  20704929.5094   20704930.8084   20704928.6184
       823.5154        641.6974         52.0004         47.0004
 -19297273.93343 -14999100.87542  20692476.6184   20692480.7914   20692476.4104
     -1299.7644      -1012.7994         50.0004         46.0004
 -10192618.56343  -7892402.71442  22128710.7414   22128715.9314   22128710.6464
      3095.7974       2412.3144         47.0004         42.0004
  -3888352.36443  -2995432.53042  23845945.8534   23845949.5414   23845945.5934
      2674.7564       2084.2254         41.0004         36.0004
 -15055014.13743 -11685667.27142  22548114.2054   22548116.4274   22548114.1084
     -2758.1204      -2149.1964         46.0004         41.0004
 -13132225.99043 -10194624.76542  21333363.3404   21333366.7684   21333363.0494
       263.0864        204.9994         49.0004         44.0004
 04 12 25  0 11 30.0000000  0  7G15G19G 3G 1G11G22G14
  -5280627.46443  -4062753.20442  22854722.1764   22854726.8524   22854721.4904
     -1644.5434      -1281.4514         45.0004         41.0004
 -20290053.87743 -15773013.19942  20700278.2674   20700279.5194   20700277.3244
       806.0374        628.0974         52.0004         47.0004
 -19258021.28443 -14968514.42642  20699946.1994   20699950.3214   20699945.9784
     -1317.1154      -1026.3194         50.0004         46.0004
 -10285338.48043  -7964651.96342  22111066.8414   22111071.9324   22111066.6654
      3085.6984       2404.4404         47.0004         42.0004
  -3968604.05543  -3057966.27842  23830674.4034   23830678.2004   23830674.0094
      2675.7654       2085.0184         41.0004         36.0004
 -14972214.83743 -11621148.39242  22563870.3724   22563872.7064   22563870.2794
     -2761.7944      -2152.0474         46.0004         41.0004
 -13139825.45343 -10200546.42542  21331917.1524   21331920.6614   21331916.9044
       243.3424        189.6174         49.0004         44.0004
 04 12 25  0 12  0.0000000  0  7G15G19G 3G 1G11G22G14
  -5231219.83243  -4024253.80942  22864124.1174   22864128.8354   22864123.4734
     -1649.2474      -1285.1264         45.0004         41.0004
 -20313952.19243 -15791635.26942  20695730.5534   20695731.8014   20695729.6604
       787.1864        613.3984         52.0004         47.0004
 -19218227.67343 -14937506.44642  20707518.7314   20707522.8434   20707518.5054
     -1335.7774      -1040.8594         50.0004         46.0004
 -10377740.92943  -8036653.84142  22093483.2374   22093488.3564   22093483.0254
      3074.5454       2395.7514         47.0004         42.0004
  -4048858.41443  -3120502.11442  23815402.5384   23815406.2044   23815402.1524
      2675.1654       2084.5334         41.0004         36.0004
 -14889289.43343 -11556531.23842  22579650.5034   22579652.8964   22579650.5054
     -2766.6194      -2155.8094         45.0004         41.0004
 -13146812.44443 -10205990.83842  21330587.6674   21330591.0864   21330587.3674
       222.4404        173.3374         49.0004         44.0004
 04 12 25  0 12 30.0000000  0  7G15G19G 3G 1G11G22G14
  -5181689.32643  -3985658.67342  22873549.3654   22873554.2194   22873548.7754
     -1653.3434      -1288.3134         45.0004         41.0004
 -20337306.09943 -15809833.11442  20691286.4494   20691287.6994   20691285.5644
       769.1494        599.3344         52.0004         47.0004
 -19177895.30843 -14906078.65242  20715193.7444   20715197.8934   20715193.5384
     -1353.3724      -1054.5744         50.0004         46.0004
 -10469823.96743  -8108406.82742  22075960.3684   22075965.4714   22075960.1534
      3064.0424       2387.5634         47.0004         42.0004
  -4129115.45843  -3183040.04942  23800129.9304   23800133.8744   23800129.8804
      2675.1814       2084.5554         41.0004         36.0004
 -14806240.99543 -11491818.20342  22595454.1474   22595456.5154   22595454.2084
     -2770.2224      -2158.5994         45.0004         41.0004
 -13153187.59743 -10210958.48742  21329374.5194   21329377.9364   21329374.2174
       202.1084        157.4904         49.0004         44.0004
 04 12 25  0 13  0.0000000  0  7G15G19G 3G 1G11G22G14
  -5132034.99443  -3946967.04142  22882998.3234   22883003.1604   22882997.7024
     -1657.5604      -1291.6044         45.0004         41.0004
 -20360113.97443 -15827605.49042  20686946.1844   20686947.5294   20686945.3354
       750.7684        585.0144         52.0004         47.0004
 -19137025.05743 -14874231.73842  20722971.1524   20722975.2794   20722970.9204
     -1371.7164      -1068.8764         50.0004         46.0004
 -10561584.27643  -8179908.34342  22058498.9354   22058503.9924   22058498.7634
      3052.9784       2378.9364         47.0004         42.0004
  -4209374.44643  -3245579.49042  23784857.0514   23784861.0754   23784856.9794
      2674.6464       2084.1234         41.0004         36.0004
 -14723070.96143 -11427010.43242  22611280.9234   22611283.3714   22611280.9834
     -2774.6824      -2162.0874         45.0004         41.0004
 -13158950.40043 -10215448.98342  21328277.9194   21328281.3294   21328277.6034
       181.4404        141.3834         49.0004         44.0004
 04 12 25  0 13 30.0000000  0  7G15G19G 3G 1G11G22G14
  -5082256.54643  -3908178.67842  22892470.9454   22892475.7354   22892470.2564
     -1660.1494      -1293.6084         45.0004         41.0004
 -20382374.30743 -15844951.20642  20682710.1974   20682711.5674   20682709.3624
       734.0814        572.0264         52.0004         47.0004
 -19095618.01343 -14841966.54042  20730850.7204   20730854.7994   20730850.4474
     -1387.9734      -1081.5164         50.0004         46.0004
 -10653018.67943  -8251155.89542  22041099.6434   22041104.5674   22041099.3984
      3043.5474       2371.5994         47.0004         42.0004
  -4289634.51343  -3308119.78042  23769584.0824   23769588.1234   23769583.6424
      2676.5414       2085.6224         41.0004         36.0004
 -14639781.23943 -11362109.39542  22627130.4494   22627132.9704   22627130.5144
     -2777.1484      -2164.0114         45.0004         41.0004
 -13164100.39443 -10219461.96042  21327297.9584   21327301.3074   21327297.6394
       162.6564        126.7544         49.0004         45.0004
 04 12 25  0 14  0.0000000  0  7G15G19G 3G 1G11G22G14
  -5032353.63443  -3869293.34542  22901967.1394   22901971.9724   22901966.4324
     -1665.5784      -1297.8514         45.0004         41.0004
 -20404085.79543 -15861869.25342  20678578.6534   20678580.0224   20678577.8074
       714.6384        556.8594         52.0004         47.0004
 -19053675.19143 -14809283.84142  20738832.1804   20738836.2674   20738831.9314
     -1406.9084      -1096.2844         50.0004         46.0004
 -10744124.18843  -8322147.16842  22023762.8094   22023767.7804   22023762.6524
      3031.3074       2362.0464         47.0004         43.0004
  -4369894.86743  -3370660.29842  23754310.8314   23754315.0324   23754310.6284
      2675.5924       2084.8724         41.0004         36.0004
 -14556373.84843 -11297116.65642  22643002.3594   22643004.9124   22643002.4094
     -2782.2294      -2167.9664         45.0004         41.0004
 -13168637.37443 -10222997.26242  21326434.6084   21326437.9544   21326434.2284
       141.0314        109.8914         49.0004         44.0004
 04 12 25  0 14 30.0000000  0  7G15G19G 3G 1G11G22G14
  -4982326.05543  -3830310.87042  22911487.0704   22911491.9664   22911486.3454
     -1669.1434      -1300.6284         45.0004         41.0004
 -20425247.38343 -15878358.80942  20674551.7304   20674553.1134   20674550.8954
       696.6634        542.8594         52.0004         47.0004
 -19011197.89843 -14776184.67842  20746915.3864   20746919.4624   20746915.1254
     -1424.2704      -1109.8094         50.0004         46.0004
 -10834898.15743  -8392880.09042  22006489.1474   22006494.0804   22006488.8894
      3020.6724       2353.7764         47.0004         43.0004
  -4450155.41143  -3433200.96642  23739037.6124   23739041.9314   23739037.4814
      2675.8954       2085.1164         41.0004         36.0004
 -14472850.98343 -11232033.96842  22658896.2274   22658898.9034   22658896.2724
     -2785.3874      -2170.4244         45.0004         41.0004
 -13172561.29243 -10226054.86142  21325687.8924   21325691.2374   21325687.5414
       121.0434         94.3334         49.0004         44.0004
                            4  1
RINEX FILE SPLICE; other post-header comments skipped       COMMENT
 04 12 25  0 15  0.0000000  0  7G15G19G 3G 1G11G22G14
  -4932172.96443  -3791230.58842  22921031.0104   22921035.9284   22921030.2574
     -1673.7194      -1304.1914         45.0004         41.0004
 -20445857.35743 -15894418.54142  20670629.7834   20670631.1564   20670628.9634
       678.1324        528.4344         52.0004         47.0004
 -18968186.92343 -14742669.66342  20755100.0704   20755104.1844   20755099.8604
     -1442.2494      -1123.8144         50.0004         46.0004
 -10925337.08843  -8463351.95342  21989279.1754   21989284.0964   21989278.9144
      3009.2814       2344.8894         47.0004         43.0004
  -4530414.54543  -3495740.52842  23723764.9754   23723769.0834   23723764.6724
      2675.4724       2084.7864         41.0004         36.0004
 -14389214.17843 -11166862.47842  22674811.8614   22674814.5184   22674811.9134
     -2789.5764      -2173.6974         45.0004         41.0004
 -13175871.32943 -10228634.10342  21325058.0184   21325061.3274   21325057.6894
       100.4054         78.2504         49.0004         44.0004
 04 12 25  0 15 30.0000000  0  7G15G19G 3G 1G11G22G14
  -4881894.43843  -3752052.56642  22930598.5914   22930603.7114   22930597.9664
     -1677.8574      -1307.4194         45.0004         40.0004
 -20465915.09543 -15910047.95642  20666812.9264   20666814.3294   20666812.1004
       659.5964        513.9744         52.0004         47.0004
 -18924644.23843 -14708740.32242  20763385.9724   20763390.1144   20763385.7554
     -1460.0594      -1137.7014         50.0004         45.0004
 -11015438.43743  -8533560.76342  21972133.4084   21972138.3344   21972133.1794
      2998.0494       2336.1454         47.0004         43.0004
  -4610672.10843  -3558278.88142  23708492.5294   23708496.5624   23708492.1524
      2674.9874       2084.4064         41.0004         37.0004
 -14305465.72343 -11101603.98842  22690748.7154   22690751.3744   22690748.7664
     -2793.1604      -2176.4834         45.0004         41.0004
 -13178567.93643 -10230735.34742  21324544.8664   21324548.2044   21324544.5244
        80.0164         62.3394         49.0004         44.0004
 04 12 25  0 16  0.0000000  0  7G15G19G 3G 1G11G22G14
  -4831489.20543  -3712775.80942  22940190.3324   22940195.5254   22940189.8104
     -1682.1674      -1310.7714         45.0004         40.0004
 -20485418.75443 -15925245.62642  20663101.5004   20663102.9024   20663100.6784
       641.1394        499.6004         52.0004         47.0004
 -18880570.06543 -14674396.84442  20771773.1044   20771777.1844   20771772.8094
     -1477.6584      -1151.4114         50.0004         46.0004
 -11105198.57943  -8603503.70342  21955052.6644   21955057.4824   21955052.3684
      2986.5594       2327.1824         47.0004         43.0004
  -4690926.57543  -3620814.80242  23693220.6554   23693224.6104   23693220.2814
      2674.9834       2084.3894         41.0004         37.0004
 -14221606.88043 -11036259.49542  22706706.4854   22706709.2484   22706706.5734
     -2796.8184      -2179.3364         45.0004         40.0004
 -13180650.25743 -10232357.93842  21324148.5394   21324151.8944   21324148.2384
        59.4434         46.3174         49.0004         44.0004
 04 12 25  0 16 30.0000000  0  7G15G19G 3G 1G11G22G14
  -4780957.37943  -3673400.41642  22949806.3694   22949811.4304   22949805.7644
     -1686.6504      -1314.2704         45.0004         41.0004
 -20504367.22443 -15940010.68242  20659495.7404   20659497.1324   20659494.9174
       622.0464        484.7084         52.0004         47.0004
 -18835965.86243 -14639640.34842  20780261.0284   20780265.0914   20780260.7234
     -1495.8274      -1165.5864         50.0004         45.0004
 -11194614.73343  -8673178.59342  21938037.2824   21938042.1164   21938037.0234
      2974.7124       2317.9604         47.0004         43.0004
  -4771177.51443  -3683347.98042  23677949.4914   23677953.3114   23677949.1054
      2675.0234       2084.4314         41.0004         37.0004
 -14137639.86543 -10970830.71442  22722684.8684   22722687.7204   22722684.9344
     -2800.9044      -2182.5264         45.0004         40.0004
 -13182118.34243 -10233501.88642  21323869.1904   21323872.4904   21323868.8784
        38.5144         30.0124         49.0004         44.0004
 04 12 25  0 17  0.0000000  0  7G15G19G 3G 1G11G22G14
  -4730297.87943  -3633925.53242  22959446.5894   22959451.6814   22959445.9544
     -1691.1424      -1317.7754         45.0004         40.0004
 -20522758.78743 -15954341.77942  20655995.9674   20655997.3404   20655995.1334
       603.5314        470.2704         52.0004         47.0004
 -18790832.45443 -14604471.48242  20788849.6164   20788853.6754   20788849.3344
     -1513.6144      -1179.4414         50.0004         45.0004
 -11283683.39643  -8742582.72242  21921088.0424   21921092.8994   21921087.7784
      2962.8964       2308.7374         47.0004         43.0004
  -4851423.30143  -3745877.14442  23662679.1784   23662683.0344   23662678.7914
      2674.2574       2083.8384         41.0004         37.0004
 -14053566.02643 -10905318.66842  22738683.6524   22738686.4614   22738683.7804
     -2804.4904      -2185.3114         45.0004         40.0004
 -13182971.32343 -10234166.54442  21323706.8624   21323710.1754   21323706.5484
        17.8684         13.9134         49.0004         45.0004
 04 12 25  0 17 30.0000000  0  7G15G19G 3G 1G11G22G14
  -4679511.15343  -3594351.51842  22969110.8584   22969116.1764   22969110.3134
     -1694.9424      -1320.7324         45.0004         40.0004
 -20540593.45543 -15968238.93542  20652602.0564   20652603.4844   20652601.2754
       585.3384        456.1114         52.0004         47.0004
 -18745172.12743 -14568892.03342  20797538.4914   20797542.5854   20797538.2514
     -1530.6344      -1192.6944         50.0004         45.0004
 -11372402.57443  -8811714.51442  21904205.3314   21904210.1494   21904205.0244
      2951.5594       2299.9294         47.0004         43.0004
  -4931664.42943  -3808402.69042  23647409.4874   23647413.5124   23647409.3544
      2674.7444       2084.2024         41.0004         37.0004
 -13969388.14443 -10839725.58642  22754701.9684   22754705.0834   22754702.2014
     -2807.4154      -2187.5864         45.0004         40.0004
 -13183210.20643 -10234352.67142  21323661.4164   21323664.6954   21323661.0844
        -2.1124         -1.6354         49.0004         44.0004
 04 12 25  0 18  0.0000000  0  7G15G19G 3G 1G11G22G14
  -4628596.23843  -3554677.60542  22978799.7064   22978804.9414   22978799.1444
     -1698.6514      -1323.6224         45.0004         40.0004
 -20557869.31443 -15981700.65542  20649314.5654   20649316.0044   20649313.7944
       567.2864        442.0444         52.0004         47.0004
 -18698985.69643 -14532902.62842  20806327.5384   20806331.6104   20806327.2864
     -1547.5054      -1205.8444         50.0004         45.0004
 -11460768.69043  -8880571.19042  21887389.7664   21887394.6664   21887389.4964
      2940.2154       2291.0904         47.0004         43.0004
  -5011899.43243  -3870923.44342  23632141.4524   23632145.2944   23632141.2764
      2674.9524       2084.3844         41.0004         37.0004
 -13885107.48043 -10774052.38542  22770740.2734   22770743.2024   22770740.3724
     -2810.3104      -2189.8464         45.0004         40.0004
 -13182834.58043 -10234059.97642  21323732.7924   21323736.1294   21323732.4934
       -21.9594        -17.1124         49.0004         44.0004
 04 12 25  0 18 30.0000000  0  7G15G19G 3G 1G11G22G14
  -4577552.62443  -3514903.40342  22988513.0094   22988518.2234   22988512.4074
     -1703.9944      -1327.7904         45.0004         40.0004
 -20574585.20343 -15994726.02842  20646133.6594   20646135.0934   20646132.9034
       547.3504        426.4954         52.0004         47.0004
 -18652274.15643 -14496504.05942  20815216.4464   20815220.5394   20815216.1964
     -1566.1874      -1220.3974         50.0004         45.0004
 -11548778.64343  -8949150.34042  21870641.9574   21870646.9164   21870641.6874
      2927.1874       2280.9124         47.0004         43.0004
  -5092127.39943  -3933438.70542  23616874.5484   23616878.4054   23616874.4244
      2673.6944       2083.3994         42.0004         37.0004
 -13800726.00643 -10708300.63842  22786797.4964   22786800.5164   22786797.6134
     -2814.8804      -2193.4124         45.0004         40.0004
 -13181843.90543 -10233288.01742  21323921.3314   21323924.7124   21323920.9924
       -43.7444        -34.0844         49.0004         44.0004
 04 12 25  0 19  0.0000000  0  7G15G19G 3G 1G11G22G14
  -4526379.75643  -3475028.49342  22998251.0194   22998256.2124   22998250.3614
     -1707.9164      -1330.8424         45.0004         40.0004
 -20590740.17343 -16007314.33242  20643059.5224   20643060.9084   20643058.7184
       529.2014        412.3694         52.0004         47.0004
 -18605039.12943 -14459697.57242  20824205.0154   20824209.0784   20824204.7024
     -1583.2494      -1233.6914         50.0004         45.0004
 -11636429.61443  -9017449.76242  21853962.5294   21853967.4734   21853962.1914
      2915.6454       2271.9284         47.0004         43.0004
  -5172347.49043  -3995947.85242  23601609.2494   23601613.0124   23601609.0564
      2674.0224       2083.6504         42.0004         37.0004
 -13716245.44543 -10642471.69042  22802873.6804   22802876.5394   22802873.7604
     -2817.7054      -2195.6134         45.0004         40.0004
 -13180238.57943 -10232037.10742  21324226.7724   21324230.2014   21324226.4934
       -63.8274        -49.7324         49.0004         44.0004
 04 12 25  0 19 30.0000000  0  7G15G19G 3G 1G11G22G14
  -4475077.02643  -3435052.38142  23008013.6384   23008018.8844   23008013.0504
     -1712.5704      -1334.4714         45.0004         40.0004
 -20606332.75043 -16019464.39742  20640092.3734   20640093.7474   20640091.5634
       510.1504        397.5224         52.0004         47.0004
 -18557281.54643 -14422483.90242  20833292.9474   20833297.0774   20833292.6584
     -1600.8254      -1247.3774         50.0004         45.0004
 -11723718.39943  -9085466.96042  21837351.9384   21837356.9224   21837351.6424
      2903.3484       2262.3394         47.0004         43.0004
  -5252558.78043  -4058450.14142  23586345.6824   23586349.3174   23586345.4404
      2673.1974       2083.0134         42.0004         37.0004
 -13631667.37643 -10576566.74742  22818968.3864   22818971.1864   22818968.4804
     -2821.4674      -2198.5314         45.0004         40.0004
 -13178018.12243 -10230306.87042  21324649.2604   21324652.7424   21324649.0294
       -84.6044        -65.9324         49.0004         44.0004
 04 12 25  0 20  0.0000000  0  7G15G19G 3G 1G11G22G14
  -4423644.63243  -3394975.23742  23017800.9294   23017806.1804   23017800.3334
     -1716.8614      -1337.8144         45.0004         40.0004
 -20621362.56943 -16031175.95542  20637232.3074   20637233.6704   20637231.4784
       491.3694        382.8774         52.0004         47.0004
 -18509003.42143 -14384864.61842  20842479.9364   20842484.1114   20842479.6724
     -1618.0334      -1260.8164         50.0004         45.0004
 -11810642.73643  -9153200.18342  21820810.7514   21820815.7614   21820810.4374
      2891.3234       2252.9914         48.0004         43.0004
  -5332760.84943  -4120945.23742  23571083.6274   23571087.3434   23571083.3664
      2673.0574       2082.8974         42.0004         37.0004
 -13546994.24343 -10510587.74742  22835081.2114   22835084.0254   22835081.3274
     -2824.1244      -2200.6144         45.0004         40.0004
 -13175183.30543 -10228097.91942  21325188.7784   21325192.1984   21325188.4964
      -104.9344        -81.7814         49.0004         44.0004
 04 12 25  0 20 30.0000000  0  7G15G19G 3G 1G11G22G14
  -4372081.27343  -3354796.05242  23027613.1634   23027618.4044   23027612.5654
     -1720.9224      -1340.9744         45.0004         40.0004
 -20635827.91643 -16042447.66242  20634479.6754   20634481.0474   20634478.8394
       472.5624        368.2334         52.0004         47.0004
 -18460205.51343 -14346840.30342  20851765.8324   20851770.0934   20851765.6054
     -1635.3104      -1274.2664         50.0004         45.0004
 -11897198.90443  -9220646.51542  21804339.5924   21804344.6474   21804339.2954
      2878.8644       2243.2784         48.0004         43.0004
  -5412952.20343  -4183431.98742  23555823.7364   23555827.5114   23555823.6354
      2672.8294       2082.7194         42.0004         38.0004
 -13462227.01643 -10444535.42342  22851211.8464   22851214.7654   22851212.0474
     -2827.2314      -2203.0364         45.0004         40.0004
 -13171733.38443 -10225409.66242  21325845.2604   21325848.7044   21325844.9904
      -125.0844        -97.4544         49.0004         44.0004
 04 12 25  0 21  0.0000000  0  7G15G19G 3G 1G11G22G14
  -4320386.71843  -3314514.64242  23037450.2094   23037455.5704   23037449.7214
     -1724.9794      -1344.1414         45.0004         40.0004
 -20649727.72743 -16053278.68742  20631834.6024   20631836.0194   20631833.8074
       454.1744        353.8934         52.0004         47.0004
 -18410889.28943 -14308412.10742  20861150.4114   20861154.6864   20861150.1904
     -1652.1164      -1287.3604         50.0004         45.0004
 -11983384.01443  -9287803.70042  21787939.0754   21787944.1534   21787938.7604
      2866.9574       2233.9834         48.0004         43.0004
  -5493131.85343  -4245909.60842  23540566.1094   23540569.9664   23540566.0024
      2672.8564       2082.7494         43.0004         38.0004
 -13377367.76743 -10378411.39742  22867360.0864   22867362.9904   22867360.2724
     -2829.9254      -2205.1324         45.0004         40.0004
 -13167668.45143 -10222242.17742  21326618.8044   21326622.2584   21326618.4934
      -145.3994       -113.3104         49.0004         44.0004
 04 12 25  0 21 30.0000000  0  7G15G19G 3G 1G11G22G14
  -4268561.25643  -3274131.20642  23047312.4584   23047317.5894   23047311.8664
     -1729.3704      -1347.5594         45.0004         40.0004
 -20663061.60643 -16063668.73542  20629297.2004   20629298.6494   20629296.4374
       435.1504        339.0834         52.0004         47.0004
 -18361056.77443 -14269581.60842  20870633.2634   20870637.5254   20870633.0384
     -1669.4354      -1300.8644         50.0004         45.0004
 -12069195.80543  -9354669.99742  21771609.5384   21771614.6864   21771609.3154
      2854.2484       2224.0904         48.0004         43.0004
  -5573299.66143  -4308378.03242  23525310.6314   23525314.4894   23525310.5774
      2672.2584       2082.2834         42.0004         38.0004
 -13292419.02943 -10312217.62842  22883525.4124   22883528.2674   22883525.5984
     -2832.9194      -2207.4674         44.0004         40.0004
 -13162989.26843 -10218596.06642  21327509.2414   21327512.6714   21327508.9604
      -165.9994       -129.3584         49.0004         44.0004
 04 12 25  0 22  0.0000000  0  7G15G19G 3G 1G11G22G14
  -4216603.91843  -3233645.00442  23057199.6534   23057204.7844   23057199.0864
     -1733.8214      -1351.0274         45.0004         40.0004
 -20675828.19743 -16073616.73842  20626867.8564   20626869.2554   20626867.0924
       416.4374        324.5004         52.0004         47.0004
 -18310708.98543 -14230349.58642  20880214.1514   20880218.4274   20880213.9274
     -1686.4144      -1314.0964         50.0004         45.0004
 -12154630.85143  -9421242.72842  21755351.8074   21755356.9144   21755351.5114
      2841.8944       2214.4624         48.0004         43.0004
  -5653454.12643  -4370836.05442  23510057.7454   23510061.5694   23510057.7024
      2671.7794       2081.9054         42.0004         38.0004
 -13207381.86343 -10245954.96642  22899707.5494   22899710.4174   22899707.7034
     -2835.7944      -2209.7004         45.0004         40.0004
 -13157695.60243 -10214471.12342  21328516.6434   21328519.9984   21328516.3224
      -186.2444       -145.1314         49.0004         44.0004
 04 12 25  0 22 30.0000000  0  7G15G19G 3G 1G11G22G14
  -4164514.30543  -3193055.76242  23067111.9824   23067117.1294   23067111.4434
     -1738.8594      -1354.9484         45.0004         40.0004
 -20688026.70843 -16083122.08042  20624546.5854   20624547.9614   20624545.8024
       396.7524        309.1414         52.0004         48.0004
 -18259847.26043 -14190717.09742  20889892.8184   20889897.1274   20889892.6024
     -1704.2774      -1328.0054         49.0004         45.0004
 -12239686.45243  -9487519.78642  21739166.2794   21739171.3534   21739165.9694
      2828.4394       2203.9804         48.0004         43.0004
  -5733594.60543  -4433283.15242  23494807.4724   23494811.4994   23494807.5424
      2670.8864       2081.2104         43.0004         38.0004
 -13122258.07843 -10179624.79142  22915906.1354   22915909.0754   22915906.2984
     -2839.4014      -2212.5194         44.0004         40.0004
 -13151787.76243 -10209867.61042  21329640.8154   21329644.2194   21329640.5164
      -207.4024       -161.6244         49.0004         44.0004
 04 12 25  0 23  0.0000000  0  7G15G19G 3G 1G11G22G14
  -4112291.49143  -3152362.70542  23077049.6354   23077054.8684   23077049.1084
     -1742.6634      -1357.9164         45.0004         40.0004
 -20699655.69143 -16092183.63542  20622333.6674   20622335.0524   20622332.8864
       378.4184        294.8684         52.0004         48.0004
 -18208472.80643 -14150685.08242  20899669.0484   20899673.3684   20899668.8514
     -1720.6754      -1340.7884         49.0004         45.0004
 -12324359.26843  -9553498.57042  21723053.5944   21723058.6034   21723053.2504
      2816.3124       2194.5194         48.0004         43.0004
  -5813719.63843  -4495718.23942  23479560.0844   23479564.1824   23479560.1954
      2670.9594       2081.2654         43.0004         38.0004
 -13037049.13443 -10113228.28042  22932120.9554   22932123.7924   22932121.0314
     -2841.4614      -2214.1174         44.0004         40.0004
 -13145265.18443 -10204785.08342  21330882.0684   21330885.3944   21330881.7874
      -227.3534       -177.1604         49.0004         44.0004
 04 12 25  0 23 30.0000000  0  7G15G19G 3G 1G11G22G14
  -4059935.67843  -3111566.02242  23087012.7034   23087017.9754   23087012.1344
     -1746.6754      -1361.0354         45.0004         40.0004
 -20710714.88743 -16100801.20442  20620229.2254   20620230.5874   20620228.4174
       359.9054        280.4514         52.0004         48.0004
 -18156587.75343 -14110255.20042  20909542.5024   20909546.8234   20909542.3094
     -1737.1084      -1353.5864         49.0004         45.0004
 -12408647.00343  -9619177.29442  21707014.0854   21707019.1174   21707013.8024
      2803.9144       2184.8694         48.0004         43.0004
  -5893829.02043  -4558141.12242  23464315.7724   23464319.7404   23464315.9604
      2670.8044       2081.1444         43.0004         38.0004
 -12951757.58443 -10046767.40342  22948351.5134   22948354.2614   22948351.4754
     -2843.7704      -2215.9164         44.0004         40.0004
 -13138128.75243 -10199224.23542  21332240.0824   21332243.4494   21332239.8104
      -247.3604       -192.7544         49.0004         44.0004
 04 12 25  0 24  0.0000000  0  7G15G19G 3G 1G11G22G14
  -4007446.15443  -3070665.13842  23097001.0314   23097006.3914   23097000.5784
     -1752.2194      -1365.3604         45.0004         40.0004
 -20721202.97543 -16108973.75342  20618233.3784   20618234.7974   20618232.6014
       340.1124        265.0164         52.0004         48.0004
 -18104193.52643 -14069428.56942  20919512.8544   20919517.1484   20919512.6324
     -1754.8264      -1367.3724         50.0004         45.0004
 -12492546.50643  -9684553.49942  21691048.6254   21691053.4944   21691048.2734
      2790.1514       2174.1674         48.0004         43.0004
  -5973921.69843  -4620550.97342  23449074.5884   23449078.5474   23449074.7914
      2669.5924       2080.2094         43.0004         38.0004
 -12866384.56443  -9980243.03742  22964597.4154   22964600.2164   22964597.4424
     -2847.2074      -2218.6064         44.0004         40.0004
 -13130378.66543 -10193185.21742  21333714.8254   21333718.2344   21333714.5384
      -268.4534       -209.1834         49.0004         44.0004
 04 12 25  0 24 30.0000000  0  7G15G19G 3G 1G11G22G14
  -3954822.18543  -3029659.52542  23107015.0824   23107020.4284   23107014.6204
     -1757.2244      -1369.2634         45.0004         40.0004
 -20731119.01243 -16116700.54842  20616346.4734   20616347.8404   20616345.6934
       320.4584        249.7114         52.0004         48.0004
 -18051291.21943 -14028206.02142  20929579.8224   20929584.1584   20929579.6414
     -1772.1944      -1380.9304         49.0004         45.0004
 -12576054.53543  -9749624.66642  21675157.5504   21675162.3924   21675157.2424
      2776.5644       2163.5474         48.0004         44.0004
  -6053996.36543  -4682946.80742  23433836.9444   23433840.7854   23433836.9904
      2668.3384       2079.2284         43.0004         38.0004
 -12780931.46143  -9913656.27142  22980858.7224   22980861.4534   22980858.7614
     -2850.2774      -2220.9994         44.0004         40.0004
 -13122014.72043 -10186667.86142  21335306.4684   21335309.8034   21335306.1344
      -289.5794       -225.6534         49.0004         44.0004
 04 12 25  0 25  0.0000000  0  7G15G19G 3G 1G11G22G14
  -3902063.57843  -2988548.98642  23117054.8194   23117060.0934   23117054.3864
     -1760.0554      -1371.4674         45.0004         40.0004
 -20740462.27743 -16123981.02042  20614568.4834   20614569.8804   20614567.7024
       302.4124        235.6494         52.0004         48.0004
 -17997882.61943 -13986588.96142  20939743.1944   20939747.5244   20939742.9764
     -1788.1404      -1393.3314         49.0004         45.0004
 -12659168.23943  -9814388.55842  21659341.5794   21659346.3444   21659341.2464
      2764.4584       2154.1264         48.0004         44.0004
  -6134051.82543  -4745327.65742  23418602.8694   23418606.8964   23418602.8514
      2668.9334       2079.6884         43.0004         38.0004
 -12695400.30443  -9847008.67542  22997134.8174   22997137.5314   22997134.9094
     -2851.5564      -2221.9944         44.0004         40.0004
 -13113037.44743 -10179672.58742  21337014.8444   21337018.0824   21337014.4814
      -308.7734       -240.5934         49.0004         44.0004
 04 12 25  0 25 30.0000000  0  7G15G19G 3G 1G11G22G14
  -3849169.65443  -2947332.99042  23127120.2464   23127125.5584   23127119.8214
     -1765.3774      -1375.6154         45.0004         40.0004
 -20749231.67243 -16130814.32642  20612899.6794   20612901.1484   20612898.9244
       282.6944        220.2834         52.0004         48.0004
 -17943969.12843 -13944578.48642  20950002.6024   20950006.9554   20950002.4014
     -1805.5994      -1406.9584         49.0004         45.0004
 -12741884.83743  -9878843.01242  21643601.1054   21643605.9244   21643600.7794
      2750.5454       2143.2804         48.0004         44.0004
  -6214086.87843  -4807692.63342  23403372.8564   23403376.7494   23403372.7664
      2667.8434       2078.8374         43.0004         39.0004
 -12609792.71243  -9780301.52142  23013425.5764   23013428.0994   23013425.6194
     -2854.7774      -2224.5044         44.0004         40.0004
 -13103446.90943 -10172199.44842  21338839.8004   21338843.1014   21338839.5034
      -330.0044       -257.1464         49.0004         44.0004
 04 12 25  0 26  0.0000000  0  7G15G19G 3G 1G11G22G14
  -3796140.81343  -2906011.87142  23137211.3424   23137216.7284   23137210.9364
     -1770.2804      -1379.4394         45.0004         40.0004
 -20757427.40543 -16137200.62042  20611340.1514   20611341.5744   20611339.3624
       263.8244        205.5684         52.0004         48.0004
 -17889553.22543 -13902176.52142  20960357.5994   20960362.0004   20960357.4174
     -1822.0934      -1419.8074         49.0004         45.0004
 -12824202.42343  -9942986.56542  21627936.6774   21627941.3704   21627936.2894
      2737.3044       2132.9584         48.0004         44.0004
  -6294102.05743  -4870042.10542  23388146.5184   23388150.4064   23388146.3704
      2666.9894       2078.1734         43.0004         38.0004
 -12524111.14943  -9713536.74542  23029730.3444   23029732.8304   23029730.3984
     -2857.1154      -2226.3244         44.0004         40.0004
 -13093244.56543 -10164249.57442  21340781.2054   21340784.5974   21340780.8454
      -350.1884       -272.8814         49.0004         44.0004
 04 12 25  0 26 30.0000000  0  7G15G19G 3G 1G11G22G14
  -3742976.34543  -2864585.07242  23147328.2424   23147333.6534   23147327.8214
     -1774.1104      -1382.4264         44.0004         40.0004
 -20765048.47443 -16143139.12542  20609889.8794   20609891.3244   20609889.1064
       244.7844        190.7444         52.0004         48.0004
 -17834636.21043 -13859384.07742  20970807.9904   20970812.3794   20970807.8194
     -1838.5534      -1432.6274         49.0004         45.0004
 -12906117.89243 -10006816.76542  21612348.5844   21612353.3234   21612348.2584
      2723.9584       2122.5764         48.0004         44.0004
  -6374096.01843  -4932375.03742  23372924.3724   23372928.0654   23372924.0324
      2666.3194       2077.6554         43.0004         38.0004
 -12438357.26243  -9646715.59942  23046048.9594   23046051.3774   23046048.9644
     -2859.1994      -2227.9434         44.0004         40.0004
 -13082430.46143 -10155823.00742  21342839.0284   21342842.4344   21342838.7434
      -370.3404       -288.5704         49.0004         44.0004
 04 12 25  0 27  0.0000000  0  7G15G19G 3G 1G11G22G14
  -3689675.12343  -2823051.69542  23157471.1974   23157476.5254   23157470.7584
     -1779.0224      -1386.2474         44.0004         40.0004
 -20772093.54743 -16148628.80342  20608549.3064   20608550.7034   20608548.4894
       225.0184        175.3464         52.0004         48.0004
 -17779219.11743 -13816201.96242  20981353.5574   20981357.9354   20981353.3814
     -1855.6244      -1445.9324         49.0004         45.0004
 -12987627.79243 -10070330.94442  21596837.6894   21596842.4604   21596837.4114
      2710.0874       2111.7674         49.0004         44.0004
  -6454066.83843  -4994689.95942  23357706.3364   23357710.0164   23357706.0724
      2665.2024       2076.7874         43.0004         38.0004
 -12352532.02543  -9579838.84442  23062380.8744   23062383.2944   23062380.8894
     -2862.0784      -2230.1904         44.0004         39.0004
 -13071004.25943 -10146919.47542  21345013.4284   21345016.8064   21345013.1264
      -391.1114       -304.7704         49.0004         44.0004
 04 12 25  0 27 30.0000000  0  7G15G19G 3G 1G11G22G14
  -3636236.28543  -2781411.09142  23167640.3284   23167645.6974   23167639.8194
     -1783.1764      -1389.4874         44.0004         40.0004
 -20778561.46543 -16153668.74842  20607318.4964   20607319.8904   20607317.6884
       206.4444        160.8694         52.0004         48.0004
 -17723303.15143 -13772631.11542  20991993.9784   20991998.4474   20991993.8394
     -1871.8214      -1458.5504         49.0004         45.0004
 -13068728.94943 -10133526.62342  21581404.5714   21581409.3724   21581404.3324
      2697.1134       2101.6624         49.0004         44.0004
  -6534013.28043  -5056985.86742  23342492.9804   23342496.7694   23342492.6564
      2664.8144       2076.4844         43.0004         38.0004
 -12266636.58543  -9512907.40342  23078726.2894   23078728.7354   23078726.1954
     -2863.9784      -2231.6714         44.0004         39.0004
 -13058966.14943 -10137539.13142  21347304.0784   21347307.5664   21347303.7724
      -410.9294       -320.2014         49.0004         44.0004
 04 12 25  0 28  0.0000000  0  7G15G19G 3G 1G11G22G14
  -3582660.31843  -2739663.65342  23177835.6234   23177840.9394   23177835.0284
     -1788.2014      -1393.4014         44.0004         39.0004
 -20784451.92643 -16158258.71942  20606197.5184   20606198.9874   20606196.7514
       186.5494        145.3644         52.0004         48.0004
 -17666890.97943 -13728673.61242  21002728.9074   21002733.3414   21002728.7564
     -1888.7394      -1471.7624         49.0004         45.0004
 -13149419.04943 -10196402.00342  21566049.7594   21566054.5334   21566049.5374
      2682.5254       2090.2844         49.0004         44.0004
  -6613934.97843  -5119262.50142  23327284.3084   23327288.1764   23327284.1164
      2663.6234       2075.5484         43.0004         39.0004
 -12180673.33943  -9445923.11742  23095084.6944   23095087.1584   23095084.6014
     -2866.8054      -2233.8734         44.0004         40.0004
 -13046317.34043 -10127682.92642  21349711.1014   21349714.6064   21349710.7744
      -431.9824       -336.6034         49.0004         44.0004
 04 12 25  0 28 30.0000000  0  7G15G19G 3G 1G11G22G14
  -3528946.33943  -2697808.66542  23188057.1964   23188062.4584   23188056.5864
     -1792.8164      -1396.9974         44.0004         39.0004
 -20789764.26143 -16162398.21042  20605186.5714   20605188.1084   20605185.8384
       167.5114        130.5274         52.0004         48.0004
 -17609983.84143 -13684330.41842  21013557.9844   21013562.4184   21013557.8444
     -1904.9284      -1484.3544         49.0004         45.0004
 -13229695.06543 -10258954.70242  21550773.7304   21550778.4914   21550773.4774
      2669.1104       2079.8164         49.0004         44.0004
  -6693830.71143  -5181518.89142  23312080.8394   23312084.3514   23312080.4174
      2662.5264       2074.6874         43.0004         38.0004
 -12094643.69643  -9378887.10642  23111455.7664   23111458.1834   23111455.6584
     -2868.7494      -2235.4004         44.0004         40.0004
 -13033057.73743 -10117350.78042  21352234.3754   21352237.8694   21352234.0034
      -451.9934       -352.2054         49.0004         44.0004
 04 12 25  0 29  0.0000000  0  7G15G19G 3G 1G11G22G14
  -3475094.92543  -2655846.58142  23198304.8574   23198310.1024   23198304.1884
     -1797.8134      -1400.8834         44.0004         39.0004
 -20794498.72943 -16166087.41642  20604285.6934   20604287.1604   20604284.9014
       147.7424        115.1244         52.0004         48.0004
 -17552584.44943 -13639603.66342  21024480.7534   21024485.1904   21024480.5994
     -1922.0244      -1497.6674         49.0004         45.0004
 -13309555.24243 -10321183.39342  21535576.8474   21535581.6054   21535576.5744
      2654.7304       2068.6344         49.0004         44.0004
  -6773700.36443  -5243754.98042  23296882.1044   23296885.6464   23296881.7914
      2661.0924       2073.5914         43.0004         38.0004
 -12008550.07643  -9311801.24742  23127838.7104   23127841.3294   23127838.7314
     -2871.1974      -2237.2924         44.0004         39.0004
 -13019188.91743 -10106543.90742  21354873.5264   21354877.0274   21354873.1534
      -472.8604       -368.4654         49.0004         44.0004
 04 12 25  0 29 30.0000000  0  7G15G19G 3G 1G11G22G14
  -3421104.43043  -2613776.11142  23208578.9004   23208584.0124   23208578.1384
     -1801.5704      -1403.8224         44.0004         39.0004
 -20798653.50843 -16169324.91442  20603495.0604   20603496.5504   20603494.2664
       129.1444        100.6374         52.0004         48.0004
 -17494693.36043 -13594493.76042  21035497.0754   21035501.5264   21035496.9274
     -1937.5304      -1509.7524         49.0004         44.0004
 -13388995.75243 -10383085.04842  21520459.7454   21520464.5554   21520459.5024
      2641.3804       2058.2164         49.0004         44.0004
  -6853541.66543  -5305968.96742  23281688.8784   23281692.2664   23281688.5924
      2661.2734       2073.7194         43.0004         39.0004
 -11922392.89043  -9244665.82942  23144233.9904   23144236.5574   23144233.9844
     -2872.5524      -2238.3484         44.0004         39.0004
 -13004710.20343 -10095261.80242  21357628.7334   21357632.2094   21357628.3524
      -492.3254       -383.6404         49.0004         44.0004
                            4  1
RINEX FILE SPLICE; other post-header comments skipped       COMMENT
 04 12 25  0 30  0.0000000  0  7G15G19G 3G 1G11G22G14
  -3366975.02643  -2571597.40942  23218879.4254   23218884.4744   23218878.6544
     -1806.5364      -1407.6914         44.0004         39.0004
 -20802228.62243 -16172110.72742  20602814.7134   20602816.2554   20602813.9334
       109.7934         85.5534         52.0004         48.0004
 -17436312.93143 -13549002.56042  21046606.5434   21046611.0034   21046606.3774
     -1953.9124      -1522.5334         49.0004         44.0004
 -13468014.47543 -10444658.05242  21505422.8924   21505427.7774   21505422.7004
      2626.9564       2046.9644         49.0004         44.0004
  -6933354.20043  -5368160.52442  23266500.9604   23266504.3864   23266500.8504
      2660.2134       2072.8974         43.0004         39.0004
 -11836174.65643  -9177482.85242  23160640.8074   23160643.3854   23160640.8024
     -2875.2054      -2240.4174         44.0004         40.0004
 -12989622.92643 -10083505.49342  21360499.7074   21360503.2074   21360499.3234
      -512.9084       -399.6764         49.0004         44.0004
 04 12 25  0 30 30.0000000  0  7G15G19G 3G 1G11G22G14
  -3312705.48643  -2529309.50842  23229206.5464   23229211.6694   23229205.8974
     -1811.7714      -1411.7704         44.0004         39.0004
 -20805222.64843 -16174443.74542  20602244.9644   20602246.4944   20602244.1714
        89.9444         70.0844         52.0004         48.0004
 -17377444.31943 -13503130.95142  21057808.9114   21057813.3574   21057808.7314
     -1970.6184      -1535.5424         49.0004         44.0004
 -13546607.68543 -10505899.48242  21490467.1454   21490471.9564   21490466.8674
      2612.5284       2035.7434         49.0004         44.0004
  -7013136.17143  -5430328.26642  23251318.9244   23251322.3614   23251318.8324
      2658.5304       2071.5824         43.0004         39.0004
 -11749895.91243  -9110252.73942  23177059.1274   23177061.7354   23177059.0524
     -2877.3274      -2242.0774         44.0004         39.0004
 -12973926.71043 -10071274.68142  21363486.6554   21363490.1634   21363486.2494
      -533.5564       -415.7594         49.0004         44.0004
 04 12 25  0 31  0.0000000  0  7G15G19G 3G 1G11G22G14
  -3258296.44243  -2486912.89542  23239560.3314   23239565.3824   23239559.6744
     -1815.8494      -1414.9494         44.0004         39.0004
 -20807635.88443 -16176324.19942  20601785.7434   20601787.2824   20601784.9484
        70.8114         55.1834         52.0004         48.0004
 -17318090.21443 -13456881.03242  21069103.6814   21069108.0694   21069103.4604
     -1986.4024      -1547.8484         49.0004         44.0004
 -13624773.72643 -10566808.05742  21475592.6004   21475597.4244   21475592.3504
      2598.3924       2024.7214         49.0004         44.0004
  -7092887.22443  -5492471.94142  23236142.7914   23236146.1734   23236142.6504
      2657.5144       2070.7904         43.0004         38.0004
 -11663559.46543  -9042977.65942  23193488.3184   23193490.9604   23193488.2164
     -2878.9454      -2243.3314         44.0004         39.0004
 -12957623.16343 -10058570.62642  21366589.1034   21366592.6404   21366588.7264
      -553.6654       -431.4274         49.0004         44.0004
 04 12 25  0 31 30.0000000  0  7G15G19G 3G 1G11G22G14
  -3203746.75243  -2444406.69242  23249940.8164   23249945.9644   23249940.1494
     -1820.6164      -1418.6594         44.0004         39.0004
 -20809467.26043 -16177751.25742  20601437.2764   20601438.7924   20601436.4844
        51.4484         40.0834         52.0004         48.0004
 -17258251.75843 -13410253.69742  21080490.6144   21080494.9704   21080490.3604
     -2002.6764      -1560.5264         49.0004         44.0004
 -13702509.20743 -10627381.13542  21460799.9904   21460804.8234   21460799.7124
      2584.1434       2013.6214         49.0004         44.0004
  -7172606.03243  -5554590.46842  23220972.6914   23220976.0874   23220972.5104
      2656.9674       2070.3604         43.0004         39.0004
 -11577166.14043  -8975658.24842  23209928.4854   23209931.1414   23209928.4174
     -2880.4934      -2244.5354         44.0004         39.0004
 -12940712.53243 -10045393.50642  21369807.0414   21369810.6064   21369806.7324
      -573.6364       -446.9914         49.0004         44.0004
 04 12 25  0 32  0.0000000  0  7G15G19G 3G 1G11G22G14
  -3149055.85443  -2401790.46242  23260348.2194   23260353.5004   23260347.5994
     -1825.2344      -1422.2554         44.0004         39.0004
 -20810716.13743 -16178724.42442  20601199.6284   20601201.1474   20601198.8384
        32.2174         25.1034         52.0004         48.0004
 -17197930.56643 -13363250.21442  21091969.3534   21091973.7174   21091969.1264
     -2018.4634      -1572.8274         49.0004         44.0004
 -13779811.32243 -10687616.51542  21446089.8204   21446094.6214   21446089.5524
      2569.8404       2002.4664         49.0004         44.0004
  -7252291.36943  -5616682.91842  23205809.0064   23205812.5284   23205808.8904
      2655.9244       2069.5504         43.0004         39.0004
 -11490717.31243  -8908295.60642  23226379.2784   23226381.8774   23226379.1914
     -2882.2354      -2245.8874         44.0004         39.0004
 -12923195.16743 -10031743.61842  21373140.5554   21373144.0604   21373140.2104
      -593.5834       -462.5334         49.0004         44.0004
 04 12 25  0 32 30.0000000  0  8G15G19G 3G 1G11G22G20G14
  -3094224.06943  -2359064.44342  23270782.3924   23270787.6844   23270781.7544
     -1829.8494      -1425.8544         44.0004         39.0004
 -20811383.10043 -16179244.14842  20601072.7244   20601074.2304   20601071.9264
        12.7014          9.9044         52.0004         48.0004
 -17137129.31043 -13315872.64142  21103539.4954   21103543.8634   21103539.2594
     -2034.5574      -1585.3704         49.0004         44.0004
 -13856678.23943 -10747512.78842  21431462.5214   21431467.3344   21431462.2034
      2555.1474       1991.0414         49.0004         44.0004
  -7331943.06143  -5678749.16242  23190651.8904   23190655.2594   23190651.6144
      2654.7304       2068.6194         43.0004         39.0004
 -11404215.83543  -8840891.92942  23242839.9234   23242842.6414   23242839.9394
     -2883.9234      -2247.2184         44.0004         39.0004
   -152153.73043    -87971.40142  24092976.3984   24092981.1524   24092976.2394
      2484.5734       1936.0324         51.0004         35.0004
 -12905072.74843 -10017622.25742  21376589.1374   21376592.6474   21376588.8174
      -613.9704       -478.4264         49.0004         44.0004
 04 12 25  0 33  0.0000000  0  8G15G19G 3G 1G11G22G20G14
  -3039250.38843  -2316227.86342  23281243.5474   23281248.9864   23281242.9544
     -1835.0264      -1429.8934         44.0004         40.0004
 -20811466.86943 -16179309.43842  20601056.8414   20601058.2684   20601055.9754
        -7.1404         -5.5744         52.0004         48.0004
 -17075849.51643 -13268122.19242  21115200.6014   21115205.0484   21115200.3864
     -2050.9214      -1598.1124         49.0004         44.0004
 -13933106.65843 -10807067.37142  21416918.6234   21416923.5154   21416918.3164
      2540.0214       1979.2314         49.0004         44.0004
  -7411559.02843  -5740787.54142  23175501.3294   23175504.8014   23175501.1684
      2652.9354       2067.2144         43.0004         39.0004
 -11317662.28443  -8773447.69842  23259310.5374   23259313.3234   23259310.4504
     -2886.2234      -2249.0034         44.0004         39.0004
   -226588.32843   -145972.35942  24078811.9154   24078816.8304   24078811.5194
      2477.6524       1930.6264         45.0004         36.0004
 -12886345.15543 -10003029.33242  21380152.8674   21380156.3334   21380152.5314
      -634.7584       -494.6174         49.0004         44.0004
 04 12 25  0 33 30.0000000  0  8G15G19G 3G 1G11G22G20G14
  -2984134.39643  -2273280.39242  23291731.7394   23291737.2384   23291731.2414
     -1839.7484      -1433.5624         44.0004         39.0004
 -20810966.77443 -16178919.76642  20601152.0094   20601153.4374   20601151.1494
       -26.5434        -20.6744         52.0004         48.0004
 -17014093.01243 -13220000.27642  21126952.4644   21126956.9894   21126952.2764
     -2066.4924      -1610.2494         49.0004         44.0004
 -14009094.12643 -10866278.36042  21402458.6424   21402463.5474   21402458.3644
      2525.3344       1967.7894         49.0004         44.0004
  -7491138.34143  -5802797.37842  23160357.9124   23160361.2814   23160357.6374
      2651.9754       2066.4744         43.0004         38.0004
 -11231058.06643  -8705963.97042  23275790.7364   23275793.5814   23275790.8224
     -2887.7584      -2250.1944         44.0004         39.0004
   -300820.16143   -203815.25142  24064686.0524   24064691.0624   24064685.6394
      2471.0164       1925.4614         42.0004         35.0004
 -12867013.29643  -9987965.54542  21383831.5944   21383835.0274   21383831.2664
      -654.4954       -509.9964         49.0004         44.0004
 04 12 25  0 34  0.0000000  0  8G15G19G 3G 1G11G22G20G14
  -2928875.82843  -2230221.82542  23302247.0764   23302252.6094   23302246.5054
     -1844.8334      -1437.5324         44.0004         39.0004
 -20809882.74243 -16178075.08242  20601358.3274   20601359.7514   20601357.4644
       -46.3374        -36.1074         52.0004         48.0004
 -16951861.64143 -13171508.34042  21138794.7954   21138799.2604   21138794.5364
     -2082.7784      -1622.9364         49.0004         44.0004
 -14084637.84843 -10925143.55942  21388083.1184   21388087.9924   21388082.8574
      2510.0304       1955.8634         49.0004         44.0004
  -7570679.64743  -5864777.59242  23145221.5584   23145224.9614   23145221.3904
      2650.0674       2064.9834         43.0004         39.0004
 -11144405.03743  -8638442.20242  23292280.3554   23292283.2054   23292280.4224
     -2889.5954      -2251.6334         44.0004         39.0004
   -374849.03843   -261500.07542  24050599.0294   24050603.7124   24050598.6104
      2463.8374       1919.8694         41.0004         35.0004
 -12847077.88543  -9972431.46642  21387625.2154   21387628.6324   21387624.8544
      -675.0784       -526.0374         49.0004         44.0004
 04 12 25  0 34 30.0000000  0  8G15G19G 3G 1G11G22G20G14
  -2873473.99643  -2187051.61142  23312789.7184   23312795.1964   23312789.2234
     -1849.9444      -1441.5164         44.0004         39.0004
 -20808214.24043 -16176774.96842  20601675.8714   20601677.2414   20601675.0314
       -66.0094        -51.4404         52.0004         48.0004
 -16889156.89043 -13122647.52742  21150727.1794   21150731.5944   21150726.9054
     -2098.7204      -1635.3894         49.0004         44.0004
 -14159734.80743 -10983660.64842  21373792.5244   21373797.4624   21373792.3674
      2495.2004       1944.3084         49.0004         44.0004
  -7650181.83543  -5926727.33042  23130092.8394   23130096.1434   23130092.6634
      2648.7204       2063.9324         43.0004         39.0004
 -11057704.39443  -8570883.33442  23308778.9394   23308781.7814   23308779.0584
     -2891.5204      -2253.1404         43.0004         39.0004
   -448674.49543   -319026.33942  24036550.4534   24036555.1074   24036550.1054
      2456.7284       1914.3334         40.0004         36.0004
 -12826539.78543  -9956427.75642  21391533.4984   21391536.9374   21391533.1294
      -695.1774       -541.7054         49.0004         44.0004
 04 12 25  0 35  0.0000000  0  8G15G19G 3G 1G11G22G20G14
  -2817929.02143  -2143769.86442  23323359.5174   23323365.1034   23323359.1334
     -1854.2104      -1444.8404         44.0004         39.0004
 -20805960.85443 -16175019.09342  20602104.6634   20602106.0424   20602103.8294
       -85.1564        -66.3584         52.0004         48.0004
 -16825981.23943 -13073419.78642  21162749.1374   21162753.5594   21162748.8604
     -2113.8844      -1647.1924         49.0004         44.0004
 -14234382.98043 -11041828.02742  21359587.4754   21359592.3374   21359587.2854
      2480.5094       1932.8714         49.0004         44.0004
  -7729644.24543  -5988646.06742  23114971.6184   23114975.1144   23114971.5054
      2647.5364       2063.0164         43.0004         39.0004
 -10970957.82943  -8503288.70142  23325286.3104   23325289.0554   23325286.3944
     -2892.5324      -2253.9184         43.0004         39.0004
   -522296.76443   -376394.27742  24022540.2304   24022545.1624   24022539.8234
      2450.0324       1909.1154         40.0004         36.0004
 -12805399.83243  -9939955.07442  21395556.2794   21395559.6824   21395555.9174
      -715.0124       -557.1564         49.0004         44.0004
 04 12 25  0 35 30.0000000  0  8G15G19G 3G 1G11G22G20G14
  -2762240.11243  -2100375.96442  23333956.7964   23333962.3454   23333956.3444
     -1858.8334      -1448.4434         43.0004         39.0004
 -20803122.76543 -16172807.61242  20602644.8264   20602646.1384   20602643.9624
      -104.2474        -81.2314         52.0004         48.0004
 -16762336.87143 -13023826.81242  21174860.2534   21174864.7144   21174859.9784
     -2129.2434      -1659.1594         49.0004         44.0004
 -14308579.65843 -11099643.59442  21345468.3134   21345473.1674   21345468.1164
      2465.8374       1921.4304         49.0004         44.0004
  -7809065.85043  -6050533.02142  23099858.2864   23099861.7464   23099858.0764
      2646.7454       2062.4004         43.0004         39.0004
 -10884167.12043  -8435659.66342  23341802.0964   23341804.8144   23341802.1924
     -2893.6794      -2254.8124         43.0004         39.0004
   -595715.69143   -433603.80042  24008568.8874   24008574.1074   24008568.6604
      2443.8154       1904.2784         40.0004         36.0004
 -12783659.06743  -9923014.22042  21399693.3724   21399696.8034   21399693.0494
      -734.6004       -572.4114         49.0004         44.0004
 04 12 25  0 36  0.0000000  0  8G15G19G 3G 1G11G22G20G14
  -2706406.63843  -2056869.42142  23344581.6534   23344587.1034   23344581.1484
     -1862.7474      -1451.4864         43.0004         39.0004
 -20799699.21943 -16170139.92442  20603296.2804   20603297.6474   20603295.4574
      -123.0814        -95.8964         52.0004         48.0004
 -16698225.39543 -12973869.85942  21187060.3134   21187064.7844   21187060.0254
     -2143.9224      -1670.5844         49.0004         44.0004
 -14382321.91843 -11157105.07842  21331435.7384   21331440.4284   21331435.4614
      2451.1324       1909.9774         49.0004         44.0004
  -7888445.01143  -6112386.88742  23084752.8044   23084756.5014   23084752.5154
      2645.9404       2061.7724         43.0004         39.0004
 -10797333.34543  -8367997.05742  23358326.1414   23358328.8484   23358326.1144
     -2894.5624      -2255.5054         43.0004         39.0004
   -668930.64743   -490654.38842  23994636.5474   23994641.6144   23994636.3574
      2437.9824       1899.7184         40.0004         35.0004
 -12761318.22443  -9905605.78342  21403944.6914   21403948.0844   21403944.3524
      -753.7944       -587.3724         48.0004         44.0004
 04 12 25  0 36 30.0000000  0  8G15G19G 3G 1G11G22G20G14
  -2650428.53243  -2013250.16642  23355233.9744   23355239.4494   23355233.4214
     -1868.4124      -1455.8974         43.0004         39.0004
 -20795689.83743 -16167015.74442  20604059.2414   20604060.6334   20604058.4324
      -143.3854       -111.7204         52.0004         48.0004
 -16633648.69743 -12923550.38542  21199348.8694   21199353.3334   21199348.6084
     -2160.0824      -1683.1814         49.0004         44.0004
 -14455607.31743 -11214210.55942  21317489.9674   21317494.6804   21317489.6914
      2435.2264       1897.5964         49.0004         44.0004
  -7967780.83543  -6174206.99842  23069655.6244   23069659.3184   23069655.4684
      2643.7784       2060.0834         43.0004         39.0004
 -10710458.35543  -8300302.34542  23374857.9684   23374860.8834   23374857.9894
     -2896.4844      -2256.9954         43.0004         39.0004
   -741941.49743   -547545.88942  23980743.1354   23980747.9144   23980742.7554
      2430.4804       1893.8844         40.0004         36.0004
 -12738378.12943  -9887730.38742  21408310.0654   21408313.4504   21408309.7644
      -774.6144       -603.5934         49.0004         44.0004
 04 12 25  0 37  0.0000000  0  8G15G19G 3G 1G11G22G20G14
  -2594305.26743  -1969517.80442  23365914.0254   23365919.4654   23365913.4774
     -1873.7714      -1460.0844         44.0004         39.0004
 -20791094.19743 -16163434.74142  20604933.7894   20604935.1374   20604932.9724
      -163.5694       -127.4664         52.0004         48.0004
 -16568608.84043 -12872870.02042  21211725.5324   21211730.0404   21211725.3024
     -2176.0774      -1695.6554         49.0004         44.0004
 -14528433.25743 -11270958.02142  21303631.6484   21303636.3274   21303631.3584
      2419.4434       1885.2744         49.0004         45.0004
  -8047071.75843  -6235992.12242  23054566.9654   23054570.6754   23054566.9254
      2641.7954       2058.5444         43.0004         39.0004
 -10623543.38643  -8232576.48942  23391397.3404   23391400.3784   23391397.3484
     -2898.6754      -2258.7074         43.0004         39.0004
   -814748.00043   -604278.17642  23966888.6534   23966893.2914   23966888.1934
      2423.3384       1888.3254         41.0004         36.0004
 -12714839.72043  -9869388.77942  21412789.3374   21412792.7144   21412789.0354
      -795.0504       -619.5374         49.0004         44.0004
 04 12 25  0 37 30.0000000  0  8G15G19G 3G 1G11G22G20G14
  -2538036.78043  -1925672.29342  23376621.6114   23376627.1274   23376621.1714
     -1878.2644      -1463.5774         44.0004         39.0004
 -20785912.54443 -16159397.10142  20605919.8254   20605921.1714   20605919.0014
      -182.6374       -142.3094         52.0004         48.0004
 -16503107.93543 -12821830.39042  21224190.0194   21224194.4694   21224189.7754
     -2191.1344      -1707.3864         49.0004         44.0004
 -14600797.20443 -11327345.48942  21289861.2874   21289865.9134   21289860.9354
      2404.2444       1873.4434         49.0004         45.0004
  -8126316.80943  -6297741.48942  23039487.1604   23039490.8704   23039487.0494
      2640.5864       2057.5994         43.0004         39.0004
 -10536589.96143  -8164820.64842  23407944.1644   23407947.1614   23407943.9904
     -2899.2774      -2259.1784         43.0004         38.0004
   -887350.19743   -660851.27542  23953072.8634   23953077.5144   23953072.5164
      2416.5594       1883.0284         41.0004         36.0004
 -12690703.96043  -9850581.70342  21417382.1994   21417385.6144   21417381.9174
      -814.6284       -634.7854         49.0004         44.0004
 04 12 25  0 38  0.0000000  0  8G15G19G 3G 1G11G22G20G14
  -2481622.04943  -1881712.83742  23387357.1094   23387362.4464   23387356.5844
     -1882.6444      -1466.9884         43.0004         39.0004
 -20780144.12043 -16154902.24042  20607017.5304   20607018.8654   20607016.7064
      -201.8764       -157.3104         52.0004         48.0004
 -16437147.75143 -12770432.87942  21236741.8194   21236746.2884   21236741.6114
     -2205.7654      -1718.7744         49.0004         44.0004
 -14672696.15843 -11383370.62942  21276179.3714   21276183.9594   21276179.0344
      2389.2584       1861.7804         49.0004         45.0004
  -8205514.36743  -6359453.85142  23024416.4404   23024420.1074   23024416.3114
      2639.5144       2056.7664         44.0004         39.0004
 -10449599.06843  -8097035.62142  23424497.7864   23424501.0224   23424497.8554
     -2900.0404      -2259.7654         43.0004         38.0004
   -959747.32743   -717264.60042  23939296.1644   23939300.9824   23939295.7494
      2410.0444       1877.9494         41.0004         36.0004
 -12665971.62943  -9831309.77442  21422088.6564   21422091.9794   21422088.3044
      -834.0144       -649.8844         48.0004         44.0004
 04 12 25  0 38 30.0000000  0  8G15G19G 3G 1G11G22G20G14
  -2425061.41343  -1837639.66942  23398120.3304   23398125.5824   23398119.7654
     -1887.8064      -1471.0214         43.0004         39.0004
 -20773789.54843 -16149950.64642  20608226.7224   20608228.1174   20608225.9504
      -221.8424       -172.8674         52.0004         48.0004
 -16370731.12343 -12718679.71242  21249380.5514   21249384.9994   21249380.2934
     -2221.7744      -1731.2594         49.0004         44.0004
 -14744128.48143 -11439032.16742  21262586.2224   21262590.7864   21262585.9044
      2373.0114       1849.0904         49.0004         45.0004
  -8284664.21643  -6421129.05242  23009354.5644   23009358.2194   23009354.3874
      2637.3434       2055.0704         43.0004         39.0004
 -10362573.18343  -8029223.32942  23441058.4054   23441061.5104   23441058.4014
     -2901.3654      -2260.7954         43.0004         39.0004
  -1031940.09543   -773518.65342  23925558.3114   23925563.1424   23925557.7024
      2402.5044       1872.0724         41.0004         36.0004
 -12640644.52043  -9811574.36442  21426908.2594   21426911.5704   21426907.8544
      -854.3344       -665.7104         48.0004         44.0004
 04 12 25  0 39  0.0000000  0  8G15G19G 3G 1G11G22G20G14
  -2368354.52243  -1793452.54042  23408911.3684   23408916.6064   23408910.7264
     -1893.2794      -1475.2814         43.0004         39.0004
 -20766848.47143 -16144542.03042  20609547.5284   20609548.9674   20609546.7894
      -241.7894       -188.4024         52.0004         48.0004
 -16303859.87443 -12666572.28142  21262105.7584   21262110.1784   21262105.5164
     -2236.8774      -1743.0204         48.0004         44.0004
 -14815091.62243 -11494328.09542  21249082.3584   21249086.9044   21249082.0454
      2357.1264       1836.7144         49.0004         45.0004
  -8363764.80343  -6482765.86042  22994302.0814   22994305.9764   22994301.9684
      2635.5514       2053.6744         44.0004         39.0004
 -10275513.58743  -7961384.75642  23457625.5544   23457628.5204   23457625.5124
     -2902.9344      -2262.0274         43.0004         39.0004
  -1103928.10643   -829613.18742  23911859.4304   23911863.9774   23911858.8974
      2395.7914       1866.8514         41.0004         36.0004
 -12614723.54143  -9791376.22042  21431840.9014   21431844.1474   21431840.4884
      -874.4744       -681.4104         48.0004         44.0004
 04 12 25  0 39 30.0000000  0  8G15G19G 3G 1G11G22G20G14
  -2311499.61343  -1749150.09142  23419730.4984   23419735.7494   23419729.7994
     -1897.6724      -1478.7104         43.0004         38.0004
 -20759319.58143 -16138675.37542  20610980.2484   20610981.7024   20610979.4774
      -260.9344       -203.3374         52.0004         47.0004
 -16236534.89243 -12614111.28942  21274917.3974   21274921.7704   21274917.0724
     -2251.8074      -1754.6744         48.0004         44.0004
 -14885581.84043 -11549255.51342  21235668.5024   21235673.0154   21235668.2124
      2341.5494       1824.5764         49.0004         45.0004
  -8442814.14243  -6544362.72742  22979259.5074   22979263.2074   22979259.3374
      2633.7604       2052.2724         44.0004         39.0004
 -10188420.27143  -7893519.92442  23474199.0674   23474201.9694   23474198.9104
     -2903.7564      -2262.6584         43.0004         38.0004
  -1175710.07643   -885547.13842  23898199.7164   23898204.1954   23898199.1664
      2389.2034       1861.7194         41.0004         37.0004
 -12588208.48243  -9770715.13742  21436886.5454   21436889.8444   21436886.1594
      -894.0184       -696.6354         49.0004         44.0004
 04 12 25  0 40  0.0000000  0  8G15G19G 3G 1G11G22G20G14
  -2254497.29943  -1704732.73942  23430577.7474   23430583.0474   23430576.9924
     -1902.5304      -1482.4924         43.0004         39.0004
 -20751203.92243 -16132351.50342  20612524.6214   20612526.0834   20612523.8214
      -280.3144       -218.4364         52.0004         47.0004
 -16168759.30343 -12561299.17042  21287814.6674   21287819.0404   21287814.3784
     -2266.8044      -1766.3274         48.0004         44.0004
 -14955597.64043 -11603813.27542  21222344.9784   21222349.4234   21222344.6614
      2325.8634       1812.3794         49.0004         45.0004
  -8521811.89343  -6605919.40542  22964226.7364   22964230.3274   22964226.5504
      2632.2954       2051.1394         44.0004         39.0004
 -10101295.94143  -7825630.93342  23490778.2404   23490781.2824   23490778.1944
     -2904.5854      -2263.3144         43.0004         39.0004
  -1247286.92143   -941321.26442  23884578.9884   23884583.3924   23884578.7004
      2382.1704       1856.2324         41.0004         36.0004
 -12561101.47543  -9749592.81042  21442044.7784   21442048.1794   21442044.3874
      -913.4884       -711.8104         48.0004         44.0004
 04 12 25  0 40 30.0000000  0  8G15G19G 3G 1G11G22G20G14
  -2197346.86443  -1660199.99242  23441453.1344   23441458.5134   23441452.3324
     -1906.4164      -1485.5174         43.0004         39.0004
 -20742500.83643 -16125569.89242  20614180.7804   20614182.2394   20614179.9694
      -299.0344       -233.0154         52.0004         47.0004
 -16100534.75343 -12508137.22942  21300797.3104   21300801.8354   21300797.0804
     -2280.5624      -1777.0724         48.0004         44.0004
 -15025136.06843 -11657999.04142  21209112.2204   21209116.7004   21209111.9234
      2310.8044       1800.6334         49.0004         45.0004
  -8600756.21243  -6667434.44442  22949204.2454   22949207.6654   22949204.0604
      2631.3844       2050.4284         44.0004         39.0004
 -10014141.51443  -7757718.47342  23507363.1754   23507366.4384   23507363.1384
     -2904.6044      -2263.3254         43.0004         39.0004
  -1318657.96543   -996935.02942  23870997.4484   23871002.0184   23870997.2014
      2376.5014       1851.8294         41.0004         36.0004
 -12533403.09843  -9728009.67242  21447315.5374   21447318.9684   21447315.1994
      -932.2154       -726.3884         48.0004         44.0004
 04 12 25  0 41  0.0000000  0  8G15G19G 3G 1G11G22G20G14
  -2140048.24843  -1615551.79342  23452356.8154   23452362.1264   23452355.9534
     -1913.5474      -1491.0734         43.0004         39.0004
 -20733210.53043 -16118330.70642  20615948.6294   20615950.1424   20615947.8304
      -320.5504       -249.7874         52.0004         47.0004
 -16031863.92643 -12454627.52942  21313864.9984   21313869.5054   21313864.7394
     -2297.6874      -1790.3994         48.0004         44.0004
 -15094195.12643 -11711811.27742  21195970.6964   21195975.1904   21195970.3764
      2292.9044       1786.6914         49.0004         45.0004
  -8679646.30543  -6728907.22142  22934191.9374   22934195.4224   22934191.7154
      2627.7564       2047.5974         44.0004         39.0004
  -9926958.77443  -7689783.96542  23523953.5654   23523956.7914   23523953.6094
     -2907.6404      -2265.6914         43.0004         38.0004
  -1389823.61443  -1052388.72142  23857455.0404   23857459.7554   23857454.5684
      2367.7094       1844.9664         41.0004         36.0004
 -12505114.89843  -9705966.92642  21452698.6184   21452702.0084   21452698.2524
      -953.7504       -743.1874         48.0004         44.0004
 04 12 25  0 41 30.0000000  0  8G15G19G 3G 1G11G22G20G14
  -2082601.14243  -1570787.88342  23463288.7794   23463294.0014   23463287.8794
     -1917.6784      -1494.2894         43.0004         39.0004
 -20723333.68443 -16110634.47842  20617828.1154   20617829.6774   20617827.3454
      -339.1324       -264.2624         52.0004         47.0004
 -15962749.05643 -12400771.82542  21327017.1674   21327021.5944   21327016.9164
     -2311.1824      -1800.9264         48.0004         44.0004
 -15162772.50943 -11765248.18842  21182920.7924   21182925.2874   21182920.4954
      2277.8164       1774.9244         49.0004         45.0004
  -8758481.18943  -6790336.99242  22919190.1024   22919193.6134   22919189.9914
      2626.6134       2046.7224         44.0004         39.0004
  -9839749.36143  -7621828.68342  23540549.0144   23540552.2684   23540548.9644
     -2907.1754      -2265.3294         42.0004         38.0004
  -1460783.74543  -1107682.28742  23843951.7894   23843956.5804   23843951.4004
      2361.5734       1840.1874         41.0004         37.0004
 -12476238.49843  -9683465.85042  21458193.6774   21458197.0154   21458193.2974
      -972.2794       -757.6324         48.0004         44.0004
 04 12 25  0 42  0.0000000  0  8G15G19G 3G 1G11G22G20G14
  -2025005.05243  -1525907.87042  23474249.0314   23474254.3054   23474248.1734
     -1922.6804      -1498.1904         43.0004         39.0004
 -20712869.51343 -16102480.59642  20619819.3974   20619820.9814   20619818.6154
      -359.0354       -279.7714         52.0004         47.0004
 -15893192.11243 -12346571.65042  21340253.5154   21340257.8874   21340253.2184
     -2326.4624      -1812.8214         48.0004         44.0004
 -15230865.73743 -11818307.83042  21169963.0914   21169967.5454   21169962.8064
      2261.1274       1761.8994         49.0004         45.0004
  -8837259.09343  -6851722.35442  22904199.0604   22904202.6974   22904199.0874
      2624.2954       2044.8974         44.0004         39.0004
  -9752514.27543  -7553853.36742  23557149.4074   23557152.6654   23557149.3654
     -2908.9234      -2266.6904         42.0004         38.0004
  -1531537.97743  -1162815.44542  23830487.6594   23830492.4324   23830487.2704
      2354.5554       1834.7254         41.0004         36.0004
 -12446774.51243  -9660506.91742  21463800.4894   21463803.8534   21463800.1084
      -992.5114       -773.3784         48.0004         44.0004
 04 12 25  0 42 30.0000000  0  8G15G19G 3G 1G11G22G20G14
  -1967259.04543  -1480911.03742  23485237.7074   23485243.1394   23485236.9214
     -1927.2144      -1501.7264         43.0004         38.0004
 -20701817.05843 -16093868.31042  20621922.6454   20621924.2474   20621921.8454
      -378.0484       -294.5784         52.0004         47.0004
 -15823194.69043 -12292028.25142  21353573.6354   21353578.0174   21353573.3434
     -2340.3424      -1823.6374         48.0004         44.0004
 -15298471.87743 -11870987.92442  21157098.1204   21157102.4764   21157097.7974
      2245.5124       1749.7474         49.0004         45.0004
  -8915978.22443  -6913061.92442  22889219.2624   22889222.9494   22889219.4124
      2623.2094       2044.0604         44.0004         39.0004
  -9665254.03443  -7485858.45642  23573754.4834   23573757.9074   23573754.3234
     -2908.8724      -2266.6544         42.0004         37.0004
  -1602085.60943  -1217787.55742  23817062.8624   23817067.5364   23817062.4154
      2348.3434       1829.8754         41.0004         36.0004
 -12416723.32843  -9637090.42442  21469519.0824   21469522.3854   21469518.6814
     -1011.2934       -788.0184         48.0004         44.0004
 04 12 25  0 43  0.0000000  0  8G15G19G 3G 1G11G22G20G14
  -1909364.47343  -1435798.45342  23496254.7164   23496260.2674   23496253.9294
     -1932.1144      -1505.5394         43.0004         38.0004
 -20690178.39943 -16084799.24242  20624137.4454   20624139.0494   20624136.6334
      -397.5794       -309.8004         52.0004         47.0004
 -15752760.57843 -12237144.57042  21366976.8664   21366981.2374   21366976.5734
     -2354.9914      -1835.0414         48.0004         44.0004
 -15365589.93843 -11923287.69642  21144325.9344   21144330.3234   21144325.6264
      2229.3614       1737.1664         49.0004         45.0004
  -8994638.72743  -6974355.80142  22874250.9384   22874254.4454   22874250.8394
      2621.2904       2042.5654         44.0004         40.0004
  -9577971.73343  -7417846.36242  23590363.6334   23590367.0134   23590363.6454
     -2909.4924      -2267.1294         42.0004         38.0004
  -1672428.26643  -1272599.99442  23803677.0954   23803681.7384   23803676.6404
      2341.6024       1824.6194         41.0004         36.0004
 -12386087.97643  -9613218.74542  21475348.8174   21475352.0834   21475348.4284
     -1030.6904       -803.1384         48.0004         44.0004
 04 12 25  0 43 30.0000000  0  8G15G19G 3G 1G11G22G20G14
  -1851319.11543  -1390568.38842  23507300.3854   23507305.9374   23507299.5954
     -1937.6324      -1509.8394         43.0004         39.0004
 -20677951.88843 -16075272.11242  20626464.0674   20626465.6854   20626463.2594
      -417.5914       -325.3884         52.0004         47.0004
 -15681890.14743 -12181920.88542  21380463.0434   21380467.4584   21380462.7704
     -2370.0524      -1846.7814         48.0004         43.0004
 -15432215.78743 -11975203.92242  21131647.4204   21131651.8094   21131647.1284
      2212.3014       1723.8674         49.0004         45.0004
  -9073238.00443  -7035601.96942  22859294.0324   22859297.2874   22859293.9174
      2618.4894       2040.3764         44.0004         40.0004
  -9490667.05643  -7349816.80442  23606977.1494   23606980.5944   23606977.1434
     -2911.0464      -2268.3424         42.0004         38.0004
  -1742564.00343  -1327251.18142  23790330.6684   23790335.2724   23790330.1574
      2334.1534       1818.8134         41.0004         36.0004
 -12354868.08243  -9588891.57442  21481289.7134   21481293.0514   21481289.3794
     -1050.5854       -818.6264         48.0004         44.0004
 04 12 25  0 44  0.0000000  0  8G15G19G 3G 1G11G22G20G14
  -1793123.27743  -1345221.04742  23518374.7464   23518380.2674   23518373.9694
     -1942.9534      -1513.9864         43.0004         38.0004
 -20665138.13743 -16065287.38742  20628902.4634   20628904.0724   20628901.6594
      -437.2144       -340.6804         52.0004         47.0004
 -15610586.37043 -12126359.53642  21394031.7584   21394036.1394   21394031.4754
     -2384.2844      -1857.8974         48.0004         43.0004
 -15498347.71043 -12026735.27742  21119062.8954   21119067.3114   21119062.5904
      2195.8504       1711.0544         49.0004         45.0004
  -9151775.14943  -7096799.72742  22844348.8484   22844352.1574   22844348.7304
      2616.6524       2038.9484         44.0004         40.0004
  -9403342.01743  -7281771.42042  23623594.6474   23623598.2784   23623594.6534
     -2911.4034      -2268.6184         42.0004         38.0004
  -1812493.17543  -1381741.39842  23777023.5114   23777028.2704   23777023.0834
      2327.1874       1813.3824         41.0004         36.0004
 -12323065.55743  -9564110.40642  21487341.5354   21487344.8304   21487341.1674
     -1070.0604       -833.8074         48.0004         44.0004
 04 12 25  0 44 30.0000000  0  8G15G19G 3G 1G11G22G20G14
  -1734776.79943  -1299756.32942  23529477.8214   23529483.2004   23529477.0724
     -1948.0054      -1517.9364         43.0004         38.0004
 -20651737.52743 -16054845.37442  20631452.4844   20631454.1354   20631451.6984
      -456.8844       -356.0184         52.0004         47.0004
 -15538851.49543 -12070462.27942  21407682.4384   21407686.8504   21407682.1324
     -2398.9654      -1869.3274         48.0004         43.0004
 -15563983.60243 -12077880.10942  21106572.7764   21106577.1964   21106572.4334
      2178.9504       1697.8644         49.0004         45.0004
  -9230249.03843  -7157948.19242  22829415.7424   22829419.0474   22829415.6174
      2614.4284       2037.2174         44.0004         40.0004
  -9315997.98843  -7213711.22842  23640215.7754   23640219.5864   23640215.6814
     -2911.9524      -2269.0514         42.0004         38.0004
  -1882215.94443  -1436070.80642  23763755.6374   23763760.3324   23763755.1194
      2320.4584       1808.1534         41.0004         37.0004
 -12290681.85943  -9538876.37742  21493504.0134   21493507.2934   21493503.6614
     -1089.6224       -849.0644         48.0004         44.0004
                            4  1
RINEX FILE SPLICE; other post-header comments skipped       COMMENT
 04 12 25  0 45  0.0000000  0  8G15G19G 3G 1G11G22G20G14
  -1676279.14743  -1254173.79642  23540609.4994   23540614.9774   23540608.7964
     -1951.7734      -1520.8654         43.0004         38.0004
 -20637750.07143 -16043946.07842  20634114.2554   20634115.8974   20634113.4374
      -475.5044       -370.5124         52.0004         47.0004
 -15466687.54743 -12014230.67342  21421414.7914   21421419.2414   21421414.5184
     -2411.8984      -1879.4054         48.0004         43.0004
 -15629121.23943 -12128636.69542  21094177.4034   21094181.8784   21094177.1364
      2163.6284       1685.9464         49.0004         45.0004
  -9308658.09043  -7219046.13942  22814494.9014   22814498.3584   22814494.8374
      2613.0814       2036.1654         44.0004         40.0004
  -9228636.36243  -7145637.32642  23656840.0944   23656844.0014   23656840.0304
     -2912.0904      -2269.1534         42.0004         38.0004
  -1951732.12943  -1490239.20442  23750527.1454   23750531.7904   23750526.4474
      2314.2674       1803.3264         42.0004         37.0004
 -12257718.16043  -9513190.40042  21499776.8084   21499780.0924   21499776.4734
     -1107.9074       -863.2964         48.0004         44.0004
 04 12 25  0 45 30.0000000  0  8G15G19G 3G 1G11G22G20G14
  -1617629.44743  -1208472.80442  23551770.1674   23551775.8334   23551769.5304
     -1958.0314      -1525.7324         43.0004         38.0004
 -20623175.83543 -16032589.54742  20636887.6654   20636889.2964   20636886.8424
      -495.9554       -386.4684         52.0004         47.0004
 -15394096.81143 -11957666.50742  21435228.3844   21435232.8694   21435228.0664
     -2427.3044      -1891.4124         48.0004         43.0004
 -15693757.85743 -12179002.87142  21081877.4614   21081881.9474   21081877.2024
      2145.8684       1672.0954         50.0004         45.0004
  -9387001.07943  -7280092.60242  22799586.7634   22799590.2204   22799586.6184
      2609.9454       2033.7244         45.0004         40.0004
  -9141258.02343  -7077550.40342  23673467.7004   23673471.6144   23673467.6614
     -2913.3464      -2270.1434         42.0004         38.0004
  -2021041.53643  -1544246.48642  23737337.9144   23737342.8174   23737337.1594
      2306.6204       1797.3694         41.0004         37.0004
 -12224175.54843  -9487053.31542  21506159.8364   21506163.0084   21506159.4804
     -1128.0654       -879.0204         48.0004         44.0004
 04 12 25  0 46  0.0000000  0  8G15G19G 3G 1G11G22G20G14
  -1558828.31643  -1162653.80642  23562959.7584   23562965.4874   23562959.0914
     -1963.0974      -1529.6854         43.0004         38.0004
 -20608015.71943 -16020776.49142  20639772.5294   20639774.1884   20639771.7294
      -515.4084       -401.6004         52.0004         47.0004
 -15321082.34043 -11900772.15742  21449122.5664   21449127.0894   21449122.2724
     -2441.2154      -1902.2294         48.0004         43.0004
 -15757892.02743 -12228977.53742  21069673.1004   21069677.6114   21069672.7904
      2128.9544       1658.9284         50.0004         45.0004
  -9465277.27243  -7341087.01342  22784691.2394   22784694.7424   22784691.0974
      2607.5354       2031.8434         45.0004         40.0004
  -9053865.12043  -7009452.11642  23690098.2774   23690101.9644   23690098.2374
     -2913.9474      -2270.5994         42.0004         38.0004
  -2090144.89143  -1598093.21042  23724187.8434   23724192.9374   23724187.3064
      2299.5144       1791.8214         41.0004         37.0004
 -12190056.25943  -9460466.87642  21512652.5844   21512655.6634   21512652.1814
     -1147.2704       -893.9824         48.0004         44.0004
 04 12 25  0 46 30.0000000  0  8G15G19G 3G 1G11G22G20G14
  -1499874.22343  -1116715.61642  23574178.4304   23574184.2374   23574177.6884
     -1967.6574      -1533.2384         43.0004         38.0004
 -20592268.72343 -16008506.12642  20642769.1094   20642770.7694   20642768.3114
      -534.7054       -416.6524         52.0004         48.0004
 -15247645.21443 -11843548.47142  21463097.1924   21463101.7584   21463096.8924
     -2455.1374      -1913.0954         48.0004         43.0004
 -15821520.40043 -12278558.06942  21057564.9884   21057569.5244   21057564.6904
      2112.4984       1646.1094         50.0004         45.0004
  -9543483.95343  -7402027.27142  22769808.9964   22769812.5274   22769808.8974
      2605.5834       2030.3204         45.0004         40.0004
  -8966457.99343  -6941342.74742  23706731.4604   23706734.9544   23706731.3894
     -2913.9014      -2270.5704         42.0004         38.0004
  -2159040.77743  -1651778.26842  23711077.5424   23711082.3844   23711076.9304
      2293.1494       1786.8654         41.0004         37.0004
 -12155360.51143  -9433431.25042  21519254.9494   21519258.0534   21519254.5394
     -1166.1944       -908.7234         48.0004         44.0004
 04 12 25  0 47  0.0000000  0  8G15G19G 3G 1G11G22G20G14
  -1440767.82343  -1070658.75942  23585426.0874   23585431.8284   23585425.3164
     -1971.9064      -1536.5584         42.0004         38.0004
 -20575935.95843 -15995779.31342  20645877.1464   20645878.8154   20645876.3524
      -553.5924       -431.3664         52.0004         47.0004
 -15173788.78443 -11785998.04342  21477151.5904   21477156.1904   21477151.3354
     -2467.9514      -1923.0674         48.0004         43.0004
 -15884641.76443 -12327743.53142  21045553.3714   21045557.9694   21045553.0964
      2096.1874       1633.4064         50.0004         45.0004
  -9621621.30843  -7462913.49142  22754940.0004   22754943.5124   22754939.8544
      2604.2084       2029.2564         45.0004         40.0004
  -8879038.53743  -6873223.79242  23723366.9374   23723370.3234   23723366.7354
     -2913.7914      -2270.4884         42.0004         38.0004
  -2227730.34943  -1705302.57942  23698006.3564   23698011.3334   23698005.7544
      2286.8844       1781.9894         42.0004         37.0004
 -12120090.60243  -9405948.22242  21525966.5474   21525969.7584   21525966.1744
     -1184.4254       -922.9314         48.0004         44.0004
 04 12 25  0 47 30.0000000  0  8G15G19G 3G 1G11G22G20G14
  -1381508.67043  -1024482.86342  23596702.6134   23596708.5284   23596701.9144
     -1977.5884      -1540.9814         42.0004         38.0004
 -20559017.55043 -15982596.15742  20649096.6324   20649098.2934   20649095.8534
      -573.5754       -446.9374         52.0004         47.0004
 -15099514.96243 -11728122.39242  21491285.3764   21491290.0774   21491285.1874
     -2482.3054      -1934.2584         48.0004         43.0004
 -15947253.52243 -12376531.89342  21033638.7294   21033643.3314   21033638.4324
      2078.8084       1619.8514         50.0004         45.0004
  -9699687.21443  -7523744.04642  22740084.5934   22740088.1624   22740084.3934
      2601.1904       2026.9084         45.0004         40.0004
  -8791607.91643  -6805096.11742  23740004.4594   23740007.9634   23740004.3194
     -2914.3124      -2270.8894         42.0004         38.0004
  -2296213.06943  -1758665.69242  23684974.5154   23684979.5464   23684973.7594
      2279.5054       1776.2454         42.0004         37.0004
 -12084247.67543  -9378018.69142  21532787.2654   21532790.5054   21532786.8874
     -1204.0634       -938.2344         48.0004         44.0004
 04 12 25  0 48  0.0000000  0  8G15G19G 3G 1G11G22G20G14
  -1322096.08843   -978187.41642  23608008.5374   23608014.3574   23608007.8704
     -1982.9274      -1545.1364         42.0004         37.0004
 -20541513.35543 -15968956.54442  20652427.5724   20652429.2404   20652426.8114
      -593.5024       -462.4684         52.0004         47.0004
 -15024825.83943 -11669923.10842  21505498.1664   21505502.9714   21505498.0484
     -2496.6374      -1945.4374         48.0004         43.0004
 -16009353.17743 -12424921.21642  21021821.5284   21021826.1924   21021821.2404
      2061.2324       1606.1754         50.0004         45.0004
  -9777680.13043  -7584517.73642  22725243.1194   22725246.5694   22725242.9134
      2598.3244       2024.6624         45.0004         40.0004
  -8704167.03943  -6736960.44442  23756643.8714   23756647.5704   23756643.8864
     -2914.8184      -2271.2894         42.0004         38.0004
  -2364488.87943  -1811867.58442  23671982.0364   23671987.0484   23671981.3304
      2272.2924       1770.6094         42.0004         37.0004
 -12047833.13043  -9349643.74542  21539716.7604   21539719.9634   21539716.3724
     -1223.4374       -953.3224         48.0004         44.0004
 04 12 25  0 48 30.0000000  0  8G15G19G 3G 1G11G22G20G14
  -1262529.51343   -931771.97242  23619343.6724   23619349.3684   23619342.9084
     -1988.1144      -1549.1764         42.0004         37.0004
 -20523423.70743 -15954860.73542  20655869.8794   20655871.6114   20655869.1544
      -612.7234       -477.4294         52.0004         47.0004
 -14949723.56543 -11611401.91642  21519789.6504   21519794.5154   21519789.5354
     -2510.0954      -1955.9144         48.0004         43.0004
 -16070938.20943 -12472909.53442  21010102.2824   21010106.9724   21010101.9854
      2044.2214       1592.9124         50.0004         45.0004
  -9855598.51943  -7645233.32542  22710415.8334   22710419.1804   22710415.5234
      2596.0624       2022.9004         45.0004         40.0004
  -8616716.95243  -6668817.60642  23773285.2854   23773288.8794   23773285.1474
     -2915.1514      -2271.5344         42.0004         38.0004
  -2432557.17043  -1864907.76242  23659029.1204   23659034.1664   23659028.3714
      2265.6264       1765.4164         42.0004         37.0004
 -12010847.95043  -9320824.14442  21546754.8144   21546758.0434   21546754.4124
     -1242.2934       -968.0224         48.0004         44.0004
 04 12 25  0 49  0.0000000  0  8G15G19G 3G 1G11G22G20G14
  -1202809.66543   -885237.08842  23630708.0094   23630713.7284   23630707.1554
     -1993.2434      -1553.1814         42.0004         37.0004
 -20504749.92843 -15940309.76242  20659423.4574   20659425.1354   20659422.6874
      -632.1324       -492.5534         52.0004         47.0004
 -14874211.46443 -11552561.36442  21534159.1904   21534164.0654   21534159.0764
     -2523.6564      -1966.4694         48.0004         43.0004
 -16132007.56643 -12520496.03242  20998481.1754   20998485.8734   20998480.8604
      2027.1834       1579.6294         50.0004         45.0004
  -9933441.98643  -7705890.56542  22695602.6084   22695606.0204   22695602.3364
      2593.7164       2021.0814         45.0004         40.0004
  -8529259.83543  -6600669.27142  23789928.0114   23789931.5784   23789927.9024
     -2915.4804      -2271.7954         43.0004         38.0004
  -2500419.12543  -1917787.16342  23646115.4544   23646120.4564   23646114.6124
      2258.4784       1759.8524         42.0004         37.0004
 -11973294.73443  -9291561.92242  21553900.9284   21553904.2474   21553900.5364
     -1261.3534       -982.8694         48.0004         44.0004
 04 12 25  0 49 30.0000000  0  8G15G19G 3G 1G11G22G20G14
  -1142934.90343   -838581.47442  23642101.6564   23642107.6704   23642100.9504
     -1998.0384      -1556.9114         42.0004         37.0004
 -20485490.71943 -15925302.60542  20663088.4224   20663090.0604   20663087.6094
      -651.4534       -507.6254         52.0004         47.0004
 -14798290.60243 -11493402.28942  21548606.5014   21548611.4054   21548606.3524
     -2537.1394      -1976.9894         47.0004         43.0004
 -16192557.78043 -12567678.00142  20986958.8544   20986963.5314   20986958.5444
      2009.9024       1566.1494         50.0004         45.0004
 -10011207.90943  -7766487.36742  22680804.2564   22680807.6284   22680803.9374
      2591.0114       2018.9664         45.0004         40.0004
  -8441795.61643  -6532515.44342  23806572.0354   23806575.5824   23806571.9284
     -2915.3254      -2271.6714         43.0004         38.0004
  -2568073.21343  -1970504.60342  23633241.2254   23633246.3174   23633240.5564
      2252.1724       1754.9394         42.0004         37.0004
 -11935173.56443  -9261857.14042  21561155.1164   21561158.5024   21561154.7524
     -1279.8134       -997.2494         48.0004         44.0004
 04 12 25  0 50  0.0000000  0  8G15G19G 3G 1G11G22G20G14
  -1082905.82343   -791805.63942  23653524.8784   23653530.8664   23653524.1964
     -2004.4004      -1561.8664         42.0004         37.0004
 -20465647.75043 -15909840.57242  20666864.4444   20666866.0644   20666863.6054
      -672.0644       -523.7014         52.0004         47.0004
 -14721964.34743 -11433927.34442  21563130.9294   21563135.8584   21563130.7634
     -2551.8354      -1988.4524         47.0004         43.0004
 -16252587.81443 -12614454.63242  20975535.4724   20975540.2004   20975535.1994
      1991.3894       1551.7194         50.0004         45.0004
 -10088895.69243  -7827023.27742  22666020.6434   22666024.1464   22666020.4184
      2587.2984       2016.0744         45.0004         40.0004
  -8354326.47843  -6464357.76242  23823216.8124   23823220.4454   23823216.8504
     -2916.5364      -2272.6264         42.0004         38.0004
  -2635520.83543  -2023061.16342  23620406.2924   23620411.4334   23620405.6984
      2243.8254       1748.4364         42.0004         38.0004
 -11896487.22943  -9231711.96342  21568516.9104   21568520.2884   21568516.5804
     -1299.9714      -1012.9744         48.0004         44.0004
 04 12 25  0 50 30.0000000  0  8G15G19G 3G 1G11G22G20G14
  -1022722.14843   -744909.33742  23664977.5014   23664983.5424   23664976.8874
     -2009.1474      -1565.5674         42.0004         37.0004
 -20445221.87043 -15893924.32442  20670751.3794   20670753.0094   20670750.5364
      -690.7444       -538.2484         52.0004         47.0004
 -14645235.49243 -11374138.67342  21577731.8954   21577736.9164   21577731.7774
     -2564.5974      -1998.3864         47.0004         43.0004
 -16312095.85243 -12660824.51842  20964211.5164   20964216.1884   20964211.2154
      1974.6824       1538.7134         50.0004         45.0004
 -10166504.46843  -7887497.63042  22651252.1644   22651255.5924   22651251.9504
      2585.3264       2014.5414         45.0004         40.0004
  -8266854.09643  -6396197.55142  23839862.3464   23839865.8604   23839862.4184
     -2915.9424      -2272.1554         42.0004         38.0004
  -2702761.92143  -2075456.76242  23607610.6574   23607615.8084   23607610.0014
      2237.7914       1743.7334         42.0004         37.0004
 -11857237.57143  -9201127.84142  21575985.9294   21575989.2684   21575985.5574
     -1318.0314      -1027.0584         48.0004         44.0004
 04 12 25  0 51  0.0000000  0  8G15G19G 3G 1G11G22G20G14
   -962383.36343   -697892.19242  23676459.6084   23676465.6354   23676459.0654
     -2014.2904      -1569.5714         42.0004         37.0004
 -20424212.93343 -15877553.74542  20674749.2484   20674750.8894   20674748.4204
      -710.6154       -553.7334         52.0004         47.0004
 -14568106.07143 -11314037.88042  21592409.1644   21592414.1534   21592409.0524
     -2578.1574      -2008.9584         47.0004         43.0004
 -16371079.19343 -12706785.55042  20952987.3664   20952992.0254   20952987.0774
      1956.7834       1524.7734         50.0004         46.0004
 -10244032.20043  -7947908.82742  22636498.9874   22636502.4934   22636498.8754
      2582.2244       2012.1204         45.0004         40.0004
  -8179379.05143  -6328035.26842  23856508.4364   23856511.7884   23856508.4574
     -2916.2424      -2272.3984         42.0004         38.0004
  -2769796.14043  -2127691.21242  23594854.3704   23594859.5924   23594853.8964
      2230.3094       1737.9014         42.0004         38.0004
 -11817425.76343  -9170105.67642  21583561.8314   21583565.2884   21583561.5314
     -1336.9994      -1041.8174         48.0004         44.0004
 04 12 25  0 51 30.0000000  0  8G15G19G 3G 1G11G22G20G14
   -901888.22443   -650753.18142  23687971.5504   23687977.5174   23687970.8994
     -2018.9114      -1573.1854         42.0004         37.0004
 -20402620.31643 -15860728.35442  20678858.1934   20678859.8654   20678857.3464
      -729.2714       -568.2754         52.0004         47.0004
 -14490577.35943 -11253625.95342  21607162.5204   21607167.4204   21607162.3774
     -2590.7544      -2018.7624         47.0004         43.0004
 -16429534.92343 -12752335.45542  20941863.6144   20941868.2674   20941863.3264
      1939.7584       1511.4914         50.0004         46.0004
 -10321476.53643  -8008255.04742  22621761.9114   22621765.3004   22621761.7164
      2580.3144       2010.6344         45.0004         41.0004
  -8091901.60343  -6259871.09342  23873155.0524   23873158.2684   23873155.0104
     -2916.0104      -2272.2094         42.0004         37.0004
  -2836622.53443  -2179763.68742  23582137.7754   23582142.9444   23582137.3224
      2223.7514       1732.7904         42.0004         38.0004
 -11777052.29943  -9138645.85942  21591244.6784   21591248.1684   21591244.3764
     -1354.9724      -1055.8314         48.0004         44.0004
 04 12 25  0 52  0.0000000  0  8G15G19G 3G 1G11G22G20G14
   -841237.41643   -603492.86842  23699513.1264   23699518.9644   23699512.4654
     -2024.4574      -1577.4914         42.0004         37.0004
 -20380445.51743 -15843449.31442  20683077.9244   20683079.5924   20683077.0804
      -748.9274       -583.5734         52.0004         47.0004
 -14412652.74243 -11192905.51742  21621991.1934   21621996.0574   21621991.0114
     -2604.2044      -2029.2524         47.0004         43.0004
 -16487461.90943 -12797473.34742  20930840.4834   20930845.1104   20930840.1724
      1922.0184       1497.6754         50.0004         45.0004
 -10398836.95343  -8068535.86542  22607040.6414   22607044.1534   22607040.5084
      2577.1824       2008.1884         45.0004         41.0004
  -8004423.87143  -6191706.72642  23889801.5104   23889804.8524   23889801.5804
     -2915.8774      -2272.1014         42.0004         37.0004
  -2903242.23943  -2231675.10042  23569460.4064   23569465.6924   23569460.1184
      2216.9004       1727.4554         42.0004         38.0004
 -11736120.04643  -9106750.62342  21599033.8694   21599037.3714   21599033.5484
     -1373.7264      -1070.4354         48.0004         44.0004
 04 12 25  0 52 30.0000000  0  8G15G19G 3G 1G11G22G20G14
   -780430.70243   -556111.07042  23711084.3404   23711090.3074   23711083.6364
     -2029.3884      -1581.3394         42.0004         37.0004
 -20357689.27343 -15825717.20142  20687408.3374   20687409.9804   20687407.4894
      -768.1684       -598.5684         52.0004         47.0004
 -14334334.78643 -11131878.59242  21636894.6674   21636899.5884   21636894.5024
     -2617.1584      -2039.3364         47.0004         43.0004
 -16544858.31143 -12842197.79342  20919918.3034   20919922.9204   20919917.9844
      1904.4704       1483.9874         50.0004         46.0004
 -10476112.18443  -8128750.31542  22592335.7734   22592339.1384   22592335.5614
      2574.3854       2006.0184         45.0004         41.0004
  -7916947.00543  -6123543.02642  23906448.0704   23906451.0934   23906448.0254
     -2915.8254      -2272.0774         42.0004         37.0004
  -2969655.21943  -2283425.42242  23556822.4054   23556827.6354   23556822.0834
      2210.2804       1722.2904         42.0004         38.0004
 -11694630.58543  -9074421.19842  21606929.0584   21606932.5404   21606928.7434
     -1392.2754      -1084.8944         48.0004         43.0004
 04 12 25  0 53  0.0000000  0  8G15G19G 3G 1G11G22G20G14
   -719466.83843   -508606.85242  23722685.3664   23722691.5404   23722684.7324
     -2035.1644      -1585.8384         42.0004         37.0004
 -20334351.06043 -15807531.60542  20691849.4874   20691851.1024   20691848.6304
      -787.8554       -613.9204         52.0004         47.0004
 -14255625.02643 -11070546.36342  21651872.6574   21651877.6274   21651872.4804
     -2630.4484      -2049.7034         47.0004         43.0004
 -16601720.98843 -12886506.35642  20909097.6704   20909102.3104   20909097.3704
      1886.1874       1469.7404         50.0004         46.0004
 -10553299.73843  -8188896.44842  22577647.4574   22577650.7664   22577647.2774
      2570.9134       2003.2984         45.0004         41.0004
  -7829471.28343  -6055380.21442  23923094.2634   23923097.1984   23923094.1844
     -2915.9804      -2272.1824         42.0004         37.0004
  -3035860.61743  -2335014.02342  23544224.0194   23544228.9834   23544223.4864
      2203.1934       1716.7784         42.0004         38.0004
 -11652584.72543  -9041658.20942  21614930.1604   21614933.6424   21614929.7824
     -1411.0294      -1099.5104         48.0004         44.0004
 04 12 25  0 53 30.0000000  0  8G15G19G 3G 1G11G22G20G14
   -658346.10343   -460980.36242  23734316.3984   23734322.3794   23734315.8194
     -2039.4754      -1589.2004         42.0004         37.0004
 -20310432.22543 -15788893.57442  20696401.0964   20696402.7264   20696400.2714
      -806.6774       -628.5824         52.0004         47.0004
 -14176526.54043 -11008911.23442  21666924.5974   21666929.6054   21666924.4634
     -2642.5584      -2059.1484         47.0004         43.0004
 -16658048.68043 -12930398.04942  20898378.8344   20898383.5274   20898378.5754
      1869.1414       1456.4844         50.0004         46.0004
 -10630398.79843  -8248973.60742  22562975.9974   22562979.3554   22562975.8004
      2568.9394       2001.7684         45.0004         41.0004
  -7741998.59743  -5987219.78042  23939739.9844   23939742.8764   23939739.6794
     -2915.2384      -2271.6174         42.0004         37.0004
  -3101859.15843  -2386441.42442  23531665.0104   23531669.7954   23531664.4444
      2197.3124       1712.1914         42.0004         38.0004
 -11609984.57543  -9008463.32142  21623036.7554   21623040.2594   21623036.3674
     -1428.7244      -1113.2864         48.0004         44.0004
 04 12 25  0 54  0.0000000  0  8G15G19G 3G 1G11G22G20G14
   -597068.47343   -413231.63642  23745977.1784   23745983.1304   23745976.6044
     -2045.5544      -1593.9294         41.0004         37.0004
 -20285933.87243 -15769803.97142  20701063.0154   20701064.6194   20701062.1844
      -826.4904       -644.0264         52.0004         47.0004
 -14097042.15043 -10946975.40142  21682049.9884   21682055.0104   21682049.8814
     -2656.0934      -2069.6854         47.0004         43.0004
 -16713839.79243 -12973871.62842  20887762.2464   20887766.8054   20887761.9104
      1850.6054       1442.0274         50.0004         46.0004
 -10707408.44043  -8308981.10542  22548321.5604   22548324.8864   22548321.3824
      2565.2234       1998.8784         46.0004         41.0004
  -7654530.56543  -5919062.97142  23956384.7164   23956387.6684   23956384.3864
     -2915.5714      -2271.8744         42.0004         38.0004
  -3167651.01243  -2437707.77642  23519145.2054   23519149.9704   23519144.5954
      2189.7614       1706.3124         42.0004         38.0004
 -11566832.47643  -8974838.32642  21631248.3944   21631251.8274   21631247.9804
     -1447.9234      -1128.2694         48.0004         43.0004
 04 12 25  0 54 30.0000000  0  8G15G19G 3G 1G11G22G20G14
   -535634.19943   -365360.84742  23757667.8444   23757673.7894   23757667.1244
     -2050.2764      -1597.6044         42.0004         37.0004
 -20260856.42343 -15750263.12542  20705835.0564   20705836.7334   20705834.2634
      -845.5234       -658.8444         52.0004         47.0004
 -14017174.56943 -10884740.97542  21697248.3294   21697253.3514   21697248.2514
     -2668.7204      -2079.5144         47.0004         43.0004
 -16769092.81843 -13016925.91242  20877247.9194   20877252.4844   20877247.5944
      1832.7954       1428.1624         50.0004         46.0004
 -10784327.00443  -8368917.61742  22533684.5184   22533687.7394   22533684.2474
      2562.4554       1996.7294         46.0004         41.0004
  -7567068.17943  -5850910.54842  23973028.1944   23973031.2564   23973027.9254
     -2915.0294      -2271.4414         42.0004         37.0004
  -3233236.48343  -2488813.29742  23506664.8204   23506669.4384   23506664.0694
      2182.8544       1700.9224         43.0004         38.0004
 -11523130.05243  -8940784.52042  21639564.6574   21639568.1274   21639564.2504
     -1465.9444      -1142.2934         48.0004         44.0004
 04 12 25  0 55  0.0000000  0  8G15G19G 3G 1G11G22G20G14
   -474042.26143   -317367.20342  23769388.3744   23769394.3964   23769387.7604
     -2054.9324      -1601.2294         42.0004         37.0004
 -20235199.86443 -15730271.03242  20710717.3634   20710719.0454   20710716.5654
      -864.1784       -673.3694         52.0004         47.0004
 -13936926.02043 -10822209.69742  21712519.2714   21712524.2494   21712519.1224
     -2680.5834      -2088.7654         47.0004         43.0004
 -16823805.07843 -13059558.82342  20866836.5244   20866841.0804   20866836.1614
      1815.3834       1414.6054         50.0004         46.0004
 -10861152.29543  -8428781.47142  22519065.1494   22519068.3324   22519064.9124
      2559.7554       1994.6204         46.0004         41.0004
  -7479612.25943  -5782763.16642  23989670.2904   23989673.5474   23989670.2084
     -2914.3314      -2270.9024         41.0004         36.0004
  -3298615.09143  -2539757.63842  23494223.4244   23494228.2124   23494222.8694
      2176.7994       1696.2124         43.0004         38.0004
 -11478878.52843  -8906302.83842  21647985.4024   21647988.9404   21647985.0554
     -1483.6084      -1156.0414         48.0004         43.0004
 04 12 25  0 55 30.0000000  0  8G15G19G 3G 1G11G22G20G14
   -412292.56343   -269250.62342  23781138.9494   23781145.0364   23781138.3904
     -2061.2144      -1606.1384         42.0004         37.0004
 -20208965.19943 -15709828.46442  20715709.6734   20715711.3744   20715708.8964
      -884.2224       -689.0074         52.0004         47.0004
 -13856298.85843 -10759383.39142  21727862.3854   21727867.1304   21727862.0674
     -2693.8104      -2099.0754         47.0004         42.0004
 -16877974.83743 -13101769.00542  20856528.3274   20856532.9004   20856527.9684
      1796.6254       1399.9594         50.0004         46.0004
 -10937883.22343  -8488571.77942  22504463.6774   22504466.9564   22504463.4874
      2556.0994       1991.7584         46.0004         41.0004
  -7392163.95743  -5714621.72242  24006311.0974   24006314.4074   24006311.0184
     -2914.7644      -2271.2344         41.0004         36.0004
  -3363786.98843  -2590540.88242  23481821.5344   23481826.4144   23481820.9674
      2168.6824       1689.8794         42.0004         38.0004
 -11434080.02943  -8871394.93842  21656510.3354   21656513.8504   21656510.0324
     -1502.3574      -1170.6714         48.0004         43.0004
 04 12 25  0 56  0.0000000  0  8G15G19G 3G 1G11G22G20G14
   -350384.20843   -221010.42742  23792919.8074   23792925.7504   23792919.1924
     -2066.4164      -1610.1964         42.0004         37.0004
 -20182152.55643 -15688935.52342  20720811.9324   20720813.6644   20720811.1624
      -903.5774       -704.0924         52.0004         47.0004
 -13775295.03243 -10696263.58842  21743276.9864   21743281.6984   21743276.6434
     -2706.4954      -2108.9674         47.0004         42.0004
 -16931599.51043 -13143554.44842  20846323.8504   20846328.4554   20846323.5444
      1778.1584       1385.5664         50.0004         46.0004
 -11014518.20743  -8548287.33842  22489880.5344   22489883.7734   22489880.2864
      2552.4774       1988.9474         46.0004         41.0004
  -7304723.39943  -5646486.32542  24022950.6744   24022954.0714   24022950.3964
     -2914.6694      -2271.1734         41.0004         36.0004
  -3428751.62343  -2641162.63742  23469459.3344   23469463.9404   23469458.6044
      2161.9284       1684.6194         43.0004         38.0004
 -11388735.72243  -8836061.73142  21665139.1604   21665142.5654   21665138.8204
     -1520.7214      -1184.9814         48.0004         43.0004
 04 12 25  0 56 30.0000000  0  8G15G19G 3G 1G11G22G20G14
   -288317.66043   -172646.96842  23804730.9014   23804736.7554   23804730.2364
     -2071.7444      -1614.3444         42.0004         37.0004
 -20154763.50043 -15667593.42742  20726023.9564   20726025.6554   20726023.1634
      -922.8494       -719.1074         52.0004         47.0004
 -13693917.70143 -10632852.74142  21758762.5494   21758767.3504   21758762.2454
     -2719.0954      -2118.7704         47.0004         43.0004
 -16984678.12243 -13184914.39642  20836223.2904   20836227.8684   20836222.9894
      1759.8954       1371.3594         50.0004         46.0004
 -11091055.91243  -8607927.09242  22475315.8404   22475319.1794   22475315.6274
      2549.4214       1986.5564         46.0004         41.0004
  -7217292.88543  -5578358.77342  24039588.1874   24039591.7464   24039588.0364
     -2914.3684      -2270.9314         41.0004         36.0004
  -3493509.98443  -2691623.66042  23457136.2574   23457140.7204   23457135.5834
      2155.0004       1679.2134         43.0004         38.0004
 -11342848.25043  -8800305.28742  21673871.2154   21673874.6354   21673870.9244
     -1538.9354      -1199.1824         48.0004         43.0004
 04 12 25  0 57  0.0000000  0  8G15G19G 3G 1G11G22G20G14
   -226092.25743   -124159.71642  23816572.0424   23816578.0464   23816571.3014
     -2077.9414      -1619.1734         42.0004         37.0004
 -20126798.30543 -15645802.39842  20731345.5474   20731347.3144   20731344.7854
      -942.9314       -734.7524         52.0004         47.0004
 -13612169.23543 -10569152.69442  21774318.7874   21774323.6274   21774318.5604
     -2732.3124      -2129.0674         47.0004         42.0004
 -17037208.46543 -13225847.11642  20826227.1204   20826231.5834   20826226.8014
      1740.7374       1356.4124         50.0004         46.0004
 -11167494.53443  -8667489.62942  22460770.0134   22460773.4264   22460769.7954
      2545.3234       1983.3684         46.0004         41.0004
  -7129872.98243  -5510239.47342  24056223.7064   24056227.4454   24056223.6204
     -2915.0414      -2271.4444         41.0004         36.0004
  -3558061.66243  -2741923.64142  23444852.4724   23444856.9414   23444851.7684
      2147.1074       1673.0654         43.0004         38.0004
 -11296418.89943  -8764126.59242  21682706.5034   21682709.8254   21682706.1834
     -1557.7234      -1213.8154         48.0004         43.0004
 04 12 25  0 57 30.0000000  0  8G15G19G 3G 1G11G22G20G14
   -163708.40243    -75549.00342  23828443.2714   23828449.3614   23828442.7114
     -2081.1284      -1621.6444         41.0004         37.0004
 -20098258.42643 -15623563.56442  20736776.5654   20736778.3114   20736775.7704
      -960.0324       -748.0594         52.0004         47.0004
 -13530052.62343 -10505165.78342  21789945.1204   21789949.9704   21789944.8994
     -2742.4084      -2136.9334         47.0004         42.0004
 -17089189.20243 -13266351.57542  20816335.5084   20816339.9404   20816335.1814
      1724.4594       1343.7484         50.0004         46.0004
 -11243833.25543  -8726974.34642  22446243.1294   22446246.5764   22446242.9684
      2543.7484       1982.1344         46.0004         41.0004
  -7042465.33043  -5442129.72042  24072856.8944   24072860.6324   24072856.7214
     -2911.9994      -2269.0754         41.0004         36.0004
  -3622407.26343  -2792063.03142  23432607.7944   23432612.3114   23432607.1974
      2142.3814       1669.3884         43.0004         38.0004
 -11249450.19643  -8727527.61942  21691644.4054   21691647.7084   21691644.0924
     -1573.5844      -1226.1514         48.0004         43.0004
 04 12 25  0 58  0.0000000  0  8G15G19G 3G 1G11G22G20G14
   -101165.38243    -26814.26742  23840344.8864   23840350.9534   23840344.3134
     -2087.2164      -1626.3984         41.0004         37.0004
 -20069144.25543 -15600877.22242  20742316.8674   20742318.5994   20742316.0844
      -980.1284       -763.7504         52.0004         47.0004
 -13447570.15543 -10440893.79142  21805641.1284   21805645.9314   21805640.8444
     -2755.4524      -2147.1054         47.0004         42.0004
 -17140618.19843 -13306426.10042  20806548.8674   20806553.3094   20806548.5594
      1704.9634       1328.5294         50.0004         46.0004
 -11320070.03243  -8786379.60142  22431735.8064   22431739.2414   22431735.5274
      2539.5274       1978.8514         46.0004         41.0004
  -6955070.58643  -5374030.02842  24089487.7514   24089491.3364   24089487.4994
     -2912.8714      -2269.7584         40.0004         35.0004
  -3686546.66643  -2842041.74342  23420402.3524   23420406.9714   23420401.7004
      2134.5644       1663.2904         43.0004         38.0004
 -11201943.57643  -8690509.49842  21700684.6314   21700687.9224   21700684.3054
     -1592.7114      -1241.0644         48.0004         43.0004
 04 12 25  0 58 30.0000000  0  8G15G19G 3G 1G11G22G20G14
    -38462.44143     22045.09042  23852277.1334   23852283.0284   23852276.4644
     -2092.5274      -1630.5334         41.0004         37.0004
 -20039456.11343 -15577743.63442  20747966.3764   20747968.1154   20747965.5794
      -998.8994       -778.3704         52.0004         47.0004
 -13364723.88643 -10376338.31642  21821406.3064   21821411.0754   21821405.9814
     -2767.3534      -2156.3614         47.0004         42.0004
 -17191493.24443 -13346068.98342  20796867.6724   20796872.1124   20796867.3434
      1686.7474       1314.3454         50.0004         46.0004
 -11396202.93343  -8845703.91842  22417248.2464   22417251.5904   22417247.9164
      2536.2004       1976.2544         46.0004         41.0004
  -6867689.31243  -5305940.84942  24106115.8824   24106119.3084   24106115.6314
     -2912.1044      -2269.1544         40.0004         35.0004
  -3750479.49843  -2891859.50142  23408236.3574   23408241.0814   23408235.5614
      2127.7914       1658.0194         42.0004         38.0004
 -11153900.41543  -8653073.29842  21709826.9504   21709830.2534   21709826.6164
     -1610.1394      -1254.6434         48.0004         43.0004
 04 12 25  0 59  0.0000000  0  8G15G19G 3G 1G11G22G20G14
     24399.83443     71028.62442  23864239.3624   23864245.3054   23864238.7314
     -2097.9394      -1634.7434         41.0004         37.0004
 -20009195.53543 -15554163.99742  20753724.7754   20753726.5394   20753723.9774
     -1017.9284       -793.1804         52.0004         47.0004
 -13281517.29943 -10311502.06942  21837239.9504   21837244.8514   21837239.6974
     -2779.3704      -2165.7514         47.0004         42.0004
 -17241813.18243 -13385279.31642  20787292.0024   20787296.5094   20787291.7244
      1668.3624       1300.0364         50.0004         46.0004
 -11472231.01843  -8904946.58042  22402780.4144   22402783.9034   22402780.2894
      2532.6114       1973.4574         46.0004         41.0004
  -6780323.10143  -5237863.38442  24122741.1394   24122744.7474   24122740.8764
     -2911.5644      -2268.7554         40.0004         36.0004
  -3814206.46343  -2941516.84742  23396109.4404   23396114.2724   23396108.6984
      2121.2554       1652.9274         43.0004         38.0004
 -11105323.62343  -8615221.26742  21719070.8084   21719074.1274   21719070.4664
     -1627.7274      -1268.3624         48.0004         43.0004
 04 12 25  0 59 30.0000000  0  8G15G19G 3G 1G11G22G20G14
     87421.60443    120136.40842  23876232.1554   23876237.9594   23876231.4454
     -2103.3794      -1638.9904         41.0004         36.0004
 -19978363.37943 -15530138.97142  20759591.9584   20759593.7564   20759591.1694
     -1037.0994       -808.1164         52.0004         47.0004
 -13197952.94643 -10246387.05742  21853141.8554   21853146.6844   21853141.4844
     -2791.1344      -2174.8944         47.0004         42.0004
 -17291576.33543 -13424055.78642  20777822.3754   20777826.8754   20777822.0994
      1649.6264       1285.4334         50.0004         46.0004
 -11548152.78843  -8964106.38542  22388332.8074   22388336.4294   22388332.7654
      2529.2584       1970.8494         46.0004         41.0004
  -6692973.16943  -5169798.59442  24139363.1604   24139366.9334   24139363.0084
     -2911.0044      -2268.3174         40.0004         36.0004
  -3877727.69943  -2991013.88142  23384021.6794   23384026.5844   23384020.9504
      2114.3064       1647.5094         43.0004         38.0004
 -11056214.94843  -8576954.79142  21728415.9204   21728419.2714   21728415.5424
     -1645.6814      -1282.3464         48.0004         43.0004
                            4  1
RINEX FILE SPLICE; other post-header comments skipped       COMMENT
 04 12 25  1  0  0.0000000  0  8G15G19G 3G 1G11G22G20G14
    150603.79943    169369.20542  23888255.2984   23888261.2224   23888254.6964
     -2108.7314      -1643.1814         41.0004         36.0004
 -19946959.93543 -15505668.78442  20765567.8874   20765569.6564   20765567.0774
     -1055.9374       -822.7944         52.0004         47.0004
 -13114032.67543 -10180994.70342  21869111.2684   21869116.2754   21869111.0144
     -2802.9694      -2184.1164         47.0004         42.0004
 -17340780.67143 -13462396.81842  20768459.0134   20768463.5964   20768458.7724
      1631.1484       1271.0224         50.0004         46.0004
 -11623966.02343  -9023181.62042  22373906.0814   22373909.5494   22373905.9654
      2525.3454       1967.7964         46.0004         41.0004
  -6605640.00843  -5101746.89142  24155982.1174   24155986.0274   24155982.1064
     -2910.4084      -2267.8494         41.0004         36.0004
  -3941042.84943  -3040350.30142  23371973.1304   23371978.0754   23371972.3764
      2107.4834       1642.1944         43.0004         38.0004
 -11006575.68043  -8538274.86642  21737861.9464   21737865.2734   21737861.5924
     -1663.2034      -1296.0084         48.0004         43.0004
 04 12 25  1  0 30.0000000  0  8G15G19G 3G 1G11G22G20G14
    213946.38943    218727.00142  23900309.1284   23900314.8744   23900308.4954
     -2114.1774      -1647.4124         41.0004         37.0004
 -19914986.23243 -15480754.23342  20771652.2554   20771654.0954   20771651.4644
     -1075.4614       -838.0204         51.0004         47.0004
 -13029759.17643 -10115327.10542  21885147.9484   21885153.0394   21885147.7334
     -2815.2184      -2193.6834         47.0004         42.0004
 -17389424.43843 -13500301.04442  20759202.4364   20759206.9704   20759202.1654
      1611.7924       1255.9354         50.0004         46.0004
 -11699669.35143  -9082171.21842  22359500.2034   22359503.6784   22359500.0934
      2521.4994       1964.8024         46.0004         41.0004
  -6518324.62643  -5033709.04742  24172597.6564   24172601.7294   24172597.7594
     -2910.4044      -2267.8464         41.0004         36.0004
  -4004152.01243  -3089526.23242  23359963.7324   23359968.6264   23359963.0844
      2099.8884       1636.2744         43.0004         38.0004
 -10956407.97343  -8499183.16742  21747408.5644   21747411.8764   21747408.2014
     -1681.3074      -1310.1034         48.0004         43.0004
 04 12 25  1  1  0.0000000  0  8G15G19G 3G 1G11G22G20G14
    277448.75843    268209.26842  23912393.2834   23912399.1274   23912392.7654
     -2119.1054      -1651.2434         41.0004         37.0004
 -19882444.13643 -15455396.78942  20777844.7984   20777846.6604   20777844.0054
     -1093.8734       -852.3754         51.0004         47.0004
 -12945136.22943 -10049387.20242  21901251.1764   21901256.2534   21901251.0034
     -2826.2704      -2202.2854         46.0004         42.0004
 -17437506.90343 -13537767.89442  20750052.6814   20750057.1804   20750052.3984
      1593.5214       1241.7024         50.0004         46.0004
 -11775262.09743  -9141074.64342  22345115.3464   22345118.9164   22345115.2764
      2518.2034       1962.2344         46.0004         41.0004
  -6431029.13443  -4965686.72042  24189209.6064   24189213.6304   24189209.6454
     -2909.0864      -2266.8184         41.0004         36.0004
  -4067056.45943  -3138542.67642  23347993.4354   23347998.1894   23347992.7384
      2093.6644       1631.4244         43.0004         38.0004
 -10905714.81943  -8459682.02942  21757055.1094   21757058.4454   21757054.7804
     -1698.1714      -1323.2544         48.0004         43.0004
 04 12 25  1  1 30.0000000  0  8G15G19G 3G 1G11G22G20G14
    341112.30643    317817.15042  23924508.1184   23924514.0184   23924507.6744
     -2124.6344      -1655.5504         41.0004         37.0004
 -19849333.67643 -15429596.46242  20784145.5554   20784147.3974   20784144.7524
     -1112.7104       -867.0514         51.0004         47.0004
 -12860165.15043  -9983176.04442  21917420.7154   21917425.7404   21917420.4784
     -2837.6474      -2211.1474         46.0004         42.0004
 -17485025.33943 -13574795.23742  20741010.2334   20741014.6944   20741009.9104
      1574.8334       1227.1464         50.0004         46.0004
 -11850741.43243  -9199889.70142  22330752.1454   22330755.5974   22330752.0234
      2514.3974       1959.2674         46.0004         41.0004
  -6343753.10843  -4897679.54342  24205817.8284   24205821.7794   24205817.8624
     -2908.4334      -2266.3044         40.0004         36.0004
  -4129755.12843  -3187398.73742  23336062.2044   23336067.0214   23336061.6244
      2087.0514       1626.2724         43.0004         38.0004
 -10854496.98343  -8419772.05942  21766801.5984   21766804.8924   21766801.2434
     -1715.5714      -1336.8014         48.0004         43.0004
 04 12 25  1  2  0.0000000  0  8G15G19G 3G 1G11G22G20G14
    404937.35043    367550.85142  23936653.7434   23936659.6034   23936653.2394
     -2130.0274      -1659.7424         41.0004         36.0004
 -19815655.37243 -15403353.65842  20790554.4284   20790556.1584   20790553.5924
     -1132.1064       -882.1684         51.0004         47.0004
 -12774848.32243  -9916695.46242  21933656.0464   21933661.1194   21933655.7744
     -2849.3844      -2220.2934         46.0004         42.0004
 -17531977.83943 -13611381.59742  20732075.4304   20732079.9184   20732075.1434
      1555.7824       1212.2854         50.0004         46.0004
 -11926105.56643  -9258614.99142  22316410.8084   22316414.2634   22316410.6324
      2510.3504       1956.1064         46.0004         41.0004
  -6256497.35243  -4829688.12442  24222422.0794   24222426.0304   24222422.2384
     -2908.0234      -2265.9864         40.0004         36.0004
  -4192247.75943  -3236094.26542  23324170.1534   23324175.0654   23324169.5234
      2079.4444       1620.3484         43.0004         38.0004
 -10802756.20643  -8379454.59742  21776647.6224   21776650.8874   21776647.3024
     -1733.1644      -1350.5244         48.0004         43.0004
 04 12 25  1  2 30.0000000  0  8G15G19G 3G 1G11G22G20G14
    468923.75943    417410.30342  23948829.9044   23948835.8804   23948829.4364
     -2135.4904      -1664.0064         41.0004         36.0004
 -19781410.78743 -15376669.59442  20797070.9164   20797072.7124   20797070.0814
     -1150.8804       -896.7964         51.0004         47.0004
 -12689188.99743  -9849948.00342  21949956.4784   21949961.6204   21949956.2774
     -2861.1134      -2229.4454         46.0004         42.0004
 -17578363.32843 -13647526.12642  20723248.5864   20723253.0194   20723248.2744
      1536.5404       1197.3064         51.0004         46.0004
 -12001353.41843  -9317249.66142  22302091.6024   22302095.1714   22302091.4124
      2506.1484       1952.8354         46.0004         41.0004
  -6169263.22343  -4761713.59942  24239022.2284   24239026.3954   24239022.5244
     -2908.0014      -2265.9714         41.0004         36.0004
  -4254535.20743  -3284629.90942  23312317.2764   23312322.1414   23312316.7214
      2072.7374       1615.1164         43.0004         38.0004
 -10750495.10643  -8338731.68442  21786592.5594   21786595.8804   21786592.2394
     -1750.8694      -1364.3214         48.0004         43.0004
 04 12 25  1  3  0.0000000  0  8G15G19G 3G 1G11G22G20G14
    533071.26343    467395.30942  23961036.7924   23961042.8094   23961036.4394
     -2141.0734      -1668.3724         41.0004         36.0004
 -19746601.46643 -15349545.47642  20803694.8674   20803696.7344   20803694.0604
     -1169.8574       -911.5764         51.0004         47.0004
 -12603190.26643  -9782936.08442  21966321.6674   21966326.6214   21966321.3594
     -2872.2994      -2238.1534         46.0004         41.0004
 -17624180.86243 -13683228.09442  20714529.8394   20714534.2434   20714529.5264
      1517.7854       1182.6834         51.0004         46.0004
 -12076483.78443  -9375792.79742  22287794.7884   22287798.3064   22287794.5594
      2502.2164       1949.7824         46.0004         41.0004
  -6082052.40643  -4693757.24842  24255618.0224   24255622.1904   24255618.1474
     -2906.9114      -2265.1214         41.0004         36.0004
  -4316618.02443  -3333006.10442  23300503.2504   23300508.2424   23300502.6644
      2065.9494       1609.8264         43.0004         38.0004
 -10697716.40343  -8297605.45242  21796635.9434   21796639.3744   21796635.6524
     -1768.0084      -1377.6734         48.0004         43.0004
 04 12 25  1  3 30.0000000  0  8G15G19G 3G 1G11G22G20G14
    597380.13543    517506.00342  23973274.4554   23973280.4974   23973274.1264
     -2145.3864      -1671.7234         41.0004         36.0004
 -19711228.33443 -15321982.02742  20810426.1974   20810428.0614   20810425.3434
     -1187.5914       -925.3824         51.0004         47.0004
 -12516854.74143  -9715661.71142  21982750.7064   21982755.8074   21982750.5154
     -2882.4164      -2246.0284         46.0004         41.0004
 -17669428.52743 -13718486.01242  20705919.4784   20705923.8894   20705919.1944
      1499.6424       1168.5664         51.0004         46.0004
 -12151494.96143  -9434243.05242  22273520.6374   22273524.1594   22273520.4024
      2499.1774       1947.4214         46.0004         42.0004
  -5994865.65243  -4625819.64442  24272209.1064   24272213.3614   24272209.1544
     -2904.7374      -2263.4244         40.0004         36.0004
  -4378495.99343  -3381222.66542  23288728.2714   23288733.1584   23288727.6184
      2059.9334       1605.1504         43.0004         38.0004
 -10644421.62443  -8256077.08042  21806777.6864   21806781.0534   21806777.3954
     -1784.2274      -1390.2944         48.0004         43.0004
 04 12 25  1  4  0.0000000  0  8G15G19G 3G 1G11G22G20G14
    661850.54143    567742.59642  23985542.7924   23985548.9504   23985542.4064
     -2151.4054      -1676.4104         41.0004         36.0004
 -19675292.48243 -15293980.10142  20817264.5554   20817266.4494   20817263.7414
     -1206.6704       -940.2614         51.0004         47.0004
 -12430184.76343  -9648126.73842  21999243.5644   21999248.6444   21999243.2814
     -2893.8964      -2254.9864         46.0004         42.0004
 -17714104.77943 -13753298.67042  20697417.9114   20697422.2904   20697417.5954
      1480.2754       1153.4754         51.0004         46.0004
 -12226385.45743  -9492599.27742  22259269.3964   22259272.9494   22259269.2324
      2495.0094       1944.1614         46.0004         42.0004
  -5907703.65443  -4557901.29842  24288795.5854   24288799.6914   24288795.5484
     -2904.2494      -2263.0554         40.0004         36.0004
  -4440169.31043  -3429279.77742  23276992.1874   23276997.1144   23276991.5894
      2052.9704       1599.7184         43.0004         38.0004
 -10590612.99843  -8214148.30242  21817017.1384   21817020.5034   21817016.8834
     -1801.4874      -1403.7614         48.0004         43.0004
 04 12 25  1  4 30.0000000  0  8G15G19G 3G 1G11G22G20G14
    726482.26143    618104.88442  23997841.7954   23997847.9504   23997841.4574
     -2156.9644      -1680.7454         41.0004         36.0004
 -19638795.37443 -15265540.82742  20824209.7504   20824211.6624   20824208.9334
     -1225.7364       -955.1174         51.0004         47.0004
 -12343183.56943  -9580333.67242  22015799.3344   22015804.5534   22015799.0654
     -2905.2864      -2263.8564         46.0004         41.0004
 -17758208.76743 -13787665.40742  20689025.2094   20689029.5964   20689024.8744
      1460.7664       1138.2694         51.0004         46.0004
 -12301153.55743  -9550860.12042  22245041.5644   22245045.0274   22245041.3704
      2490.4984       1940.6484         46.0004         42.0004
  -5820567.82443  -4490003.34842  24305377.2064   24305381.2904   24305377.2684
     -2903.8864      -2262.7684         41.0004         36.0004
  -4501638.81343  -3477178.06142  23265294.9374   23265299.6854   23265294.3774
      2045.8514       1594.1764         43.0004         38.0004
 -10536293.03643  -8171821.10242  21827353.8964   21827357.3364   21827353.5904
     -1818.9234      -1417.3424         48.0004         43.0004
 04 12 25  1  5  0.0000000  0  8G15G19G 3G 1G11G22G20G14
    791276.53043    668593.83442  24010171.9334   24010178.0194   24010171.4064
     -2162.0254      -1684.6974         41.0004         36.0004
 -19601737.21943 -15236664.37342  20831261.7294   20831263.6334   20831260.8924
     -1244.1534       -969.4664         51.0004         47.0004
 -12255852.92543  -9512283.89142  22032417.8414   22032423.0784   22032417.6194
     -2916.0714      -2272.2494         46.0004         41.0004
 -17801738.15243 -13821584.40142  20680741.8374   20680746.2414   20680741.5254
      1441.9334       1123.5974         51.0004         46.0004
 -12375796.98843  -9609023.81842  22230837.4154   22230840.8204   22230837.2454
      2486.5104       1937.5454         46.0004         42.0004
  -5733458.35743  -4422125.95142  24321953.8784   24321957.9034   24321953.7424
     -2902.1714      -2261.4264         41.0004         36.0004
  -4562903.70943  -3524916.91342  23253636.5384   23253641.3434   23253635.9154
      2039.0194       1588.8444         43.0004         38.0004
 -10481463.07843  -8129096.48242  21837787.6844   21837791.1794   21837787.3794
     -1835.5954      -1430.3284         48.0004         43.0004
 04 12 25  1  5 30.0000000  0  8G15G19G 3G 1G11G22G20G14
    856233.00243    719209.19442  24022532.7874   24022538.8924   24022532.2344
     -2167.9694      -1689.3074         40.0004         36.0004
 -19564119.46643 -15207351.86642  20838420.1784   20838422.0744   20838419.3734
     -1263.1334       -984.2584         51.0004         47.0004
 -12168195.85143  -9443979.74842  22049098.4744   22049103.7134   22049098.2914
     -2927.3584      -2281.0594         46.0004         41.0004
 -17844691.57843 -13855054.60542  20672568.0414   20672572.4654   20672567.7614
      1422.2324       1108.2214         51.0004         46.0004
 -12450314.46243  -9667089.37342  22216657.1764   22216660.6474   22216656.9674
      2481.7944       1933.8594         46.0004         42.0004
  -5646376.18743  -4354269.82542  24338524.8434   24338529.2474   24338524.8994
     -2902.2164      -2261.4794         40.0004         36.0004
  -4623964.48343  -3572496.69342  23242017.0904   23242021.8294   23242016.4344
      2031.7094       1583.1534         43.0004         38.0004
 -10426125.47043  -8085976.30542  21848318.1044   21848321.5974   21848317.7714
     -1853.1474      -1444.0094         48.0004         43.0004
 04 12 25  1  6  0.0000000  0  8G15G19G 3G 1G11G22G20G14
    921352.08143    769951.22042  24034924.5234   24034930.7744   24034923.9614
     -2172.0794      -1692.5204         40.0004         36.0004
 -19525943.25943 -15177604.20942  20845684.8824   20845686.8094   20845684.0914
     -1280.7374       -997.9604         51.0004         47.0004
 -12080214.79843  -9375423.15742  22065840.7334   22065845.9814   22065840.4974
     -2937.0394      -2288.5944         46.0004         41.0004
 -17887067.43543 -13888074.74942  20664504.1974   20664508.6024   20664503.9164
      1403.9634       1094.0204         51.0004         46.0004
 -12524703.86443  -9725055.13042  22202501.3924   22202504.7544   22202501.1644
      2478.5414       1931.3254         46.0004         42.0004
  -5559322.25143  -4286435.72142  24355090.5984   24355095.3964   24355090.6944
     -2900.3654      -2260.0254         40.0004         36.0004
  -4684821.08143  -3619917.40442  23230436.4654   23230441.1664   23230435.8894
      2026.3814       1579.0044         43.0004         39.0004
 -10370282.09243  -8042462.01142  21858944.8014   21858948.3204   21858944.4664
     -1868.8114      -1456.2174         48.0004         43.0004
 04 12 25  1  6 30.0000000  0  8G15G19G 3G 1G11G22G20G14
    986633.88843    820820.07242  24047347.1694   24047353.7624   24047346.4804
     -2179.8094      -1698.5454         40.0004         35.0004
 -19487209.75743 -15147422.29342  20853055.6594   20853057.5814   20853054.8634
     -1300.7594      -1013.5834         51.0004         47.0004
 -11991912.72643  -9306616.41342  22082644.1744   22082649.3664   22082643.8754
     -2949.0474      -2297.9544         46.0004         41.0004
 -17928864.43843 -13920643.83942  20656550.5004   20656554.8964   20656550.2254
      1383.1934       1077.8104         51.0004         46.0004
 -12598963.73943  -9782919.95942  22188370.1334   22188373.5534   22188369.9964
      2472.9594       1926.9694         46.0004         42.0004
  -5472297.35843  -4218624.28542  24371651.1504   24371655.6944   24371651.1974
     -2900.4574      -2260.0824         41.0004         36.0004
  -4745473.65443  -3667179.11142  23218894.7844   23218899.3174   23218894.0904
      2017.9454       1572.4264         43.0004         38.0004
 -10313935.12143  -7998555.31142  21869667.3214   21869670.8394   21869666.9954
     -1886.9864      -1470.3714         47.0004         43.0004
 04 12 25  1  7  0.0000000  0  8G15G19G 3G 1G11G22G20G14
   1052078.43243    871815.73642  24059800.9424   24059807.4514   24059800.2044
     -2183.9574      -1701.7824         40.0004         36.0004
 -19447920.40243 -15116807.24042  20860532.1854   20860534.1534   20860531.4034
     -1318.6674      -1027.5334         51.0004         47.0004
 -11903292.41443  -9237561.69842  22099508.1194   22099513.3394   22099507.8184
     -2958.9344      -2305.6624         46.0004         41.0004
 -17970081.49343 -13952761.01742  20648707.1794   20648711.5364   20648706.9054
      1364.5034       1063.2544         51.0004         46.0004
 -12673092.69843  -9840682.77442  22174263.9364   22174267.2424   22174263.7884
      2469.1664       1924.0384         47.0004         42.0004
  -5385302.63443  -4150836.28242  24388205.8064   24388210.3144   24388206.0244
     -2899.4274      -2259.2854         41.0004         36.0004
  -4805922.69843  -3714282.22742  23207391.5884   23207396.2264   23207390.9004
      2011.7714       1567.6094         43.0004         38.0004
 -10257087.33043  -7954258.36642  21880485.2084   21880488.6864   21880484.8434
     -1902.8654      -1482.7344         48.0004         43.0004
 04 12 25  1  7 30.0000000  0  8G15G19G 3G 1G11G22G20G14
   1117685.56543    922938.07242  24072285.5984   24072292.1454   24072285.2344
     -2190.1144      -1706.5774         40.0004         36.0004
 -19408076.66043 -15085760.20442  20868114.2504   20868116.1884   20868113.4444
     -1337.6234      -1042.3074         51.0004         47.0004
 -11814356.95443  -9168261.41442  22116432.0034   22116437.3494   22116431.7304
     -2969.9284      -2314.2274         46.0004         41.0004
 -18010717.31543 -13984425.28642  20640974.4184   20640978.7984   20640974.1344
      1344.5804       1047.7274         51.0004         46.0004
 -12747088.80343  -9898342.05842  22160183.0094   22160186.2134   22160182.8394
      2464.1064       1920.0814         47.0004         42.0004
  -5298339.14143  -4083072.65042  24404754.5704   24404758.9624   24404754.7554
     -2898.5054      -2258.5844         41.0004         36.0004
  -4866168.44443  -3761226.95142  23195927.2024   23195931.6914   23195926.5544
      2004.3854       1561.8534         43.0004         38.0004
 -10199740.73743  -7909572.73842  21891397.9354   21891401.3674   21891397.5354
     -1920.2224      -1496.2874         47.0004         43.0004
 04 12 25  1  8  0.0000000  0  8G15G19G 3G 1G11G22G20G14
   1183455.60643    974187.35642  24084801.4444   24084808.0734   24084800.7924
     -2195.2684      -1710.5864         40.0004         36.0004
 -19367679.49743 -15054281.93142  20875801.6274   20875803.5434   20875800.8384
     -1356.1124      -1056.7194         51.0004         47.0004
 -11725108.79743  -9098717.46942  22133415.3864   22133420.7584   22133415.0794
     -2980.5954      -2322.5454         46.0004         41.0004
 -18050770.30543 -14015635.40142  20633352.6254   20633356.9504   20633352.3064
      1325.0234       1032.4714         51.0004         46.0004
 -12820950.62243  -9955896.71842  22146127.5254   22146130.7284   22146127.4164
      2459.2694       1916.3084         47.0004         42.0004
  -5211407.44543  -4015333.77242  24421297.3754   24421301.5834   24421297.2554
     -2897.4704      -2257.7614         40.0004         35.0004
  -4926211.26643  -3808013.52142  23184501.4364   23184505.9824   23184500.7794
      1997.7484       1556.6824         43.0004         39.0004
 -10141897.34443  -7864500.00042  21902405.1734   21902408.6274   21902404.7774
     -1936.7004      -1509.1234         47.0004         43.0004
 04 12 25  1  8 30.0000000  0  8G15G19G 3G 1G11G22G20G14
   1249388.86843   1025563.79642  24097348.1754   24097355.0254   24097347.5834
     -2200.0934      -1714.3604         40.0004         36.0004
 -19326730.03143 -15022373.28942  20883594.0924   20883595.9954   20883593.3124
     -1373.9274      -1070.5704         51.0004         47.0004
 -11635550.37143  -9028931.75642  22150457.8554   22150463.1554   22150457.5844
     -2990.2504      -2330.0624         46.0004         41.0004
 -18090239.11543 -14046390.31342  20625841.9404   20625846.2584   20625841.6674
      1306.2504       1017.8664         51.0004         46.0004
 -12894676.36743 -10013345.34042  22132097.9484   22132101.1514   22132097.8554
      2455.3004       1913.2254         47.0004         42.0004
  -5124508.34443  -3947620.30042  24437833.8324   24437838.1344   24437833.5404
     -2895.7074      -2256.3944         40.0004         36.0004
  -4986051.02843  -3854641.88042  23173114.2774   23173118.8534   23173113.5764
      1991.4644       1551.7884         43.0004         39.0004
 -10083559.29143  -7819041.81442  21913506.6274   21913509.9754   21913506.1714
     -1952.7904      -1521.6544         47.0004         43.0004
 04 12 25  1  9  0.0000000  0  8G15G19G 3G 1G11G22G20G14
   1315485.06843   1077067.23542  24109925.9504   24109932.8544   24109925.3804
     -2205.8994      -1718.8834         40.0004         36.0004
 -19285230.04643 -14990035.67242  20891491.3124   20891493.2394   20891490.5184
     -1392.2264      -1084.8654         51.0004         47.0004
 -11545685.02243  -8958906.88742  22167558.6784   22167564.0164   22167558.4174
     -3000.4014      -2337.9674         45.0004         41.0004
 -18129122.95543 -14076689.40642  20618442.5714   20618446.9374   20618442.2974
      1286.4604       1002.4374         51.0004         46.0004
 -12968264.50943 -10070686.74642  22118094.6144   22118097.7954   22118094.5094
      2450.8164       1909.7274         47.0004         42.0004
  -5037642.94443  -3879933.09942  24454364.0434   24454368.2474   24454363.6324
     -2894.9604      -2255.8214         41.0004         36.0004
  -5045688.35743  -3901112.49742  23161765.6514   23161770.2614   23161764.9344
      1984.7714       1546.5744         43.0004         39.0004
 -10024729.16343  -7773200.18442  21924701.6774   21924704.9994   21924701.2134
     -1969.1504      -1534.3984         47.0004         43.0004
 04 12 25  1  9 30.0000000  0  8G15G19G 3G 1G11G22G20G14
   1381744.95743   1128698.20042  24122534.9214   24122541.6644   24122534.2544
     -2211.5574      -1723.2784         40.0004         35.0004
 -19243180.30643 -14957269.68042  20899493.1034   20899495.0734   20899492.3434
     -1410.9394      -1099.4224         51.0004         46.0004
 -11455514.78943  -8888644.43842  22184717.5994   22184722.9354   22184717.3374
     -3010.8074      -2346.0894         45.0004         41.0004
 -18167420.01243 -14106531.26042  20611154.8394   20611159.2614   20611154.5854
      1266.6714        987.0224         51.0004         46.0004
 -13041712.59843 -10127919.02142  22104117.8984   22104121.1234   22104117.7864
      2445.7474       1905.7724         47.0004         42.0004
  -4950811.51543  -3812272.38542  24470887.3824   24470891.8714   24470887.2064
     -2893.8174      -2254.9274         41.0004         36.0004
  -5105122.78943  -3947425.02542  23150455.6574   23150460.1954   23150454.9094
      1977.3944       1540.8324         43.0004         39.0004
  -9965408.74443  -7726976.52042  21935989.9934   21935993.3224   21935989.5764
     -1985.5284      -1547.1744         47.0004         43.0004
 04 12 25  1 10  0.0000000  0  8G15G19G 3G 1G11G22G20G14
   1448167.82343   1180456.18342  24135174.7034   24135181.5764   24135174.2004
     -2216.5364      -1727.1724         40.0004         36.0004
 -19200583.05743 -14924077.05142  20907599.1804   20907601.0774   20907598.3804
     -1428.7214      -1113.2854         51.0004         46.0004
 -11365043.10143  -8818147.09942  22201933.7724   22201939.2714   22201933.5634
     -3020.3404      -2353.5054         45.0004         41.0004
 -18205130.06443 -14135915.71142  20603978.8064   20603983.2574   20603978.5604
      1247.4584        972.0474         51.0004         46.0004
 -13115020.06343 -10185041.71142  22090167.8494   22090171.1544   22090167.7884
      2441.4054       1902.3734         47.0004         42.0004
  -4864015.87843  -3744639.52442  24487403.9834   24487408.7164   24487403.8124
     -2892.2944      -2253.7304         40.0004         36.0004
  -5164355.50943  -3993580.35742  23139184.0894   23139188.5544   23139183.3774
      1971.1774       1535.9844         44.0004         39.0004
  -9905601.32643  -7680373.37042  21947371.0604   21947374.3324   21947370.5854
     -2001.3984      -1559.5324         47.0004         43.0004
 04 12 25  1 10 30.0000000  0  8G15G19G 3G 1G11G22G20G14
   1514754.69343   1232341.97142  24147845.9024   24147852.8524   24147845.3264
     -2222.2004      -1731.5834         40.0004         36.0004
 -19157438.96343 -14890458.31042  20915809.1854   20915811.1364   20915808.4514
     -1447.0234      -1127.5544         51.0004         46.0004
 -11274271.88743  -8747416.36242  22219206.9864   22219212.5374   22219206.7514
     -3030.3354      -2361.2984         45.0004         41.0004
 -18242250.91343 -14164841.04542  20596914.9584   20596919.4234   20596914.6854
      1227.5994        956.5574         51.0004         46.0004
 -13188184.10143 -10242052.64042  22076245.2294   22076248.5124   22076245.1394
      2436.3324       1898.4474         47.0004         42.0004
  -4777255.79943  -3677034.38742  24503913.8934   24503918.6794   24503913.8674
     -2891.1994      -2252.8664         40.0004         36.0004
  -5223386.00443  -4039578.12642  23127950.7904   23127955.3884   23127950.1134
      1964.2134       1530.5584         43.0004         39.0004
  -9845308.04943  -7633391.63642  21958844.4344   21958847.7884   21958844.0434
     -2017.9434      -1572.4244         47.0004         42.0004
 04 12 25  1 11  0.0000000  0  8G15G19G 3G 1G11G22G20G14
   1581504.84243   1284354.95642  24160548.1164   24160555.0704   24160547.5154
     -2228.4254      -1736.4404         40.0004         36.0004
 -19113749.86143 -14856414.89142  20924122.9564   20924124.9304   20924122.2044
     -1466.0024      -1142.3394         51.0004         46.0004
 -11183204.83743  -8676455.09742  22236536.5644   22236542.1034   22236536.3464
     -3041.3074      -2369.8474         45.0004         41.0004
 -18278782.04343 -14193306.85442  20589963.3394   20589967.7804   20589963.0444
      1207.3344        940.7734         51.0004         46.0004
 -13261203.60343 -10298950.94142  22062350.0464   22062353.3644   22062349.9944
      2430.9214       1894.2074         47.0004         43.0004
  -4690532.90343  -3609458.20742  24520416.9284   24520421.6384   24520416.9214
     -2890.9364      -2252.6654         40.0004         36.0004
  -5282215.18643  -4085419.01742  23116755.9674   23116760.5334   23116755.2754
      1957.0434       1524.9714         43.0004         39.0004
  -9784532.14443  -7586033.82242  21970409.6834   21970413.1244   21970409.3104
     -2033.9844      -1584.9184         47.0004         42.0004
 04 12 25  1 11 30.0000000  0  8G15G19G 3G 1G11G22G20G14
   1648418.90843   1336495.69042  24173281.4924   24173288.4834   24173280.9934
     -2232.9284      -1739.9414         40.0004         36.0004
 -19069517.07643 -14821947.81342  20932540.1774   20932542.1644   20932539.4314
     -1483.2784      -1155.7954         51.0004         46.0004
 -11091844.23743  -8605265.10842  22253921.9424   22253927.5004   22253921.8264
     -3049.9024      -2376.5404         45.0004         41.0004
 -18314721.89443 -14221311.92642  20583124.1814   20583128.6354   20583123.8804
      1188.3214        925.9714         51.0004         46.0004
 -13334076.67943 -10355735.13842  22048482.7624   22048486.0564   22048482.6804
      2426.8654       1891.0684         47.0004         43.0004
  -4603847.49043  -3541911.23942  24536912.7344   24536917.4554   24536912.7894
     -2888.3294      -2250.6324         40.0004         35.0004
  -5340842.66943  -4131102.75442  23105599.3774   23105604.0304   23105598.7884
      1951.0924       1520.3344         43.0004         39.0004
  -9723275.31043  -7538301.25942  21982066.4864   21982069.9674   21982066.1134
     -2049.7514      -1597.1954         47.0004         42.0004
 04 12 25  1 12  0.0000000  0  8G15G19G 3G 1G11G22G20G14
   1715497.56343   1388764.63242  24186046.2784   24186053.5164   24186045.7654
     -2238.5364      -1744.3064         40.0004         36.0004
 -19024741.19943 -14787057.55342  20941060.6954   20941062.7954   20941059.9744
     -1501.5954      -1170.0854         51.0004         46.0004
 -11000192.30843  -8533848.09042  22271362.8474   22271368.2894   22271362.6704
     -3060.0714      -2384.4694         45.0004         40.0004
 -18350068.71143 -14248854.89142  20576397.8874   20576402.3784   20576397.6034
      1168.3224        910.3864         51.0004         46.0004
 -13406800.77243 -10412403.25342  22034643.8194   22034647.0624   22034643.7444
      2421.5864       1886.9604         47.0004         42.0004
  -4517199.75543  -3474393.66042  24553401.3864   24553406.2374   24553401.6494
     -2887.5804      -2250.0724         40.0004         35.0004
  -5399268.31243  -4176629.20042  23094481.3724   23094486.0294   23094480.7324
      1944.3734       1515.0954         43.0004         39.0004
  -9661539.12543  -7490195.16942  21993814.4624   21993818.0094   21993814.1124
     -2065.8334      -1609.7274         47.0004         42.0004
 04 12 25  1 12 30.0000000  0  8G15G19G 3G 1G11G22G20G14
   1782740.07343   1441161.31242  24198842.2144   24198849.3384   24198841.7514
     -2244.1544      -1748.6984         40.0004         36.0004
 -18979424.72043 -14751746.04142  20949684.1604   20949686.2824   20949683.4124
     -1519.7994      -1184.2644         51.0004         46.0004
 -10908252.68243  -8462206.90342  22288858.5584   22288863.8664   22288858.3204
     -3069.4984      -2391.8184         45.0004         41.0004
 -18384822.28343 -14275935.59442  20569784.5004   20569788.9904   20569784.1964
      1148.3014        894.7744         51.0004         46.0004
 -13479375.14343 -10468954.68542  22020833.4184   22020836.5754   22020833.3034
      2416.3734       1882.8814         47.0004         43.0004
  -4430591.52843  -3406906.82742  24569882.0714   24569887.3064   24569882.3734
     -2886.5764      -2249.2804         39.0004         34.0004
  -5457493.30143  -4221999.30842  23083401.4524   23083406.1854   23083400.8474
      1937.4704       1509.7204         43.0004         39.0004
  -9599327.29043  -7441718.45342  22005652.9834   22005656.5824   22005652.6214
     -2081.6954      -1622.1004         47.0004         42.0004
 04 12 25  1 13  0.0000000  0  8G15G19G 3G 1G11G22G20G14
   1850145.95543   1493685.25342  24211669.2524   24211676.3734   24211668.7404
     -2249.3574      -1752.7344         40.0004         35.0004
 -18933569.39443 -14716014.65042  20958410.1554   20958412.3144   20958409.4014
     -1537.2434      -1197.8414         51.0004         46.0004
 -10816028.51843  -8390344.00942  22306408.2684   22306413.6334   22306408.0244
     -3078.6464      -2398.9434         45.0004         40.0004
 -18418981.83143 -14302553.41842  20563284.1714   20563288.6214   20563283.8474
      1128.9834        879.7334         51.0004         46.0004
 -13551798.41543 -10525388.39442  22007051.7004   22007054.8584   22007051.5874
      2411.8424       1879.3574         47.0004         43.0004
  -4344023.86043  -3339451.64442  24586355.4614   24586360.3844   24586355.7064
     -2884.3924      -2247.5794         39.0004         34.0004
  -5515518.24043  -4267213.51342  23072359.6774   23072364.3274   23072359.0494
      1931.2934       1504.9034         44.0004         39.0004
  -9536642.20643  -7392872.97042  22017581.5214   22017585.1414   22017581.1634
     -2097.1884      -1634.1694         47.0004         42.0004
 04 12 25  1 13 30.0000000  0  8G15G19G 3G 1G11G22G20G14
   1917716.22243   1546337.32042  24224527.6204   24224534.6924   24224527.0914
     -2256.0454      -1757.9394         40.0004         35.0004
 -18887175.98743 -14679863.97542  20967238.4874   20967240.7114   20967237.7734
     -1556.3624      -1212.7554         51.0004         46.0004
 -10723521.85143  -8318260.97342  22324011.6694   22324017.1014   22324011.4524
     -3089.2224      -2407.1824         45.0004         40.0004
 -18452545.55643 -14328706.96942  20556897.2104   20556901.6424   20556896.9024
      1107.7374        863.1614         51.0004         46.0004
 -13624067.87843 -10581702.24242  21993299.2684   21993302.3974   21993299.2014
      2405.2274       1874.1864         47.0004         43.0004
  -4257496.46143  -3272027.80742  24602821.0564   24602826.0424   24602821.7114
     -2884.3614      -2247.5564         40.0004         35.0004
  -5573342.42943  -4312271.30142  23061356.0734   23061360.7494   23061355.4314
      1922.7904       1498.2744         44.0004         39.0004
  -9473485.30343  -7343659.83642  22029599.9134   22029603.5034   22029599.5844
     -2114.2634      -1647.4854         47.0004         42.0004
 04 12 25  1 14  0.0000000  0  8G15G19G 3G 1G11G22G20G14
   1985451.14643   1599117.66842  24237417.1214   24237424.1984   24237416.6694
     -2259.5974      -1760.7164         40.0004         35.0004
 -18840245.86843 -14643295.08642  20976169.0264   20976171.2604   20976168.2894
     -1572.4564      -1225.2794         51.0004         46.0004
 -10630735.30143  -8245959.84342  22341668.3244   22341673.7904   22341668.1984
     -3096.8834      -2413.1474         45.0004         40.0004
 -18485512.29043 -14354395.32942  20550623.7914   20550628.2724   20550623.5074
      1089.6684        849.1084         51.0004         46.0004
 -13696181.42743 -10637894.60242  21979576.4704   21979579.6644   21979576.4434
      2401.8834       1871.6134         47.0004         43.0004
  -4171010.10543  -3204635.96442  24619279.1174   24619283.9714   24619279.5854
     -2881.5694      -2245.3704         40.0004         36.0004
  -5630966.03043  -4357172.77342  23050390.5944   23050395.3794   23050390.0474
      1918.2114       1494.7104         44.0004         39.0004
  -9409859.09143  -7294080.99842  22041707.6974   22041711.2314   22041707.3074
     -2127.7954      -1658.0134         47.0004         42.0004
 04 12 25  1 14 30.0000000  0  8G15G19G 3G 1G11G22G20G14
   2053349.61443   1652025.46842  24250337.9294   24250344.9904   24250337.5634
     -2265.4354      -1765.2814         40.0004         35.0004
 -18792781.79843 -14606310.12942  20985201.2074   20985203.3834   20985200.3984
     -1590.7044      -1239.5034         51.0004         46.0004
 -10537672.81943  -8173443.72042  22359377.4884   22359383.1104   22359377.4194
     -3106.1634      -2420.3824         45.0004         40.0004
 -18517882.28543 -14379618.69542  20544463.9664   20544468.4874   20544463.6914
      1069.5584        833.4334         51.0004         46.0004
 -13768138.67343 -10693965.17142  21965883.3904   21965886.6834   21965883.3874
      2396.4744       1867.3854         47.0004         43.0004
  -4084566.69543  -3137277.58842  24635728.7464   24635733.8354   24635729.5184
     -2879.8434      -2244.0314         41.0004         36.0004
  -5688390.41443  -4401919.02142  23039463.0944   23039467.8154   23039462.5344
      1911.1684       1489.2224         44.0004         39.0004
  -9345766.93043  -7244139.09442  22053903.9914   22053907.6594   22053903.6644
     -2143.6084      -1670.3384         47.0004         42.0004
                            4  1
RINEX FILE SPLICE; other post-header comments skipped       COMMENT
 04 12 25  1 15  0.0000000  0  8G15G19G 3G 1G11G22G20G14
   2121412.85643   1705061.64442  24263289.8384   24263297.0264   24263289.2434
     -2271.3464      -1769.8654         40.0004         35.0004
 -18744784.29643 -14568909.51442  20994334.8404   20994336.9894   20994334.0694
     -1608.5824      -1253.4254         50.0004         46.0004
 -10444336.10743  -8100713.89742  22377138.9894   22377144.6294   22377138.8894
     -3115.6404      -2427.7684         45.0004         40.0004
 -18549653.55143 -14404375.52442  20538418.1104   20538422.6004   20538417.8294
      1049.2024        817.5634         51.0004         46.0004
 -13839936.55343 -10749911.56042  21952220.6834   21952223.9994   21952220.7304
      2390.7024       1862.8844         47.0004         43.0004
  -3998165.77643  -3069952.31442  24652170.5794   24652175.3864   24652171.1524
     -2879.0814      -2243.4414         40.0004         36.0004
  -5745614.94143  -4446509.53742  23028573.6404   23028578.3404   23028573.1424
      1904.1254       1483.7324         44.0004         39.0004
  -9281210.05243  -7193835.07242  22066188.7534   22066192.4754   22066188.4304
     -2159.4294      -1682.6644         47.0004         42.0004
 04 12 25  1 15 30.0000000  0  8G15G19G 3G 1G11G22G20G14
   2189640.38343   1758225.82742  24276273.2484   24276280.2124   24276272.4784
     -2277.7454      -1774.8574         40.0004         35.0004
 -18696255.28343 -14531094.73442  21003569.5934   21003571.7774   21003568.8464
     -1627.1464      -1267.9184         50.0004         46.0004
 -10350728.36643  -8027772.88442  22394951.9944   22394957.5974   22394951.9344
     -3125.1794      -2435.2044         45.0004         40.0004
 -18580825.62443 -14428665.44642  20532486.2804   20532490.7414   20532485.9764
      1028.5974        801.4854         51.0004         46.0004
 -13911573.89243 -10805732.84642  21938588.5844   21938591.8574   21938588.5414
      2384.7074       1858.2114         47.0004         43.0004
  -3911808.66343  -3002661.15842  24668603.7584   24668608.6264   24668604.3184
     -2878.5784      -2243.0434         40.0004         35.0004
  -5802640.31243  -4490944.86442  23017722.0914   23017726.6214   23017721.5114
      1896.8764       1478.0784         44.0004         39.0004
  -9216191.54743  -7143171.34042  22078561.5024   22078565.1254   22078561.1414
     -2175.3784      -1695.0984         47.0004         42.0004
 04 12 25  1 16  0.0000000  0  8G15G19G 3G 1G11G22G20G14
   2258032.48543   1811518.24842  24289287.9014   24289294.8894   24289287.0374
     -2282.1344      -1778.2794         40.0004         35.0004
 -18647196.14643 -14492866.87242  21012905.2804   21012907.4384   21012904.5014
     -1644.0224      -1281.0504         50.0004         46.0004
 -10256851.98343  -7954622.53642  22412816.2194   22412821.7364   22412816.1444
     -3133.7444      -2441.8784         45.0004         40.0004
 -18611396.98143 -14452487.28542  20526668.7574   20526673.2124   20526668.4454
      1009.2124        786.3964         51.0004         46.0004
 -13983048.27943 -10861427.16842  21924987.5034   21924990.6794   21924987.3964
      2379.9604       1854.5154         47.0004         43.0004
  -3825495.50843  -2935404.28242  24685028.6944   24685033.6944   24685028.9954
     -2876.1694      -2241.1864         40.0004         35.0004
  -5859466.31243  -4535224.84842  23006908.3814   23006912.9654   23006907.9004
      1891.1914       1473.6504         44.0004         39.0004
  -9150713.22143  -7092149.32142  22091021.6984   22091025.2954   22091021.3464
     -2190.0654      -1706.5464         46.0004         42.0004
 04 12 25  1 16 30.0000000  0  8G15G19G 3G 1G11G22G20G14
   2326588.55043   1864938.45842  24302333.9184   24302340.7154   24302333.0994
     -2287.9564      -1782.8164         40.0004         36.0004
 -18597609.17243 -14454227.70642  21022341.4204   21022343.5574   21022340.6364
     -1661.7554      -1294.8764         50.0004         46.0004
 -10162710.71343  -7881265.78842  22430730.8734   22430736.2544   22430730.6414
     -3142.6524      -2448.8134         45.0004         40.0004
 -18641367.64643 -14475841.04042  20520965.5594   20520969.9454   20520965.2354
       988.8684        770.5494         51.0004         46.0004
 -14054358.71643 -10916993.72442  21911417.6334   21911420.7484   21911417.4684
      2374.1004       1849.9504         47.0004         43.0004
  -3739227.78743  -2868182.78342  24701445.0874   24701450.0384   24701444.9004
     -2875.2464      -2240.4494         39.0004         35.0004
  -5916093.97343  -4579350.27242  22996132.4614   22996136.9804   22996131.9474
      1884.1824       1468.1894         44.0004         39.0004
  -9084778.34443  -7040771.53342  22103568.7144   22103572.2204   22103568.3154
     -2205.5414      -1718.6024         46.0004         42.0004
 04 12 25  1 17  0.0000000  0  8G15G19G 3G 1G11G22G20G14
   2395308.73343   1918486.54942  24315411.1334   24315417.9084   24315410.3834
     -2294.0624      -1787.5814         40.0004         35.0004
 -18547496.03143 -14415178.53842  21031877.6674   21031879.8414   21031876.8684
     -1679.4244      -1308.6534         50.0004         46.0004
 -10068307.14443  -7807704.65042  22448695.3494   22448700.7464   22448695.1264
     -3151.4874      -2455.7024         44.0004         40.0004
 -18670736.49643 -14498725.86142  20515376.8104   20515381.2204   20515376.5074
       968.6124        754.7634         51.0004         46.0004
 -14125503.44443 -10972431.16642  21897879.2074   21897882.2844   21897879.0964
      2368.5744       1845.6124         48.0004         43.0004
  -3653006.01143  -2800997.08842  24717852.6694   24717857.2294   24717852.4734
     -2873.5514      -2239.1254         39.0004         35.0004
  -5972523.50943  -4623321.32142  22985394.4144   22985398.7354   22985393.8384
      1877.5744       1463.0414         44.0004         39.0004
  -9018389.35043  -6989039.89042  22116202.1014   22116205.6164   22116201.7514
     -2220.6344      -1730.3654         46.0004         42.0004
 04 12 25  1 17 30.0000000  0  8G15G19G 3G 1G11G22G20G14
   2464194.08643   1972163.32042  24328519.7954   24328526.5054   24328518.8284
     -2298.3174      -1790.9034         40.0004         35.0004
 -18496857.51243 -14375719.98742  21041513.8694   21041516.0434   21041513.0734
     -1696.4284      -1321.8754         50.0004         46.0004
  -9973643.13543  -7733940.57642  22466709.3824   22466714.8654   22466709.1204
     -3159.7274      -2462.1174         44.0004         40.0004
 -18699501.95443 -14521140.50142  20509902.9304   20509907.3294   20509902.6364
       948.9904        739.4794         51.0004         46.0004
 -14196479.68343 -11027737.31242  21884372.8354   21884375.9324   21884372.7524
      2363.1214       1841.3914         48.0004         43.0004
  -3566830.08243  -2733847.08142  24734251.5414   24734256.0454   24734251.4114
     -2871.7604      -2237.7394         39.0004         35.0004
  -6028754.45343  -4667137.61542  22974694.1034   22974698.3594   22974693.5204
      1871.1684       1458.0574         44.0004         39.0004
  -8951547.65543  -6936955.50042  22128921.7604   22128925.2744   22128921.3584
     -2235.5064      -1741.9494         46.0004         42.0004
 04 12 25  1 18  0.0000000  0  8G15G19G 3G 1G11G22G20G14
   2533244.00343   2025968.32342  24341659.6534   24341666.3114   24341658.5994
     -2304.7074      -1795.8884         40.0004         35.0004
 -18445695.67343 -14335853.65242  21051249.6844   21051251.8064   21051248.8974
     -1714.2934      -1335.8224         50.0004         46.0004
  -9878722.12943  -7659976.25942  22484772.2904   22484777.8194   22484771.9804
     -3168.4144      -2468.8854         44.0004         40.0004
 -18727663.75043 -14543084.75742  20504543.9304   20504548.3074   20504543.6454
       928.3884        723.4154         51.0004         46.0004
 -14267285.94243 -11082911.01242  21870898.9034   21870901.9204   21870898.7754
      2357.0194       1836.6484         48.0004         43.0004
  -3480701.11643  -2666733.71242  24750641.4354   24750645.9694   24750641.3184
     -2870.3984      -2236.6884         39.0004         34.0004
  -6084787.75043  -4710799.90542  22964031.3944   22964035.4554   22964030.7234
      1864.0954       1452.5384         44.0004         39.0004
  -8884256.27543  -6884520.71142  22141726.9614   22141730.4374   22141726.5614
     -2250.8074      -1753.8814         46.0004         42.0004
 04 12 25  1 18 30.0000000  0  8G15G19G 3G 1G11G22G20G14
   2602457.65343   2079900.92842  24354830.7024   24354837.5284   24354829.7674
     -2310.0954      -1800.0764         40.0004         35.0004
 -18394013.15643 -14295581.60642  21061084.6254   21061086.7254   21061083.7864
     -1731.4604      -1349.2014         50.0004         46.0004
  -9783547.59343  -7585814.36542  22502883.4174   22502888.9464   22502883.1964
     -3176.7924      -2475.4224         44.0004         40.0004
 -18755221.72843 -14564558.50142  20499299.8094   20499304.1914   20499299.5384
       908.3874        707.8194         51.0004         46.0004
 -14337920.76043 -11137951.12142  21857457.4984   21857460.4824   21857457.4074
      2351.5154       1832.3484         47.0004         43.0004
  -3394620.52243  -2599658.03742  24767021.8954   24767026.8574   24767022.2714
     -2868.3264      -2235.0594         38.0004         33.0004
  -6140624.09943  -4754308.73242  22953406.0924   22953410.1434   22953405.4064
      1857.7134       1447.5724         44.0004         39.0004
  -8816518.40143  -6831737.99642  22154616.9494   22154620.5754   22154616.5954
     -2265.3224      -1765.1834         46.0004         41.0004
 04 12 25  1 19  0.0000000  0  8G15G19G 3G 1G11G22G20G14
   2671836.34243   2133962.15742  24368033.0874   24368039.8294   24368032.1124
     -2315.1954      -1804.0434         40.0004         35.0004
 -18341810.49943 -14254904.24942  21071018.5384   21071020.5654   21071017.7034
     -1748.9884      -1362.8574         50.0004         46.0004
  -9688121.28143  -7511456.28442  22521042.5494   22521048.0184   22521042.3694
     -3185.3904      -2482.1204         44.0004         40.0004
 -18782173.98843 -14585560.26242  20494170.9294   20494175.3424   20494170.6814
       887.9694        691.9244         51.0004         46.0004
 -14408381.80243 -11192855.81742  21844049.2024   21844052.1694   21844049.0964
      2345.4194       1827.6154         48.0004         43.0004
  -3308587.56343  -2532619.47942  24783393.2364   24783398.5994   24783392.6554
     -2867.1584      -2234.1374         38.0004         33.0004
  -6196262.63843  -4797663.41342  22942818.4234   22942822.4564   22942817.7884
      1851.1424       1442.4454         44.0004         39.0004
  -8748335.35743  -6778608.39742  22167591.7664   22167595.3864   22167591.3784
     -2280.4784      -1776.9994         46.0004         41.0004
 04 12 25  1 19 30.0000000  0  8G15G19G 3G 1G11G22G20G14
   2741379.11443   2188151.18442  24381266.7424   24381273.5284   24381265.6454
     -2320.2594      -1807.9814         39.0004         35.0004
 -18289090.25843 -14213823.57542  21081050.8924   21081052.8904   21081050.0644
     -1765.8394      -1375.9624         50.0004         46.0004
  -9592446.85143  -7436904.87442  22539248.8534   22539254.4294   22539248.6854
     -3193.2394      -2488.2404         44.0004         40.0004
 -18808520.75743 -14606090.21142  20489157.3174   20489161.7044   20489157.0394
       868.3204        676.6194         51.0004         46.0004
 -14478667.83643 -11247624.14842  21830674.2484   21830677.1494   21830674.1064
      2339.9884       1823.3684         48.0004         43.0004
  -3222604.00443  -2465619.42642  24799755.3274   24799761.1344   24799755.2704
     -2864.6114      -2232.1644         38.0004         33.0004
  -6251704.81543  -4840865.09342  22932268.0514   22932272.2334   22932267.4034
      1845.0074       1437.6644         44.0004         39.0004
  -8679710.54943  -6725134.56242  22180650.6204   22180654.2854   22180650.2824
     -2294.7544      -1788.1084         46.0004         41.0004
 04 12 25  1 20  0.0000000  0  8G15G19G 3G 1G11G22G20G14
   2811086.26443   2242468.31642  24394531.5924   24394538.5294   24394530.6054
     -2325.3764      -1811.9814         40.0004         35.0004
 -18235854.22043 -14172340.98042  21091181.3444   21091183.3854   21091180.5414
     -1782.3814      -1388.8684         50.0004         46.0004
  -9496527.06843  -7362162.27842  22557501.8994   22557507.4434   22557501.6954
     -3200.3314      -2493.7554         44.0004         40.0004
 -18834261.04243 -14626147.57242  20484259.1314   20484263.4954   20484258.8694
       848.7764        661.3934         51.0004         46.0004
 -14548776.63543 -11302254.37142  21817332.9934   21817335.9324   21817332.8754
      2334.7284       1819.2764         48.0004         43.0004
  -3136670.12943  -2398658.08242  24816108.1894   24816113.9804   24816108.5914
     -2862.6964      -2230.6884         38.0004         33.0004
  -6306950.70343  -4883913.81142  22921755.0474   22921759.1954   22921754.4444
      1839.1364       1433.0944         44.0004         39.0004
  -8610646.38943  -6671318.38842  22193793.1144   22193796.8534   22193792.7554
     -2308.7024      -1798.9824         46.0004         41.0004
 04 12 25  1 20 30.0000000  0  8G15G19G 3G 1G11G22G20G14
   2880958.28043   2296913.89342  24407828.0134   24407834.8034   24407827.1084
     -2331.1304      -1816.4684         40.0004         35.0004
 -18182103.36843 -14130457.23842  21101409.8614   21101411.8804   21101409.0044
     -1799.7004      -1402.3604         50.0004         46.0004
  -9400364.32143  -7287230.35942  22575801.0314   22575806.6754   22575800.9414
     -3209.0484      -2500.5594         44.0004         40.0004
 -18859393.66643 -14645731.43142  20479476.5404   20479480.8974   20479476.2654
       827.9864        645.1904         51.0004         46.0004
 -14618705.95143 -11356744.74242  21804025.8934   21804028.8164   21804025.7434
      2328.5364       1814.4564         48.0004         43.0004
  -3050786.30943  -2331735.76842  24832451.4024   24832457.0514   24832454.4464
     -2861.3004      -2229.5704         38.0004         33.0004
  -6362000.03643  -4926809.36642  22911279.5174   22911283.5834   22911278.9094
      1832.1734       1427.6754         44.0004         39.0004
  -8541144.58943  -6617161.18042  22207018.9494   22207022.6374   22207018.5664
     -2323.5234      -1810.5224         46.0004         41.0004
 04 12 25  1 21  0.0000000  0  8G15G19G 3G 1G11G22G20G14
   2950994.69443   2351487.58842  24421155.5084   24421162.3534   24421154.6624
     -2337.7914      -1821.6584         40.0004         35.0004
 -18127840.08843 -14088174.19142  21111735.9124   21111737.8754   21111735.0264
     -1817.2454      -1416.0364         50.0004         46.0004
  -9303961.89543  -7212111.67142  22594145.8714   22594151.6084   22594145.7504
     -3217.2264      -2506.9284         44.0004         40.0004
 -18883918.56143 -14664841.73542  20474809.5494   20474813.9654   20474809.3194
       807.3644        629.0994         51.0004         46.0004
 -14688454.44943 -11411094.21442  21790753.1604   21790756.0564   21790753.0274
      2321.9954       1809.3404         48.0004         43.0004
  -2964953.39943  -2264853.07942  24848785.1564   24848790.2734   24848785.8954
     -2859.8304      -2228.4454         38.0004         33.0004
  -6416853.66743  -4969552.43842  22900841.2564   22900845.1994   22900840.6244
      1825.3884       1422.3784         44.0004         40.0004
  -8471208.48443  -6562665.56542  22220327.3454   22220331.0764   22220327.0054
     -2338.3994      -1822.1274         46.0004         41.0004
 04 12 25  1 21 30.0000000  0  8G15G19G 3G 1G11G22G20G14
   3021195.58643   2406189.44342  24434514.3974   24434521.1804   24434513.6304
     -2342.5314      -1825.3464         40.0004         35.0004
 -18073066.40143 -14045493.43042  21122159.0254   21122161.0234   21122158.1534
     -1834.1564      -1429.2294         50.0004         45.0004
  -9207322.57843  -7136808.40842  22612535.6824   22612541.6514   22612535.6034
     -3225.1184      -2513.0754         44.0004         40.0004
 -18907834.84143 -14683477.79742  20470258.4184   20470262.8164   20470258.1554
       787.1994        613.3794         51.0004         46.0004
 -14758019.98243 -11465301.12042  21777515.1874   21777518.2204   21777515.1354
      2315.9574       1804.6304         48.0004         43.0004
  -2879171.95543  -2198010.50342  24865109.0924   24865114.1464   24865109.9084
     -2858.3004      -2227.2594         38.0004         34.0004
  -6471511.88743  -5012143.23142  22890440.1064   22890444.1434   22890439.4624
      1818.8544       1417.2804         44.0004         39.0004
  -8400840.38543  -6507833.32842  22233717.9114   22233721.6274   22233717.5564
     -2352.7574      -1833.3124         46.0004         41.0004
 04 12 25  1 22  0.0000000  0  8G15G19G 3G 1G11G22G20G14
   3091560.77643   2461019.33942  24447904.5954   24447911.3714   24447903.8434
     -2347.9794      -1829.6004         39.0004         35.0004
 -18017784.11843 -14002416.35642  21132678.8544   21132680.9194   21132678.0134
     -1851.3044      -1442.5894         50.0004         46.0004
  -9110449.04943  -7061322.63842  22630970.2724   22630976.1024   22630970.1684
     -3233.1174      -2519.3154         44.0004         39.0004
 -18931142.04043 -14701639.24342  20465823.2234   20465827.6074   20465822.9474
       766.8294        597.5214         51.0004         47.0004
 -14827400.82243 -11519364.10242  21764312.5184   21764315.4614   21764312.3664
      2309.5314       1799.6374         48.0004         43.0004
  -2793442.64143  -2131208.57642  24881422.7894   24881427.8514   24881423.3574
     -2856.8914      -2226.1544         38.0004         33.0004
  -6525974.95143  -5054581.96842  22880076.0794   22880080.2024   22880075.5034
      1812.2774       1412.1554         44.0004         40.0004
  -8330042.88643  -6452666.49542  22247190.3114   22247193.9884   22247189.9094
     -2367.2904      -1844.6354         46.0004         41.0004
 04 12 25  1 22 30.0000000  0  8G15G19G 3G 1G11G22G20G14
   3162090.19043   2515977.18642  24461326.0314   24461332.6584   24461325.2724
     -2353.2834      -1833.7194         39.0004         35.0004
 -17961995.13643 -13958944.46042  21143295.1084   21143297.2404   21143294.2974
     -1867.8464      -1455.4544         50.0004         45.0004
  -9013344.42243  -6985656.78742  22649448.8384   22649454.5414   22649448.5964
     -3240.4004      -2524.9804         44.0004         39.0004
 -18953839.98243 -14719325.95442  20461503.9394   20461508.3654   20461503.6774
       746.5564        581.7464         51.0004         46.0004
 -14896594.95943 -11573281.60842  21751145.2934   21751148.2374   21751145.1454
      2303.4854       1794.9154         48.0004         43.0004
                  -2064447.89542  24897726.264    24897731.5284
                     -2224.6624                         32.0004
  -6580243.36643  -5096869.01342  22869749.1734   22869753.2364   22869748.5554
      1805.7494       1407.0814         44.0004         39.0004
  -8258818.55943  -6397167.06042  22260743.9004   22260747.5474   22260743.5204
     -2381.2144      -1855.4804         46.0004         41.0004
 04 12 25  1 23  0.0000000  0  8G15G19G 3G 1G11G22G20G14
   3232784.12043   2571063.22342  24474778.7524   24474785.3824   24474778.1284
     -2359.2734      -1838.3814         39.0004         34.0004
 -17905701.13343 -13915079.04042  21154007.4814   21154009.6354   21154006.6954
     -1884.7534      -1468.6364         50.0004         45.0004
  -8916011.08943  -6909812.72042  22667970.8114   22667976.5704   22667970.7054
     -3248.1084      -2530.9964         44.0004         39.0004
 -18975927.62343 -14736537.09242  20457300.8234   20457305.1894   20457300.5654
       726.1134        565.8214         51.0004         47.0004
 -14965600.63743 -11627052.25642  21738013.9044   21738016.9304   21738013.7734
      2297.0504       1789.9234         48.0004         43.0004
                  -1997728.70642  24914019.900    24914026.3304
                     -2223.4134                         32.0004
  -6634317.21543  -5139004.44942  22859459.1624   22859463.2754   22859458.5864
      1799.2344       1402.0074         44.0004         40.0004
  -8187169.70943  -6341336.83142  22274378.2564   22274381.8924   22274377.8964
     -2395.3754      -1866.5204         46.0004         41.0004
 04 12 25  1 23 30.0000000  0  8G15G19G 3G 1G11G22G20G14
   3303642.03743   2626277.05442  24488262.3834   24488269.4204   24488261.9224
     -2363.9914      -1842.0594         39.0004         34.0004
 -17848904.53243 -13870821.97742  21164815.5524   21164817.7124   21164814.7604
     -1901.0504      -1481.3364         50.0004         45.0004
  -8818452.56543  -6833793.19042  22686535.6074   22686541.4564   22686535.5654
     -3255.2064      -2536.5234         44.0004         40.0004
 -18997404.89943 -14753272.62642  20453213.8454   20453218.1734   20453213.5664
       706.2314        550.3104         51.0004         46.0004
 -15034416.31543 -11680674.85442  21724918.7324   21724921.6454   21724918.6014
      2291.2704       1785.4014         48.0004         43.0004
                  -1931051.71742  24930303.360    24930309.1074
                     -2221.1704                         32.0004
  -6688197.49843  -5180989.07042  22849206.0424   22849210.1164   22849205.5524
      1793.2464       1397.3364         44.0004         39.0004
  -8115099.42743  -6285178.21842  22288092.8244   22288096.4034   22288092.3954
     -2408.7584      -1876.9504         46.0004         41.0004
 04 12 25  1 24  0.0000000  0  8G15G19G 3G 1G11G22G20G14
   3374663.90143   2681618.59842  24501777.5634   24501784.7974   24501777.3404
     -2370.1154      -1846.8204         39.0004         35.0004
 -17791607.23143 -13826174.77142  21175718.8244   21175721.0434   21175718.0754
     -1918.4594      -1494.8884         50.0004         45.0004
  -8720671.72943  -6757600.42042  22705142.7414   22705148.6484   22705142.6894
     -3263.2254      -2542.7644         44.0004         39.0004
 -19018271.27743 -14769532.14242  20449243.0894   20449247.4374   20449242.8024
       685.1634        533.9044         51.0004         46.0004
 -15103039.73143 -11734147.63542  21711860.0984   21711863.0734   21711859.9584
      2284.0914       1779.8064         48.0004         43.0004
                  -1864417.29742  24946576.507    24946582.2764
                     -2220.7274                         32.0004
  -6741884.29943  -5222822.92042  22838989.7534   22838993.8024   22838989.2024
      1786.1694       1391.8234         44.0004         39.0004
  -8042610.23543  -6228693.18442  22301887.1134   22301890.7064   22301886.7404
     -2423.3924      -1888.3484         46.0004         41.0004
 04 12 25  1 24 30.0000000  0  8G15G19G 3G 1G11G22G20G14
   3445850.55343   2737088.60742  24515323.9944   24515331.0094   24515323.6864
     -2374.3094      -1850.1014         39.0004         35.0004
 -17733810.07343 -13781138.05842  21186717.2834   21186719.5114   21186716.5204
     -1934.0634      -1507.0564         50.0004         45.0004
  -8622670.39343  -6681235.84742  22723791.9324   22723797.7234   22723791.7934
     -3269.2594      -2547.4694         44.0004         39.0004
 -19038525.24343 -14785314.44142  20445388.8994   20445393.2284   20445388.6024
       665.8374        518.8444         51.0004         46.0004
 -15171468.06843 -11787468.40642  21698838.6574   21698841.6264   21698838.4924
      2278.6164       1775.5614         48.0004         43.0004
                  -1797824.91942  24962838.947    24962846.3504
                     -2218.0954                         31.0004
  -6795376.84943  -5264505.40542  22828810.3854   22828814.5274   22828809.8034
      1780.8044       1387.6394         44.0004         40.0004
  -7969703.75943  -6171882.98042  22315760.8534   22315764.4374   22315760.4284
     -2436.3164      -1898.4264         46.0004         41.0004
 04 12 25  1 25  0.0000000  0  8G15G19G 3G 1G11G22G20G14
   3517200.78343   2792686.04242  24528901.4814   24528908.5924   24528901.1204
     -2380.6954      -1855.0644         39.0004         34.0004
 -17675516.37743 -13735714.43142  21197810.2624   21197812.4854   21197809.4744
     -1950.9754      -1520.2274         50.0004         45.0004
  -8524452.80643  -6604702.76442  22742482.1614   22742487.9734   22742481.9774
     -3277.2184      -2553.6654         44.0004         39.0004
 -19058167.69443 -14800620.24942  20441651.0954   20441655.3944   20441650.7634
       644.9064        502.5274         51.0004         46.0004
 -15239700.83043 -11840636.77542  21685854.4864   21685857.3864   21685854.2094
      2271.2924       1769.7984         48.0004         43.0004
  -2280195.36543  -1731276.34042  24979090.7124   24979096.1854   24979092.0624
     -2845.9364      -2217.6244         36.0004         32.0004
  -6848676.83943  -5306037.84642  22818667.7574   22818671.8764   22818667.1264
      1773.7074       1382.1114         44.0004         40.0004
  -7896383.62743  -6114750.45942  22329713.1554   22329716.9454   22329712.8014
     -2450.6754      -1909.6084         46.0004         41.0004
 04 12 25  1 25 30.0000000  0  8G15G19G 3G 1G11G22G20G14
   3588714.67343   2848410.98642  24542510.0524   24542517.4404   24542505.8724
     -2387.1454      -1860.1104         39.0004         34.0004
 -17616727.84943 -13689905.23242  21208997.3834   21208999.6514   21208996.5724
     -1968.3014      -1533.7424         50.0004         45.0004
  -8426021.35543  -6528003.04142  22761213.1934   22761219.0124   22761212.8994
     -3285.0684      -2559.7924         44.0004         39.0004
 -19077198.05143 -14815449.09042  20438029.7344   20438034.0604   20438029.4144
       623.6864        485.9914         51.0004         46.0004
 -15307735.44543 -11893650.75042  21672907.8174   21672910.8424   21672907.6024
      2264.0564       1764.1804         48.0004         43.0004
                                  24995331.800

  -6901784.52543  -5347420.43742  22808561.6074   22808565.8844   22808561.0584
      1766.6304       1376.5964         44.0004         40.0004
  -7822652.26743  -6057297.50942  22343743.8494   22343747.5964   22343743.5034
     -2464.9144      -1920.7044         46.0004         41.0004
 04 12 25  1 26  0.0000000  0  8G15G19G 3G 1G11G22G20G14
   3660393.04543   2904264.11842  24556149.8834   24556157.6614   24556149.0034
     -2392.3534      -1864.1804         39.0004         34.0004
 -17557445.48343 -13643711.21842  21220278.4214   21220280.7744   21220277.6404
     -1984.6114      -1546.4544         50.0004         45.0004
  -8327378.02843  -6451138.20542  22779984.5444   22779990.2834   22779984.2144
     -3291.9724      -2565.1744         44.0004         39.0004
 -19095614.76843 -14829799.77142  20434525.0834   20434529.4534   20434524.8224
       603.3914        470.1664         51.0004         46.0004
 -15375569.35243 -11946508.32542  21659999.4354   21660002.4534   21659999.2434
      2257.3854       1759.0054         48.0004         44.0004
                                  25011562.722

  -6954699.28743  -5388652.69142  22798492.2604   22798496.4624   22798491.7264
      1760.2844       1371.6394         44.0004         40.0004
  -7748511.38943  -5999525.43742  22357852.3544   22357856.0924   22357852.1314
     -2478.5054      -1931.3074         46.0004         41.0004
 04 12 25  1 26 30.0000000  0  8G15G19G 3G 1G11G22G20G14
   3732234.89943   2960244.64142  24569821.1964   24569828.6494   24569820.9164
     -2397.3494      -1868.0814         39.0004         34.0004
 -17497672.66943 -13597135.03642  21231652.7994   21231655.2154   21231652.0374
     -2000.8544      -1559.1094         50.0004         45.0004
  -8228526.66443  -6374111.26942  22798795.3474   22798801.1924   22798795.0534
     -3298.6594      -2570.3824         44.0004         39.0004
 -19113418.77043 -14843673.01542  20431137.0934   20431141.4764   20431136.8154
       583.0574        454.3364         51.0004         46.0004
 -15443201.74043 -11999208.86442  21647129.4454   21647132.4464   21647129.2174
      2250.7564       1753.8324         48.0004         43.0004
                                  25027782.277

  -7007422.53343  -5429735.71942  22788459.3444   22788463.5104   22788458.8224
      1753.8314       1366.6154         44.0004         40.0004
  -7673964.85243  -5941437.27242  22372038.1684   22372041.8754   22372037.9114
     -2491.6764      -1941.5634         46.0004         41.0004
 04 12 25  1 27  0.0000000  0  7G15G19G 3G 1G11G20G14
   3804240.02343   3016352.38242  24583523.4824   24583530.7544   24583522.9074
     -2403.1494      -1872.5854         39.0004         34.0004
 -17437411.29643 -13550178.16542  21243120.2154   21243122.5824   21243119.4394
     -2017.0644      -1571.7314         50.0004         45.0004
  -8129470.13543  -6296924.46042  22817645.2754   22817651.1024   22817644.8974
     -3305.4114      -2575.6364         43.0004         39.0004
 -19130609.65243 -14857068.50642  20427865.7754   20427870.1244   20427865.4834
       562.6254        438.4144         51.0004         46.0004
 -15510630.50743 -12051750.74842  21634298.1024   21634301.1384   21634297.9504
      2244.1034       1748.6174         48.0004         44.0004
  -7059954.82943  -5470669.94142  22778462.7384   22778467.0564   22778462.2064
      1747.9194       1362.0044         44.0004         40.0004
  -7599014.90643  -5883034.76242  22386300.6754   22386304.4994   22386300.4484
     -2505.2124      -1952.1044         46.0004         41.0004
 04 12 25  1 27 30.0000000  0  7G15G19G 3G 1G11G20G14
   3876408.87843   3072587.71342  24597256.9204   24597264.0534   24597256.4134
     -2408.3194      -1876.6024         39.0004         35.0004
 -17376662.79143 -13502841.70542  21254680.3544   21254682.6894   21254679.5654
     -2032.5684      -1583.8214         50.0004         45.0004
  -8030210.75743  -6219579.59342  22836533.7604   22836539.6814   22836533.3684
     -3311.6524      -2580.4994         43.0004         39.0004
 -19147186.64643 -14869985.63742  20424711.2774   20424715.5984   20424711.0084
       542.6954        422.8874         51.0004         46.0004
 -15577853.08143 -12104131.95742  21621506.0474   21621509.1084   21621505.8964
      2237.6894       1743.6624         48.0004         44.0004
  -7112295.60643  -5511454.94442  22768502.6684   22768506.8574   22768502.0874
      1741.7944       1357.2464         44.0004         40.0004
  -7523663.81743  -5824319.67442  22400639.5684   22400643.4574   22400639.3344
     -2517.9434      -1962.0234         46.0004         41.0004
 04 12 25  1 28  0.0000000  0  7G15G19G 3G 1G11G20G14
   3948741.20343   3128950.38942  24611021.4384   24611028.7134   24611020.8324
     -2414.1954      -1881.1864         39.0004         34.0004
 -17315429.59043 -13455127.56142  21266332.6384   21266335.0524   21266331.8774
     -2049.6134      -1597.1124         50.0004         45.0004
  -7930751.68443  -6142079.11842  22855460.3364   22855466.2774   22855460.0114
     -3319.3044      -2586.4724         43.0004         39.0004
 -19163149.80143 -14882424.45342  20421673.6164   20421677.9324   20421673.3004
       521.6534        406.4754         51.0004         47.0004
 -15644867.74243 -12156351.15942  21608753.5634   21608756.6364   21608753.4224
      2230.0124       1737.6794         48.0004         44.0004
  -7164445.57443  -5552091.25142  22758578.8834   22758583.0314   22758578.2544
      1734.6574       1351.6704         44.0004         40.0004
  -7447914.56643  -5765294.33642  22415054.2644   22415058.1364   22415053.9974
     -2532.0834      -1973.0514         46.0004         41.0004
 04 12 25  1 28 30.0000000  0  7G15G19G 3G 1G11G20G14
   4021236.53443   3185440.09742  24624816.8334   24624824.2634   24624816.3054
     -2420.2324      -1885.8924         38.0004         34.0004
 -17253714.07143 -13407037.58942  21278076.7444   21278079.1494   21278075.9664
     -2065.9024      -1609.7934         50.0004         45.0004
  -7831096.32143  -6064425.68642  22874424.2714   22874430.1344   22874423.9734
     -3325.9064      -2591.6064         43.0004         39.0004
 -19178499.12243 -14894384.96342  20418752.7164   20418757.0654   20418752.4224
       500.6924        390.1504         51.0004         46.0004
 -15711672.92143 -12208407.12542  21596040.9644   21596044.0274   21596040.8044
      2222.6744       1731.9514         48.0004         44.0004
  -7216405.53643  -5592579.51042  22748691.1334   22748695.3814   22748690.4724
      1728.0914       1346.5624         44.0004         40.0004
  -7371769.86043  -5705960.85142  22429544.2414   22429548.0124   22429543.9574
     -2545.3534      -1983.3904         46.0004         41.0004
 04 12 25  1 29  0.0000000  0  7G15G19G 3G 1G11G20G14
   4093894.44843   3242056.49242  24638643.3834   24638650.9004   24638642.7794
     -2424.8444      -1889.4564         38.0004         34.0004
 -17191518.49843 -13358573.54742  21289912.2194   21289914.6124   21289911.4664
     -2081.1534      -1621.6734         50.0004         45.0004
  -7731247.66543  -5986621.65142  22893424.8534   22893430.8494   22893424.5994
     -3331.2714      -2595.7924         43.0004         38.0004
 -19193234.53943 -14905867.10942  20415948.6644   20415952.9704   20415948.3734
       480.9984        374.7974         51.0004         47.0004
 -15778267.06343 -12260298.64442  21583368.5854   21583371.5764   21583368.3274
      2216.3174       1726.9994         48.0004         44.0004
  -7268176.13543  -5632920.22142  22738839.5474   22738843.7494   22738838.8884
      1722.5234       1342.2324         45.0004         40.0004
  -7295232.75343  -5646321.60142  22444108.8044   22444112.5244   22444108.4284
     -2557.9374      -1993.1934         45.0004         41.0004
 04 12 25  1 29 30.0000000  0  7G15G19G 3G 1G11G20G14
   4166715.08543   3298799.69242  24652500.8904   24652508.3264   24652500.0694
     -2429.8514      -1893.3804         39.0004         34.0004
 -17128844.77843 -13309736.91442  21301838.7194   21301841.0774   21301837.9714
     -2097.0934      -1634.0814         50.0004         45.0004
  -7631208.16243  -5908668.89842  22912461.5934   22912467.8044   22912461.5034
     -3338.1284      -2601.1364         43.0004         38.0004
 -19207355.54243 -14916870.48242  20413261.5544   20413265.8504   20413261.2504
       460.4164        358.7584         51.0004         46.0004
 -15844647.71043 -12312023.81442  21570736.7384   21570739.7594   21570736.4724
      2208.9524       1721.2494         48.0004         44.0004
  -7319757.46143  -5673113.43142  22729023.9174   22729028.1134   22729023.2754
      1715.8984       1337.0634         45.0004         40.0004
  -7218305.68243  -5586378.46942  22458747.6714   22458751.3584   22458747.2514
     -2570.7424      -2003.1734         46.0004         41.0004
                            4  1
RINEX FILE SPLICE; other post-header comments skipped       COMMENT
 04 12 25  1 30  0.0000000  0  7G15G19G 3G 1G11G20G14
   4239699.20643   3355670.26042  24666389.4344   24666396.6324   24666388.9604
     -2436.3534      -1898.4394         38.0004         33.0004
 -17065694.22943 -13260528.74242  21313855.9134   21313858.2504   21313855.1704
     -2114.0404      -1647.3134         50.0004         45.0004
  -7530980.13543  -5830569.23642  22931534.3144   22931540.6464   22931534.2394
     -3345.0164      -2606.5074         43.0004         38.0004
 -19220861.21543 -14927394.37842  20410691.4864   20410695.7954   20410691.2054
       438.8774        341.9884         51.0004         47.0004
 -15910812.13443 -12363580.51242  21558145.9524   21558149.0624   21558145.7554
      2200.6334       1714.7474         48.0004         44.0004
  -7371149.23943  -5713158.95542  22719244.4924   22719248.5584   22719243.8344
      1708.9814       1331.6744         45.0004         40.0004
  -7140990.29943  -5526132.76542  22473460.3464   22473464.0194   22473459.8894
     -2584.6374      -2014.0064         46.0004         41.0004
 04 12 25  1 30 30.0000000  0  7G15G19G 3G 1G11G20G14
   4312846.10043   3412667.68342  24680308.8214   24680316.5854   24680308.6794
     -2441.9364      -1902.8004         38.0004         34.0004
 -17002069.97243 -13210951.43642  21325963.2544   21325965.5824   21325962.5064
     -2128.7724      -1658.7834         50.0004         45.0004
  -7430567.00843  -5752325.36842  22950642.3074   22950648.8514   22950642.2894
     -3350.4754      -2610.7534         43.0004         38.0004
 -19233752.10343 -14937439.22342  20408238.4234   20408242.7244   20408238.1174
       419.1004        326.5604         51.0004         46.0004
 -15976758.80043 -12414967.51842  21545596.6154   21545599.8314   21545596.4584
      2194.4854       1709.9814         48.0004         44.0004
  -7422352.25643  -5753057.39142  22709500.7674   22709504.9464   22709500.2044
      1703.3894       1327.3114         45.0004         40.0004
  -7063290.06643  -5465587.17442  22488246.2374   22488250.0404   22488245.8504
     -2596.8504      -2023.5194         45.0004         41.0004
 04 12 25  1 31  0.0000000  0  8G15G19G 3G25G 1G11G20G14
   4386155.25843   3469791.50142  24694259.2514   24694266.8304   24694259.0784
     -2445.5334      -1905.6264         39.0004         34.0004
 -16937974.03443 -13161006.58542  21338160.2904   21338162.6624   21338159.5664
     -2144.3324      -1670.8954         50.0004         45.0004
  -7329971.37243  -5673939.26842  22969785.1454   22969791.7234   22969785.0534
     -3355.8614      -2614.9514         43.0004         38.0004
                                  23788276.936

 -19246028.24943 -14947005.05342  20405902.2884   20405906.6784   20405902.0154
       399.1424        311.0294         51.0004         46.0004
 -16042485.83943 -12466183.38442  21533089.1274   21533092.3684   21533088.9974
      2187.5424       1704.5914         48.0004         44.0004
  -7473367.00543  -5792809.13542  22699792.9364   22699797.0934   22699792.4004
      1697.7284       1322.9104         45.0004         40.0004
  -6985207.58743  -5404743.73742  22503104.8704   22503108.7084   22503104.4424
     -2608.9194      -2032.9154         45.0004         41.0004
 04 12 25  1 31 30.0000000  0  8G15G19G 3G25G 1G11G20G14
   4459625.85143   3527041.18542  24708240.3804   24708248.2814   24708239.9614
     -2451.8074      -1910.4934         39.0004         34.0004
 -16873409.57443 -13110696.66342  21350446.4974   21350448.9214   21350445.7784
     -2159.8784      -1683.0184         50.0004         45.0004
  -7229197.31543  -5595414.14342  22988961.9474   22988968.3684   22988961.7234
     -3361.8444      -2619.6184         43.0004         38.0004
   -170230.54843    -92220.18542  23773385.8924   23773392.3184   23773386.1524
      2605.5244       2030.2694         51.0004         37.0004
 -19257690.46143 -14956092.48542  20403683.0244   20403687.4464   20403682.7924
       378.5514        294.9824         51.0004         46.0004
 -16107992.24143 -12517227.33442  21520623.6704   21520626.9394   21520623.5534
      2179.9594       1698.6884         48.0004         44.0004
  -7524194.79743  -5832415.18342  22690120.8364   22690124.8864   22690120.2544
      1691.1524       1317.7784         45.0004         40.0004
  -6906746.52043  -5343605.29342  22518035.4964   22518039.3594   22518035.1064
     -2621.3974      -2042.6494         45.0004         41.0004
 04 12 25  1 32  0.0000000  0  8G15G19G 3G25G 1G11G20G14
   4533258.71343   3584417.26342  24722252.5574   24722260.5324   24722251.9384
     -2457.7164      -1915.0964         39.0004         34.0004
 -16808377.68443 -13060022.50442  21362821.6654   21362824.1374   21362820.9484
     -2176.2964      -1695.8264         50.0004         45.0004
  -7128246.74043  -5516751.48242  23008172.2864   23008178.7074   23008172.0584
     -3368.4744      -2624.7864         43.0004         38.0004
   -248317.92043   -153067.39342  23758526.2584   23758532.7564   23758526.5534
      2599.3264       2025.4404         46.0004         37.0004
 -19268737.76243 -14964700.77242  20401580.8154   20401585.1884   20401580.5564
       357.0734        278.2414         51.0004         46.0004
 -16173275.08143 -12568097.07342  21508200.7834   21508203.9904   21508200.6484
      2171.5064       1692.0774         48.0004         44.0004
  -7574835.03643  -5871875.09942  22680484.0444   22680488.4114   22680483.5954
      1684.1984       1312.3564         45.0004         40.0004
  -6827908.53643  -5282173.15742  22533037.8574   22533041.7064   22533037.4744
     -2635.2164      -2053.4134         45.0004         40.0004
 04 12 25  1 32 30.0000000  0  8G15G19G 3G25G 1G11G20G14
   4607054.63443   3641920.39342  24736295.5754   24736303.4314   24736294.7754
     -2463.1844      -1919.3724         38.0004         34.0004
 -16742879.58243 -13008985.06942  21375285.5434   21375288.0404   21375284.8374
     -2191.0494      -1707.3094         50.0004         45.0004
  -7027121.49343  -5437952.70242  23027415.9794   23027422.3004   23027415.6284
     -3373.5304      -2628.7224         43.0004         38.0004
   -326234.83243   -213781.81542  23743699.2794   23743705.6994   23743699.3604
      2594.5164       2021.7034         43.0004         37.0004
 -19279169.05143 -14972829.04542  20399595.8684   20399600.1494   20399595.5644
       337.5564        263.0324         51.0004         46.0004
 -16238331.50843 -12618790.38842  21495820.9534   21495824.1594   21495820.8634
      2164.7454       1686.8304         48.0004         44.0004
  -7625287.34443  -5911188.56342  22670883.3154   22670887.6024   22670882.9444
      1678.8034       1308.1534         45.0004         40.0004
  -6748695.49143  -5220448.75242  22548111.6914   22548115.4924   22548111.2664
     -2646.3934      -2062.1164         45.0004         40.0004
 04 12 25  1 33  0.0000000  0  8G15G19G 3G25G 1G11G20G14
   4681011.38643   3699548.84542  24750369.3124   24750377.2194   24750368.6524
     -2467.3524      -1922.6054         38.0004         34.0004
 -16676919.60743 -12957587.73342  21387837.3944   21387839.8314   21387836.6434
     -2206.2204      -1719.1274         49.0004         45.0004
  -6925826.53243  -5359021.67742  23046691.8304   23046698.1734   23046691.4214
     -3379.1064      -2633.0664         43.0004         38.0004
   -403979.90643   -274362.33042  23728904.8274   23728911.2744   23728904.9454
      2588.9604       2017.3724         42.0004         38.0004
 -19288986.29743 -14980478.85142  20397727.5954   20397732.0064   20397727.3514
       317.1194        247.1144         51.0004         46.0004
 -16303161.20243 -12669307.03542  21483484.3314   21483487.4664   21483484.1774
      2157.3484       1681.0454         49.0004         44.0004
  -7675553.87243  -5950357.27442  22661317.8984   22661322.2324   22661317.4874
      1672.4574       1303.2164         45.0004         40.0004
  -6669111.88043  -5158435.59642  22563255.9704   22563259.8604   22563255.5424
     -2658.7584      -2071.7484         45.0004         40.0004
 04 12 25  1 33 30.0000000  0  8G15G19G 3G25G 1G11G20G14
   4755129.94343   3757303.39242  24764473.1894   24764481.8934   24764473.0934
     -2473.2894      -1927.2174         38.0004         34.0004
 -16610498.99743 -12905831.46442  21400476.8904   21400479.2804   21400476.1164
     -2221.4324      -1730.9814         49.0004         45.0004
  -6824363.61143  -5279959.78442  23065999.6194   23066006.0184   23065999.1514
     -3384.5264      -2637.2794         43.0004         38.0004
   -481548.95943   -334805.69642  23714143.9514   23714150.3814   23714144.0204
      2582.7764       2012.5494         43.0004         38.0004
 -19298188.29443 -14987649.23642  20395976.5964   20395980.9414   20395976.3064
       296.6524        231.1644         51.0004         46.0004
 -16367761.15643 -12719644.65342  21471191.3934   21471194.5314   21471191.2274
      2149.6714       1675.0814         49.0004         44.0004
  -7725633.99343  -5989380.71542  22651788.0094   22651792.3184   22651787.5194
      1666.4674       1298.5574         45.0004         40.0004
  -6589159.14243  -5096134.81042  22578470.4574   22578474.3944   22578470.0864
     -2671.1844      -2081.4294         45.0004         40.0004
 04 12 25  1 34  0.0000000  0  8G15G19G 3G25G 1G11G20G14
   4829410.00543   3815183.79042  24778608.4274   24778616.6834   24778608.0224
     -2479.0274      -1931.7244         38.0004         34.0004
 -16543620.10443 -12853718.07242  21413203.5104   21413205.9254   21413202.7584
     -2236.7984      -1742.9584         49.0004         45.0004
  -6722735.44043  -5200769.11942  23085338.9044   23085345.2774   23085338.4954
     -3390.1404      -2641.6664         43.0004         38.0004
   -558938.62943   -395109.25542  23699417.2084   23699423.5564   23699417.2784
      2576.6074       2007.7454         43.0004         38.0004
 -19306775.20943 -14994340.34342  20394342.5544   20394346.9014   20394342.2774
       276.1514        215.2024         51.0004         46.0004
 -16432129.12443 -12769801.50342  21458942.5664   21458945.7124   21458942.4064
      2141.9294       1669.0274         49.0004         44.0004
  -7775528.20743  -6028259.30842  22642293.4944   22642297.7554   22642292.9714
      1660.2114       1293.6664         45.0004         40.0004
  -6508840.18943  -5033548.66742  22593754.5944   22593758.6694   22593754.2854
     -2683.1834      -2090.7904         45.0004         40.0004
 04 12 25  1 34 30.0000000  0  8G15G19G 3G25G 1G11G20G14
                   3873189.60542  24792774.473    24792782.6274
                     -1936.8084                         33.0004
 -16476285.56243 -12801249.64842  21426016.9114   21426019.3774   21426016.1054
     -2253.4594      -1755.9534         49.0004         45.0004
  -6620945.43143  -5121452.36042  23104709.0564   23104715.4764   23104708.4554
     -3397.0494      -2647.0524         43.0004         38.0004
   -636145.95143   -455270.74542  23684725.1474   23684731.5824   23684725.2454
      2569.2004       2001.9694         43.0004         38.0004
 -19314747.56843 -15000552.56942  20392825.4624   20392829.7794   20392825.1754
       254.2534        198.1104         51.0004         46.0004
 -16496263.86943 -12819776.62042  21446738.1034   21446741.2374   21446737.9404
      2132.4924       1661.6774         49.0004         44.0004
  -7825237.12743  -6066993.51042  22632834.2884   22632838.3914   22632833.7314
      1652.4174       1287.5954         45.0004         40.0004
  -6428158.02843  -4970679.51642  22609107.8584   22609112.0534   22609107.5524
     -2697.1354      -2101.6624         45.0004         40.0004
 04 12 25  1 35  0.0000000  0  8G15G19G 3G25G 1G11G20G14
   4978452.31143   3931320.26742  24806970.7034   24806978.9944   24806970.1194
     -2489.5304      -1939.8894         38.0004         34.0004
 -16408498.28243 -12748428.43542  21438916.4444   21438918.8794   21438915.5934
     -2266.8464      -1766.3724         49.0004         45.0004
  -6518997.11043  -5042012.22842  23124109.2634   23124115.6934   23124108.7444
     -3400.5004      -2649.7274         43.0004         38.0004
   -713168.35743   -515288.13642  23670068.3294   23670074.6264   23670068.3494
      2564.3524       1998.2004         43.0004         38.0004
 -19322106.31043 -15006286.65542  20391425.1474   20391429.4784   20391424.8314
       235.3544        183.4054         51.0004         46.0004
 -16560163.81143 -12869568.78242  21434578.3654   21434581.4994   21434578.2084
      2126.4464       1656.9844         49.0004         44.0004
  -7874761.89843  -6105584.22042  22623410.0674   22623414.0914   22623409.4664
      1648.1604       1284.2804         45.0004         40.0004
  -6347115.95943  -4907529.90342  22624529.7214   22624533.9654   22624529.4044
     -2706.9234      -2109.2944         45.0004         40.0004
 04 12 25  1 35 30.0000000  0  8G15G19G 3G25G 1G11G20G14
   5053215.00743   3989576.71642  24821197.6614   24821206.2214   24821197.3914
     -2494.1174      -1943.4624         38.0004         33.0004
 -16340258.98643 -12695255.00142  21451902.0084   21451904.4294   21451901.1634
     -2281.6874      -1777.9354         49.0004         45.0004
  -6416891.93843  -4962449.87442  23143539.3074   23143545.7924   23143538.8494
     -3405.7244      -2653.8114         43.0004         38.0004
   -790001.55643   -575158.11542  23655447.3544   23655453.7134   23655447.4184
      2558.3934       1993.5514         43.0004         38.0004
 -19328850.10143 -15011541.56242  20390141.8264   20390146.1514   20390141.5294
       214.9884        167.5294         51.0004         46.0004
 -16623825.55343 -12919175.32342  21422463.9004   21422467.0454   21422463.7634
      2118.5414       1650.8214         49.0004         44.0004
  -7924101.62043  -6144030.74642  22614020.9274   22614024.9534   22614020.3634
      1642.1794       1279.6174         45.0004         40.0004
  -6265715.34843  -4844100.91442  22640019.8984   22640024.0044   22640019.5614
     -2718.5764      -2118.3634         45.0004         40.0004
 04 12 25  1 36  0.0000000  0  8G15G19G 3G25G 1G11G20G14
   5128138.16243   4047958.22542  24835455.2524   24835463.5544   24835454.5344
     -2500.0904      -1948.1244         38.0004         33.0004
 -16271570.75643 -12641731.75142  21464972.9734   21464975.4154   21464972.1054
     -2297.1774      -1790.0084         49.0004         45.0004
  -6314633.33543  -4882767.96742  23162998.7444   23163005.1434   23162998.2214
     -3411.3384      -2658.1814         43.0004         38.0004
   -866643.07543   -634878.70542  23640862.8974   23640869.2474   23640862.9664
      2551.3034       1988.0204         43.0004         38.0004
 -19334979.69843 -15016317.87642  20388975.3684   20388979.7354   20388975.0974
       193.8904        151.0794         51.0004         46.0004
 -16687247.79043 -12968595.24442  21410395.1794   21410398.1994   21410394.9844
      2109.9484       1644.1084         49.0004         44.0004
  -7973257.23443  -6182333.79842  22604666.8424   22604670.9674   22604666.2754
      1635.4824       1274.3914         45.0004         40.0004
  -6183959.68243  -4780395.24942  22655577.4854   22655581.6854   22655577.2244
     -2731.2034      -2128.2174         45.0004         40.0004
 04 12 25  1 36 30.0000000  0  8G15G19G 3G25G 1G11G20G14
   5203220.39743   4106463.67642  24849742.9594   24849751.3084   24849742.6414
     -2505.0654      -1952.0034         38.0004         33.0004
 -16202437.11943 -12587861.43242  21478128.6284   21478131.1534   21478127.8264
     -2311.4544      -1801.1274         49.0004         44.0004
  -6212225.30843  -4802969.64342  23182486.4584   23182492.7724   23182485.9394
     -3415.6374      -2661.5244         42.0004         38.0004
   -943090.66143   -694448.19342  23626315.3274   23626321.6484   23626315.3324
      2545.0884       1983.1814         42.0004         38.0004
 -19340496.35443 -15020616.57642  20387925.5994   20387929.9674   20387925.2914
       173.9604        135.5644         51.0004         47.0004
 -16750429.56643 -13017827.79342  21398372.0694   21398375.0844   21398371.8844
      2102.3894       1638.2334         49.0004         44.0004
  -8022230.22143  -6220494.56642  22595347.4414   22595351.7484   22595346.9794
      1629.6004       1269.8164         45.0004         40.0004
  -6101852.65343  -4716415.80342  22671202.0104   22671206.1474   22671201.6814
     -2742.4824      -2136.9944         44.0004         40.0004
 04 12 25  1 37  0.0000000  0  8G15G19G 3G25G 1G11G20G14
   5278462.85843   4165094.00542  24864061.1744   24864069.6354   24864060.8614
     -2510.4904      -1956.2054         38.0004         34.0004
 -16132859.06543 -12533644.81442  21491368.8694   21491371.4564   21491368.0974
     -2326.5434      -1812.8904         49.0004         44.0004
  -6109669.43943  -4723056.11042  23202002.3604   23202008.5854   23202001.7914
     -3420.8134      -2665.5654         42.0004         38.0004
  -1019339.80243   -753863.05242  23611805.5744   23611811.9134   23611805.5914
      2538.7854       1978.2704         43.0004         38.0004
 -19345398.87843 -15024436.72542  20386992.7424   20386997.0794   20386992.4284
       153.3534        119.4964         51.0004         47.0004
 -16813367.26643 -13066870.14942  21386395.3904   21386398.4664   21386395.2464
      2093.9324       1631.6254         49.0004         44.0004
  -8071019.92643  -6258512.50242  22586063.1304   22586067.2894   22586062.6074
      1623.3884       1264.9844         45.0004         40.0004
  -6019395.67543  -4652163.67142  22686893.0074   22686897.1804   22686892.6614
     -2754.1554      -2146.0934         44.0004         40.0004
 04 12 25  1 37 30.0000000  0  8G15G19G 3G25G 1G11G20G14
   5353865.87743   4223849.41542  24878410.1454   24878418.1704   24878409.8174
     -2515.6494      -1960.2434         38.0004         34.0004
 -16062838.48643 -12479083.36542  21504693.4144   21504695.9294   21504692.6094
     -2341.2264      -1824.3334         49.0004         44.0004
  -6006967.71643  -4643028.91842  23221546.1424   23221552.2174   23221545.3964
     -3425.5524      -2669.2594         42.0004         38.0004
  -1095386.32743   -813119.99842  23597334.5274   23597340.6414   23597334.3704
      2531.8594       1972.8644         42.0004         38.0004
 -19349686.92443 -15027778.06842  20386176.7214   20386181.1024   20386176.4344
       132.8784        103.5534         51.0004         47.0004
 -16876058.44043 -13115720.40942  21374465.6654   21374468.7034   21374465.4944
      2085.7924       1625.3064         49.0004         44.0004
  -8119625.82543  -6296387.21942  22576813.7454   22576817.8614   22576813.2234
      1617.4284       1260.3304         45.0004         40.0004
  -5936590.73043  -4587640.39142  22702650.2274   22702654.4714   22702649.9744
     -2765.6814      -2155.0794         44.0004         40.0004
 04 12 25  1 38  0.0000000  0  8G15G19G 3G25G 1G11G20G14
   5429427.59143   4282728.46342  24892789.3504   24892797.3904   24892788.5764
     -2521.8274      -1965.0564         38.0004         33.0004
 -15992379.17643 -12424180.05842  21518101.3644   21518103.9374   21518100.5834
     -2356.6064      -1836.3164         49.0004         44.0004
  -5904125.01943  -4562891.89042  23241116.6014   23241122.7624   23241115.8594
     -3431.2414      -2673.6904         42.0004         38.0004
  -1171228.86843   -872218.02842  23582902.0204   23582908.3644   23582901.9374
      2524.0284       1966.7784         42.0004         38.0004
 -19353362.55043 -15030642.19642  20385477.2864   20385481.6424   20385476.9824
       111.5744         86.9284         51.0004         47.0004
 -16938502.67643 -13164378.25142  21362582.9354   21362585.9894   21362582.7544
      2076.6934       1618.1944         49.0004         44.0004
  -8168050.17243  -6334120.45942  22567598.8154   22567603.0184   22567598.2784
      1610.4164       1254.8754         45.0004         40.0004
  -5853442.22343  -4522849.41042  22718472.8794   22718477.1484   22718472.6634
     -2777.9774      -2164.6544         44.0004         40.0004
 04 12 25  1 38 30.0000000  0  8G15G19G 3G25G 1G11G20G14
   5505148.45443   4341731.51542  24907198.8564   24907206.6624   24907198.1134
     -2526.6914      -1968.8534         38.0004         33.0004
 -15921483.17743 -12368936.47542  21531592.4934   21531595.0034   21531591.6644
     -2370.5484      -1847.1784         49.0004         44.0004
  -5801143.47143  -4482646.66242  23260713.3674   23260719.5324   23260712.7354
     -3435.2154      -2676.7814         42.0004         38.0004
  -1246863.52843   -931154.09742  23568509.2564   23568515.4374   23568509.0704
      2517.4214       1961.6274         42.0004         38.0004
 -19356425.17743 -15033028.66542  20384894.5224   20384898.8364   20384894.1984
        91.8344         71.5584         51.0004         47.0004
 -17000697.10443 -13212841.42342  21350747.7394   21350750.7494   21350747.5614
      2068.9404       1612.1684         49.0004         44.0004
  -8216292.69743  -6371712.03242  22558418.5834   22558422.7144   22558417.9734
      1604.9584       1250.6174         45.0004         40.0004
  -5769952.20843  -4457792.32842  22734360.5954   22734364.8254   22734360.2984
     -2788.6794      -2172.9924         44.0004         39.0004
 04 12 25  1 39  0.0000000  0  8G15G19G 3G25G 1G11G20G14
   5581027.04143   4400857.47642  24921637.9944   24921646.1674   24921637.6584
     -2531.4014      -1972.5344         38.0004         32.0004
 -15850153.99143 -12313355.33942  21545166.0704   21545168.5424   21545165.2094
     -2384.7134      -1858.2204         49.0004         44.0004
  -5698026.89743  -4402296.21542  23280335.8704   23280342.2954   23280335.3194
     -3439.5174      -2680.1404         42.0004         38.0004
  -1322288.19043   -989926.49742  23554156.3814   23554162.4054   23554156.1734
      2510.7634       1956.4424         42.0004         38.0004
 -19358876.16743 -15034938.53742  20384428.0924   20384432.4354   20384427.7904
        71.6144         55.7844         51.0004         47.0004
 -17062640.66843 -13261109.13442  21338960.2404   21338963.2614   21338960.1044
      2060.8964       1605.8944         49.0004         45.0004
  -8264354.77843  -6409162.99142  22549272.6704   22549276.8474   22549272.0244
      1599.3164       1246.2194         45.0004         41.0004
  -5686124.54643  -4392472.12642  22750312.6024   22750316.8394   22750312.1994
     -2799.4964      -2181.4274         44.0004         39.0004
 04 12 25  1 39 30.0000000  0  8G15G19G 3G25G 1G11G20G14
                   4460107.96442  24936107.750    24936116.3464
                     -1977.0944                         32.0004
 -15778391.82343 -12257436.80642  21558821.9214   21558824.4554   21558821.1134
     -2399.3074      -1869.5894         49.0004         44.0004
  -5594775.97143  -4321841.09142  23299983.6984   23299990.3084   23299983.4624
     -3443.9674      -2683.6084         42.0004         38.0004
  -1397497.61743  -1048531.16342  23539844.3724   23539850.4304   23539844.1964
      2503.1534       1950.4984         42.0004         38.0004
 -19360714.09943 -15036370.69542  20384078.4044   20384082.7214   20384078.1194
        50.9144         39.6784         51.0004         47.0004
 -17124329.59643 -13309178.41642  21327221.1954   21327224.2884   21327221.0764
      2051.8974       1598.8864         49.0004         45.0004
  -8312234.90643  -6446472.17042  22540161.3594   22540165.6014   22540160.7204
      1593.0714       1241.3514         45.0004         41.0004
  -5601959.93143  -4326889.38342  22766328.4724   22766332.9384   22766328.1424
     -2811.4624      -2190.7594         44.0004         39.0004
 04 12 25  1 40  0.0000000  0  8G15G19G 3G25G 1G11G20G14
   5733261.42943   4519481.30342  24950607.5854   24950614.6224   24950609.8364
     -2543.3434      -1981.8294         37.0004         33.0004
 -15706200.70643 -12201184.03942  21572559.4894   21572562.0384   21572558.6554
     -2414.5414      -1881.4664         49.0004         44.0004
  -5491395.27643  -4241284.82642  23319656.3564   23319663.0054   23319656.2594
     -3448.8104      -2687.3844         42.0004         37.0004
  -1472490.48643  -1106967.10442  23525573.4704   23525579.6584   23525573.3824
      2494.9884       1944.1504         42.0004         37.0004
 -19361940.89043 -15037326.64642  20383844.9614   20383849.2934   20383844.6524
        29.9044         23.3004         51.0004         47.0004
 -17185763.27743 -13357048.81542  21315530.7444   21315533.8704   21315530.6034
      2042.4324       1591.4934         49.0004         44.0004
  -8359935.02643  -6483641.09142  22531084.2394   22531088.5534   22531083.6504
      1585.8324       1235.7034         45.0004         41.0004
  -5517462.61043  -4261047.38842  22782407.5404   22782412.3064   22782407.2624
     -2823.0684      -2199.7944         44.0004         39.0004
 04 12 25  1 40 30.0000000  0  8G15G19G 3G25G 1G11G20G14
                   4578977.48642  24965137.389    24965150.4344
                     -1985.7714                         32.0004
 -15633582.76443 -12144598.68542  21586378.2264   21586380.8354   21586377.4434
     -2427.9014      -1891.8744         49.0004         44.0004
  -5387887.55543  -4160629.59542  23339353.2274   23339359.8984   23339353.0164
     -3452.3694      -2690.1624         42.0004         37.0004
  -1547262.88843  -1165231.27842  23511344.6454   23511350.9394   23511344.6034
      2488.3334       1938.9594         42.0004         37.0004
 -19362556.69443 -15037806.49842  20383727.7744   20383732.1014   20383727.4924
        10.1484          7.9084         51.0004         47.0004
 -17246939.47243 -13404718.57342  21303889.2154   21303892.4374   21303889.1264
      2034.8064       1585.5634         49.0004         45.0004
  -8407455.41743  -6520669.95342  22522041.5004   22522045.7314   22522040.9014
      1580.9604       1231.9104         45.0004         41.0004
  -5432635.20743  -4194948.17542  22798549.6634   22798554.5364   22798549.4134
     -2833.4154      -2207.8534         44.0004         39.0004
 04 12 25  1 41  0.0000000  0  8G15G19G 3G25G 1G11G20G14
                   4638596.81742  24979697.192    24979709.0664
                     -1989.6254                         32.0004
 -15560540.01443 -12087682.30342  21600277.7924   21600280.4534   21600277.0444
     -2441.4394      -1902.4204         49.0004         44.0004
  -5284254.93743  -4079877.06242  23359073.9714   23359080.7494   23359073.6744
     -3456.2794      -2693.2084         42.0004         37.0004
  -1621810.69443  -1223320.41542  23497158.6824   23497164.9294   23497158.6494
      2481.4424       1933.5884         42.0004         38.0004
 -19362561.10843 -15037809.94642  20383726.9274   20383731.2564   20383726.6714
        -9.7754         -7.6114         51.0004         47.0004
 -17307855.29743 -13452185.44442  21292297.3354   21292300.5434   21292297.2304
      2026.3424       1578.9574         49.0004         45.0004
  -8454795.71543  -6557558.48442  22513032.9714   22513037.2144   22513032.3744
      1575.2654       1227.4834         45.0004         41.0004
  -5347479.61043  -4128593.23742  22814754.2644   22814759.2854   22814753.9854
     -2843.9544      -2216.0674         44.0004         39.0004
 04 12 25  1 41 30.0000000  0  8G15G19G 3G25G 1G11G20G14
   5962796.04843   4698338.83942  24994287.0054   24994293.4644   24994285.8554
     -2557.9564      -1993.1964         37.0004         33.0004
 -15487075.40943 -12030437.20742  21614257.8064   21614260.4204   21614257.0014
     -2455.4404      -1913.3244         49.0004         44.0004
  -5180500.41843  -3999029.51742  23378817.8904   23378824.5774   23378817.5044
     -3460.0614      -2696.1434         41.0004         37.0004
  -1696131.43343  -1281232.64542  23483015.9834   23483022.1974   23483015.7944
      2474.0584       1927.8344         42.0004         38.0004
 -19361955.31343 -15037337.90742  20383842.2314   20383846.5524   20383841.9414
       -30.0334        -23.4054         51.0004         47.0004
 -17368509.12243 -13499448.16142  21280755.2614   21280758.4804   21280755.1634
      2017.8224       1572.3284         49.0004         45.0004
  -8501956.81643  -6594307.38842  22504058.4514   22504062.8304   22504057.9044
      1569.4914       1222.9784         45.0004         41.0004
  -5261999.02743  -4061985.05542  22831020.6714   22831025.6724   22831020.4504
     -2854.4324      -2224.2304         43.0004         39.0004
 04 12 25  1 42  0.0000000  0  8G15G19G 3G25G 1G11G20G14
   6039621.65643   4758202.74942  25008906.7644   25008914.0984   25008905.7224
     -2564.2204      -1998.0754         38.0004         33.0004
 -15413191.98543 -11972865.75842  21628317.4634   21628320.0054   21628316.6234
     -2470.0604      -1924.7194         49.0004         44.0004
  -5076627.66043  -3918089.84042  23398584.2014   23398590.9344   23398583.9174
     -3464.6024      -2699.6804         41.0004         37.0004
  -1770222.65143  -1338966.01742  23468916.8994   23468922.9404   23468916.7234
      2465.4774       1921.1454         42.0004         38.0004
 -19360740.27443 -15036391.13142  20384073.4344   20384077.7744   20384073.1264
       -51.0424        -39.7814         51.0004         47.0004
 -17428899.63043 -13546505.69542  21269263.3654   21269266.5684   21269263.2524
      2008.2484       1564.8744         49.0004         45.0004
  -8548939.93543  -6630917.59542  22495117.8424   22495122.2664   22495117.2904
      1562.8084       1217.7754         46.0004         41.0004
  -5176196.99743  -3995126.39842  22847348.3624   22847353.3184   22847348.1624
     -2865.8824      -2233.1564         43.0004         39.0004
 04 12 25  1 42 30.0000000  0  8G15G19G 3G25G 1G11G20G14
   6116604.20743   4818188.92142  25023556.1694   25023564.0534   25023555.0374
     -2568.8824      -2001.7094         38.0004         33.0004
 -15338891.24243 -11914969.12742  21642456.4054   21642458.9884   21642455.6334
     -2484.3834      -1935.8944         49.0004         44.0004
  -4972638.57543  -3837059.53442  23418372.7154   23418379.5934   23418372.4964
     -3468.9744      -2703.0994         41.0004         37.0004
  -1844080.18143  -1396517.32142  23454862.2074   23454868.2204   23454862.1544
      2457.2924       1914.7744         42.0004         38.0004
 -19358915.41943 -15034969.17042  20384420.7474   20384425.0604   20384420.4124
       -71.8074        -55.9564         51.0004         47.0004
 -17489023.64043 -13593355.56642  21257822.1424   21257825.3324   21257822.0254
      1998.8534       1557.5324         49.0004         45.0004
  -8595744.41443  -6667388.60842  22486211.2464   22486215.7044   22486210.7004
      1556.2534       1212.6624         46.0004         41.0004
  -5090075.22043  -3928018.59142  22863736.8984   22863741.7464   22863736.5974
     -2876.6654      -2241.5584         43.0004         39.0004
 04 12 25  1 43  0.0000000  0  8G15G19G 3G25G 1G11G20G14
   6193743.02743   4878296.84842  25038235.3294   25038243.2924   25038234.0434
     -2575.3754      -2006.7704         38.0004         33.0004
 -15264176.18743 -11856749.65242  21656674.3704   21656676.7934   21656673.5014
     -2498.1964      -1946.6464         49.0004         44.0004
  -4868536.45043  -3755941.13742  23438182.7584   23438189.7474   23438182.7804
     -3472.5194      -2705.8674         41.0004         37.0004
  -1917701.34543  -1453884.42442  23440852.5494   23440858.5034   23440852.4374
      2449.3674       1908.5924         43.0004         38.0004
 -19356481.77143 -15033072.83342  20384883.8484   20384888.2064   20384883.5614
       -92.0654        -71.7564         51.0004         47.0004
 -17548879.61543 -13639996.57342  21246431.9184   21246435.1044   21246431.7864
      1989.8694       1550.5224         49.0004         45.0004
  -8642371.07343  -6703721.06642  22477338.5044   22477342.8474   22477337.9704
      1550.4604       1208.1534         46.0004         41.0004
  -5003636.66843  -3860663.94242  22880185.7594   22880190.4604   22880185.4624
     -2887.5024      -2250.0004         43.0004         39.0004
 04 12 25  1 43 30.0000000  0  8G15G19G 3G25G 1G11G20G14
   6271037.50043   4938526.10042  25052943.9324   25052951.9374   25052942.5564
     -2578.8854      -2009.5194         38.0004         34.0004
 -15189049.53243 -11798209.44942  21670970.5004   21670973.0074   21670969.6624
     -2510.6234      -1956.3234         49.0004         44.0004
  -4764324.30543  -3674737.04442  23458013.9214   23458020.9334   23458013.8834
     -3474.7314      -2707.5724         42.0004         37.0004
  -1991082.86243  -1511064.78442  23426888.5394   23426894.4224   23426888.4334
      2442.4454       1903.2034         43.0004         38.0004
 -19353440.14143 -15030702.74242  20385462.6454   20385467.0204   20385462.3544
      -111.0924        -86.5574         51.0004         47.0004
 -17608465.79143 -13686427.35542  21235093.0144   21235096.2064   21235092.9234
      1982.0364       1544.4674         49.0004         45.0004
  -8688820.55443  -6739915.44642  22468499.4274   22468503.8084   22468498.8524
      1545.7824       1204.5134         46.0004         41.0004
  -4916884.14643  -3793064.64042  22896694.3524   22896699.0604   22896694.0254
     -2896.6244      -2257.1074         43.0004         39.0004
 04 12 25  1 44  0.0000000  0  8G15G19G 3G25G 1G11G20G14
   6348487.37443   4998876.42842  25067682.5044   25067690.7464   25067681.1564
     -2584.0684      -2013.5514         38.0004         34.0004
 -15113513.99343 -11739350.64742  21685344.5114   21685347.0744   21685343.6654
     -2524.5044      -1967.1434         49.0004         44.0004
  -4660005.29043  -3593449.64342  23477865.3984   23477872.3544   23477865.3124
     -3478.9024      -2710.8364         41.0004         37.0004
  -2064221.90643  -1568056.22142  23412970.4584   23412976.4874   23412970.4344
      2433.8524       1896.5144         43.0004         38.0004
 -19349791.34643 -15027859.54142  20386156.9394   20386161.3804   20386156.6624
      -131.6114       -102.5644         51.0004         46.0004
 -17667780.03643 -13732646.24342  21223805.8114   21223809.0384   21223805.7474
      1972.6134       1537.0864         49.0004         45.0004
  -8735093.55443  -6775972.32742  22459693.9894   22459698.3204   22459693.4494
      1539.7494       1199.7974         46.0004         41.0004
  -4829820.89543  -3725223.22242  22913261.9324   22913266.8314   22913261.6174
     -2907.1284      -2265.2894         44.0004         39.0004
 04 12 25  1 44 30.0000000  0  9G15G19G23G 3G25G 1G11G20G14
   6426092.49543   5059347.73842  25082450.4074   25082458.8174   25082449.6434
     -2590.4214      -2018.4884         38.0004         34.0004
 -15037571.81043 -11680174.97242  21699795.9354   21699798.4484   21699795.0624
     -2538.2814      -1977.8874         49.0004         44.0004
   -283138.14043   -177927.87242  24169802.1224   24169806.7774   24169801.8124
      3598.8524       2804.2954         48.0004         36.0004
  -4555581.73543  -3512080.78042  23497736.7564   23497743.6524   23497736.6974
     -3482.4694      -2713.6114         41.0004         37.0004
  -2137114.73143  -1624855.79342  23399099.4404   23399105.3924   23399099.4414
      2425.2534       1889.8074         43.0004         38.0004
 -19345535.72343 -15024543.48042  20386966.7304   20386971.2324   20386966.4374
      -152.1454       -118.5604         51.0004         47.0004
 -17726820.12943 -13778651.50842  21212570.8944   21212574.1004   21212570.7794
      1963.2264       1529.8054         49.0004         45.0004
  -8781190.18943  -6811891.77142  22450922.0734   22450926.3484   22450921.5604
      1533.5464       1194.9714         46.0004         41.0004
  -4742449.27043  -3657141.51642  22929888.2474   22929893.2674   22929887.9424
     -2917.5894      -2273.4444         43.0004         39.0004
                            4  1
RINEX FILE SPLICE; other post-header comments skipped       COMMENT
 04 12 25  1 45  0.0000000  0  9G15G19G23G 3G25G 1G11G20G14
   6503852.23143   5119939.48042  25097247.5664   25097258.8684   25097247.4464
     -2594.1304      -2021.3834         38.0004         33.0004
 -14961225.69543 -11620684.54542  21714324.1074   21714326.6624   21714323.2964
     -2551.7044      -1988.3454         49.0004         44.0004
   -391043.46643   -262009.82142  24149268.0244   24149272.8214   24149267.6174
      3594.1344       2800.6204         43.0004         36.0004
  -4451056.57943  -3430632.77042  23517627.3144   23517634.3864   23517627.2504
     -3485.9194      -2716.2944         41.0004         37.0004
  -2209758.16543  -1681461.04642  23385275.7454   23385281.7474   23385275.7254
      2417.2654       1883.5744         43.0004         38.0004
 -19340673.93843 -15020755.08542  20387891.9334   20387896.3964   20387891.6424
      -172.3624       -134.3144         51.0004         47.0004
 -17785583.97043 -13824441.51242  21201388.5134   21201391.7094   21201388.4054
      1953.8984       1522.5284         49.0004         45.0004
  -8827110.94643  -6847674.17242  22442183.7504   22442187.9204   22442183.1824
      1527.4874       1190.2564         46.0004         41.0004
  -4654772.12943  -3588821.74342  22946572.6684   22946577.6714   22946572.4324
     -2927.7784      -2281.3854         43.0004         39.0004
 04 12 25  1 45 30.0000000  0  9G15G19G23G 3G25G 1G11G20G14
   6581766.60543   5180651.73142  25112074.3554   25112082.7884   25112073.7564
     -2600.3594      -2026.2414         38.0004         33.0004
 -14884478.11243 -11560881.28342  21728928.7634   21728931.3394   21728927.9164
     -2564.6494      -1998.4244         49.0004         44.0004
   -498795.78943   -345972.57142  24128763.2934   24128767.8934   24128763.0154
      3589.3394       2796.8844         42.0004         36.0004
  -4346432.56743  -3349107.74642  23537536.5494   23537543.8534   23537536.6934
     -3488.5984      -2718.3974         41.0004         37.0004
  -2282148.99643  -1737869.46642  23371500.2894   23371506.2204   23371500.2624
      2409.0444       1877.1744         43.0004         38.0004
 -19335206.49343 -15016494.74842  20388932.3974   20388936.8264   20388932.0964
      -192.2284       -149.7874         51.0004         47.0004
 -17844069.38743 -13870014.55442  21190259.1654   21190262.3554   21190259.0664
      1945.0074       1515.5994         49.0004         45.0004
  -8872855.99143  -6883319.66642  22433478.8434   22433482.9164   22433478.2684
      1521.9264       1185.9224         46.0004         41.0004
  -4566791.99743  -3520265.88542  22963314.7244   22963319.8444   22963314.5674
     -2937.6744      -2289.0954         43.0004         38.0004
 04 12 25  1 46  0.0000000  0  9G15G19G23G 3G25G 1G11G20G14
   6659835.11343   5241484.08642  25126930.5364   25126940.7514   25126930.8554
     -2606.2564      -2030.8474         38.0004         33.0004
 -14807331.81443 -11500767.34642  21743609.3264   21743611.8604   21743608.3974
     -2578.5364      -2009.2614         49.0004         44.0004
   -606393.19843   -429814.57642  24108288.2744   24108292.6934   24108287.8854
      3583.4364       2792.2824         41.0004         37.0004
  -4241712.62943  -3267507.94942  23557464.2974   23557471.5254   23557464.3474
     -3492.5194      -2721.4374         41.0004         37.0004
  -2354284.43643  -1794078.86942  23357773.4274   23357779.2704   23357773.3244
      2399.7604       1869.9384         43.0004         39.0004
 -19329134.18243 -15011763.09442  20390087.8974   20390092.3224   20390087.6254
      -212.9434       -165.9214         51.0004         47.0004
 -17902274.34643 -13915369.06842  21179183.1914   21179186.2924   21179183.0444
      1934.8864       1507.6864         49.0004         45.0004
  -8918426.07143  -6918828.80442  22424807.1154   22424811.2294   22424806.5774
      1515.5224       1180.9324         46.0004         41.0004
  -4478511.63743  -3451476.06142  22980114.0024   22980118.9564   22980113.8004
     -2948.1124      -2297.2234         43.0004         39.0004
 04 12 25  1 46 30.0000000  0  9G15G19G23G 3G25G 1G11G20G14
   6738056.80543   5302435.78342  25141815.7404   25141825.9474   25141815.9574
     -2609.9634      -2033.7314         38.0004         34.0004
 -14729789.89543 -11440345.12542  21758365.0834   21758367.6024   21758364.1694
     -2590.9104      -2018.8914         49.0004         44.0004
   -713833.83843   -513534.43542  24087842.9034   24087847.3354   24087842.5624
      3579.3984       2789.1434         41.0004         36.0004
  -4136900.05043  -3185835.95542  23577409.5074   23577417.0214   23577409.5174
     -3494.6334      -2723.0714         41.0004         36.0004
  -2426161.35943  -1850086.83242  23344095.7744   23344101.5424   23344095.6294
      2391.9694       1863.8744         43.0004         39.0004
 -19322458.18343 -15006561.02742  20391358.2864   20391362.7174   20391357.9994
      -232.2194       -180.9454         51.0004         47.0004
 -17960197.29543 -13960503.82842  21168160.7484   21168163.9224   21168160.6384
      1926.4984       1501.1754         49.0004         45.0004
  -8963822.16143  -6954202.38342  22416168.4564   22416172.6264   22416167.9414
      1510.9664       1177.3854         46.0004         41.0004
  -4389934.69543  -3382455.13742  22996969.6564   22996974.6474   22996969.4844
     -2956.8664      -2304.0514         43.0004         39.0004
 04 12 25  1 47  0.0000000  0  9G15G19G23G 3G25G 1G11G20G14
                   5363506.90042  25156730.124    25156740.4944
                     -2037.3964                         33.0004
 -14651854.52443 -11379616.31542  21773195.7254   21773198.2204   21773194.8124
     -2604.3424      -2029.3524         49.0004         44.0004
   -821114.95943   -597129.97642  24067427.9614   24067432.3344   24067427.7714
      3573.5684       2784.5904         41.0004         36.0004
  -4031997.21843  -3104093.65342  23597371.8954   23597379.3224   23597371.9234
     -3497.7314      -2725.5074         41.0004         36.0004
  -2497776.37743  -1905890.72142  23330467.8924   23330473.6384   23330467.6664
      2382.9334       1856.8344         44.0004         39.0004
 -19315178.88143 -15000888.86042  20392743.5414   20392747.9664   20392743.2434
      -252.3684       -196.6404         51.0004         47.0004
 -18017835.55643 -14005416.75742  21157192.6024   21157195.6884   21157192.4304
      1916.7494       1493.5744         49.0004         45.0004
  -9009044.27043  -6989440.39042  22407562.9514   22407567.1794   22407562.3924
      1504.7504       1172.5314         46.0004         41.0004
  -4301063.23443  -3313204.73842  23013881.4424   23013886.4004   23013881.2264
     -2967.0144      -2311.9634         43.0004         38.0004
 04 12 25  1 47 30.0000000  0  9G15G19G23G 3G25G 1G11G20G14
   6894959.26553   5424696.96452  25171673.7714   25171686.0204   25171672.6944
     -2620.2634      -2041.7554         38.0004         33.0004
 -14573528.50543 -11318583.11342  21788100.6854   21788103.1994   21788099.7904
     -2617.1904      -2039.3824         49.0004         44.0004
   -928234.60543   -680599.69342  24047043.5414   24047047.8924   24047043.3634
      3567.8224       2780.1144         41.0004         36.0004
  -3927007.42243  -3022283.57042  23617350.7104   23617358.2464   23617350.8074
     -3500.9654      -2728.0224         41.0004         36.0004
  -2569126.46843  -1961488.15842  23316890.3474   23316896.1414   23316890.1944
      2373.9924       1849.8594         44.0004         39.0004
 -19307297.24443 -14994747.33642  20394243.3714   20394247.8224   20394243.0574
      -272.7444       -212.5344         51.0004         47.0004
 -18075187.31943 -14050106.43942  21146278.9604   21146282.0224   21146278.7704
      1906.9584       1485.9274         50.0004         45.0004
  -9054093.03543  -7024543.31742  22398990.4064   22398994.6304   22398989.8804
      1499.0524       1168.0954         46.0004         41.0004
  -4211900.33043  -3243727.23542  23030848.7534   23030853.6224   23030848.4064
     -2976.8464      -2319.6214         43.0004         38.0004
 04 12 25  1 48  0.0000000  0  9G15G19G23G 3G25G 1G11G20G14
                   5486005.88552  25186646.143    25186654.6514
                     -2045.1514                         33.0004
 -14494814.33943 -11257247.45742  21803079.4404   21803082.1164   21803078.6224
     -2630.1084      -2049.4314         48.0004         44.0004
  -1035190.04743   -763941.46642  24026690.3714   24026695.0064   24026690.3304
      3562.9484       2776.3304         41.0004         36.0004
  -3821933.02043  -2940407.57742  23637345.9524   23637353.4454   23637345.7984
     -3503.6534      -2730.1154         41.0004         36.0004
  -2640208.51843  -2016876.75342  23303363.7744   23303369.6834   23303363.7884
      2365.5064       1843.2464         44.0004         39.0004
 -19298813.88743 -14988136.94442  20395857.6984   20395862.1614   20395857.3964
      -292.4654       -227.8764         51.0004         47.0004
 -18132250.43943 -14094571.20442  21135420.1614   21135423.2604   21135420.0124
      1897.5184       1478.6094         50.0004         45.0004
  -9098968.69343  -7059511.35142  22390450.8544   22390455.0264   22390450.2944
      1493.5154       1163.7734         46.0004         41.0004
  -4122448.25543  -3174024.39742  23047870.9624   23047875.9594   23047870.6104
     -2986.0804      -2326.8114         43.0004         38.0004
 04 12 25  1 48 30.0000000  0  9G15G19G23G 3G25G 1G11G20G14
   7052471.49343   5547433.24542  25201647.5984   25201657.8584   25201645.8244
     -2630.7474      -2049.9334         37.0004         32.0004
 -14415714.58843 -11195611.34342  21818131.7494   21818134.3814   21818130.8434
     -2643.1244      -2059.5744         48.0004         44.0004
  -1141979.37943   -847153.80542  24006368.9194   24006373.5844   24006368.6284
      3556.5834       2771.3534         41.0004         36.0004
  -3716776.83843  -2858467.85842  23657356.3994   23657364.3054   23657356.5944
     -3506.3814      -2732.2404         41.0004         37.0004
  -2711018.96843  -2072053.67442  23289889.0384   23289894.8044   23289889.0404
      2355.6564       1835.5824         44.0004         39.0004
 -19289729.51443 -14981058.22242  20397586.3894   20397590.8544   20397586.1034
      -312.9684       -243.8784         51.0004         47.0004
 -18189022.98543 -14138809.54942  21124616.6824   21124619.7844   21124616.5394
      1887.3574       1470.6694         50.0004         45.0004
  -9143671.55143  -7094344.75242  22381944.0614   22381948.4034   22381943.6134
      1487.0014       1158.7084         46.0004         41.0004
  -4032709.89343  -3104098.49042  23064947.6964   23064952.5884   23064947.3244
     -2996.3534      -2334.8134         43.0004         38.0004
 04 12 25  1 49  0.0000000  0  9G15G19G23G 3G25G 1G11G20G14
   7131454.96453   5608978.50852  25216677.6474   25216689.3934   25216673.2814
     -2636.0754      -2054.0394         37.0004         33.0004
 -14336232.21843 -11133677.08542  21833256.7374   21833259.4584   21833255.8314
     -2656.4394      -2069.9534         48.0004         44.0004
  -1248600.39843   -930234.99842  23986079.3644   23986084.0364   23986079.0204
      3551.0234       2767.0244         41.0004         36.0004
  -3611541.83043  -2776466.75242  23677381.9614   23677390.0964   23677382.3754
     -3509.5314      -2734.6984         41.0004         36.0004
  -2781554.86543  -2127016.69742  23276466.3884   23276472.2044   23276466.3984
      2345.9644       1828.0244         43.0004         38.0004
 -19280045.35143 -14973512.13342  20399429.1994   20399433.6984   20399428.9504
      -333.3344       -259.7454         51.0004         47.0004
 -18245502.87243 -14182819.85442  21113868.9234   21113872.0214   21113868.7814
      1877.1564       1462.7064         50.0004         45.0004
  -9188202.36943  -7129044.07542  22373470.1694   22373474.5144   22373469.6754
      1480.8074       1153.8754         46.0004         41.0004
  -3942688.09643  -3033951.71142  23082078.4114   23082083.1394   23082077.9694
     -3006.0134      -2342.3464         43.0004         39.0004
 04 12 25  1 49 30.0000000  0  9G15G19G23G 3G25G 1G11G20G14
   7210588.86143   5670640.98942  25231736.5104   25231747.9064   25231736.9104
     -2639.7084      -2056.8874         38.0004         33.0004
 -14256370.52443 -11071447.25142  21848453.9294   21848456.6644   21848453.0554
     -2668.4374      -2079.2934         48.0004         44.0004
  -1355051.45443  -1013183.73542  23965822.3224   23965826.9974   23965821.8964
      3545.9564       2763.0804         41.0004         36.0004
  -3506231.72543  -2694407.09842  23697422.2834   23697429.9934   23697422.4424
     -3511.5594      -2736.2764         41.0004         37.0004
  -2851813.74643  -2181763.84842  23263096.6024   23263102.3574   23263096.6234
      2337.4724       1821.4004         43.0004         39.0004
 -19269762.96443 -14965499.90042  20401385.9594   20401390.3664   20401385.6534
      -352.6904       -274.8124         51.0004         47.0004
 -18301688.72043 -14226601.03142  21103177.1584   21103180.2054   21103176.9634
      1867.9944       1455.5824         50.0004         45.0004
  -9232562.20843  -7163610.18342  22365028.7654   22365033.0894   22365028.3004
      1475.8054       1149.9784         46.0004         41.0004
  -3852386.36543  -2963586.79542  23099262.4144   23099267.1724   23099261.8734
     -3014.8144      -2349.2064         43.0004         39.0004
 04 12 25  1 50  0.0000000  0  9G15G19G23G 3G25G 1G11G20G14
                   5732421.66942  25246824.394    25246837.2964
                     -2061.1844                         32.0004
 -14176130.54643 -11008922.64842  21863722.9964   21863725.9074   21863722.1884
     -2680.9564      -2089.0594         48.0004         43.0004
  -1461328.64743  -1095996.99742  23945598.4394   23945603.0584   23945597.8634
      3539.5524       2758.1014         41.0004         36.0004
  -3400847.51643  -2612289.69242  23717476.5104   23717483.9334   23717476.5724
     -3514.2174      -2738.3474         41.0004         36.0004
  -2921790.85843  -2236291.45342  23249780.4144   23249786.1054   23249780.3684
      2327.5604       1813.6794         43.0004         39.0004
 -19258881.39343 -14957020.76442  20403456.6984   20403461.0964   20403456.3534
      -372.8254       -290.5084         51.0004         47.0004
 -18357576.50743 -14270149.95942  21092542.0734   21092545.1264   21092541.8694
      1857.6494       1447.5164         50.0004         45.0004
  -9276749.76043  -7198042.02942  22356620.1194   22356624.4694   22356619.6544
      1469.8514       1145.3354         46.0004         41.0004
  -3761805.94143  -2893004.73542  23116499.3034   23116504.2514   23116498.8004
     -3024.1994      -2356.5174         43.0004         38.0004
 04 12 25  1 50 30.0000000  0  9G15G19G23G 3G25G 1G11G20G14
   7369309.21543   5794318.59942  25261940.3444   25261951.8764   25261940.2584
     -2650.2564      -2065.1104         37.0004         32.0004
 -14095516.70943 -10946106.73442  21879063.3234   21879066.2784   21879062.5054
     -2693.0294      -2098.4644         48.0004         43.0004
  -1567431.72343  -1178674.60242  23925407.7724   23925412.2094   23925407.0874
      3534.4314       2754.1014         41.0004         37.0004
  -3295393.73243  -2530118.08342  23737543.9374   23737551.3074   23737544.0024
     -3515.7584      -2739.5504         41.0004         36.0004
  -2991484.98743  -2290598.54042  23236518.1844   23236523.7724   23236518.0074
      2318.8084       1806.8674         43.0004         39.0004
 -19247403.56343 -14948077.01842  20405640.8304   20405645.2834   20405640.4964
      -392.1514       -305.5764         51.0004         47.0004
 -18413166.34443 -14313466.71742  21081963.6024   21081966.7414   21081963.4624
      1848.4764       1440.3614         50.0004         45.0004
  -9320767.49343  -7232341.55842  22348243.8804   22348248.1154   22348243.3214
      1464.6754       1141.3014         46.0004         41.0004
  -3670951.19643  -2822208.91942  23133788.4854   23133793.3864   23133788.0824
     -3032.4394      -2362.9344         43.0004         39.0004
 04 12 25  1 51  0.0000000  0  9G15G19G23G 3G25G 1G11G20G14
   7448893.92143   5856332.35442  25277084.9834   25277096.0924   25277086.4044
     -2653.5904      -2069.3824         37.0004         33.0004
 -14014530.76143 -10883000.86042  21894474.4864   21894477.4324   21894473.6664
     -2705.5094      -2108.1904         48.0004         43.0004
  -1673357.31143  -1261213.87942  23905250.8234   23905255.1304   23905250.0984
      3528.0074       2749.0864         41.0004         37.0004
  -3189872.19043  -2447893.71842  23757624.3794   23757631.4034   23757624.3224
     -3518.3224      -2741.5374         40.0004         36.0004
  -3060891.65943  -2344681.63342  23223310.2934   23223316.1504   23223310.1964
      2308.9064       1799.1424         43.0004         39.0004
 -19235329.39943 -14938668.59542  20407938.4724   20407942.9254   20407938.1504
      -412.2494       -321.2264         51.0004         47.0004
 -18468454.83043 -14356548.64942  21071442.4644   21071445.6674   21071442.3734
      1837.9704       1432.1984         50.0004         45.0004
  -9364614.76543  -7266508.25742  22339900.1034   22339904.2844   22339899.4834
      1458.9534       1136.8414         46.0004         41.0004
  -3579823.80943  -2751200.64842  23151129.5474   23151134.4164   23151129.1484
     -3041.9564      -2370.3544         43.0004         38.0004
 04 12 25  1 51 30.0000000  0  9G15G19G23G 3G25G 1G11G20G14
   7528628.06243   5918462.61642  25292258.1214   25292269.3574   25292257.5764
     -2660.4974      -2073.1044         38.0004         34.0004
 -13933175.54843 -10819607.25642  21909955.8864   21909958.8794   21909955.0944
     -2717.9454      -2117.8754         48.0004         43.0004
  -1779103.17843  -1343613.10742  23885127.9384   23885132.0684   23885127.2634
      3521.8524       2744.2944         41.0004         37.0004
  -3084285.83243  -2365618.79442  23777716.9754   23777723.9624   23777716.8094
     -3520.3234      -2743.1074         41.0004         36.0004
  -3130007.85043  -2398538.37442  23210157.9214   23210163.7604   23210157.7684
      2299.1244       1791.5154         44.0004         39.0004
 -19222659.94443 -14928796.30742  20410349.4374   20410353.8374   20410349.1214
      -432.3114       -336.8704         51.0004         47.0004
 -18523440.04643 -14399394.27142  21060979.1634   21060982.3404   21060979.0014
      1827.7214       1424.1964         50.0004         45.0004
  -9408292.12643  -7300542.56042  22331588.5814   22331592.7694   22331587.9734
      1453.0784       1132.2664         46.0004         41.0004
  -3488426.73443  -2679982.24042  23168521.8144   23168526.6124   23168521.5184
     -3051.0654      -2377.4474         43.0004         38.0004
 04 12 25  1 52  0.0000000  0  9G15G19G23G 3G25G 1G11G20G14
   7608511.56643   5980709.24242  25307459.6864   25307470.4654   25307459.4374
     -2665.0254      -2076.6214         38.0004         33.0004
 -13851453.31843 -10755927.65642  21925507.1664   21925510.1204   21925506.3414
     -2730.0144      -2127.2814         48.0004         43.0004
  -1884666.84643  -1425870.37542  23865039.7964   23865043.9694   23865039.2634
      3515.9694       2739.7184         41.0004         37.0004
  -2978636.96543  -2283295.18842  23797821.3864   23797828.5774   23797821.3384
     -3522.2864      -2744.6274         41.0004         36.0004
  -3198830.13843  -2452166.10742  23197061.4314   23197067.3064   23197061.2514
      2289.3344       1783.8924         43.0004         39.0004
 -19209395.64543 -14918460.50242  20412873.5824   20412877.9764   20412873.2054
      -452.0384       -352.2374         51.0004         47.0004
 -18578119.82343 -14442001.89042  21050573.9464   21050577.1314   21050573.8034
      1817.6444       1416.3414         50.0004         45.0004
  -9451799.58643  -7334444.47942  22323309.2704   22323313.6024   22323308.7384
      1447.5874       1127.9934         46.0004         42.0004
  -3396762.10143  -2608555.34042  23185965.1354   23185969.6544   23185964.9104
     -3059.8804      -2384.3174         43.0004         38.0004
 04 12 25  1 52 30.0000000  0  9G15G19G23G 3G25G 1G11G20G14
   7688542.45643   6043070.72642  25322689.3884   25322699.9624   25322688.9804
     -2670.5984      -2080.2414         37.0004         32.0004
 -13769368.30443 -10691965.37342  21941127.5614   21941130.4284   21941126.6814
     -2741.9544      -2136.5774         48.0004         43.0004
  -1990047.40043  -1507984.96442  23844986.1914   23844990.7224   23844985.9574
      3510.0544       2735.0954         41.0004         37.0004
  -2872929.67743  -2200926.07642  23817937.0534   23817944.3134   23817936.7944
     -3524.2344      -2746.1394         41.0004         36.0004
  -3267356.42543  -2505563.19542  23184021.2524   23184027.1304   23184021.1144
      2279.5814       1776.2944         43.0004         39.0004
 -19195538.98243 -14907663.12442  20415510.4154   20415514.7854   20415510.0654
      -471.5334       -367.4174         51.0004         47.0004
 -18632493.01943 -14484370.61942  21040227.0974   21040230.2194   21040226.9394
      1807.4834       1408.4304         50.0004         45.0004
  -9495138.91343  -7368215.37342  22315062.1404   22315066.4364   22315061.5284
      1441.9024       1123.5644         46.0004         41.0004
  -3304834.32543  -2536923.38542  23203458.4264   23203462.8424   23203458.1924
     -3068.6164      -2391.1274         43.0004         38.0004
 04 12 25  1 53  0.0000000  0  9G15G19G23G 3G25G 1G11G20G14
   7768721.66143   6105547.73342  25337947.1264   25337958.1584   25337946.7864
     -2674.6254      -2084.6474         37.0004         32.0004
 -13686921.87243 -10627721.46242  21956816.6504   21956819.4784   21956815.7974
     -2754.3374      -2146.2304         48.0004         43.0004
  -2095241.56343  -1589954.31542  23824968.1604   23824972.8764   23824967.9134
      3502.7994       2729.4514         41.0004         37.0004
  -2767165.59443  -2118512.69642  23838063.5654   23838070.8094   23838063.1634
     -3526.9004      -2748.2374         41.0004         36.0004
  -3335582.83043  -2558726.62542  23171038.0484   23171043.9854   23171037.9674
      2268.9574       1768.0184         43.0004         38.0004
 -19181089.74543 -14896403.98942  20418260.0004   20418264.3904   20418259.6914
      -491.5744       -383.0284         51.0004         47.0004
 -18686556.44243 -14526497.96342  21029939.1244   21029942.2794   21029938.9914
      1796.6934       1400.0314         50.0004         45.0004
  -9538309.46043  -7401854.75242  22306846.9844   22306851.3674   22306846.4184
      1436.0114       1118.9724         46.0004         42.0004
  -3212644.64343  -2465087.34842  23221001.5284   23221006.1444   23221001.4034
     -3077.5984      -2398.1184         43.0004         38.0004
 04 12 25  1 53 30.0000000  0  9G15G19G23G 3G25G 1G11G20G14
   7849048.14143   6168139.46642  25353232.9364   25353243.8474   25353232.3074
     -2680.2864      -2088.5324         37.0004         33.0004
 -13604117.58343 -10563198.70742  21972573.8474   21972576.7084   21972572.9914
     -2766.5154      -2155.7244         48.0004         43.0004
  -2200247.69343  -1671777.14842  23804985.7474   23804990.7404   23804985.4464
      3496.0414       2724.1884         41.0004         36.0004
  -2661348.44543  -2036057.98342  23858200.1764   23858207.4704   23858199.7364
     -3528.4534      -2749.4224         41.0004         36.0004
  -3403506.72143  -2611654.30942  23158112.6134   23158118.5494   23158112.4264
      2258.6254       1759.9664         43.0004         39.0004
 -19166049.73843 -14884684.51742  20421122.0244   20421126.4464   20421121.7014
      -511.5954       -398.6354         51.0004         47.0004
 -18740308.79743 -14568382.92042  21019710.4084   21019713.6204   21019710.2664
      1786.1234       1391.7754         50.0004         45.0004
  -9581312.31543  -7435363.46842  22298663.8174   22298668.1164   22298663.2414
      1430.2054       1114.4464         46.0004         42.0004
  -3120196.59743  -2393050.00542  23238593.9874   23238598.5674   23238593.7404
     -3086.3974      -2404.9774         42.0004         38.0004
 04 12 25  1 54  0.0000000  0  9G15G19G23G 3G25G 1G11G20G14
                   6230845.67842  25368546.928    25368557.1964
                     -2091.6454                         33.0004
 -13520957.89643 -10498399.02342  21988398.6834   21988401.5394   21988397.8204
     -2778.1354      -2164.7734         48.0004         43.0004
  -2305063.37043  -1753451.59042  23785039.7614   23785044.5204   23785039.2664
      3490.7104       2720.0304         41.0004         36.0004
  -2555480.47643  -1953563.64642  23878346.3174   23878353.6474   23878345.9554
     -3530.1134      -2750.7264         41.0004         36.0004
  -3471124.65643  -2664343.59442  23145245.3274   23145251.1724   23145245.1824
      2248.4234       1752.0104         43.0004         39.0004
 -19150419.71143 -14872505.29342  20424096.3124   20424100.7514   20424096.0074
      -531.0274       -413.7794         51.0004         47.0004
 -18793747.62843 -14610023.58242  21009541.3654   21009544.5704   21009541.2084
      1775.7954       1383.7234         50.0004         45.0004
  -9624147.42743  -7468741.46342  22290512.5994   22290516.8474   22290512.0194
      1424.7874       1110.2184         46.0004         42.0004
  -3027492.43543  -2320813.08042  23256235.1504   23256239.6394   23256234.8934
     -3094.6244      -2411.3924         42.0004         38.0004
 04 12 25  1 54 30.0000000  0  9G15G19G23G 3G25G 1G11G20G14
                   6293665.97942  25383888.553    25383899.8484
                     -2095.1234                         32.0004
 -13437445.44643 -10433324.45042  22004290.5764   22004293.4714   22004289.7684
     -2789.0414      -2173.2754         48.0004         43.0004
  -2409686.21343  -1834975.76142  23765130.5024   23765135.1594   23765129.9704
      3484.9394       2715.5444         41.0004         36.0004
  -2449564.39643  -1871031.83242  23898501.5774   23898508.8314   23898501.5434
     -3531.0194      -2751.4474         40.0004         35.0004
  -3538433.29643  -2716791.86742  23132436.7684   23132442.8874   23132436.7094
      2239.1564       1744.8064         43.0004         38.0004
 -19134200.82843 -14859867.21542  20427182.6684   20427187.1084   20427182.3634
      -549.9254       -428.5014         51.0004         47.0004
 -18846870.81643 -14651418.27742  20999432.3124   20999435.5754   20999432.1794
      1765.9484       1376.0714         50.0004         45.0004
  -9666815.54243  -7501989.33642  22282393.0894   22282397.3774   22282392.5064
      1420.1554       1106.6164         46.0004         42.0004
  -2934535.04343  -2248378.84442  23273924.4004   23273928.9974   23273924.1394
     -3102.2794      -2417.3554         43.0004         38.0004
 04 12 25  1 55  0.0000000  0  9G15G19G23G 3G25G 1G11G20G14
                                  25399257.869

 -13353583.86243 -10367977.83042  22020249.0004   22020251.8294   22020248.1454
     -2801.4234      -2182.9224         48.0004         43.0004
  -2514114.83143  -1916348.60142  23745258.0954   23745262.7304   23745257.7404
      3477.7644       2709.9554         41.0004         36.0004
  -2343603.81943  -1788465.32342  23918664.8064   23918672.7414   23918665.0744
     -3532.9684      -2752.9544         39.0004         35.0004
  -3605430.35643  -2768997.33142  23119687.6974   23119693.8374   23119687.6394
      2227.6644       1735.8384         43.0004         39.0004
 -19117395.08443 -14846771.84542  20430380.7174   20430385.1214   20430380.3794
      -570.3254       -444.4164         51.0004         47.0004
 -18899676.95343 -14692565.92542  20989383.6154   20989386.9094   20989383.4784
      1754.7464       1367.3314         50.0004         45.0004
  -9709317.79743  -7535107.97842  22274305.1814   22274309.4554   22274304.6104
      1413.7024       1101.5764         46.0004         42.0004
  -2841327.91543  -2175749.99542  23291661.2264   23291665.8674   23291660.9734
     -3111.3694      -2424.4334         43.0004         38.0004
 04 12 25  1 55 30.0000000  0  9G15G19G23G 3G25G 1G11G20G14
                                  25414654.793

 -13269375.16143 -10302360.73042  22036273.3924   22036276.2734   22036272.5974
     -2812.5304      -2191.5814         48.0004         43.0004
  -2618346.35243  -1997567.88342  23725423.4814   23725427.9664   23725423.1474
      3471.4584       2705.0274         41.0004         37.0004
  -2237600.90943  -1705865.88142  23938836.9524   23938844.5224   23938836.9314
     -3534.3364      -2754.0214         39.0004         35.0004
  -3672112.40843  -2820957.32842  23106998.4384   23107004.4524   23106998.3664
      2217.4064       1727.8524         43.0004         39.0004
 -19100002.93543 -14833219.53542  20433690.3644   20433694.7594   20433690.0404
      -589.3924       -459.2774         51.0004         47.0004
 -18952163.55643 -14733464.58642  20979395.7774   20979399.0544   20979395.5914
      1744.2924       1359.1914         50.0004         45.0004
  -9751653.79943  -7568097.06342  22266248.9914   22266253.1524   22266248.3274
      1408.5784       1097.5834         46.0004         42.0004
  -2747873.07643  -2102928.15242  23309445.1464   23309449.8184   23309444.8874
     -3119.0914      -2430.4554         42.0004         38.0004
 04 12 25  1 56  0.0000000  0  9G15G19G23G 3G25G 1G11G20G14
                                  25430079.277

 -13184823.06143 -10236476.04742  22052363.1594   22052366.0644   22052362.3674
     -2823.9024      -2200.4414         48.0004         43.0004
  -2722379.53743  -2078632.61442  23705626.5364   23705631.0044   23705626.2494
      3464.5854       2699.6834         42.0004         37.0004
  -2131559.10543  -1623236.06442  23959016.3734   23959023.9814   23959016.0734
     -3535.0494      -2754.5894         40.0004         35.0004
  -3738477.02943  -2872669.97842  23094369.7364   23094375.7054   23094369.6274
      2207.0104       1719.7484         43.0004         39.0004
 -19082026.36243 -14819211.82942  20437111.1624   20437115.5964   20437110.8754
      -608.7624       -474.3654         51.0004         47.0004
 -19004329.59843 -14774113.45542  20969468.8924   20969472.2084   20969468.7054
      1733.6384       1350.8774         50.0004         46.0004
  -9793825.14143  -7600957.84542  22258224.1214   22258228.2114   22258223.4994
      1403.0484       1093.2744         46.0004         42.0004
  -2654174.06843  -2029916.03442  23327275.6324   23327280.3164   23327275.1814
     -3127.4284      -2436.9514         43.0004         38.0004
 04 12 25  1 56 30.0000000  0  9G15G19G23G 3G25G 1G11G20G14
                                  25445531.196

 -13099929.49943 -10170325.28742  22068518.0304   22068520.8214   22068517.1814
     -2835.2364      -2209.2784         48.0004         43.0004
  -2826211.03343  -2159540.16542  23685868.0484   23685872.4104   23685867.6994
      3457.9274       2694.4884         42.0004         37.0004
  -2025480.34043  -1540577.50742  23979202.3764   23979210.2744   23979202.5184
     -3536.3944      -2755.6454         40.0004         35.0004
  -3804520.10743  -2924132.08842  23081802.1334   23081808.0414   23081802.0754
      2196.2614       1711.3714         43.0004         39.0004
 -19063465.64843 -14804748.94742  20440643.1554   20440647.6234   20440642.8674
      -628.1924       -489.5084         51.0004         47.0004
 -19056171.40443 -14814509.67342  20959603.6934   20959607.0534   20959603.5474
      1722.8084       1342.4374         50.0004         45.0004
  -9835831.06143  -7633689.73042  22250230.6214   22250234.7694   22250230.0394
      1397.6964       1089.1214         46.0004         42.0004
  -2560232.80743  -1956715.15042  23345152.1854   23345156.8604   23345151.7364
     -3134.9844      -2442.8414         43.0004         38.0004
 04 12 25  1 57  0.0000000  0  9G15G19G23G 3G25G 1G11G20G14
                                  25461010.366

 -13014697.30843 -10103910.66642  22084737.1664   22084740.0234   22084736.3544
     -2846.7254      -2218.2194         47.0004         43.0004
  -2929839.07943  -2240289.20342  23666147.7874   23666152.5344   23666147.7114
      3451.1404       2689.1994         41.0004         36.0004
  -1919367.46043  -1457892.37442  23999395.3084   23999402.9534   23999395.0694
     -3538.0094      -2756.8834         40.0004         35.0004
  -3870238.69343  -2975341.32342  23069296.2494   23069302.1944   23069296.1194
      2185.2584       1702.7974         44.0004         39.0004
 -19044322.19343 -14789831.98942  20444286.0044   20444290.5234   20444285.7654
      -647.7814       -504.7654         51.0004         47.0004
 -19107686.77543 -14854651.52942  20949800.6934   20949803.9954   20949800.4954
      1711.8124       1333.8844         50.0004         46.0004
  -9877672.17543  -7666293.20542  22242268.4734   22242272.6704   22242267.8874
      1392.1014       1084.7574         46.0004         42.0004
  -2466051.99143  -1883327.60042  23363074.2974   23363078.9284   23363073.9184
     -3143.2414      -2449.2704         42.0004         38.0004
 04 12 25  1 57 30.0000000  0  9G15G19G23G 3G25G 1G11G20G14
                                  25476516.621

 -12929129.42643 -10037234.46342  22101020.2104   22101023.1024   22101019.4174
     -2858.0544      -2227.0554         47.0004         43.0004
  -3033261.55043  -2320878.05042  23646466.9534   23646471.7714   23646466.6774
      3443.4454       2683.2044         41.0004         37.0004
  -1813223.22643  -1375182.81042  24019593.8704   24019601.6134   24019593.9084
     -3538.7804      -2757.4874         40.0004         35.0004
  -3935629.62943  -3026295.26542  23056852.7214   23056858.5664   23056852.6354
      2174.0034       1694.0314         44.0004         39.0004
 -19024597.11643 -14774461.81842  20448039.6124   20448044.1004   20448039.3154
      -667.5754       -520.1884         51.0004         47.0004
 -19158874.42443 -14894538.01342  20940059.9834   20940063.3004   20940059.8144
      1700.6134       1325.1394         50.0004         46.0004
  -9919348.99643  -7698768.63342  22234337.5854   22234341.8604   22234337.0094
      1386.2984       1080.2344         46.0004         42.0004
  -2371634.44643  -1809755.58942  23381041.3584   23381045.9264   23381041.0264
     -3151.5594      -2455.7574         42.0004         37.0004
 04 12 25  1 58  0.0000000  0  8G19G23G 3G25G 1G11G20G14
 -12843228.33143  -9970298.62242  22117366.7214   22117369.6114   22117365.8864
     -2868.5434      -2235.2284         47.0004         43.0004
  -3136475.90443  -2401304.76142  23626825.8694   23626830.5744   23626825.5924
      3437.0234       2678.2054         41.0004         37.0004
  -1707050.04343  -1292450.64942  24039798.2974   24039805.9164   24039798.1734
     -3538.8234      -2757.5274         40.0004         35.0004
  -4000690.07843  -3076991.68942  23044472.1354   23044478.0164   23044472.0164
      2163.5654       1685.8934         44.0004         39.0004
 -19004291.80243 -14758639.51242  20451903.6184   20451908.0704   20451903.3394
      -686.0904       -534.6104         51.0004         47.0004
 -19209732.14043 -14934167.40342  20930382.0894   20930385.4044   20930381.9524
      1690.1604       1316.9964         50.0004         46.0004
  -9960861.94143  -7731116.38642  22226437.8624   22226442.2634   22226437.3014
      1381.5204       1076.5164         46.0004         42.0004
  -2276982.73443  -1736001.10842  23399053.1024   23399057.5534   23399052.7464
     -3158.6324      -2461.2654         42.0004         37.0004
 04 12 25  1 58 30.0000000  0  8G19G23G 3G25G 1G11G20G14
 -12756998.00643  -9903106.23542  22133775.8674   22133778.7424   22133775.0154
     -2879.9874      -2244.1424         47.0004         43.0004
  -3239480.88443  -2481568.28242  23607224.7254   23607229.3534   23607224.5504
      3429.6004       2672.4124         42.0004         37.0004
  -1600851.50843  -1209698.77542  24060007.5264   24060015.0754   24060007.2644
     -3540.5014      -2758.8214         40.0004         35.0004
  -4065417.61143  -3127428.69142  23032154.8384   23032160.7424   23032154.7304
      2151.6744       1676.6264         44.0004         39.0004
 -18983408.20943 -14742366.60642  20455877.6704   20455882.1094   20455877.3934
      -706.0194       -550.1494         51.0004         47.0004
 -19260258.60743 -14973538.68442  20920767.2574   20920770.5374   20920767.0964
      1678.4904       1307.9124         50.0004         46.0004
 -10002212.18143  -7763337.35842  22218569.1724   22218573.6354   22218568.5884
      1375.4824       1071.8024         46.0004         42.0004
  -2182100.31843  -1662066.86242  23417108.8814   23417113.2464   23417108.4104
     -3166.7914      -2467.6254         42.0004         38.0004
 04 12 25  1 59  0.0000000  0  8G19G23G 3G25G 1G11G20G14
 -12670440.52143  -9835658.91342  22150247.2414   22150250.1474   22150246.4144
     -2890.8494      -2252.6084         47.0004         43.0004
  -3342273.87643  -2561666.63242  23587663.9044   23587668.4434   23587663.6504
      3422.8014       2667.1094         42.0004         37.0004
  -1494629.81343  -1126928.84242  24080220.9444   24080228.5284   24080220.9484
     -3541.2264      -2759.3834         40.0004         35.0004
  -4129808.69543  -3177603.51142  23019901.6124   23019907.3994   23019901.5034
      2140.5084       1667.9274         44.0004         39.0004
 -18961947.08543 -14725643.67242  20459961.5824   20459966.0714   20459961.2974
      -725.3104       -565.1704         51.0004         47.0004
 -19310451.15943 -15012649.76542  20911215.9654   20911219.2354   20911215.8034
      1667.3544       1299.2394         50.0004         46.0004
 -10043399.64943  -7795431.48642  22210731.5834   22210735.8924   22210730.9764
      1369.8034       1067.3774         47.0004         42.0004
  -2086989.36943  -1587954.53442  23435208.0204   23435212.4414   23435207.6814
     -3174.4034      -2473.5564         42.0004         37.0004
 04 12 25  1 59 30.0000000  0  8G19G23G 3G25G 1G11G20G14
 -12583559.17143  -9767959.23542  22166780.2544   22166783.1794   22166779.4624
     -2901.7844      -2261.1384         47.0004         43.0004
  -3444853.00943  -2641598.35142  23568143.9334   23568148.1714   23568143.5214
      3415.2874       2661.2564         42.0004         37.0004
  -1388388.14443  -1044143.36142  24100438.2534   24100445.7944   24100438.1434
     -3542.2974      -2760.2164         40.0004         35.0004
  -4193860.57543  -3227514.02842  23007712.9304   23007718.7074   23007712.7814
      2129.1984       1659.1124         44.0004         39.0004
 -18939910.30043 -14708472.17842  20464155.0724   20464159.5244   20464154.7734
      -744.3874       -580.0434         51.0004         47.0004
 -19360307.96243 -15051499.22842  20901728.5234   20901731.8124   20901728.3754
      1656.0384       1290.4184         50.0004         46.0004
 -10084425.26843  -7827399.50042  22202924.6124   22202928.9074   22202924.0344
      1364.7684       1063.4574         46.0004         42.0004
  -1991653.21943  -1513666.74842  23453350.0204   23453354.4434   23453349.5764
     -3181.8494      -2479.3744         42.0004         37.0004
                            4  1
RINEX FILE SPLICE; other post-header comments skipped       COMMENT
 04 12 25  2  0  0.0000000  0  8G19G23G 3G25G 1G11G20G14
 -12496356.61343  -9700009.26942  22183374.4194   22183377.2884   22183373.6594
     -2911.5574      -2268.7514         47.0004         43.0004
  -3547216.12743  -2721361.75042  23548664.9624   23548668.9864   23548664.4734
      3409.1934       2656.5154         42.0004         37.0004
  -1282129.17743   -961344.36842  24120658.8114   24120666.4064   24120658.6574
     -3541.6544      -2759.7244         40.0004         35.0004
  -4257569.77043  -3277157.52742  22995589.4104   22995595.1944   22995589.3964
      2118.6814       1650.9174         44.0004         39.0004
 -18917299.09243 -14690853.07342  20468457.8994   20468462.2584   20468457.5624
      -762.6564       -594.2664         51.0004         47.0004
 -19409826.80843 -15090085.34442  20892305.4784   20892308.6714   20892305.2704
      1645.6114       1282.2964         50.0004         46.0004
 -10125289.07743  -7859241.43042  22195148.4404   22195152.7044   22195147.8844
      1360.1274       1059.8344         46.0004         42.0004
  -1896094.07543  -1439205.16942  23471534.2064   23471538.8474   23471533.9254
     -3188.5364      -2484.5684         42.0004         37.0004
 04 12 25  2  0 30.0000000  0  8G19G23G 3G25G 1G11G20G14
 -12408835.79343  -9631811.30742  22200029.1584   22200032.0924   22200028.4134
     -2922.7424      -2277.4674         47.0004         43.0004
  -3649361.13943  -2800955.19642  23529227.3454   23529231.3824   23529226.9184
      3400.8404       2650.0074         42.0004         37.0004
  -1175855.59343   -878534.01042  24140882.2494   24140890.0304   24140881.8754
     -3542.7394      -2760.5474         40.0004         35.0004
  -4320933.32643  -3326531.68842  22983531.6544   22983537.4894   22983531.6594
      2106.1864       1641.1914         44.0004         39.0004
 -18894114.97943 -14672787.55642  20472869.6574   20472874.0874   20472869.3604
      -782.4124       -609.6644         51.0004         47.0004
 -19459005.77643 -15128406.62142  20882947.0894   20882950.2214   20882946.8764
      1633.5364       1272.8764         50.0004         46.0004
 -10165991.70843  -7890957.75642  22187403.0264   22187407.2174   22187402.4874
      1354.0984       1055.1554         46.0004         42.0004
  -1800314.68443  -1364571.99242  23489760.2914   23489765.1464   23489760.0604
     -3196.3074      -2490.6324         42.0004         37.0004
 04 12 25  2  1  0.0000000  0  8G19G23G 3G25G 1G11G20G14
 -12320999.14743  -9563367.25542  22216744.0014   22216746.9674   22216743.2224
     -2932.6244      -2285.1554         47.0004         43.0004
  -3751285.51843  -2880376.73942  23509831.6664   23509835.7804   23509831.3654
      3394.3884       2644.9764         42.0004         37.0004
  -1069569.87043   -795714.19342  24161107.8194   24161115.8684   24161107.4614
     -3542.7784      -2760.5824         40.0004         35.0004
  -4383948.18743  -3375634.15942  22971540.4374   22971546.0144   22971540.3564
      2095.3284       1632.7254         44.0004         40.0004
 -18870359.10543 -14654276.50342  20477390.2594   20477394.7004   20477389.9694
      -800.8384       -624.0224         51.0004         47.0004
 -19507842.44743 -15166461.17142  20873653.7904   20873656.8894   20873653.5934
      1622.8144       1264.5344         50.0004         46.0004
 -10206533.37343  -7922548.66042  22179688.2314   22179692.4124   22179687.7044
      1349.2534       1051.3624         47.0004         42.0004
  -1704317.69643  -1289769.25842  23508027.8724   23508032.9134   23508027.6584
     -3202.8934      -2495.7554         42.0004         37.0004
 04 12 25  2  1 30.0000000  0  8G19G23G 3G25G 1G11G20G14
 -12232849.65443  -9494679.42842  22233518.4094   22233521.2924   22233517.5724
     -2943.5684      -2293.6904         47.0004         43.0004
  -3852987.08143  -2959624.59542  23490478.3724   23490482.6114   23490477.9834
      3386.3004       2638.6764         42.0004         37.0004
   -963274.64343   -712886.96142  24181335.0984   24181343.4334   24181335.0424
     -3543.5884      -2761.2294         40.0004         35.0004
  -4446611.31943  -3424462.56242  22959616.0704   22959621.6454   22959616.0234
      2082.6704       1622.8574         44.0004         40.0004
 -18846032.64943 -14635320.84642  20482019.4084   20482023.8714   20482019.1454
      -820.4944       -639.3304         51.0004         46.0004
 -19556334.89843 -15204247.49642  20864425.9764   20864429.0664   20864425.7804
      1610.5674       1255.0014         50.0004         46.0004
 -10246914.27143  -7954014.29842  22172003.9424   22172008.2094   22172003.4124
      1343.2764       1046.7024         47.0004         42.0004
  -1608105.59943  -1214798.90942  23526336.3294   23526341.5804   23526336.1754
     -3210.7484      -2501.8794         42.0004         37.0004
 04 12 25  2  2  0.0000000  0  8G19G23G 3G25G 1G11G20G14
 -12144390.69543  -9425750.45542  22250351.6184   22250354.5364   22250350.8044
     -2953.3794      -2301.3324         47.0004         43.0004
  -3954464.02843  -3038697.49542  23471167.8374   23471172.0624   23471167.4294
      3379.2474       2633.1734         42.0004         37.0004
   -856973.04343   -630054.78442  24201563.8834   24201571.9464   24201563.3374
     -3543.2154      -2760.9314         39.0004         35.0004
  -4508919.96143  -3473014.73242  22947759.1094   22947764.6544   22947759.0434
      2071.2704       1613.9794         44.0004         40.0004
 -18821137.52643 -14615922.07142  20486756.7914   20486761.2664   20486756.5374
      -838.8914       -653.6664         51.0004         46.0004
 -19604481.23143 -15241764.12842  20855264.0464   20855267.1134   20855263.8554
      1599.3804       1246.2844         50.0004         46.0004
 -10287135.45843  -7985355.48342  22164350.1574   22164354.3764   22164349.6424
      1338.2724       1042.8184         47.0004         42.0004
  -1511681.20543  -1139663.13642  23544685.2594   23544690.6324   23544685.2434
     -3217.3524      -2507.0184         42.0004         37.0004
 04 12 25  2  2 30.0000000  0  8G19G23G 3G25G 1G11G20G14
 -12055624.72043  -9356582.24942  22267243.3014   22267246.2154   22267242.4674
     -2964.6344      -2310.1064         47.0004         43.0004
  -4055713.96143  -3117593.47542  23451900.6154   23451904.6364   23451900.1354
      3370.3914       2626.2784         42.0004         37.0004
   -750667.30543   -547219.38542  24221793.1584   24221801.5664   24221793.0104
     -3544.5534      -2761.9864         39.0004         35.0004
  -4570870.93943  -3521288.19242  22935970.2134   22935975.7934   22935970.2494
      2058.3774       1603.9334         44.0004         39.0004
 -18795675.01343 -14596081.17542  20491602.1604   20491606.6554   20491601.8824
      -858.9924       -669.3554         51.0004         47.0004
 -19652279.09543 -15279009.21642  20846168.3994   20846171.4904   20846168.2424
      1586.7074       1236.4004         50.0004         46.0004
 -10327196.80843  -8016572.12642  22156726.7674   22156730.9074   22156726.2434
      1332.1114       1038.0074         47.0004         42.0004
  -1415047.20143  -1064364.03642  23563074.2704   23563079.7174   23563074.0534
     -3225.3234      -2513.2414         42.0004         37.0004
 04 12 25  2  3  0.0000000  0  8G19G23G 3G25G 1G11G20G14
 -11966554.60743  -9287177.05342  22284192.8004   22284195.7834   22284191.9914
     -2974.5144      -2317.7984         47.0004         42.0004
  -4156734.96543  -3196311.07942  23432677.0014   23432680.6984   23432676.3884
      3363.3264       2620.7624         42.0004         37.0004
   -644360.15243   -464382.88842  24242022.8854   24242031.5154   24242022.5274
     -3543.7424      -2761.3394         39.0004         34.0004
  -4632461.38443  -3569280.72042  22924250.0294   22924255.5614   22924249.9904
      2046.6764       1594.8064         44.0004         40.0004
 -18769646.68343 -14575799.38242  20496555.1934   20496559.6764   20496554.9264
      -877.3164       -683.6164         51.0004         46.0004
 -19699726.47743 -15315981.20742  20837139.4474   20837142.5494   20837139.3544
      1575.3834       1227.5604         50.0004         46.0004
 -10367098.81143  -8047664.58842  22149133.7184   22149137.7954   22149133.1344
      1327.1104       1034.1114         47.0004         42.0004
  -1318206.43643   -988903.80442  23581502.5964   23581507.9974   23581502.3704
     -3231.4794      -2518.0374         41.0004         37.0004
