     2.10           OBSERVATION DATA    G (GPS)             RINEX VERSION / TYPE
teqc  2003Apr29                         20041225 00:22:08UTCPGM / RUN BY / DATE
OBSERVATION MODE: IGS-Net                                   COMMENT
PERT Perth (PERT)                                           MARKER NAME
50133M001                                                   MARKER NUMBER
200313003           ASHTECH UZ-12        CJ00               REC # / TYPE / VERS
CR620023901         ASH701945C_M    NONE                    ANT # / TYPE
        0.0595        0.0000        0.0000                  ANTENNA: DELTA H/E/N
  -2368687.1721  4881316.3842  -3341795.6968                APPROX POSITION XYZ
  115.88525010  -31.80196660  12.4876  LonLatAlt  S/W       COMMENT
Solaris 2.7|Ultra 2|cc SC5.0|=+-|*Sparc                     COMMENT
MSWin2000|IAx86-PII|bcc32 5.0|MSWin95->XP|486/DX+           COMMENT
BIT 2 OF LLI FLAGS DATA COLLECTED UNDER A/S CONDITION       COMMENT
AUTOMATIC           ESA/ESOC                                OBSERVER / AGENCY
     1     1                                                WAVELENGTH FACT L1/2
     9    L1    L2    C1    P2    P1    D1    D2    S1    S2# / TYPES OF OBSERV
    30.0000                                                 INTERVAL
 SNR is mapped to RINEX snr flag value [1-9]                COMMENT
  L1: 1 -> 1;  90 -> 5; 210 -> 9                            COMMENT
  L2: 1 -> 1; 150 -> 5; 250 -> 9                            COMMENT
pseudorange smoothing corrections not applied               COMMENT
Checked by ROCK 1.0 [24.12.04-00:18]; status 2: file fixed  COMMENT
    30                                                      # OF SATELLITES
   G01   624   625   626   625   624   624   625   624   625PRN / # OF OBS
   G02   864   865   865   865   864   864   865   864   865PRN / # OF OBS
   G03   678   691   696   691   678   678   691   678   691PRN / # OF OBS
   G04   847   854   861   854   847   847   854   847   854PRN / # OF OBS
   G05   786   787   787   787   786   786   787   786   787PRN / # OF OBS
   G06   836   838   849   838   836   836   838   836   838PRN / # OF OBS
   G07   541   542   548   542   541   541   542   541   542PRN / # OF OBS
   G08   826   826   829   826   826   826   826   826   826PRN / # OF OBS
   G09   764   772   779   772   764   764   772   764   772PRN / # OF OBS
   G10   854   859   870   859   854   854   859   854   859PRN / # OF OBS
   G11   721   725   739   725   721   721   725   721   725PRN / # OF OBS
   G13   844   849   856   849   844   844   849   844   849PRN / # OF OBS
   G14   738   742   744   742   738   738   742   738   742PRN / # OF OBS
   G15   869   873   878   873   869   869   873   869   873PRN / # OF OBS
   G16   620   624   633   624   620   620   624   620   624PRN / # OF OBS
   G17   692   698   703   698   692   692   698   692   698PRN / # OF OBS
   G18   681   689   696   689   681   681   689   681   689PRN / # OF OBS
   G19   677   678   682   678   677   677   678   677   678PRN / # OF OBS
   G20   759   761   765   761   759   759   761   759   761PRN / # OF OBS
   G21   719   720   724   720   719   719   720   719   720PRN / # OF OBS
   G22   722   729   730   729   722   722   729   722   729PRN / # OF OBS
   G23   849   851   851   851   849   849   851   849   851PRN / # OF OBS
   G24   837   848   854   848   837   837   848   837   848PRN / # OF OBS
   G25   823   839   867   839   823   823   839   823   839PRN / # OF OBS
   G26   624   627   631   627   624   624   627   624   627PRN / # OF OBS
   G27   700   703   704   703   700   700   703   700   703PRN / # OF OBS
   G28   634   642   644   642   634   634   642   634   642PRN / # OF OBS
   G29   618   619   625   619   618   618   619   618   619PRN / # OF OBS
   G30   823   825   827   825   823   823   825   823   825PRN / # OF OBS
   G31   783   793   795   793   783   783   793   783   793PRN / # OF OBS
Checked by ROCK 1.0 [25.12.04-00:24]; status 0: file OK     COMMENT
  2004    12    24     0     0    0.0000000     GPS         TIME OF FIRST OBS
  2004    12    24    23    59   30.0000000     GPS         TIME OF LAST OBS
                                                            END OF HEADER
 04 12 24  0  0  0.0000000  0  8G 3G 1G19G15G16G14G11G22
 -23967201.65843 -18636183.29842  20516429.7394   20516433.8584   20516429.5464
      -744.0214       -579.7514         51.0004         46.0004
  -7602483.21943  -5877717.99642  22687523.0384   22687528.9444   22687522.9544
      3364.8714       2621.9844         45.0004         41.0004
 -18622316.13043 -14467698.07042  20893308.6594   20893310.3144   20893307.9114
      1346.4604       1049.2034         51.0004         47.0004
  -5951544.10343  -4590491.21542  22570850.5274   22570855.2804   22570849.9894
     -1523.3814      -1187.0464         47.0004         42.0004
   3241777.34643   2566117.49042  25351495.2264   25351502.3674   25351494.3174
     -3030.7734      -2361.6614         38.0004         34.0004
 -13822983.84343 -10721626.82242  21431130.1714   21431133.6844   21431129.7954
       867.1004        675.6694         49.0004         44.0004
  -1409382.13643  -1061456.91242  24305665.9904   24305670.7704   24305665.9844
      2661.3604       2073.7894         40.0004         36.0004
 -14931038.46943 -11591863.15642  22086055.9394   22086058.2674   22086056.0524
     -2598.8204      -2025.0634         48.0004         43.0004
 04 12 24  0  0 30.0000000  0  8G 3G 1G19G15G16G14G11G22
 -23944580.67743 -18618556.57942  20520734.3424   20520738.4994   20520734.1574
      -763.6644       -595.0684         51.0004         46.0004
  -7703309.12943  -5956283.61242  22668336.4964   22668342.4274   22668336.3574
      3356.7724       2615.6724         45.0004         41.0004
 -18662445.42943 -14498967.64442  20885672.3594   20885673.9584   20885671.5824
      1329.1854       1035.7124         51.0004         47.0004
  -5905774.14543  -4554826.33542  22579560.2964   22579565.0824   22579559.7384
     -1527.8384      -1190.5184         47.0004         42.0004
   3332629.01943   2636910.92942  25368783.7374   25368791.1874   25368783.1324
     -3025.9144      -2357.8644         38.0004         33.0004
 -13848685.96843 -10741654.43742  21426239.2104   21426242.6754   21426238.8274
       846.6244        659.6994         49.0004         44.0004
  -1489219.07943  -1123667.49442  24290473.6534   24290478.3144   24290473.4404
      2660.9554       2073.4704         40.0004         36.0004
 -14852962.93143 -11531025.10242  22100913.2064   22100915.6174   22100913.3504
     -2605.9264      -2030.5934         48.0004         43.0004
 04 12 24  0  1  0.0000000  0  8G 3G 1G19G15G16G14G11G22
 -23921399.54543 -18600493.38142  20525145.5764   20525149.7414   20525145.4004
      -781.8874       -609.2794         51.0004         46.0004
  -7803912.67243  -6034675.96142  22649192.1964   22649198.2094   22649192.2004
      3349.5314       2610.0274         45.0004         41.0004
 -18702081.83643 -14529853.14842  20878129.8044   20878131.3494   20878129.0164
      1313.0584       1023.1584         51.0004         47.0004
  -5859894.84943  -4519076.26142  22588290.7844   22588295.7614   22588290.2744
     -1531.1644      -1193.1214         47.0004         42.0004
                   2707565.40042  25386038.156    25386045.7924
                     -2352.7924                         32.0004
 -13873801.96743 -10761225.32642  21421459.7474   21421463.2704   21421459.3424
       827.3554        644.6914         49.0004         44.0004
  -1569078.62143  -1185895.67642  24275277.0804   24275281.2894   24275276.6614
      2663.0074       2075.0774         40.0004         36.0004
 -14774699.81943 -11470040.89842  22115806.2274   22115808.6154   22115806.3274
     -2611.9254      -2035.2814         48.0004         43.0004
 04 12 24  0  1 30.0000000  0  8G 3G 1G19G15G16G14G11G22
 -23897658.51943 -18581993.89842  20529663.3774   20529667.5224   20529663.1624
      -800.6434       -623.8864         51.0004         46.0004
  -7904290.97943  -6112892.80342  22630090.9404   22630096.7794   22630090.8514
      3342.1874       2604.3014         45.0004         41.0004
 -18741223.58643 -14560353.20742  20870681.3444   20870682.8944   20870680.5774
      1296.5114       1010.2654         51.0004         47.0004
  -5813906.04643  -4483240.86542  22597042.2044   22597047.1344   22597041.6674
     -1534.6694      -1195.8524         46.0004         42.0004
                   2778078.85342  25403258.434    25403265.7284
                     -2348.0594                         31.0004
 -13898330.75943 -10780338.65642  21416791.9704   21416795.5704   21416791.6484
       807.8134        629.4574         49.0004         44.0004
  -1648959.41043  -1248140.39742  24260076.1734   24260080.6564   24260075.8374
      2663.2344       2075.2534         40.0004         36.0004
 -14696251.41743 -11408912.30142  22130734.5104   22130736.8494   22130734.5984
     -2617.9864      -2039.9904         47.0004         43.0004
 04 12 24  0  2  0.0000000  0  8G 3G 1G19G15G16G14G11G22
 -23873357.79043 -18563058.28642  20534287.6404   20534291.8064   20534287.4274
      -819.1634       -638.3024         51.0004         46.0004
  -8004440.69043  -6190931.51742  22611033.1714   22611038.8994   22611033.0604
      3334.7644       2598.5094         46.0004         41.0004
 -18779868.59343 -14590466.19742  20863327.4834   20863329.0024   20863326.7104
      1280.1664        997.5334         51.0004         47.0004
  -5767807.04543  -4447319.59242  22605814.6024   22605819.4904   22605814.0054
     -1538.2244      -1198.6094         47.0004         42.0004
                                  25420444.056

 -13922270.89143 -10798993.29242  21412236.2844   21412239.9194   21412235.9694
       788.4044        614.3414         49.0004         44.0004
  -1728861.18943  -1310401.50642  24244871.4414   24244875.6464   24244871.0414
      2664.0784       2075.9044         40.0004         36.0004
 -14617619.76743 -11347640.92542  22145697.6934   22145700.0474   22145697.7054
     -2623.8624      -2044.5644         47.0004         43.0004
 04 12 24  0  2 30.0000000  0  8G 3G 1G19G15G16G14G11G22
 -23848498.07443 -18543687.10342  20539018.3264   20539022.4814   20539018.1234
      -837.8684       -652.8924         51.0004         46.0004
  -8104358.81943  -6268789.75842  22592019.3944   22592025.1114   22592019.2314
      3326.7674       2592.2834         46.0004         41.0004
 -18818015.33843 -14620190.93842  20856068.4324   20856069.8744   20856067.6454
      1263.4734        984.5294         51.0004         47.0004
  -5721597.69143  -4411312.33442  22614607.8594   22614612.8754   22614607.3014
     -1542.0194      -1201.5784         46.0004         42.0004
                                  25437594.260

 -13945621.43143 -10817188.50242  21407792.7844   21407796.4904   21407792.4604
       768.7084        598.9954         49.0004         44.0004
  -1808783.86843  -1372678.90742  24229662.6094   24229666.8914   24229662.2784
      2664.7124       2076.4074         40.0004         36.0004
 -14538807.26343 -11286228.62842  22160695.2764   22160697.5894   22160695.3124
     -2629.9114      -2049.2704         47.0004         43.0004
 04 12 24  0  3  0.0000000  0  8G 3G 1G19G15G16G14G11G22
 -23823079.43943 -18523880.39842  20543855.3704   20543859.5014   20543855.1524
      -856.1594       -667.1324         51.0004         46.0004
  -8204042.02643  -6346464.94942  22573050.2134   22573056.0284   22573050.0544
      3319.3974       2586.5444         46.0004         41.0004
 -18855661.64743 -14649525.72942  20848904.6164   20848906.0354   20848903.7994
      1246.8734        971.5814         51.0004         47.0004
  -5675277.55043  -4375218.75942  22623422.3254   22623427.3214   22623421.7854
     -1545.6054      -1204.3684         46.0004         42.0004
                                  25454709.003

 -13968381.10043 -10834923.29442  21403461.7574   21403465.4834   21403461.4494
       749.1984        583.7864         49.0004         44.0004
  -1888726.62443  -1434971.93142  24214450.1164   24214454.4454   24214449.7734
      2665.3204       2076.8834         40.0004         36.0004
 -14459815.96643 -11224677.01042  22175726.8674   22175729.2164   22175726.8624
     -2635.5784      -2053.6914         47.0004         42.0004
 04 12 24  0  3 30.0000000  0  8G 3G 1G19G15G16G14G11G22
 -23797103.04843 -18503639.07542  20548798.5444   20548802.6924   20548798.3124
      -875.2664       -682.0324         51.0004         46.0004
  -8303487.61443  -6423954.98842  22554126.2584   22554132.1344   22554126.1444
      3310.8224       2579.8634         45.0004         41.0004
 -18892806.13943 -14678469.49642  20841836.2234   20841837.7104   20841835.4244
      1229.6544        958.1804         51.0004         47.0004
  -5628846.47443  -4339038.74242  22632257.8444   22632262.8974   22632257.3484
     -1549.7154      -1207.5694         46.0004         42.0004
                                  25471786.630

 -13990549.13043 -10852197.07842  21399243.3494   21399246.9944   21399243.0254
       729.0174        568.0584         49.0004         44.0004
  -1968689.33043  -1497280.52842  24199233.7894   24199237.7084   24199233.3404
      2665.5024       2077.0274         40.0004         35.0004
 -14380648.27643 -11162987.93242  22190792.0124   22190794.3244   22190791.9604
     -2641.9064      -2058.6354         47.0004         43.0004
 04 12 24  0  4  0.0000000  0  8G 3G 1G19G15G16G14G11G22
 -23770568.12943 -18482962.52842  20553847.9744   20553852.1554   20553847.7584
      -893.8704       -696.5334         51.0004         46.0004
  -8402691.52443  -6501256.71742  22535248.2444   22535254.1654   22535248.2364
      3302.7164       2573.5454         45.0004         41.0004
 -18929446.05143 -14707020.08442  20834863.8594   20834865.3894   20834863.0554
      1212.7654        945.0084         51.0004         47.0004
  -5582303.05543  -4302771.18542  22641114.8254   22641119.8274   22641114.3124
     -1553.3694      -1210.4134         46.0004         42.0004
                                  25488827.920

 -14012123.47343 -10869008.24242  21395137.8664   21395141.5284   21395137.5554
       709.1604        552.5904         49.0004         44.0004
  -2048670.59843  -1559603.56742  24184014.0354   24184017.6784   24184013.4454
      2666.2914       2077.6344         40.0004         36.0004
 -14301305.57743 -11101162.48742  22205890.4354   22205892.7424   22205890.4324
     -2647.7514      -2063.1814         47.0004         42.0004
 04 12 24  0  4 30.0000000  0  7G 3G 1G19G15G14G11G22
 -23743476.13043 -18461851.90542  20559003.4254   20559007.6184   20559003.2084
      -912.1924       -710.7994         51.0004         46.0004
  -8501651.29943  -6578368.20142  22516416.9134   22516422.6814   22516416.7364
      3294.4904       2567.1294         46.0004         41.0004
 -18965580.22743 -14735176.59642  20827987.7764   20827989.2734   20827986.9554
      1196.1574        932.0684         51.0004         47.0004
  -5535647.63543  -4266416.36242  22649993.1424   22649998.0784   22649992.6034
     -1556.9984      -1213.2504         46.0004         42.0004
 -14033103.84743 -10885356.58142  21391145.4914   21391149.0694   21391145.1564
       689.5074        537.2634         49.0004         45.0004
  -2128670.45843  -1621941.08542  24168790.4954   24168794.1504   24168790.1364
      2667.2104       2078.3434         40.0004         36.0004
 -14221790.77843 -11039202.94042  22221021.6834   22221023.8794   22221021.6044
     -2653.1604      -2067.3944         47.0004         43.0004
 04 12 24  0  5  0.0000000  0  7G 3G 1G19G15G14G11G22
 -23715827.17843 -18440307.28742  20564264.8434   20564269.0694   20564264.6544
      -930.8744       -725.3484         51.0004         46.0004
  -8600363.65143  -6655286.88642  22497632.5354   22497638.3404   22497632.2884
      3286.3354       2560.7784         46.0004         41.0004
 -19001206.79843 -14762937.57042  20821208.2764   20821209.7714   20821207.4544
      1179.1184        918.7954         51.0004         47.0004
  -5488879.81843  -4229973.95942  22658892.8364   22658897.7684   22658892.2934
     -1560.7944      -1216.1994         46.0004         42.0004
 -14053489.04543 -10901241.14242  21387266.3354   21387269.8874   21387266.0234
       669.6894        521.8384         49.0004         44.0004
  -2208688.27743  -1684292.61342  24153563.5904   24153567.1134   24153563.1324
      2667.3444       2078.4604         40.0004         36.0004
 -14142105.72943 -10977110.73242  22236185.1984   22236187.3664   22236185.1824
     -2658.9044      -2071.8794         47.0004         42.0004
 04 12 24  0  5 30.0000000  0  7G 3G 1G19G15G14G11G22
 -23687622.33943 -18418329.51042  20569632.1264   20569636.2734   20569631.8974
      -949.3474       -739.7514         51.0004         46.0004
  -8698825.85343  -6732010.65542  22478895.7434   22478901.6184   22478895.5384
      3277.9744       2554.2644         46.0004         41.0004
 -19036324.30643 -14790301.86842  20814525.6144   20814527.1414   20814524.8104
      1162.1114        905.5304         52.0004         47.0004
  -5441999.30343  -4193443.72442  22667813.9644   22667818.8924   22667813.4004
     -1564.4224      -1219.0244         46.0004         42.0004
 -14073278.54943 -10916661.53542  21383500.4294   21383504.0684   21383500.1724
       649.5374        506.1304         49.0004         44.0004
  -2288723.94443  -1746658.02942  24138333.1434   24138336.7944   24138332.7084
      2668.3564       2079.2274         41.0004         36.0004
 -14062252.97243 -10914887.84642  22251380.6044   22251382.7954   22251380.6554
     -2664.5604      -2076.2764         47.0004         42.0004
 04 12 24  0  6  0.0000000  0  7G 3G 1G19G15G14G11G22
 -23658861.44143 -18395918.43642  20575105.1304   20575109.3334   20575104.9404
      -968.0574       -754.3304         51.0004         46.0004
  -8797033.98443  -6808536.43442  22460207.3084   22460213.1454   22460207.1274
      3269.1684       2547.4074         46.0004         41.0004
 -19070930.38943 -14817267.65242  20807940.2774   20807941.8144   20807939.5074
      1144.8524        892.0894         52.0004         47.0004
  -5395004.89443  -4156824.75542  22676756.7064   22676761.6464   22676756.1554
     -1568.5374      -1222.2454         46.0004         42.0004
 -14092470.59543 -10931616.36542  21379848.3304   21379851.9164   21379848.0154
       629.6674        490.6464         49.0004         44.0004
  -2368776.20643  -1809036.39542  24123099.5154   24123103.3984   24123099.1094
      2668.6854       2079.4904         41.0004         36.0004
 -13982233.88543 -10852535.34642  22266607.8134   22266609.9744   22266607.8574
     -2670.0864      -2080.5884         47.0004         43.0004
 04 12 24  0  6 30.0000000  0  7G 3G 1G19G15G14G11G22
 -23629545.27043 -18373074.69242  20580683.8544   20580688.0334   20580683.6164
      -986.6194       -768.7874         51.0004         46.0004
  -8894985.23743  -6884862.04342  22441567.8934   22441573.6494   22441567.6324
      3260.5804       2540.7084         46.0004         41.0004
 -19105023.38343 -14843833.62342  20801452.5834   20801454.1754   20801451.8374
      1127.7024        878.7274         52.0004         47.0004
  -5347896.41443  -4120116.88942  22685721.2324   22685726.0924   22685720.6704
     -1572.3624      -1225.2094         46.0004         42.0004
 -14111064.25743 -10946104.93542  21376310.0664   21376313.6724   21376309.7664
       609.5204        474.9524         49.0004         45.0004
  -2448844.62843  -1871427.34942  24107862.9174   24107866.6554   24107862.5504
      2669.2104       2079.9064         41.0004         36.0004
 -13902050.82443 -10790055.08342  22281866.1294   22281868.3544   22281866.1594
     -2675.5484      -2084.8474         47.0004         42.0004
 04 12 24  0  7  0.0000000  0  7G 3G 1G19G15G14G11G22
 -23599674.78343 -18349799.00942  20586368.0374   20586372.2194   20586367.7904
     -1004.5654       -782.7794         51.0004         46.0004
  -8992676.74243  -6960985.23942  22422977.8184   22422983.5374   22422977.4924
      3252.3694       2534.3084         46.0004         41.0004
 -19138602.04343 -14869998.81342  20795062.7584   20795064.3664   20795062.0194
      1111.0794        865.7664         52.0004         47.0004
  -5300673.71743  -4083320.03942  22694707.4434   22694712.3154   22694706.8474
     -1575.6014      -1227.7374         46.0004         42.0004
 -14129059.09643 -10960126.88342  21372885.7224   21372889.3774   21372885.4214
       590.1244        459.8354         49.0004         45.0004
  -2528929.19643  -1933830.88042  24092623.5094   24092627.1694   24092623.1164
      2670.0144       2080.5334         41.0004         37.0004
 -13821706.22743 -10727448.94242  22297155.1954   22297157.4264   22297155.2014
     -2680.5224      -2088.7314         47.0004         42.0004
 04 12 24  0  7 30.0000000  0  7G 3G 1G19G15G14G11G22
 -23569250.04043 -18326091.44042  20592157.6594   20592161.8534   20592157.4384
     -1023.3454       -797.4134         51.0004         46.0004
  -9090104.91343  -7036903.23242  22404437.7194   22404443.4854   22404437.4824
      3243.1424       2527.1224         46.0004         42.0004
 -19171663.96743 -14895761.35142  20788771.2764   20788772.9044   20788770.5284
      1093.4614        852.0404         52.0004         47.0004
  -5253336.00343  -4046433.54542  22703715.5504   22703720.4004   22703714.9954
     -1579.8244      -1231.0334         46.0004         42.0004
 -14146453.67743 -10973681.10342  21369575.6294   21369579.2934   21369575.3324
       569.6834        443.9074         49.0004         45.0004
  -2609028.48043  -1996245.88542  24077380.9804   24077384.9044   24077380.7004
      2669.8934       2080.4214         41.0004         37.0004
 -13741201.63343 -10664718.11442  22312474.7824   22312476.9444   22312474.7984
     -2686.1854      -2093.1404         47.0004         42.0004
 04 12 24  0  8  0.0000000  0  7G 3G 1G19G15G14G11G22
 -23538271.92643 -18301952.66842  20598052.6014   20598056.8094   20598052.3864
     -1041.6604       -811.6824         51.0004         46.0004
  -9187266.86743  -7112613.79242  22385948.3824   22385954.1074   22385948.1344
      3234.3974       2520.3084         46.0004         42.0004
 -19204207.66743 -14921120.08242  20782578.4324   20782580.0694   20782577.6874
      1076.3014        838.6884         52.0004         47.0004
  -5205883.13343  -4009457.32442  22712745.4724   22712750.3624   22712745.0004
     -1583.3024      -1233.7324         46.0004         42.0004
 -14163247.25643 -10986767.00742  21366379.9534   21366383.5334   21366379.6204
       549.9184        428.5234         49.0004         45.0004
  -2689142.09643  -2058672.05442  24062135.9164   24062139.8794   24062135.7214
      2670.8094       2081.1574         41.0004         36.0004
 -13660539.20743 -10601864.32142  22327824.2244   22327826.5754   22327824.2724
     -2691.2054      -2097.0444         47.0004         42.0004
 04 12 24  0  8 30.0000000  0  7G 3G 1G19G15G14G11G22
 -23506741.58643 -18277383.59642  20604052.6774   20604056.8484   20604052.4254
     -1060.2694       -826.1864         51.0004         46.0004
  -9284159.90543  -7188114.80342  22367510.3454   22367515.9894   22367510.0124
      3225.0284       2513.0104         46.0004         42.0004
 -19236231.99243 -14946074.10142  20776484.4064   20776486.0384   20776483.6404
      1058.8454        825.0724         52.0004         47.0004
  -5158314.86743  -3972391.19442  22721797.5364   22721802.3734   22721796.9824
     -1587.6354      -1237.1174         46.0004         42.0004
 -14179439.39543 -10999384.24942  21363298.6124   21363302.2414   21363298.3724
       529.8004        412.8294         49.0004         45.0004
  -2769269.82943  -2121109.24742  24046888.0614   24046892.1514   24046887.8734
      2671.2944       2081.5234         41.0004         37.0004
 -13579721.50943 -10538889.53242  22343203.3874   22343205.7134   22343203.4324
     -2696.4974      -2101.1674         47.0004         42.0004
 04 12 24  0  9  0.0000000  0  7G 3G 1G19G15G14G11G22
 -23474659.28843 -18252384.42642  20610157.7214   20610161.9404   20610157.4944
     -1078.9414       -840.7284         51.0004         46.0004
  -9380780.57943  -7263403.58542  22349124.0654   22349129.6384   22349123.7434
      3215.9664       2505.9524         46.0004         42.0004
 -19267735.05043 -14970621.94342  20770489.5534   20770491.1854   20770488.7904
      1040.9144        811.1004         52.0004         47.0004
  -5110630.60943  -3935234.67242  22730871.5564   22730876.4474   22730871.0344
     -1591.8384      -1240.3944         46.0004         42.0004
 -14195029.04143 -11011532.02442  21360332.0224   21360335.6144   21360331.7274
       509.3184        396.8644         49.0004         45.0004
  -2849411.11043  -2183556.96642  24031637.7544   24031641.6704   24031637.4314
      2671.3004       2081.5264         41.0004         37.0004
 -13498750.36443 -10475795.16842  22358611.7724   22358614.0624   22358611.7624
     -2701.8114      -2105.3064         47.0004         42.0004
 04 12 24  0  9 30.0000000  0  7G 3G 1G19G15G14G11G22
 -23442025.61043 -18226955.61042  20616367.6654   20616371.9664   20616367.4604
     -1096.5154       -854.4334         51.0004         46.0004
  -9477125.61743  -7338477.58842  22330790.1774   22330795.7264   22330789.7934
      3207.3514       2499.2274         46.0004         42.0004
 -19298714.99043 -14994762.15242  20764594.3034   20764595.9044   20764593.5194
      1024.3324        798.1934         52.0004         47.0004
  -5062829.83943  -3897987.36042  22739967.7224   22739972.6464   22739967.2744
     -1594.8544      -1242.7474         46.0004         42.0004
 -14210015.32743 -11023209.65142  21357480.2314   21357483.8734   21357479.9884
       489.7914        381.6604         49.0004         45.0004
  -2929565.05843  -2246014.57542  24016384.8354   24016388.7794   24016384.5184
      2672.4084       2082.4004         41.0004         36.0004
 -13417627.75143 -10412582.79442  22374048.8894   22374051.3054   22374048.9174
     -2706.1644      -2108.7014         47.0004         42.0004
 04 12 24  0 10  0.0000000  0  7G 3G 1G19G15G14G11G22
 -23408841.15143 -18201097.61342  20622682.4894   20622686.7834   20622682.2634
     -1114.7274       -868.6214         51.0004         46.0004
  -9573191.65243  -7413334.19642  22312509.3594   22312514.8654   22312508.9544
      3197.9834       2491.9354         46.0004         42.0004
 -19329169.82443 -15018493.19442  20758798.9914   20758800.5814   20758798.1634
      1007.0794        784.7434         52.0004         47.0004
  -5014911.65143  -3860648.55042  22749086.4104   22749091.1474   22749085.8884
     -1598.6974      -1245.7354         46.0004         42.0004
 -14224397.19243 -11034416.30142  21354743.5324   21354747.0904   21354743.2334
       469.9154        366.1604         49.0004         45.0004
  -3009730.49843  -2308481.14942  24001129.7354   24001133.7384   24001129.4104
      2672.4804       2082.4564         41.0004         36.0004
 -13336355.32943 -10349253.66642  22389514.5944   22389516.8844   22389514.5364
     -2711.1394      -2112.5664         47.0004         42.0004
 04 12 24  0 10 30.0000000  0  7G 3G 1G19G15G14G11G22
 -23375106.47243 -18174810.87442  20629102.0114   20629106.2824   20629101.7734
     -1133.7954       -883.4794         51.0004         46.0004
  -9668975.70243  -7487971.06342  22294282.2044   22294287.7144   22294281.8284
      3187.9194       2484.0904         46.0004         42.0004
 -19359098.18743 -15041814.00142  20753103.8484   20753105.3624   20753103.0164
       988.6054        770.3394         52.0004         47.0004
  -4966875.73643  -3823218.01642  22758227.4064   22758232.1434   22758226.8804
     -1603.5214      -1249.5024         46.0004         41.0004
 -14238173.85943 -11045151.36742  21352121.9394   21352125.4564   21352121.6074
       448.8944        349.8044         49.0004         45.0004
  -3089906.91243  -2370956.24942  23985872.6004   23985876.7524   23985872.3414
      2672.6624       2082.5834         41.0004         37.0004
 -13254935.28743 -10285809.52242  22405008.2094   22405010.5474   22405008.1964
     -2716.4764      -2116.7324         46.0004         42.0004
 04 12 24  0 11  0.0000000  0  7G 3G 1G19G15G14G11G22
 -23340822.39743 -18148096.03642  20635626.0184   20635630.3404   20635625.8094
     -1151.9674       -897.6314         51.0004         46.0004
  -9764474.78343  -7562385.87442  22276109.1884   22276114.8144   22276108.8894
      3178.3704       2476.6524         46.0004         42.0004
 -19388498.34643 -15064723.22242  20747509.2364   20747510.7154   20747508.3894
       971.2184        756.7884         52.0004         47.0004
  -4918721.96443  -3785695.63142  22767390.7904   22767395.4964   22767390.2734
     -1606.9854      -1252.1894         46.0004         41.0004
 -14251344.68743 -11055414.34542  21349615.5424   21349619.1244   21349615.2394
       428.8354        334.1514         49.0004         45.0004
  -3170093.73943  -2433439.46142  23970613.3754   23970617.7554   23970613.1314
      2673.1394       2082.9654         41.0004         37.0004
 -13173369.70143 -10222251.96742  22420529.4804   22420532.0024   22420529.5544
     -2721.3024      -2120.5004         46.0004         42.0004
 04 12 24  0 11 30.0000000  0  7G 3G 1G19G15G14G11G22
 -23305990.49543 -18120954.31442  20642254.3004   20642258.6404   20642254.0894
     -1170.0534       -911.7214         51.0004         46.0004
  -9859686.05043  -7636576.41142  22257991.1434   22257996.6454   22257990.7504
      3168.9074       2469.2774         47.0004         42.0004
 -19417369.17143 -15087219.97642  20742015.2564   20742016.7754   20742014.4234
       953.5244        743.0044         52.0004         47.0004
  -4870450.03643  -3748081.18042  22776576.6334   22776581.3254   22776576.0904
     -1611.0094      -1255.3314         46.0004         41.0004
 -14263909.53443 -11065205.14542  21347224.5234   21347228.1194   21347224.2414
       408.7574        318.5104         49.0004         45.0004
  -3250290.96643  -2495930.77542  23955352.2774   23955356.7084   23955352.2774
      2673.4404       2083.2004         42.0004         37.0004
 -13091661.07443 -10158582.96042  22436078.1364   22436080.6764   22436078.1724
     -2725.7674      -2123.9704         46.0004         42.0004
 04 12 24  0 12  0.0000000  0  7G 3G 1G19G15G14G11G22
 -23270610.85343 -18093385.78642  20648986.8344   20648991.1744   20648986.6184
     -1188.0194       -925.7244         51.0004         46.0004
  -9954605.77943  -7710539.78942  22239928.4574   22239933.9524   22239928.0924
      3159.4364       2461.8914         47.0004         42.0004
 -19445708.70043 -15109302.73242  20736622.3974   20736623.9094   20736621.6004
       936.2644        729.5564         52.0004         47.0004
  -4822059.00143  -3710373.90542  22785785.1044   22785789.9154   22785784.5964
     -1614.5284      -1258.0674         46.0004         41.0004
 -14275867.04343 -11074522.67342  21344949.1404   21344952.7514   21344948.8314
       388.9284        303.0594         49.0004         45.0004
  -3330497.41743  -2558429.27442  23940089.5774   23940093.7084   23940089.3584
      2674.1404       2083.7494         42.0004         37.0004
 -13009810.91243 -10094803.65142  22451653.8534   22451656.2284   22451653.8784
     -2730.3174      -2127.5184         46.0004         42.0004
 04 12 24  0 12 30.0000000  0  7G 3G 1G19G15G14G11G22
 -23234684.68743 -18065391.38842  20655823.3854   20655827.7144   20655823.1584
     -1206.7594       -940.3374         51.0004         46.0004
 -10049231.41043  -7784273.98242  22221921.7564   22221927.1994   22221921.4084
      3149.0814       2453.8314         47.0004         42.0004
 -19473515.63643 -15130970.48342  20731330.9504   20731332.4544   20731330.1484
       917.9184        715.2484         52.0004         47.0004
  -4773548.95643  -3672573.91342  22795016.3404   22795021.1454   22795015.8234
     -1619.0424      -1261.5924         46.0004         41.0004
 -14287216.80843 -11083366.65942  21342789.2974   21342792.9994   21342789.0324
       368.0864        286.8214         49.0004         45.0004
  -3410712.64043  -2620934.61942  23924825.0744   23924829.0374   23924824.9054
      2673.6854       2083.3784         41.0004         37.0004
 -12927821.50143 -10030915.84842  22467256.0524   22467258.3804   22467256.0544
     -2735.4384      -2131.5184         46.0004         42.0004
 04 12 24  0 13  0.0000000  0  7G 3G 1G19G15G14G11G22
 -23198212.38543 -18036971.44042  20662763.8384   20662768.2054   20662763.6124
     -1224.3844       -954.0594         51.0004         46.0004
 -10143559.41643  -7857776.26542  22203971.6974   22203977.0754   22203971.3264
      3139.6894       2446.5014         47.0004         42.0004
 -19500788.04043 -15152221.71342  20726141.2164   20726142.6764   20726140.3864
       900.5004        701.6894         52.0004         47.0004
  -4724918.79943  -3634680.31442  22804270.4824   22804275.1884   22804269.8774
     -1622.6614      -1264.4184         46.0004         41.0004
 -14297958.10543 -11091736.50742  21340745.3224   21340748.9564   21340745.0314
       348.3834        271.4744         49.0004         45.0004
  -3490935.19043  -2683445.69342  23909559.3424   23909562.9224   23909559.1604
      2674.5314       2084.0484         41.0004         37.0004
 -12845694.44243  -9966920.78742  22482884.4494   22482886.7504   22482884.3364
     -2739.1404      -2134.3824         46.0004         42.0004
 04 12 24  0 13 30.0000000  0  7G 3G 1G19G15G14G11G22
 -23161195.41543 -18008127.06742  20669807.9324   20669812.3084   20669807.7204
     -1242.3334       -968.0404         50.0004         46.0004
 -10237586.86743  -7931044.35542  22186078.8344   22186084.1244   22186078.4984
      3129.7414       2438.7624         47.0004         42.0004
 -19527524.71243 -15173055.48642  20721053.3704   20721054.8714   20721052.5424
       882.8944        687.9844         52.0004         47.0004
  -4676168.35643  -3596692.98742  22813547.3514   22813552.1294   22813546.7264
     -1626.7614      -1267.5994         46.0004         41.0004
 -14308090.43943 -11099631.83042  21338817.2404   21338820.8264   21338816.9254
       328.2314        255.7614         49.0004         45.0004
  -3571165.08843  -2745962.46342  23894291.9714   23894295.6864   23894291.8314
      2675.0444       2084.4544         41.0004         37.0004
 -12763431.77843  -9902820.06242  22498538.5564   22498540.9174   22498538.4684
     -2743.7404      -2137.9734         46.0004         42.0004
 04 12 24  0 14  0.0000000  0  7G 3G 1G19G15G14G11G22
 -23123634.77343 -17978859.06442  20676955.5564   20676959.8594   20676955.3094
     -1260.8934       -982.5004         51.0004         46.0004
 -10331310.98043  -8004076.07342  22168243.6064   22168248.9434   22168243.3474
      3119.3604       2430.6694         47.0004         42.0004
 -19553724.31643 -15193470.76642  20716067.8044   20716069.2904   20716066.9454
       864.4734        673.6194         52.0004         47.0004
  -4627297.50043  -3558611.82042  22822847.2424   22822851.9514   22822846.5624
     -1630.5894      -1270.5854         46.0004         41.0004
 -14317613.47843 -11107052.38942  21337005.0584   21337008.6654   21337004.7704
       307.4724        239.6074         49.0004         45.0004
  -3651401.73043  -2808484.47542  23879023.2994   23879027.1374   23879023.0894
      2675.0704       2084.4754         41.0004         37.0004
 -12681035.98543  -9838615.58642  22514217.9604   22514220.4234   22514217.8724
     -2748.4664      -2141.6584         46.0004         41.0004
 04 12 24  0 14 30.0000000  0  7G 3G 1G19G15G14G11G22
 -23085530.58743 -17949167.51242  20684206.5594   20684210.8974   20684206.3084
     -1279.3174       -996.8664         51.0004         46.0004
 -10424728.13843  -8076868.60042  22150466.8794   22150472.2324   22150466.5554
      3108.7534       2422.4074         47.0004         42.0004
 -19579384.92443 -15213466.05042  20711184.7824   20711186.2254   20711183.9064
       846.3584        659.4894         52.0004         47.0004
  -4578305.09843  -3520435.95242  22832170.3194   22832175.0514   22832169.5834
     -1635.2684      -1274.2334         46.0004         41.0004
 -14326526.27643 -11113997.42742  21335309.0614   21335312.6294   21335308.7264
       286.8524        223.5244         49.0004         45.0004
  -3731643.73843  -2871010.69442  23863753.8124   23863757.6844   23863753.5294
      2674.8114       2084.2534         41.0004         37.0004
 -12598508.36043  -9774308.39142  22529922.4104   22529925.0174   22529922.3294
     -2753.1644      -2145.3224         46.0004         41.0004
                            4  1
RINEX FILE SPLICE; other post-header comments skipped       COMMENT
 04 12 24  0 15  0.0000000  0  7G 3G 1G19G15G14G11G22
 -23046884.38343 -17919053.61242  20691560.6724   20691565.0364   20691560.4684
     -1297.6374      -1011.1464         51.0004         46.0004
 -10517835.65343  -8149419.85642  22132748.9784   22132754.3954   22132748.7574
      3098.1364       2414.1264         47.0004         42.0004
 -19604505.55943 -15233040.57542  20706404.4864   20706405.9274   20706403.6224
       828.0374        645.2304         52.0004         47.0004
  -4529191.33943  -3482165.50842  22841516.2604   22841521.1784   22841515.5854
     -1639.4414      -1277.4874         46.0004         41.0004
 -14334828.75543 -11120466.89042  21333729.1464   21333732.6844   21333728.8314
       266.1564        207.3974         49.0004         45.0004
  -3811891.06843  -2933541.07642  23848483.2454   23848486.9534   23848482.9314
      2675.0514       2084.4474         41.0004         36.0004
 -12515851.39543  -9709900.40742  22545651.5644   22545654.1424   22545651.4594
     -2757.7134      -2148.8804         46.0004         41.0004
 04 12 24  0 15 30.0000000  0  7G 3G 1G19G15G14G11G22
 -23007696.51043 -17888517.63442  20699017.9034   20699022.2624   20699017.6754
     -1315.4104      -1024.9984         50.0004         46.0004
 -10610629.73143  -8221726.87342  22115090.9064   22115096.2454   22115090.5754
      3087.8164       2406.0964         47.0004         43.0004
 -19629083.94543 -15252192.56342  20701727.3734   20701728.8034   20701726.5084
       810.2644        631.3744         52.0004         47.0004
  -4479954.91243  -3443799.47942  22850885.6774   22850890.5674   22850884.9604
     -1643.4944      -1280.6464         46.0004         41.0004
 -14342519.58843 -11126459.74642  21332265.6174   21332269.2064   21332265.3074
       246.0664        191.7434         49.0004         45.0004
  -3892142.00843  -2996074.24642  23833211.8504   23833215.7144   23833211.5614
      2675.4244       2084.7434         41.0004         36.0004
 -12433066.35443  -9645392.63442  22561404.9204   22561407.5984   22561404.8804
     -2761.8264      -2152.0724         46.0004         41.0004
 04 12 24  0 16  0.0000000  0  7G 3G 1G19G15G14G11G22
 -22967969.21543 -17857561.32142  20706577.8094   20706582.1134   20706577.5854
     -1332.8524      -1038.5704         51.0004         46.0004
 -10703108.57243  -8293788.25142  22097492.7694   22097498.0694   22097492.4434
      3077.8244       2398.3024         47.0004         43.0004
 -19653119.81543 -15270921.82042  20697153.5104   20697154.9284   20697152.6534
       792.5384        617.5584         52.0004         47.0004
  -4430596.45843  -3405338.35442  22860278.3554   22860283.1694   22860277.6064
     -1646.7744      -1283.1934         46.0004         41.0004
 -14349599.45643 -11131976.53442  21330918.4474   21330921.9704   21330918.0964
       226.1224        176.2094         49.0004         45.0004
  -3972397.32543  -3058610.81342  23817939.9234   23817943.5274   23817939.4914
      2675.8334       2085.0714         41.0004         36.0004
 -12350156.38543  -9580787.50842  22577182.1344   22577184.8134   22577182.0594
     -2765.4224      -2154.8684         46.0004         41.0004
 04 12 24  0 16 30.0000000  0  7G 3G 1G19G15G14G11G22
 -22927702.00443 -17826184.30042  20714240.4824   20714244.7344   20714240.2364
     -1351.2034      -1052.8924         51.0004         46.0004
 -10795267.76043  -8365600.55942  22079955.4194   22079960.7364   22079955.0914
      3066.5424       2389.5144         47.0004         42.0004
 -19676610.71443 -15289226.41442  20692683.3524   20692684.7394   20692682.4974
       773.9264        603.0524         52.0004         47.0004
  -4381114.49043  -3366780.99842  22869694.3804   22869699.3214   22869693.6944
     -1651.4824      -1286.8664         46.0004         41.0004
 -14356066.86343 -11137016.07242  21329687.6984   21329691.2414   21329687.4014
       205.3214        159.9704         49.0004         45.0004
  -4052654.57643  -3121148.91342  23802667.3354   23802671.1134   23802666.9434
      2675.5064       2084.8114         41.0004         36.0004
 -12267122.04343  -9516085.45342  22592983.0334   22592985.7254   22592983.0314
     -2769.7784      -2158.2674         46.0004         41.0004
 04 12 24  0 17  0.0000000  0  7G 3G 1G19G15G14G11G22
 -22886897.11043 -17794388.30242  20722005.4194   20722009.6694   20722005.1794
     -1368.6574      -1066.4744         51.0004         46.0004
 -10887105.33943  -8437162.26942  22062479.2344   22062484.5534   22062478.9734
      3056.3594       2381.5644         47.0004         43.0004
 -19699556.14443 -15307105.97942  20688316.9074   20688318.3904   20688316.1204
       756.2344        589.2824         52.0004         48.0004
  -4331509.34043  -3328127.67942  22879133.8304   22879138.8994   22879133.1774
     -1654.9204      -1289.5464         45.0004         41.0004
 -14361922.27943 -11141578.73042  21328573.4884   21328577.0004   21328573.1704
       185.4644        144.5134         49.0004         45.0004
  -4132914.39743  -3183689.00342  23787394.2474   23787398.0454   23787393.9104
      2676.0904       2085.2734         41.0004         36.0004
 -12183966.28543  -9451288.79642  22608807.1804   22608809.8014   22608807.1224
     -2773.2604      -2160.9774         46.0004         41.0004
 04 12 24  0 17 30.0000000  0  7G 3G 1G19G15G14G11G22
 -22845555.00543 -17762173.70642  20729872.6384   20729876.8314   20729872.3614
     -1386.8864      -1080.6884         50.0004         46.0004
 -10978617.56043  -8508470.45042  22045065.0654   22045070.2684   22045064.7584
      3045.0944       2372.7974         47.0004         43.0004
 -19721954.08543 -15324558.92942  20684054.7314   20684056.2544   20684053.9464
       737.5794        574.7384         52.0004         48.0004
  -4281779.93043  -3289377.49342  22888597.0354   22888602.0744   22888596.3754
     -1659.7544      -1293.3194         45.0004         41.0004
 -14367164.86443 -11145663.86242  21327575.9124   21327579.3594   21327575.5854
       164.6864        128.3334         49.0004         45.0004
  -4213175.38643  -3246230.00942  23772121.0264   23772125.0334   23772120.6614
      2675.4864       2084.7964         41.0004         36.0004
 -12100690.46643  -9386398.60942  22624654.0254   22624656.7624   22624654.0104
     -2777.6864      -2164.4294         46.0004         41.0004
 04 12 24  0 18  0.0000000  0  7G 3G 1G19G15G14G11G22
 -22803677.22843 -17729541.69942  20737841.7014   20737845.9154   20737841.4504
     -1404.6554      -1094.5484         50.0004         46.0004
 -11069801.84943  -8579523.09442  22027713.1634   22027718.5004   22027712.9344
      3034.0494       2364.1824         47.0004         43.0004
 -19743803.80343 -15341584.69342  20679896.8734   20679898.3904   20679896.0754
       719.2934        560.4774         52.0004         48.0004
  -4231926.26843  -3250530.50842  22898083.9154   22898088.9364   22898083.1774
     -1663.5894      -1296.3064         45.0004         41.0004
 -14371794.80643 -11149271.61142  21326694.8244   21326698.3044   21326694.4954
       144.3324        112.4724         49.0004         45.0004
  -4293437.02343  -3308771.54642  23756847.5174   23756851.9224   23756847.4084
      2676.0944       2085.2654         41.0004         37.0004
 -12017297.01543  -9321416.72942  22640523.4014   22640526.0344   22640523.3274
     -2781.5594      -2167.4404         46.0004         41.0004
 04 12 24  0 18 30.0000000  0  7G 3G 1G19G15G14G11G22
 -22761264.18043 -17696492.60242  20745912.7164   20745916.8764   20745912.4244
     -1422.8934      -1108.7454         50.0004         46.0004
 -11160654.66243  -8650317.44942  22010424.4534   22010429.7654   22010424.2174
      3022.4534       2355.1444         47.0004         43.0004
 -19765103.28843 -15358181.70142  20675843.7274   20675845.2214   20675842.9134
       700.5544        545.8814         52.0004         48.0004
  -4181947.43743  -3211586.00742  22907594.5284   22907599.5934   22907593.7594
     -1668.2414      -1299.9254         45.0004         41.0004
 -14375811.22243 -11152401.28542  21325930.5304   21325933.9754   21325930.1804
       123.3184         96.0934         49.0004         45.0004
  -4373698.11643  -3371312.64242  23741574.1664   23741578.6594   23741573.9904
      2674.9584       2084.3874         41.0004         36.0004
 -11933787.25243  -9256344.24342  22656414.8034   22656417.5254   22656414.7744
     -2785.8724      -2170.8024         45.0004         41.0004
 04 12 24  0 19  0.0000000  0  7G 3G 1G19G15G14G11G22
 -22718317.78843 -17663027.90142  20754085.0874   20754089.3404   20754084.8624
     -1440.2864      -1122.2974         50.0004         46.0004
 -11251173.61543  -8720851.65142  21993199.2904   21993204.5454   21993198.9824
      3011.7014       2346.7824         48.0004         43.0004
 -19785852.04843 -15374349.57942  20671895.3814   20671896.8904   20671894.5484
       682.4654        531.7904         52.0004         48.0004
  -4131843.64343  -3172544.11142  22917129.0494   22917134.1444   22917128.2264
     -1672.0404      -1302.8824         45.0004         41.0004
 -14379214.39743 -11155053.11042  21325282.8684   21325286.3354   21325282.5914
       103.2954         80.4754         49.0004         45.0004
  -4453958.30943  -3433853.00942  23726301.2854   23726305.5694   23726300.8324
      2675.7364       2084.9954         41.0004         37.0004
 -11850163.45943  -9191182.89342  22672327.8344   22672330.6634   22672327.8304
     -2789.2044      -2173.4044         45.0004         41.0004
 04 12 24  0 19 30.0000000  0  7G 3G 1G19G15G14G11G22
 -22674838.92643 -17629148.28742  20762358.8064   20762363.1164   20762358.6244
     -1458.6854      -1136.6354         50.0004         46.0004
 -11341355.29343  -8791123.04942  21976038.2164   21976043.4584   21976037.9524
      3000.0324       2337.6934         48.0004         43.0004
 -19806048.47843 -15390087.06542  20668052.1294   20668053.6334   20668051.3054
       663.5944        517.0804         52.0004         48.0004
  -4081613.99643  -3133404.15342  22926687.3834   22926692.6034   22926686.6164
     -1676.8174      -1306.6074         45.0004         41.0004
 -14382003.52443 -11157226.45242  21324752.1344   21324755.6034   21324751.8434
        82.1624         64.0094         49.0004         45.0004
  -4534216.63343  -3496391.95942  23711028.5974   23711032.9214   23711028.2964
      2674.8804       2084.3274         41.0004         37.0004
 -11766427.46943  -9125934.11942  22688262.3854   22688265.1424   22688262.3504
     -2793.4814      -2176.7334         45.0004         41.0004
 04 12 24  0 20  0.0000000  0  7G 3G 1G19G15G14G11G22
 -22630828.77443 -17594854.68342  20770733.7024   20770737.9864   20770733.4834
     -1475.5254      -1149.7724         50.0004         46.0004
 -11431196.43343  -8861129.09742  21958942.0434   21958947.2014   21958941.7734
      2989.4104       2329.4054         48.0004         43.0004
 -19825691.23043 -15405393.11342  20664314.2354   20664315.7674   20664313.4164
       645.8794        503.2764         52.0004         48.0004
  -4031257.87943  -3094165.66142  22936269.7154   22936275.0364   22936269.0284
     -1680.1084      -1309.1754         45.0004         40.0004
 -14384178.57943 -11158921.29842  21324338.1904   21324341.6784   21324337.8954
        62.4454         48.6544         49.0004         45.0004
  -4614472.16243  -3558928.70342  23695756.4624   23695760.7154   23695756.2424
      2675.4934       2084.7904         41.0004         37.0004
 -11682581.14643  -9060599.37342  22704217.7644   22704220.7234   22704217.7914
     -2796.3804      -2178.9944         45.0004         41.0004
 04 12 24  0 20 30.0000000  0  7G 3G 1G19G15G14G11G22
 -22586288.77343 -17560148.21042  20779209.4464   20779213.6724   20779209.1974
     -1493.5334      -1163.8104         50.0004         46.0004
 -11520694.32043  -8930867.66742  21941911.1464   21941916.2624   21941910.8574
      2977.4384       2320.0814         48.0004         43.0004
 -19844779.12743 -15420266.81342  20660681.9674   20660683.4724   20660681.1284
       626.9984        488.5704         52.0004         48.0004
  -3980775.15443  -3054828.50542  22945876.2764   22945881.6124   22945875.6174
     -1684.6664      -1312.7264         45.0004         41.0004
 -14385739.60043 -11160137.67742  21324041.1404   21324044.5724   21324040.8324
        41.7094         32.4984         49.0004         45.0004
  -4694724.38643  -3621462.88442  23680485.1674   23680489.1784   23680484.9274
      2675.0114       2084.4284         42.0004         37.0004
 -11598626.39643  -8995180.14242  22720193.8414   22720196.8684   22720193.8184
     -2800.2824      -2182.0404         45.0004         41.0004
 04 12 24  0 21  0.0000000  0  7G 3G 1G19G15G14G11G22
 -22541219.82743 -17525029.56842  20787785.7724   20787789.9894   20787785.5234
     -1511.1074      -1177.4794         50.0004         46.0004
 -11609845.81443  -9000336.32042  21924946.1034   21924951.2574   21924945.8384
      2965.9024       2311.0854         48.0004         43.0004
 -19863310.92643 -15434707.18442  20657155.4804   20657156.9794   20657154.6364
       608.4014        474.0884         52.0004         48.0004
  -3930165.13043  -3015392.14742  22955507.1504   22955512.3674   22955506.4854
     -1689.1934      -1316.2574         45.0004         41.0004
 -14386686.02643 -11160875.15942  21323861.0464   21323864.5064   21323860.7044
        21.1684         16.5054         49.0004         45.0004
  -4774972.24443  -3683993.65642  23665214.4574   23665218.6194   23665214.2404
      2674.6814       2084.1604         42.0004         37.0004
 -11514564.89443  -8929677.71042  22736190.2614   22736193.2264   22736190.2634
     -2804.0044      -2184.9354         45.0004         41.0004
 04 12 24  0 21 30.0000000  0  7G 3G 1G19G15G14G11G22
 -22495623.04543 -17489499.63242  20796462.5884   20796466.7834   20796462.3264
     -1528.2744      -1190.8684         50.0004         46.0004
 -11698647.82243  -9069532.64342  21908047.6354   21908052.7564   21908047.3104
      2954.7434       2302.4054         48.0004         43.0004
 -19881285.31043 -15448713.21042  20653735.0294   20653736.5504   20653734.2294
       590.3124        459.9874         52.0004         48.0004
  -3879427.19743  -2975856.13542  22965162.2444   22965167.5244   22965161.5894
     -1692.9244      -1319.1584         45.0004         40.0004
 -14387018.02843 -11161133.85742  21323797.8454   21323801.2934   21323797.5464
         1.1634           .8914         49.0004         45.0004
  -4855214.81343  -3746520.31042  23649944.6014   23649948.9864   23649944.3404
      2674.8374       2084.2874         41.0004         37.0004
 -11430398.32843  -8864093.42642  22752206.5384   22752209.6144   22752206.6394
     -2806.8454      -2187.1504         45.0004         40.0004
 04 12 24  0 22  0.0000000  0  7G 3G 1G19G15G14G11G22
 -22449499.71443 -17453559.39342  20805239.6154   20805243.7944   20805239.3534
     -1545.7644      -1204.4814         50.0004         46.0004
 -11787097.37743  -9138454.32742  21891216.1044   21891221.3204   21891215.8534
      2942.6944       2293.0154         48.0004         43.0004
 -19898701.08643 -15462283.95542  20650420.8754   20650422.4344   20650420.1024
       571.7264        445.5024         52.0004         48.0004
  -3828560.91943  -2936220.10042  22974841.7454   22974847.0244   22974841.0774
     -1697.3254      -1322.5864         45.0004         40.0004
 -14386735.10843 -11160913.40642  21323851.6214   21323855.1184   21323851.3204
       -19.2964        -15.0344         49.0004         45.0004
  -4935451.44443  -3809042.34342  23634676.0964   23634680.3974   23634675.8044
      2674.9264       2084.3554         42.0004         37.0004
 -11346128.60443  -8798428.76042  22768242.6674   22768245.6614   22768242.6484
     -2810.4884      -2189.9894         45.0004         40.0004
 04 12 24  0 22 30.0000000  0  7G 3G 1G19G15G14G11G22
 -22402851.15743 -17417209.89342  20814116.5624   20814120.7454   20814116.2634
     -1564.0844      -1218.7704         50.0004         45.0004
 -11875191.50843  -9207099.05342  21874452.3584   21874457.5304   21874452.0154
      2930.2314       2283.2854         48.0004         43.0004
 -19915557.01443 -15475418.45342  20647213.3374   20647214.8764   20647212.5424
       552.2384        430.2994         52.0004         48.0004
  -3777565.81443  -2896483.68842  22984545.8224   22984551.0284   22984545.1404
     -1702.2284      -1326.4144         45.0004         40.0004
 -14385837.29643 -11160213.81942  21324022.4564   21324026.0164   21324022.1604
       -40.4374        -31.5264         49.0004         45.0004
  -5015681.01343  -3871558.85642  23619408.8854   23619413.1684   23619408.8434
      2673.9774       2083.6154         42.0004         37.0004
 -11261757.64043  -8732685.19042  22784297.8904   22784300.9934   22784297.9264
     -2814.3714      -2193.0174         45.0004         40.0004
 04 12 24  0 23  0.0000000  0  7G 3G 1G19G15G14G11G22
 -22355679.13543 -17380452.49842  20823093.1334   20823097.3264   20823092.8144
     -1580.6964      -1231.6874         50.0004         45.0004
 -11962927.61943  -9275464.80442  21857756.6774   21857761.8644   21857756.3344
      2919.0724       2274.5964         48.0004         43.0004
 -19931852.45343 -15488116.20642  20644112.4534   20644113.9584   20644111.6474
       534.3014        416.3294         52.0004         48.0004
  -3726441.87543  -2856646.88042  22994274.4254   22994279.6744   22994273.7844
     -1706.0764      -1329.4134         45.0004         41.0004
 -14384325.02243 -11159035.42442  21324310.2454   21324313.8194   21324309.9494
       -60.2354        -46.9454         49.0004         45.0004
  -5095903.07243  -3934069.52442  23604143.2154   23604147.3894   23604143.0664
      2674.6464       2084.1384         42.0004         38.0004
 -11177287.64843  -8666864.47642  22800372.0574   22800375.0344   22800372.0754
     -2816.8404      -2194.9334         45.0004         40.0004
 04 12 24  0 23 30.0000000  0  7G 3G 1G19G15G14G11G22
 -22307984.65343 -17343287.99642  20832169.0934   20832173.2834   20832168.7624
     -1598.8234      -1245.8374         50.0004         45.0004
 -12050302.56243  -9343549.13842  21841129.6774   21841134.9224   21841129.3824
      2906.0584       2264.4544         48.0004         43.0004
 -19947586.03343 -15500376.14642  20641118.4584   20641119.9624   20641117.6454
       514.6434        401.0234         52.0004         48.0004
  -3675188.30243  -2816709.06942  23004027.7404   23004032.8694   23004027.1114
     -1711.0434      -1333.2824         45.0004         40.0004
 -14382197.92243 -11157377.94842  21324714.9904   21324718.6044   21324714.7214
       -81.5574        -63.5614         49.0004         45.0004
  -5176116.52043  -3996573.50142  23588879.1524   23588883.3144   23588879.1064
      2673.2174       2083.0234         42.0004         38.0004
 -11092720.20243  -8600967.79342  22816464.7724   22816467.7264   22816464.7174
     -2820.8014      -2198.0294         45.0004         40.0004
 04 12 24  0 24  0.0000000  0  7G 3G 1G19G15G14G11G22
 -22259768.77443 -17305717.21042  20841344.2344   20841348.4764   20841343.9354
     -1616.0254      -1259.2514         50.0004         45.0004
 -12137313.05343  -9411349.46442  21824572.1004   21824577.3864   21824571.8204
      2894.1914       2255.2214         48.0004         43.0004
 -19962756.48743 -15512197.29042  20638231.5894   20638233.1194   20638230.8084
       496.0374        386.5144         52.0004         48.0004
  -3623804.53943  -2776669.80642  23013805.7484   23013810.9024   23013805.2174
     -1715.1334      -1336.4624         45.0004         40.0004
 -14379455.58143 -11155241.06342  21325236.9234   21325240.4874   21325236.6154
      -102.1134        -79.5694         49.0004         45.0004
  -5256320.28643  -4059069.92342  23573616.9704   23573620.9704   23573616.7354
      2673.0804       2082.9194         42.0004         37.0004
 -11008056.70943  -8534996.29642  22832575.7504   22832578.7314   22832575.7054
     -2823.8104      -2200.3734         45.0004         40.0004
 04 12 24  0 24 30.0000000  0  7G 3G 1G19G15G14G11G22
 -22211033.11843 -17267741.40742  20850618.2944   20850622.5804   20850618.0054
     -1634.0494      -1273.2984         50.0004         45.0004
 -12223956.41343  -9478863.71642  21808084.3874   21808089.6874   21808084.1014
      2880.9444       2244.8944         48.0004         43.0004
 -19977362.96743 -15523578.97542  20635452.0804   20635453.6224   20635451.3104
       476.6954        371.4454         52.0004         48.0004
  -3572290.35643  -2736528.91442  23023608.5984   23023613.8384   23023608.0584
     -1720.1514      -1340.3824         45.0004         40.0004
 -14376098.60143 -11152625.22742  21325875.6954   21325879.2854   21325875.4244
      -123.0254        -95.8824         49.0004         45.0004
  -5336514.14343  -4121558.61842  23558356.5704   23558360.6774   23558356.3594
      2672.0724       2082.1354         42.0004         38.0004
 -10923299.36243  -8468951.65842  22848704.5364   22848707.5994   22848704.5164
     -2827.5684      -2203.3004         45.0004         40.0004
 04 12 24  0 25  0.0000000  0  7G 3G 1G19G15G14G11G22
 -22161779.24243 -17229361.78742  20859990.9794   20859995.3284   20859990.7174
     -1650.3574      -1285.9734         50.0004         45.0004
 -12310229.76643  -9546089.65642  21791667.0184   21791672.3904   21791666.7584
      2869.6234       2236.0754         48.0004         43.0004
 -19991404.49943 -15534520.43742  20632780.1054   20632781.6424   20632779.3224
       458.6174        357.3694         52.0004         48.0004
  -3520645.36743  -2696286.11842  23033436.3364   23033441.6044   23033435.6984
     -1723.5514      -1343.0224         45.0004         40.0004
 -14372127.14743 -11149530.58242  21326631.4734   21326635.0254   21326631.1634
      -142.7534       -111.2334         49.0004         45.0004
  -5416696.57643  -4184038.39942  23543098.5074   23543102.4954   23543098.2694
      2672.2994       2082.3104         43.0004         38.0004
 -10838449.85043  -8402835.22342  22864850.8574   22864853.9984   22864850.9104
     -2830.0524      -2205.2374         45.0004         40.0004
 04 12 24  0 25 30.0000000  0  7G 3G 1G19G15G14G11G22
 -22112008.51743 -17190579.43542  20869462.0664   20869466.4104   20869461.8134
     -1668.0574      -1299.7934         50.0004         45.0004
 -12396130.26743  -9613025.05942  21775320.5754   21775326.0174   21775320.3684
      2856.8484       2226.1134         48.0004         43.0004
 -20004880.10643 -15545020.92542  20630215.7434   20630217.3254   20630214.9764
       439.3894        342.3704         52.0004         48.0004
  -3468869.31743  -2655941.18242  23043289.1074   23043294.1834   23043288.4414
     -1728.2584      -1346.6964         45.0004         40.0004
 -14367541.05743 -11145957.00642  21327504.2144   21327507.7384   21327503.8794
      -163.5704       -127.4714         49.0004         45.0004
  -5496867.08743  -4246508.90642  23527842.4534   23527846.4324   23527842.2354
      2671.6704       2081.8184         43.0004         38.0004
 -10753510.23243  -8336648.55642  22881014.3824   22881017.4844   22881014.4494
     -2832.9894      -2207.5264         45.0004         40.0004
 04 12 24  0 26  0.0000000  0  7G 3G 1G19G15G14G11G22
 -22061722.19143 -17151395.30942  20879031.2504   20879035.5974   20879031.0004
     -1685.5694      -1313.4304         50.0004         45.0004
 -12481654.55043  -9679667.30842  21759045.8534   21759051.2664   21759045.6154
      2843.7904       2215.9374         48.0004         43.0004
 -20017788.54443 -15555079.46242  20627759.3974   20627760.9244   20627758.6164
       420.0944        327.3474         52.0004         48.0004
  -3416961.18343  -2615493.31142  23053166.8834   23053172.0294   23053166.3104
     -1733.2874      -1350.6174         45.0004         40.0004
 -14362340.28043 -11141904.44942  21328493.9484   21328497.3774   21328493.5344
      -184.3024       -143.6254         49.0004         45.0004
  -5577024.23943  -4308969.02542  23512589.0304   23512592.9404   23512588.8784
      2671.1384       2081.4114         43.0004         38.0004
 -10668481.68443  -8270392.60842  22897194.8624   22897197.9274   22897194.8804
     -2836.4414      -2210.2084         45.0004         40.0004
 04 12 24  0 26 30.0000000  0  7G 3G 1G19G15G14G11G22
 -22010921.68143 -17111810.52642  20888698.2634   20888702.6584   20888698.0384
     -1701.9084      -1326.1624         50.0004         45.0004
 -12566799.52043  -9746013.99242  21742843.2774   21742848.7044   21742843.0224
      2831.7754       2206.5644         48.0004         44.0004
 -20030128.68243 -15564695.16842  20625411.2214   20625412.6874   20625410.4014
       401.8604        313.1324         52.0004         48.0004
  -3364920.47643  -2574942.16742  23063069.9844   23063075.0634   23063069.4024
     -1736.9144      -1353.4424         45.0004         40.0004
 -14356524.79943 -11137372.90142  21329600.5324   21329604.0484   21329600.1794
      -204.1204       -159.0674         49.0004         45.0004
  -5657167.29543  -4371418.12242  23497338.3314   23497342.3094   23497338.1424
      2671.5894       2081.7614         43.0004         38.0004
 -10583366.17543  -8204068.87742  22913391.8404   22913394.9644   22913391.9324
     -2838.7254      -2212.0014         45.0004         40.0004
 04 12 24  0 27  0.0000000  0  7G 3G 1G19G15G14G11G22
 -21959608.69143 -17071826.40342  20898462.7984   20898467.1994   20898462.6054
     -1718.8884      -1339.3894         50.0004         45.0004
 -12651562.54643  -9812063.05642  21726713.4394   21726718.7884   21726713.1374
      2819.2944       2196.8634         48.0004         44.0004
 -20041899.67543 -15573867.37742  20623171.2924   20623172.7434   20623170.4644
       383.0064        298.4454         52.0004         48.0004
  -3312746.91443  -2534287.50542  23072998.1934   23073003.3804   23072997.6684
     -1741.1064      -1356.7024         45.0004         40.0004
 -14350094.95443 -11132362.62542  21330824.1304   21330827.6004   21330823.7984
      -224.3914       -174.8504         49.0004         45.0004
  -5737295.31643  -4433855.52542  23482090.3514   23482094.4574   23482090.2924
      2670.9784       2081.2774         43.0004         38.0004
 -10498165.55043  -8137678.83442  22929605.1264   22929608.1154   22929605.2044
     -2841.3444      -2214.0404         45.0004         40.0004
 04 12 24  0 27 30.0000000  0  7G 3G 1G19G15G14G11G22
 -21907784.68743 -17031444.08442  20908324.6264   20908329.0054   20908324.4424
     -1736.5394      -1353.1464         50.0004         45.0004
 -12735940.94143  -9877812.40842  21710656.7164   21710662.0324   21710656.4304
      2805.4854       2186.0804         48.0004         44.0004
 -20053100.96743 -15582595.66742  20621039.8034   20621041.2404   20621038.9714
       363.2864        283.0684         52.0004         48.0004
  -3260440.11843  -2493529.00742  23082951.9134   23082957.1684   23082951.3544
     -1746.3334      -1360.7894         45.0004         41.0004
 -14343051.36843 -11126874.11842  21332164.4754   21332167.9814   21332164.1564
      -245.5314       -191.3384         49.0004         45.0004
  -5817407.43343  -4496280.52742  23466845.5244   23466849.5654   23466845.5354
      2669.6174       2080.2134         43.0004         38.0004
 -10412881.76843  -8071223.99442  22945834.2444   22945837.1534   22945834.2324
     -2844.8804      -2216.7934         45.0004         40.0004
 04 12 24  0 28  0.0000000  0  7G 3G 1G19G15G14G11G22
 -21855451.34343 -16990664.88442  20918283.3584   20918287.7554   20918283.1584
     -1753.7784      -1366.5854         50.0004         45.0004
 -12819932.13243  -9943260.04342  21694673.7714   21694678.9434   21694673.4584
      2792.3444       2175.8334         48.0004         44.0004
 -20063731.90343 -15590879.52242  20619016.8034   20619018.2664   20619015.9744
       343.8304        267.9014         52.0004         48.0004
  -3207999.90043  -2452666.54242  23092930.9104   23092936.2714   23092930.4084
     -1751.7864      -1365.0294         45.0004         40.0004
 -14335394.17943 -11120907.48742  21333621.5394   21333625.1004   21333621.2524
      -266.4454       -207.6274         49.0004         45.0004
  -5897503.22443  -4558692.80142  23451603.8214   23451607.7754   23451603.8484
      2668.7104       2079.5124         43.0004         38.0004
 -10327516.57443  -8004705.72742  22962078.6424   22962081.6904   22962078.7314
     -2847.8324      -2219.0924         45.0004         40.0004
 04 12 24  0 28 30.0000000  0  7G 3G 1G19G15G14G11G22
 -21802610.11043 -16949489.92142  20928338.7104   20928343.1814   20928338.5624
     -1769.9984      -1379.2304         50.0004         45.0004
 -12903532.99043 -10008403.52642  21678764.9914   21678770.1264   21678764.6964
      2779.9024       2166.1484         48.0004         44.0004
 -20073791.35343 -15598718.05942  20617102.5724   20617104.0334   20617101.7364
       325.6044        253.7124         52.0004         48.0004
  -3155425.63143  -2411699.63842  23102935.4094   23102940.8434   23102934.9384
     -1754.6624      -1367.2614         45.0004         40.0004
 -14327123.63043 -11114462.89842  21335195.3524   21335198.8664   21335195.0234
      -285.9664       -222.8334         49.0004         45.0004
  -5977581.44743  -4621091.39542  23436365.4444   23436369.4294   23436365.4234
      2668.8434       2079.6184         43.0004         39.0004
 -10242071.50143  -7938125.20442  22978338.3884   22978341.3534   22978338.5024
     -2849.6464      -2220.5044         45.0004         40.0004
 04 12 24  0 29  0.0000000  0  7G 3G 1G19G15G14G11G22
 -21749262.07243 -16907920.05542  20938490.5634   20938495.0144   20938490.3814
     -1786.5504      -1392.1114         50.0004         45.0004
 -12986740.21843 -10073240.28442  21662931.2164   21662936.3044   21662930.8704
      2767.2314       2156.2844         48.0004         44.0004
 -20083277.91743 -15606110.19342  20615297.3564   20615298.8184   20615296.5074
       306.7974        239.0594         52.0004         48.0004
  -3102716.34543  -2370627.53442  23112965.7244   23112971.1584   23112965.2254
     -1759.0934      -1370.7194         45.0004         40.0004
 -14318239.67843 -11107540.33742  21336885.9984   21336889.4104   21336885.5854
      -306.1224       -238.5394         49.0004         45.0004
  -6057640.87843  -4683475.33942  23421130.6554   23421134.6964   23421130.6324
      2668.6414       2079.4594         43.0004         38.0004
 -10156548.11843  -7871483.66742  22994613.0054   22994615.9114   22994613.1014
     -2851.7674      -2222.1484         45.0004         40.0004
 04 12 24  0 29 30.0000000  0  7G 3G 1G19G15G14G11G22
 -21695409.01743 -16865956.65542  20948738.4344   20948742.9344   20948738.2834
     -1804.1234      -1405.8164         50.0004         45.0004
 -13069550.90343 -10137768.05642  21647172.8614   21647177.9014   21647172.5434
      2753.1824       2145.3464         49.0004         44.0004
 -20092190.60043 -15613055.15042  20613601.2544   20613602.7844   20613600.4584
       286.8854        223.5474         52.0004         48.0004
  -3049871.79543  -2329450.02242  23123021.7744   23123027.2094   23123021.2874
     -1764.3664      -1374.8244         45.0004         40.0004
 -14308742.03243 -11100139.56942  21338693.3134   21338696.7344   21338692.9184
      -327.4364       -255.1454         49.0004         45.0004
  -6137680.12843  -4745843.56442  23405899.8704   23405903.6734   23405899.7764
      2667.0034       2078.1844         43.0004         39.0004
 -10070947.49043  -7804781.91742  23010902.4524   23010905.1234   23010902.5204
     -2855.1504      -2224.7954         44.0004         40.0004
                            4  1
RINEX FILE SPLICE; other post-header comments skipped       COMMENT
 04 12 24  0 30  0.0000000  0  7G 3G 1G19G15G14G11G22
 -21641053.28543 -16823601.57642  20959082.0264   20959086.4874   20959081.8674
     -1821.4144      -1419.3034         50.0004         45.0004
 -13151962.97143 -10201985.20142  21631490.3954   21631495.3624   21631490.0464
      2739.2034       2134.4374         49.0004         44.0004
 -20100529.55243 -15619553.04942  20612014.4434   20612015.9424   20612013.6234
       267.2234        208.2274         52.0004         48.0004
  -2996892.44443  -2288167.47342  23133103.3994   23133108.9364   23133102.9714
     -1769.4594      -1378.7994         45.0004         40.0004
 -14298632.41043 -11092261.94842  21340617.0224   21340620.5444   21340616.6264
      -348.2284       -271.3524         49.0004         45.0004
  -6217699.37843  -4808196.20842  23390672.6774   23390676.5814   23390672.6664
      2665.5714       2077.0674         43.0004         39.0004
  -9985272.63143  -7738022.35642  23027205.9394   23027208.5194   23027205.9974
     -2857.8514      -2226.8974         45.0004         40.0004
 04 12 24  0 30 30.0000000  0  7G 3G 1G19G15G14G11G22
 -21586195.67943 -16780855.41542  20969521.1014   20969525.5934   20969520.9554
     -1836.7894      -1431.2474         50.0004         45.0004
 -13233972.77243 -10265888.88942  21615884.4944   21615889.3494   21615884.1114
      2727.0464       2124.9764         49.0004         44.0004
 -20108293.34943 -15625602.77142  20610537.0474   20610538.5434   20610536.2254
       249.2884        194.2504         52.0004         48.0004
  -2943776.82943  -2246778.73642  23143210.9694   23143216.6284   23143210.5304
     -1772.8254      -1381.4164         45.0004         40.0004
 -14287910.34243 -11083907.08642  21342657.3434   21342660.8944   21342656.9714
      -367.5114       -286.3694         49.0004         45.0004
  -6297696.46443  -4870531.57842  23375449.8734   23375453.6424   23375449.8584
      2666.4074       2077.7134         43.0004         39.0004
  -9899524.52243  -7671205.71242  23043523.4654   23043525.9484   23043523.3954
     -2859.3334      -2228.0514         45.0004         40.0004
 04 12 24  0 31  0.0000000  0  7G 3G 1G19G15G14G11G22
 -21530838.42043 -16737719.92442  20980055.2804   20980059.7594   20980055.1284
     -1853.3674      -1444.1734         50.0004         45.0004
 -13315578.12043 -10329477.42942  21600355.4404   21600360.2954   21600355.0664
      2713.6544       2114.5074         49.0004         44.0004
 -20115481.65843 -15631204.06942  20609169.1674   20609170.6424   20609168.3454
       230.2624        179.4204         52.0004         48.0004
  -2890524.78943  -2205283.69442  23153344.6294   23153350.0724   23153344.1374
     -1777.2284      -1384.8494         45.0004         40.0004
 -14276576.45343 -11075075.47942  21344814.1854   21344817.6824   21344813.8154
      -387.8074       -302.1854         49.0004         45.0004
  -6377671.33943  -4932849.63542  23360231.0724   23360234.9094   23360231.0404
      2665.9424       2077.3654         43.0004         39.0004
  -9813705.06043  -7604333.44442  23059854.2504   23059856.9334   23059854.2884
     -2861.7084      -2229.9054         44.0004         40.0004
 04 12 24  0 31 30.0000000  0  7G 3G 1G19G15G14G11G22
 -21474982.76043 -16694196.06442  20990684.2284   20990688.7924   20990684.0924
     -1870.7144      -1457.7064         50.0004         45.0004
 -13396775.99243 -10392748.46442  21584903.8684   21584908.7934   21584903.5334
      2698.9944       2103.0984         49.0004         44.0004
 -20122093.47343 -15636356.14442  20607910.9854   20607912.4794   20607910.1814
       209.9254        163.5654         52.0004         48.0004
  -2837136.00143  -2163682.08042  23163504.2294   23163509.6504   23163503.7664
     -1782.5194      -1388.9824         44.0004         40.0004
 -14264631.44543 -11065767.68442  21347087.1464   21347090.7354   21347086.7654
      -409.1384       -318.8094         49.0004         45.0004
  -6457622.43743  -4995149.18342  23345016.8854   23345020.6764   23345016.7504
      2663.8924       2075.7594         43.0004         39.0004
  -9727815.81943  -7537406.81342  23076198.4364   23076201.1264   23076198.3554
     -2865.1914      -2232.6184         44.0004         40.0004
 04 12 24  0 32  0.0000000  0  7G 3G 1G19G15G14G11G22
 -21418629.76643 -16650284.67442  21001407.8524   21001412.4194   21001407.7284
     -1886.2004      -1469.7414         50.0004         45.0004
 -13477562.74043 -10455699.13542  21569530.6394   21569535.5624   21569530.3324
      2686.4644       2093.3514         49.0004         44.0004
 -20128127.44943 -15641057.95742  20606762.7234   20606764.2634   20606761.9564
       191.9264        149.5624         52.0004         48.0004
  -2783609.21343  -2121972.95542  23173690.1284   23173695.4674   23173689.6114
     -1786.1124      -1391.7734         44.0004         40.0004
 -14252074.60843 -11055983.13842  21349476.6594   21349480.2554   21349476.2784
      -428.3454       -333.7744         49.0004         45.0004
  -6537548.19943  -5057428.97642  23329807.3974   23329811.3014   23329807.3774
      2664.0254       2075.8614         43.0004         39.0004
  -9641857.73243  -7470426.55042  23092555.8094   23092558.5924   23092555.6834
     -2865.9854      -2233.2364         44.0004         40.0004
 04 12 24  0 32 30.0000000  0  7G 3G 1G19G15G14G11G22
 -21361781.66143 -16605987.47942  21012225.7104   21012230.2814   21012225.5934
     -1903.1394      -1482.9684         49.0004         45.0004
 -13557936.16143 -10518327.73042  21554236.1034   21554240.9844   21554235.7774
      2672.3004       2082.3114         49.0004         44.0004
 -20133583.58443 -15645309.50442  20605724.4094   20605726.0254   20605723.6694
       172.4254        134.3694         52.0004         48.0004
  -2729944.52543  -2080156.38742  23183902.3004   23183907.5244   23183901.7284
     -1791.0534      -1395.6204         44.0004         40.0004
 -14238907.13443 -11045722.77942  21351982.3824   21351985.9804   21351981.9914
      -449.1164       -349.9654         49.0004         45.0004
  -6617448.29843  -5119688.76542  23314603.0464   23314606.7404   23314602.8464
      2662.8274       2074.9334         43.0004         39.0004
  -9555833.11643  -7403394.44542  23108925.9354   23108928.5674   23108925.8234
     -2868.3954      -2235.1044         45.0004         40.0004
 04 12 24  0 33  0.0000000  0  7G 3G 1G19G15G14G11G22
 -21304440.50143 -16561306.09042  21023137.3714   21023141.9854   21023137.2564
     -1919.7414      -1495.9014         49.0004         45.0004
 -13637894.05643 -10580632.54142  21539020.5974   21539025.5074   21539020.2734
      2658.1464       2071.2944         49.0004         44.0004
 -20138461.49043 -15649110.49142  20604796.2234   20604797.8224   20604795.4414
       152.8074        119.0664         52.0004         48.0004
  -2676142.03843  -2038232.43342  23194140.6214   23194145.8704   23194140.0994
     -1795.8044      -1399.3294         44.0004         40.0004
 -14225130.05243 -11034987.39542  21354604.1134   21354607.6834   21354603.7054
      -469.4794       -365.8414         49.0004         45.0004
  -6697322.00543  -5181928.01242  23299403.6024   23299407.2934   23299403.4904
      2661.8824       2074.1984         43.0004         39.0004
  -9469744.07043  -7336312.14842  23125308.0654   23125310.7954   23125308.0774
     -2870.9844      -2237.1264         44.0004         39.0004
 04 12 24  0 33 30.0000000  0  7G 3G 1G19G15G14G11G22
 -21246607.89143 -16516241.75242  21034142.5834   21034147.1814   21034142.4444
     -1936.3264      -1508.8364         49.0004         45.0004
 -13717433.36843 -10642611.18542  21523884.6784   21523889.6724   21523884.4024
      2643.9384       2060.2194         49.0004         44.0004
 -20142760.19143 -15652460.14242  20603978.2394   20603979.8064   20603977.4484
       133.2294        103.8134         52.0004         48.0004
  -2622200.93443  -1996200.46842  23204405.3934   23204410.4834   23204404.7784
     -1800.7854      -1403.2114         44.0004         39.0004
 -14210743.37443 -11023776.99742  21357341.8064   21357345.3454   21357341.3964
      -490.0534       -381.8614         49.0004         45.0004
  -6777168.15543  -5244145.76642  23284209.4544   23284212.9864   23284209.3124
      2660.7824       2073.3384         43.0004         39.0004
  -9383591.70343  -7269180.48242  23141702.4284   23141705.0584   23141702.4674
     -2873.1674      -2238.8264         44.0004         40.0004
 04 12 24  0 34  0.0000000  0  7G 3G 1G19G15G14G11G22
 -21188285.07343 -16470795.44142  21045241.1334   21045245.6964   21045240.9554
     -1952.2984      -1521.2634         49.0004         45.0004
 -13796550.78443 -10704261.08442  21508829.0634   21508834.1034   21508828.8124
      2630.1194       2049.4444         49.0004         44.0004
 -20146478.70643 -15655357.70642  20603270.6354   20603272.2324   20603269.8384
       114.2044         88.9904         52.0004         48.0004
  -2568120.12843  -1954059.63842  23214696.7174   23214701.7054   23214696.0734
     -1805.0964      -1406.5714         44.0004         39.0004
 -14195747.32843 -11012091.78042  21360195.4104   21360199.0214   21360195.0194
      -510.0464       -397.4384         49.0004         45.0004
  -6856985.40843  -5306341.01242  23269020.6324   23269024.2434   23269020.5554
      2659.9264       2072.6714         44.0004         39.0004
  -9297377.29743  -7202000.46942  23158108.5704   23158111.1864   23158108.5614
     -2874.8124      -2240.1104         44.0004         40.0004
 04 12 24  0 34 30.0000000  0  7G 3G 1G19G15G14G11G22
 -21129474.20143 -16424968.82742  21056432.5094   21056437.0434   21056432.3174
     -1968.5904      -1533.9574         49.0004         45.0004
 -13875243.81743 -10765580.29942  21493854.2344   21493859.2744   21493853.9774
      2615.9724       2038.4084         49.0004         44.0004
 -20149616.71943 -15657802.92942  20602673.4864   20602675.0954   20602672.6864
        94.7514         73.8354         52.0004         48.0004
  -2513899.72843  -1911810.05542  23225014.5414   23225019.5594   23225013.8944
     -1809.8594      -1410.2794         44.0004         39.0004
 -14180142.90543 -10999932.49242  21363164.8484   21363168.4714   21363164.4654
      -530.3914       -413.2914         49.0004         45.0004
  -6936772.35343  -5368512.61442  23253837.6344   23253841.3484   23253837.5374
      2658.8644       2071.8434         44.0004         39.0004
  -9211102.67243  -7134773.56242  23174526.1294   23174528.7314   23174526.0454
     -2876.9034      -2241.7354         44.0004         40.0004
 04 12 24  0 35  0.0000000  0  7G 3G 1G19G15G14G11G22
 -21070177.64843 -16378763.75442  21067716.3234   21067720.8254   21067716.0824
     -1984.6124      -1546.4574         49.0004         45.0004
 -13953510.26743 -10826567.11642  21478960.5614   21478965.5874   21478960.3374
      2601.8644       2027.4434         49.0004         44.0004
 -20152174.14543 -15659795.74642  20602186.7964   20602188.4484   20602186.0294
        75.6914         58.9814         52.0004         48.0004
  -2459539.86043  -1869451.78742  23235358.9144   23235363.9934   23235358.3484
     -1814.0824      -1413.5734         44.0004         40.0004
 -14163931.30743 -10987300.08142  21366249.8214   21366253.4694   21366249.4364
      -550.3894       -428.8654         49.0004         44.0004
  -7016528.70343  -5430660.42042  23238660.4564   23238664.1454   23238660.4044
      2657.9954       2071.1624         44.0004         39.0004
  -9124770.32243  -7067501.67042  23190954.5254   23190957.1474   23190954.4464
     -2878.8404      -2243.2624         44.0004         39.0004
 04 12 24  0 35 30.0000000  0  7G 3G 1G19G15G14G11G22
 -21010396.67843 -16332181.22942  21079092.2684   21079096.7964   21079092.0194
     -2001.1524      -1559.3304         49.0004         45.0004
 -14031346.88643 -10887218.99242  21464148.6994   21464153.7524   21464148.4864
      2586.9504       2015.7964         49.0004         44.0004
 -20154149.96043 -15661335.36142  20601810.8354   20601812.4824   20601810.0674
        55.7424         43.4334         52.0004         48.0004
  -2405039.49643  -1826984.03542  23245730.0144   23245735.1574   23245729.4574
     -1819.3914      -1417.7084         44.0004         40.0004
 -14147112.55343 -10974194.56342  21369450.2324   21369453.9744   21369449.9244
      -571.2454       -445.1294         49.0004         45.0004
  -7096252.96743  -5492783.20042  23223489.4884   23223492.9034   23223489.2394
      2656.6444       2070.1154         43.0004         39.0004
  -9038380.94143  -7000185.31242  23207393.9794   23207396.5974   23207393.9184
     -2880.9734      -2244.9164         44.0004         40.0004
 04 12 24  0 36  0.0000000  0  7G 3G 1G19G15G14G11G22
 -20950132.83643 -16285222.42242  21090560.1204   21090564.6474   21090559.8524
     -2016.3584      -1571.1704         49.0004         45.0004
 -14108750.87243 -10947533.75942  21449419.1984   21449424.1744   21449418.9194
      2573.1974       2005.0914         49.0004         44.0004
 -20155543.63243 -15662421.35342  20601545.6934   20601547.2774   20601544.8924
        37.1304         28.9384         52.0004         48.0004
  -2350398.13343  -1784406.42642  23256127.9334   23256133.1504   23256127.4374
     -1823.1604      -1420.6404         44.0004         40.0004
 -14129687.24343 -10960616.40342  21372766.2264   21372769.9044   21372765.8684
      -590.4374       -460.0834         49.0004         44.0004
  -7175943.98843  -5554880.09042  23208324.6344   23208328.3034   23208324.5274
      2656.2024       2069.7654         43.0004         39.0004
  -8951936.14043  -6932825.79742  23223843.9884   23223846.6164   23223843.8994
     -2881.9714      -2245.6904         44.0004         40.0004
 04 12 24  0 36 30.0000000  0  7G 3G 1G19G15G14G11G22
 -20889388.03343 -16237888.84942  21102119.5114   21102123.9884   21102119.2394
     -2032.7704      -1583.9764         49.0004         45.0004
 -14185719.40643 -11007509.20842  21434772.5234   21434777.5164   21434772.2644
      2558.3614       1993.5424         49.0004         44.0004
 -20156354.70643 -15663053.37742  20601391.3584   20601392.9354   20601390.5414
        17.3934         13.5564         52.0004         48.0004
  -2295615.19343  -1741718.48442  23266552.8224   23266558.1554   23266552.2934
     -1828.6484      -1424.9154         44.0004         40.0004
 -14111655.97043 -10946566.06542  21376197.4924   21376201.1464   21376197.1584
      -611.0474       -476.1354         49.0004         44.0004
  -7255601.04043  -5616950.51542  23193166.5384   23193170.0154   23193166.3684
      2654.7894       2068.6704         43.0004         39.0004
  -8865437.27343  -6865424.13142  23240304.1264   23240306.8694   23240304.0304
     -2884.2244      -2247.4424         44.0004         39.0004
 04 12 24  0 37  0.0000000  0  7G 3G 1G19G15G14G11G22
 -20828164.81043 -16190182.48342  21113769.8974   21113774.3924   21113769.6394
     -2048.7684      -1596.4354         49.0004         45.0004
 -14262250.41543 -11067143.71942  21420209.1504   21420214.1334   21420208.8374
      2543.7694       1982.1484         49.0004         44.0004
 -20156583.07443 -15663231.34042  20601347.9394   20601349.4884   20601347.0944
        -2.1964         -1.7134         52.0004         48.0004
  -2240691.03543  -1698920.50242  23277004.5054   23277010.0504   23277004.0784
     -1833.1604      -1428.4314         44.0004         40.0004
 -14093020.05543 -10932044.57142  21379743.7694   21379747.4064   21379743.4574
      -631.3534       -491.9564         49.0004         44.0004
  -7335222.94843  -5678993.54042  23178014.8174   23178018.4794   23178014.6964
      2653.5574       2067.7054         43.0004         39.0004
  -8778886.64243  -6797982.14742  23256774.1824   23256776.9644   23256773.9434
     -2885.8284      -2248.6974         44.0004         39.0004
 04 12 24  0 37 30.0000000  0  7G 3G 1G19G15G14G11G22
 -20766464.41143 -16142104.28842  21125511.0094   21125515.6564   21125510.8354
     -2065.1774      -1609.2174         49.0004         45.0004
 -14338340.70843 -11126434.81342  21405729.5014   21405734.6094   21405729.2684
      2528.3834       1970.1724         49.0004         44.0004
 -20156227.64943 -15662954.40742  20601415.6044   20601417.1214   20601414.7464
       -22.0154        -17.1624         52.0004         48.0004
  -2185624.48243  -1656011.55942  23287483.3654   23287489.0574   23287482.8484
     -1838.5564      -1432.6444         44.0004         40.0004
 -14073779.38543 -10917051.84542  21383405.1344   21383408.7594   21383404.8394
      -651.8804       -507.9584         49.0004         44.0004
  -7414807.99143  -5741007.84442  23162870.2434   23162873.8914   23162870.0664
      2651.8044       2066.3364         43.0004         39.0004
  -8692284.96443  -6730500.38542  23273253.9494   23273256.7904   23273253.8044
     -2888.0434      -2250.4244         44.0004         39.0004
 04 12 24  0 38  0.0000000  0  7G 3G 1G19G15G14G11G22
 -20704288.51443 -16093655.57942  21137342.7314   21137347.3644   21137342.5614
     -2080.2664      -1620.9994         49.0004         45.0004
 -14413987.56743 -11185380.37642  21391334.3414   21391339.4494   21391334.1634
      2514.2564       1959.1624         49.0004         44.0004
 -20155288.01343 -15662222.23742  20601594.3764   20601595.9774   20601593.5684
       -40.8104        -31.8014         52.0004         48.0004
  -2130414.93143  -1612991.19842  23297989.3084   23297995.0764   23297988.8534
     -1842.7734      -1435.9244         44.0004         39.0004
 -14053935.01943 -10901588.71242  21387181.3924   21387185.0124   21387181.0954
      -671.3224       -523.1144         49.0004         44.0004
  -7494355.29943  -5802992.74442  23147732.7194   23147736.5114   23147732.7064
      2651.1244       2065.8174         43.0004         39.0004
  -8605633.97243  -6662980.19342  23289743.0974   23289745.9524   23289743.0364
     -2889.1274      -2251.2614         44.0004         39.0004
 04 12 24  0 38 30.0000000  0  7G 3G 1G19G15G14G11G22
 -20641639.40743 -16044838.12842  21149264.4964   21149269.1384   21149264.3254
     -2096.1784      -1633.3934         49.0004         44.0004
 -14489188.69543 -11243978.62242  21377024.0064   21377029.0824   21377023.8154
      2499.3214       1947.5214         49.0004         45.0004
 -20153764.23943 -15661034.89742  20601884.3834   20601885.9754   20601883.5604
       -60.5844        -47.2204         52.0004         48.0004
  -2075062.52343  -1569859.52442  23308522.6444   23308528.2174   23308522.1054
     -1847.6084      -1439.6894         44.0004         39.0004
 -14033488.01043 -10885655.98742  21391072.3764   21391075.9824   21391072.0714
      -691.6934       -538.9954         49.0004         44.0004
  -7573864.21043  -5864947.72542  23132602.6894   23132606.3924   23132602.5544
      2649.7454       2064.7324         43.0004         39.0004
  -8518935.55043  -6595423.04142  23306241.2454   23306244.1764   23306241.2614
     -2890.6404      -2252.4454         44.0004         39.0004
 04 12 24  0 39  0.0000000  0  7G 3G 1G19G15G14G11G22
 -20578519.55943 -15995653.87342  21161275.8864   21161280.4694   21161275.6764
     -2112.1004      -1645.7924         49.0004         45.0004
 -14563941.85343 -11302227.79642  21362799.0054   21362803.9734   21362798.7294
      2483.9844       1935.5814         49.0004         45.0004
 -20151656.21743 -15659392.30142  20602285.5114   20602287.1024   20602284.7034
       -80.4504        -62.6894         52.0004         48.0004
  -2019567.14643  -1526616.44142  23319083.0814   23319088.6164   23319082.5804
     -1852.7304      -1443.6854         44.0004         39.0004
 -14012439.56343 -10869254.60642  21395077.7584   21395081.3564   21395077.4454
      -711.9464       -554.7714         49.0004         44.0004
  -7653333.56543  -5926871.87342  23117480.0754   23117483.9514   23117479.9894
      2647.8784       2063.2804         43.0004         39.0004
  -8432191.42343  -6527830.27742  23322748.1034   23322751.0444   23322748.1154
     -2892.5314      -2253.9174         44.0004         39.0004
 04 12 24  0 39 30.0000000  0  7G 3G 1G19G15G14G11G22
 -20514929.85943 -15946103.49142  21173376.6144   21173381.2354   21173376.4064
     -2127.6284      -1657.8954         49.0004         44.0004
 -14638243.52643 -11360125.16242  21348659.8454   21348664.8154   21348659.5524
      2468.9184       1923.8304         49.0004         45.0004
 -20148962.64043 -15657293.42842  20602798.1464   20602799.6824   20602797.3184
       -99.6854        -77.6724         52.0004         48.0004
  -1963927.45943  -1483260.90442  23329671.0924   23329676.5714   23329670.5614
     -1857.2954      -1447.2384         44.0004         39.0004
 -13990789.39743 -10852384.35842  21399197.6704   21399201.2484   21399197.3534
      -731.8014       -570.2304         49.0004         44.0004
  -7732761.27743  -5988763.58842  23102365.5544   23102369.3744   23102365.4694
      2646.5594       2062.2574         44.0004         39.0004
  -8345402.14443  -6460202.33042  23339263.6094   23339266.5114   23339263.6804
     -2893.8194      -2254.9194         43.0004         39.0004
 04 12 24  0 40  0.0000000  0  8G 3G 1G19G15G14G11G22G20
 -20450873.04643 -15896189.13142  21185566.2694   21185570.8724   21185566.0214
     -2143.1764      -1670.0164         49.0004         44.0004
 -14712091.73043 -11417669.18142  21334607.0444   21334611.9064   21334606.7334
      2453.8534       1912.0944         49.0004         45.0004
 -20145683.84243 -15654738.54142  20603422.1444   20603423.6284   20603421.2914
      -119.1704        -92.8634         52.0004         48.0004
  -1908143.74143  -1439793.16042  23340286.4034   23340291.9424   23340285.9414
     -1861.9414      -1450.8574         44.0004         39.0004
 -13968539.37143 -10835046.68842  21403431.6344   21403435.2514   21403431.3714
      -751.7544       -585.7744         49.0004         44.0004
  -7812146.97943  -6050622.55042  23087258.8674   23087262.7504   23087258.7074
      2645.4164       2061.3604         44.0004         39.0004
  -8258570.14143  -6392541.08142  23355787.2734   23355790.0554   23355787.2594
     -2895.4424      -2256.1814         43.0004         39.0004
   -133071.96843    -74854.19142  23991548.7504   23991553.8024   23991547.3314
      2436.6394       1898.6724         52.0004         36.0004
 04 12 24  0 40 30.0000000  0  8G 3G 1G19G15G14G11G22G20
 -20386351.01243 -15845912.26042  21197844.4074   21197849.0404   21197844.2184
     -2159.1844      -1682.4674         49.0004         44.0004
 -14785483.74543 -11474857.72442  21320641.0264   21320645.8264   21320640.6984
      2438.0164       1899.7534         49.0004         45.0004
 -20141819.47843 -15651727.36842  20604157.4954   20604159.0074   20604156.6834
      -139.2034       -108.4734         52.0004         48.0004
  -1852215.50543  -1396212.79342  23350929.2604   23350934.7924   23350928.6914
     -1867.6144      -1455.2894         44.0004         39.0004
 -13945690.24243 -10817242.17842  21407779.6754   21407783.3004   21407779.4184
      -772.3704       -601.8504         49.0004         44.0004
  -7891489.67543  -6112448.00042  23072160.4534   23072164.3244   23072160.3034
      2643.1494       2059.5934         44.0004         39.0004
  -8171696.69143  -6324847.54442  23372318.7734   23372321.8144   23372318.7584
     -2896.9684      -2257.3814         44.0004         39.0004
   -206079.17243   -131742.92742  23977656.3964   23977661.1324   23977655.2534
      2429.7494       1893.3074         47.0004         36.0004
 04 12 24  0 41  0.0000000  0  8G 3G 1G19G15G14G11G22G20
 -20321365.92943 -15795274.58142  21210210.6654   21210215.3244   21210210.4764
     -2173.9264      -1693.9494         49.0004         44.0004
 -14858417.03343 -11531688.81942  21306762.2024   21306767.0454   21306761.9304
      2423.3694       1888.3464         49.0004         45.0004
 -20137369.50143 -15648259.87942  20605004.3424   20605005.8654   20605003.5184
      -158.1354       -123.2064         52.0004         48.0004
  -1796142.38043  -1352519.51542  23361599.6774   23361605.2264   23361599.1344
     -1871.4764      -1458.2874         44.0004         39.0004
 -13922242.80943 -10798971.46242  21412241.6404   21412245.2474   21412241.4034
      -791.5224       -616.7634         49.0004         44.0004
  -7970787.99243  -6174238.88542  23057070.4544   23057074.2394   23057070.3234
      2642.3964       2059.0144         44.0004         39.0004
  -8084783.34043  -6257122.92242  23388857.9794   23388861.0254   23388857.8694
     -2898.0244      -2258.1954         44.0004         39.0004
   -278882.04443   -188472.37942  23963802.4044   23963807.0484   23963801.5064
      2423.2884       1888.2744         43.0004         36.0004
 04 12 24  0 41 30.0000000  0  8G 3G 1G19G15G14G11G22G20
 -20255919.32443 -15744277.26442  21222664.8804   21222669.4264   21222664.6454
     -2189.1224      -1705.8344         49.0004         44.0004
 -14930888.72643 -11588160.23442  21292971.3164   21292976.0854   21292970.9964
      2408.1224       1876.4314         49.0004         45.0004
 -20132332.73643 -15644335.14442  20605962.8084   20605964.3214   20605961.9954
      -177.4024       -138.2494         52.0004         48.0004
  -1739923.59243  -1308712.73942  23372297.8694   23372303.3674   23372297.2874
     -1876.1284      -1461.9164         44.0004         39.0004
 -13898197.69243 -10780235.02742  21416817.2874   21416820.9054   21416817.0134
      -811.3524       -632.2484         49.0004         44.0004
  -8050040.57643  -6235994.11842  23041989.2144   23041993.0124   23041989.0974
      2641.0744       2057.9764         44.0004         39.0004
  -7997830.93243  -6189367.85142  23405404.4744   23405407.4614   23405404.3434
     -2899.0364      -2258.9934         43.0004         39.0004
   -351480.06743   -245042.23342  23949987.3664   23949992.1734   23949986.6864
      2416.6724       1883.1274         41.0004         36.0004
 04 12 24  0 42  0.0000000  0  8G 3G 1G19G15G14G11G22G20
 -20190012.86443 -15692921.62442  21235206.4824   21235211.0464   21235206.3004
     -2204.4314      -1717.7434         49.0004         44.0004
 -15002896.05743 -11644269.81042  21279268.7814   21279273.5524   21279268.4314
      2392.4514       1864.2434         49.0004         45.0004
 -20126709.40043 -15639953.34842  20607032.8974   20607034.4114   20607032.0994
      -197.1164       -153.5844         52.0004         48.0004
  -1683558.64043  -1264792.07242  23383023.8394   23383029.3514   23383023.2954
     -1881.1594      -1465.8324         44.0004         39.0004
 -13873555.88443 -10761033.62642  21421506.5494   21421510.0564   21421506.1784
      -831.3714       -647.8184         49.0004         44.0004
  -8129245.92043  -6297712.53842  23026917.0744   23026920.7354   23026916.8834
      2639.4184       2056.6924         44.0004         39.0004
  -7910840.87543  -6121583.44842  23421958.0054   23421961.2194   23421957.8804
     -2900.1224      -2259.8374         43.0004         39.0004
   -423872.92543   -301452.27942  23936211.3374   23936216.4524   23936210.8604
      2409.5674       1877.5764         41.0004         36.0004
 04 12 24  0 42 30.0000000  0  8G 3G 1G19G15G14G11G22G20
 -20123648.73843 -15641209.36342  21247835.1964   21247839.7964   21247835.0184
     -2219.5624      -1729.5144         49.0004         44.0004
 -15074436.65143 -11700015.69942  21265655.0314   21265659.7674   21265654.6834
      2377.1484       1852.3304         49.0004         45.0004
 -20120499.37443 -15635114.38542  20608214.6424   20608216.1654   20608213.8204
      -216.4754       -168.6784         52.0004         48.0004
  -1627047.08243  -1220757.16842  23393777.7964   23393783.1194   23393777.1074
     -1885.8764      -1469.5064         44.0004         39.0004
 -13848318.34143 -10741368.02242  21426309.0904   21426312.5554   21426308.7444
      -850.9654       -663.0884         49.0004         44.0004
  -8208403.02343  -6359393.37742  23011853.8424   23011857.5364   23011853.7484
      2637.9144       2055.5154         44.0004         39.0004
  -7823814.84343  -6053771.02542  23438518.5704   23438521.7654   23438518.4314
     -2901.2114      -2260.6824         43.0004         39.0004
   -496060.19643   -357702.02042  23922474.7754   23922479.3664   23922474.1094
      2403.4614       1872.8314         41.0004         36.0004
 04 12 24  0 43  0.0000000  0  9G 3G 1G19G25G15G14G11G22G20
 -20056829.14643 -15589142.19042  21260550.5644   21260555.1724   21260550.3904
     -2234.2454      -1740.9754         49.0004         44.0004
 -15145507.92243 -11755395.87642  21252130.5764   21252135.3274   21252130.2594
      2361.6614       1840.2574         50.0004         45.0004
 -20113702.07343 -15629817.80042  20609508.1064   20609509.6414   20609507.3214
      -236.0484       -183.9484         52.0004         48.0004
                    -80460.26542  25399739.705    25399744.6194
                      2047.7664                         34.0004
  -1570388.49543  -1176607.67642  23404559.6834   23404565.0024   23404558.9464
     -1890.7694      -1473.3244         44.0004         39.0004
 -13822486.01143 -10721238.94942  21431224.8604   21431228.2884   21431224.4604
      -870.6034       -678.3854         49.0004         44.0004
  -8287510.32343  -6421035.41142  22996800.1464   22996803.9234   22996800.1164
      2636.3914       2054.3334         44.0004         39.0004
  -7736754.17743  -5985931.59342  23455085.8064   23455089.0264   23455085.6174
     -2902.2084      -2261.4624         44.0004         39.0004
   -568041.84743   -413791.55842  23908777.0834   23908781.6504   23908776.4564
      2396.3524       1867.2844         41.0004         37.0004
 04 12 24  0 43 30.0000000  0  9G 3G 1G19G25G15G14G11G22G20
 -19989557.26843 -15536722.59542  21273352.1384   21273356.6034   21273351.8754
     -2250.2574      -1753.4534         49.0004         44.0004
 -15216108.46843 -11810409.26442  21238695.7314   21238700.4384   21238695.4334
      2345.1724       1827.3964         50.0004         45.0004
 -20106318.47043 -15624064.36242  20610913.1524   20610914.7194   20610912.3594
      -256.2664       -199.6934         52.0004         48.0004
   -223136.81643   -141934.80442  25384726.7674   25384733.0504   25384726.4574
      2631.7934       2050.7364         46.0004         33.0004
  -1513583.50343  -1132344.11842  23415369.3724   23415374.6924   23415368.5684
     -1896.1814      -1477.5394         44.0004         39.0004
 -13796060.85043 -10700647.92642  21436253.4254   21436256.8844   21436253.0484
      -891.0834       -694.3584         49.0004         44.0004
  -8366568.01143  -6482638.77742  22981755.8994   22981759.7184   22981755.7924
      2634.2244       2052.6464         44.0004         39.0004
  -7649661.29343  -5918067.07342  23471659.2164   23471662.2864   23471658.9574
     -2904.1034      -2262.9344         44.0004         39.0004
   -639819.07843   -469721.81042  23895118.2154   23895122.8204   23895117.7064
      2388.7194       1861.3424         41.0004         37.0004
 04 12 24  0 44  0.0000000  0  9G 3G 1G19G25G15G14G11G22G20
 -19921834.50643 -15483951.65142  21286239.3734   21286243.8584   21286239.1254
     -2265.0744      -1764.9964         49.0004         44.0004
 -15286235.30243 -11865053.52242  21225351.0674   21225355.6664   21225350.7364
      2329.5914       1815.2564         50.0004         45.0004
 -20098347.96543 -15617853.59442  20612429.9264   20612431.5014   20612429.1024
      -275.4944       -214.6764         52.0004         48.0004
                   -203518.25842  25369687.525    25369695.0704
                      2055.3664                         32.0004
  -1456631.24443  -1087965.79542  23426207.0664   23426212.2694   23426206.2574
     -1900.8524      -1481.1864         43.0004         39.0004
 -13769043.59943 -10679595.54242  21441394.5994   21441398.1104   21441394.2114
      -910.6734       -709.6104         49.0004         44.0004
  -8445574.18743  -6544202.00242  22966721.4914   22966725.2924   22966721.4084
      2632.3024       2051.1484         44.0004         39.0004
  -7562537.06043  -5850178.12242  23488238.4754   23488241.5054   23488238.1784
     -2904.1034      -2262.9364         43.0004         39.0004
   -711390.77443   -525491.93242  23881498.3784   23881503.0744   23881497.9104
      2382.3674       1856.4004         41.0004         36.0004
 04 12 24  0 44 30.0000000  0  9G 3G 1G19G25G15G14G11G22G20
 -19853662.36143 -15430830.54042  21299212.0794   21299216.6494   21299211.8594
     -2280.2854      -1776.8584         49.0004         44.0004
 -15355885.25443 -11919326.18442  21212097.0574   21212101.6964   21212096.7484
      2313.0134       1802.3604         50.0004         45.0004
 -20089789.80543 -15611184.90942  20614058.4934   20614060.0634   20614057.6664
      -295.7274       -230.4404         52.0004         48.0004
                   -265208.10242  25354622.201    25354629.2634
                      2057.4544                         32.0004
  -1399530.60043  -1043471.84742  23437072.9504   23437078.3554   23437072.1644
     -1906.4444      -1485.5454         43.0004         39.0004
 -13741434.75343 -10658082.16542  21446648.3474   21446651.9044   21446648.0174
      -930.8504       -725.3364         49.0004         44.0004
  -8524526.95543  -6605723.61242  22951697.3004   22951700.9844   22951697.1714
      2630.2444       2049.5404         44.0004         39.0004
  -7475382.20543  -5782265.31042  23504823.4704   23504826.6074   23504823.2834
     -2905.9734      -2264.3944         43.0004         39.0004
   -782756.21143   -581101.35242  23867917.9184   23867922.7314   23867917.5844
      2374.7274       1850.4344         41.0004         37.0004
                            4  1
RINEX FILE SPLICE; other post-header comments skipped       COMMENT
 04 12 24  0 45  0.0000000  0  9G 3G 1G19G25G15G14G11G22G20
 -19785043.23343 -15377361.13742  21312269.9104   21312274.5004   21312269.6544
     -2295.1914      -1788.4554         49.0004         44.0004
 -15425056.05143 -11973225.48142  21198934.2724   21198938.9094   21198933.9774
      2297.2884       1790.0844         50.0004         45.0004
 -20080643.94943 -15604058.28542  20615798.8494   20615800.4884   20615798.0424
      -315.1074       -245.5484         52.0004         48.0004
   -460640.54743   -327002.45242  25339531.1224   25339538.7294   25339530.7904
      2646.2654       2062.0274         38.0004         33.0004
  -1342281.55543   -998862.29242  23447967.1594   23447972.6024   23447966.4544
     -1911.0304      -1489.1174         44.0004         39.0004
 -13713235.39743 -10636108.66042  21452014.4894   21452018.0424   21452014.1394
      -950.1924       -740.4224         49.0004         44.0004
  -8603425.31543  -6667202.82742  22936683.4194   22936687.1424   22936683.2524
      2628.2514       2047.9874         44.0004         39.0004
  -7388198.36043  -5714329.91542  23521413.9794   23521417.2204   23521413.8344
     -2906.9384      -2265.1424         43.0004         38.0004
   -853915.50343   -636550.09142  23854376.7454   23854381.6824   23854376.3624
      2368.1484       1845.3044         41.0004         37.0004
 04 12 24  0 45 30.0000000  0  9G 3G 1G19G25G15G14G11G22G20
 -19715979.82943 -15323545.54042  21325412.3014   21325416.8614   21325412.0464
     -2309.2314      -1799.3864         48.0004         44.0004
 -15493745.75343 -12026749.89742  21185862.9714   21185867.6374   21185862.7284
      2281.9574       1778.1544         50.0004         45.0004
 -20070911.28843 -15596474.41142  20617650.9564   20617652.6084   20617650.1274
      -333.8054       -260.1074         52.0004         48.0004
   -540075.30243   -388899.65442  25324414.8614   25324424.2794   25324412.6484
      2649.9424       2064.8884         37.0004         33.0004
  -1284884.08943   -954137.07342  23458889.6434   23458895.0954   23458888.9044
     -1915.3344      -1492.4614         43.0004         39.0004
 -13684447.56943 -10613676.61242  21457492.6944   21457496.2034   21457492.3034
      -969.0674       -755.1124         49.0004         44.0004
  -8682268.29043  -6728638.88942  22921680.0374   22921683.8614   22921679.9314
      2627.5374       2047.4254         44.0004         40.0004
  -7300987.72843  -5646373.64542  23538009.6444   23538012.8994   23538009.4944
     -2906.8494      -2265.0674         43.0004         38.0004
   -924869.21843   -691838.64942  23840874.7004   23840879.5314   23840874.4044
      2361.8054       1840.3584         41.0004         37.0004
 04 12 24  0 46  0.0000000  0  9G 3G 1G19G25G15G14G11G22G20
 -19646474.31943 -15269385.45342  21338638.8114   21338643.3574   21338638.5514
     -2324.3574      -1811.1934         48.0004         44.0004
 -15561952.02743 -12079897.62442  21172883.7144   21172888.3814   21172883.4614
      2265.2494       1765.1224         50.0004         45.0004
 -20060591.59243 -15588433.10842  20619614.6984   20619616.3944   20619613.8814
      -353.9424       -275.7934         52.0004         48.0004
   -619639.73943   -450897.84942  25309274.3594   25309283.1624   25309274.4524
      2654.6674       2068.5524         38.0004         33.0004
  -1227338.11743   -909296.13242  23469840.3874   23469845.9014   23469839.5674
     -1920.9874      -1496.8734         44.0004         39.0004
 -13655072.42143 -10590786.89942  21463082.5974   21463086.1294   21463082.2174
      -989.1164       -770.7474         49.0004         44.0004
  -8761054.90543  -6790031.03142  22906687.4284   22906691.2634   22906687.2704
      2625.1674       2045.5844         44.0004         40.0004
  -7213751.27743  -5578397.25042  23554610.2744   23554613.6074   23554610.2024
     -2908.4184      -2266.3064         43.0004         38.0004
   -995617.24143   -746966.94442  23827411.7954   23827416.5694   23827411.3614
      2354.5944       1834.7484         41.0004         37.0004
 04 12 24  0 46 30.0000000  0  9G 3G 1G19G25G15G14G11G22G20
 -19576528.17343 -15214882.01342  21351949.1544   21351953.7134   21351948.9044
     -2338.6344      -1822.3174         48.0004         44.0004
 -15629671.96443 -12132666.38442  21159997.0834   21160001.6424   21159996.8044
      2249.2164       1752.6494         50.0004         45.0004
 -20049684.35643 -15579933.98042  20621690.2964   20621691.9924   20621689.4724
      -373.3514       -290.9194         52.0004         48.0004
   -699330.65443   -512994.61342  25294109.8814   25294118.6844   25294109.8614
      2658.9614       2071.9154         38.0004         34.0004
  -1169642.61243   -864338.68342  23480819.5114   23480825.0984   23480818.7804
     -1925.5064      -1500.3864         44.0004         39.0004
 -13625110.50343 -10567439.96342  21468784.2324   21468787.7174   21468783.8104
     -1008.5324       -785.8754         49.0004         44.0004
  -8839783.52443  -6851377.98342  22891705.8244   22891709.7214   22891705.6284
      2623.5244       2044.3044         44.0004         40.0004
  -7126490.15343  -5510401.62242  23571215.5494   23571218.9464   23571215.5154
     -2909.3454      -2267.0224         43.0004         38.0004
  -1066158.81643   -801934.34742  23813988.1234   23813992.9794   23813987.6894
      2348.1204       1829.7124         41.0004         37.0004
 04 12 24  0 47  0.0000000  0  9G 3G 1G19G25G15G14G11G22G20
 -19506144.10743 -15160037.34042  21365342.8764   21365347.4154   21365342.6094
     -2353.6174      -1833.9734         48.0004         44.0004
 -15696903.49343 -12185054.56442  21147203.2634   21147207.9194   21147203.0354
      2232.5594       1739.6634         50.0004         45.0004
 -20038190.00643 -15570977.36642  20623877.6164   20623879.3394   20623876.7984
      -393.0784       -306.2874         52.0004         48.0004
   -779145.74043   -575188.13542  25278921.7654   25278930.4274   25278921.2494
      2662.2184       2074.4434         38.0004         33.0004
  -1111797.52943   -819264.67942  23491827.1674   23491832.7364   23491826.3314
     -1930.8984      -1504.5944         43.0004         39.0004
 -13594563.20843 -10543636.90042  21474597.2004   21474600.6754   21474596.8154
     -1028.1794       -801.1684         49.0004         44.0004
  -8918453.09043  -6912678.92242  22876735.7224   22876739.4214   22876735.4264
      2621.0104       2042.3514         45.0004         40.0004
  -7039205.81143  -5442387.90542  23587825.0654   23587828.5504   23587825.1394
     -2909.9944      -2267.5254         42.0004         38.0004
  -1136494.04643   -856741.01742  23800603.8354   23800608.5644   23800603.3814
      2340.7454       1823.9624         41.0004         37.0004
 04 12 24  0 47 30.0000000  0  9G 3G 1G19G25G15G14G11G22G20
 -19435324.19843 -15104853.05242  21378819.4914   21378824.0074   21378819.2094
     -2368.3644      -1845.4804         48.0004         44.0004
 -15763644.16743 -12237060.27542  21134502.9794   21134507.5484   21134502.7064
      2215.9214       1726.6744         50.0004         45.0004
 -20026108.50343 -15561563.22742  20626176.6564   20626178.3964   20626175.8464
      -413.0414       -321.8514         52.0004         48.0004
   -859082.22843   -637476.25542  25263709.9484   25263718.9964   25263709.7484
      2665.9604       2077.3654         38.0004         34.0004
  -1053802.17343   -774073.59442  23502863.2584   23502869.0494   23502862.6244
     -1936.2494      -1508.7614         43.0004         39.0004
 -13563431.84343 -10519378.70242  21480521.3094   21480524.7624   21480520.9224
     -1047.8744       -816.5244         49.0004         44.0004
  -8997062.00043  -6973932.59042  22861777.0274   22861780.4924   22861776.7264
      2618.6584       2040.5104         44.0004         40.0004
  -6951899.59843  -5374357.12042  23604438.9494   23604442.3524   23604439.0314
     -2911.1034      -2268.3874         42.0004         38.0004
  -1206622.85543   -911386.78642  23787258.6804   23787263.4324   23787258.1604
      2333.6864       1818.4514         41.0004         37.0004
 04 12 24  0 48  0.0000000  0  9G 3G 1G19G25G15G14G11G22G20
 -19364070.50343 -15049330.75342  21392378.6554   21392383.1464   21392378.3584
     -2382.9444      -1856.8254         48.0004         44.0004
 -15829891.68543 -12288681.69442  21121896.4384   21121901.0104   21121896.1634
      2199.2664       1713.7204         50.0004         45.0004
 -20013439.87143 -15551691.59042  20628587.4094   20628589.1694   20628586.6194
      -432.8054       -337.2554         52.0004         48.0004
   -939137.54043   -699857.02642  25248475.8374   25248486.1664   25248475.8894
      2669.4444       2080.0844         38.0004         33.0004
   -995656.40743   -728765.29042  23513928.0894   23513933.9124   23513927.4754
     -1941.3494      -1512.7344         43.0004         39.0004
 -13531717.79943 -10494666.47942  21486556.3084   21486559.7124   21486555.8874
     -1067.4074       -831.7334         48.0004         44.0004
  -9075609.06243  -7035138.07442  22846830.0094   22846833.4804   22846829.7184
      2616.5544       2038.8764         45.0004         40.0004
  -6864572.95643  -5306310.44742  23621056.7404   23621060.2714   23621056.6564
     -2911.9974      -2269.0894         42.0004         38.0004
  -1276545.21643   -965871.71742  23773952.8414   23773957.6574   23773952.3344
      2326.6144       1812.9454         41.0004         36.0004
 04 12 24  0 48 30.0000000  0  9G 3G 1G19G25G15G14G11G22G20
 -19292385.36043 -14993472.25742  21406019.8904   21406024.4314   21406019.6174
     -2396.3494      -1867.2754         48.0004         44.0004
 -15895643.37743 -12339916.76542  21109384.2994   21109388.8494   21109383.9974
      2183.6724       1701.5774         50.0004         45.0004
 -20000183.99043 -15541362.35042  20631109.8844   20631111.6764   20631109.1314
      -451.3104       -351.6604         52.0004         48.0004
  -1019309.09443   -762328.34142  25233220.2444   25233228.4854   25233219.4634
      2674.2014       2083.8004         37.0004         33.0004
   -937359.48943   -683339.21742  23525021.7694   23525027.5074   23525021.1324
     -1945.6524      -1516.0854         43.0004         39.0004
 -13499422.02343 -10469500.95242  21492702.0094   21492705.4354   21492701.6074
     -1085.8584       -846.1174         49.0004         44.0004
  -9154092.86043  -7096294.25042  22831895.0874   22831898.4594   22831894.7784
      2615.3644       2037.9484         45.0004         40.0004
  -6777226.99943  -5238248.73242  23637678.2194   23637681.8214   23637678.1154
     -2911.5944      -2268.7674         43.0004         38.0004
  -1346260.71843  -1020195.46242  23760686.3254   23760691.2774   23760685.8974
      2320.7494       1808.3814         41.0004         37.0004
 04 12 24  0 49  0.0000000  0  9G 3G 1G19G25G15G14G11G22G20
 -19220271.29643 -14937279.52842  21419742.7234   21419747.3514   21419742.4634
     -2410.8884      -1878.5954         48.0004         44.0004
 -15960897.45443 -12390764.07742  21096966.7424   21096971.3704   21096966.5004
      2166.7594       1688.3774         50.0004         45.0004
 -19986341.38643 -15530575.92742  20633744.0834   20633745.8734   20633743.3204
      -471.1144       -367.1124         52.0004         48.0004
  -1099594.60743   -824888.40842  25217942.2504   25217950.6554   25217942.1364
      2678.2294       2086.9314         37.0004         32.0004
   -878911.73643   -637795.59042  23536143.9094   23536149.7384   23536143.4374
     -1950.3984      -1519.7884         43.0004         38.0004
 -13466546.20343 -10443883.43842  21498958.0904   21498961.5214   21498957.6844
     -1105.4504       -861.4044         48.0004         44.0004
  -9232512.49543  -7157400.44942  22816972.1314   22816975.6114   22816971.9324
      2612.7334       2035.8914         45.0004         40.0004
  -6689863.36143  -5170173.22442  23654302.9494   23654306.7174   23654302.9494
     -2912.3564      -2269.3724         43.0004         38.0004
  -1415769.78443  -1074358.34042  23747459.1294   23747464.1804   23747458.6104
      2313.4444       1802.6844         42.0004         37.0004
 04 12 24  0 49 30.0000000  0  9G 3G 1G19G25G15G14G11G22G20
 -19147730.33843 -14880754.17142  21433546.8984   21433551.5094   21433546.5854
     -2425.6754      -1890.1464         48.0004         43.0004
 -16025651.25143 -12441221.57242  21084644.4894   21084649.1454   21084644.2704
      2149.7244       1675.1084         50.0004         45.0004
 -19971912.06043 -15519332.31842  20636489.9714   20636491.7104   20636489.1654
      -491.1814       -382.7464         52.0004         48.0004
  -1179991.09443   -887535.05042  25202643.2494   25202650.9204   25202643.0074
      2681.4844       2089.4824         37.0004         33.0004
   -820312.50043   -592133.94142  23547295.1084   23547300.8954   23547294.5664
     -1956.0454      -1524.1864         43.0004         38.0004
 -13433091.54843 -10417814.88142  21505324.3764   21505327.7034   21505323.9304
     -1125.2224       -876.8054         49.0004         44.0004
  -9310866.35443  -7218455.38242  22802061.8754   22802065.4094   22802061.6854
      2610.1504       2033.8734         45.0004         40.0004
  -6602483.03843  -5102084.72542  23670930.8314   23670934.6754   23670930.8934
     -2913.6214      -2270.3574         43.0004         38.0004
  -1485072.03143  -1128360.09542  23734271.2384   23734276.5454   23734270.8184
      2306.0714       1796.9324         42.0004         37.0004
 04 12 24  0 50  0.0000000  0  9G 3G 1G19G25G15G14G11G22G20
 -19074764.56343 -14823897.77342  21447431.8234   21447436.4924   21447431.5444
     -2439.8284      -1901.1724         48.0004         43.0004
 -16089902.68243 -12491287.60542  21072417.7974   21072422.4914   21072417.5764
      2132.8384       1661.9574         50.0004         45.0004
 -19956896.05743 -15507631.55642  20639347.4754   20639349.1864   20639346.6524
      -510.8254       -398.0614         52.0004         48.0004
                   -950266.04842  25187323.704    25187330.5174
                      2092.3184                         32.0004
   -761561.33543   -546353.91442  23558475.0934   23558481.0574   23558474.5624
     -1961.2754      -1528.2614         43.0004         39.0004
 -13399059.45143 -10391296.37242  21511800.4714   21511803.7764   21511800.0514
     -1144.5544       -891.8574         48.0004         44.0004
  -9389152.96243  -7279457.92342  22787164.3824   22787168.0064   22787164.2394
      2607.8894       2032.1154         45.0004         40.0004
  -6515087.45243  -5033984.34042  23687561.7464   23687565.4804   23687561.7864
     -2914.0664      -2270.6964         43.0004         38.0004
  -1554167.17243  -1182200.41442  23721122.9394   23721128.3164   23721122.3724
      2299.4024       1791.7384         42.0004         37.0004
 04 12 24  0 50 30.0000000  0  9G 3G 1G19G25G15G14G11G22G20
 -19001376.20543 -14766712.09742  21461397.2524   21461401.8794   21461396.8934
     -2453.2514      -1911.6274         48.0004         43.0004
 -16153649.14943 -12540960.16642  21060287.2004   21060291.9474   21060287.0004
      2116.4484       1649.1894         50.0004         45.0004
 -19941293.39543 -15495473.65642  20642316.5724   20642318.3114   20642315.7544
      -529.7554       -412.7844         52.0004         48.0004
  -1341106.43043  -1013079.34142  25171983.7004   25171990.3464   25171983.4854
      2687.1544       2095.6414         37.0004         33.0004
   -702657.53343   -500454.91742  23569684.3344   23569690.2124   23569683.6974
     -1966.0664      -1531.9984         43.0004         38.0004
 -13364451.07643 -10364328.81042  21518386.2184   21518389.5184   21518385.7994
     -1163.1894       -906.3744         48.0004         44.0004
  -9467370.86143  -7340406.92242  22772280.0414   22772283.5824   22772279.9054
      2605.9984       2030.6514         45.0004         40.0004
  -6427677.70643  -4965872.91442  23704195.3294   23704198.8994   23704195.3444
     -2913.7314      -2270.4374         42.0004         38.0004
  -1623055.10543  -1235879.24042  23708014.1594   23708019.4004   23708013.5204
      2292.8334       1786.6224         42.0004         37.0004
 04 12 24  0 51  0.0000000  0  9G 3G 1G19G25G15G14G11G22G20
 -18927568.01043 -14709199.27042  21475442.4874   21475447.1684   21475442.1544
     -2467.7894      -1922.9614         48.0004         43.0004
 -16216888.82043 -12590237.81742  21048253.1074   21048257.8334   21048252.8634
      2098.9564       1635.5424         50.0004         45.0004
 -19925104.94943 -15482859.30442  20645397.1384   20645398.9124   20645396.3334
      -549.8254       -428.4454         52.0004         48.0004
                  -1075973.16342  25156624.493    25156632.1934
                      2097.0224                         32.0004
   -643601.30143   -454437.16942  23580922.4434   23580928.2334   23580921.7164
     -1971.5724      -1536.2804         43.0004         38.0004
 -13329268.25743 -10336913.63842  21525081.2594   21525084.6054   21525080.8264
     -1182.7054       -921.5994         48.0004         44.0004
  -9545519.24643  -7401301.75242  22757408.8534   22757412.4994   22757408.7314
      2603.3514       2028.5874         45.0004         40.0004
  -6340255.34743  -4897751.66742  23720831.4444   23720834.7024   23720831.3534
     -2914.5704      -2271.0994         42.0004         38.0004
  -1691736.10443  -1289396.80542  23694944.6604   23694949.7764   23694944.0464
      2285.5194       1780.9164         42.0004         38.0004
 04 12 24  0 51 30.0000000  0  9G 3G 1G19G25G15G14G11G22G20
 -18853341.52243 -14651360.49942  21489567.2384   21489572.0554   21489567.0064
     -2481.6004      -1933.7154         48.0004         43.0004
 -16279618.75343 -12639118.27342  21036316.0074   21036320.7344   21036315.7524
      2081.8294       1622.1984         50.0004         45.0004
 -19908330.08343 -15469788.00442  20648589.3034   20648591.0804   20648588.5054
      -569.4454       -443.7454         52.0004         48.0004
                  -1138944.80742  25141246.374    25141254.2224
                      2099.4064                         32.0004
   -584391.39443   -408299.67042  23592189.6814   23592195.5534   23592189.0024
     -1976.6024      -1540.2024         43.0004         38.0004
 -13293511.50743 -10309051.24642  21531885.5744   21531888.9144   21531885.1484
     -1201.9914       -936.6134         48.0004         44.0004
  -9623595.81143  -7462140.62442  22742551.4294   22742555.0444   22742551.2144
      2600.8264       2026.6214         45.0004         40.0004
  -6252820.91543  -4829621.00142  23737469.7884   23737473.1274   23737469.6814
     -2915.4754      -2271.8014         42.0004         38.0004
  -1760209.68043  -1342752.78242  23681914.3704   23681919.7554   23681913.9014
      2278.3764       1775.3474         42.0004         37.0004
 04 12 24  0 52  0.0000000  0  9G 3G 1G19G25G15G14G11G22G20
 -18778700.11643 -14593198.40742  21503770.9374   21503775.8744   21503770.8004
     -2494.7944      -1943.9904         48.0004         43.0004
 -16341837.50143 -12687600.39942  21024476.1734   21024480.9064   21024475.9074
      2065.3084       1609.3164         50.0004         45.0004
 -19890969.78043 -15456260.51142  20651892.8654   20651894.6434   20651892.0674
      -588.3594       -458.4664         52.0004         48.0004
                  -1201992.87242  25125848.943    25125860.1874
                      2103.2264                         32.0004
   -525028.47243   -362042.95142  23603486.2474   23603492.0004   23603485.4724
     -1981.6484      -1544.1334         43.0004         38.0004
 -13257183.31643 -10280743.56642  21538798.6014   21538801.9544   21538798.1824
     -1220.5054       -951.0464         48.0004         44.0004
  -9701600.16343  -7522923.22742  22727707.7414   22727711.3174   22727707.5764
      2598.8164       2025.0484         45.0004         41.0004
  -6165376.44243  -4761482.51042  23754109.8444   23754113.3884   23754109.7494
     -2915.1754      -2271.5654         42.0004         38.0004
  -1828476.35243  -1395947.53242  23668923.6374   23668928.9244   23668923.0444
      2272.0774       1770.4434         42.0004         38.0004
 04 12 24  0 52 30.0000000  0  9G 3G 1G19G25G15G14G11G22G20
 -18703645.61143 -14534714.43442  21518053.3554   21518058.3244   21518053.1584
     -2508.5954      -1954.7494         48.0004         43.0004
 -16403542.82443 -12735682.45342  21012734.0584   21012738.7974   21012733.7534
      2048.4294       1596.1674         50.0004         46.0004
 -19873024.39643 -15442277.11442  20655307.7274   20655309.5484   20655306.9454
      -607.7184       -473.5474         52.0004         48.0004
  -1664552.83643  -1265115.19142  25110433.6264   25110442.8914   25110432.1084
      2701.7384       2105.2534         37.0004         32.0004
   -465512.19643   -315666.70942  23614811.8954   23614817.5864   23614811.1724
     -1986.2484      -1547.7194         42.0004         38.0004
 -13220285.02443 -10251991.66142  21545820.0924   21545823.4794   21545819.6914
     -1239.2904       -965.6914         48.0004         44.0004
  -9779530.83443  -7583648.40542  22712878.0954   22712881.6044   22712877.9124
      2596.5154       2023.2624         45.0004         41.0004
  -6077923.27243  -4693337.23442  23770751.8444   23770755.2584   23770751.6274
     -2915.0424      -2271.4614         43.0004         38.0004
  -1896536.02943  -1448980.99042  23655972.3514   23655977.4934   23655971.6944
      2265.3254       1765.1934         42.0004         38.0004
 04 12 24  0 53  0.0000000  0  9G 3G 1G19G25G15G14G11G22G20
 -18628179.97743 -14475910.08142  21532414.0234   21532419.0254   21532413.8984
     -2521.7934      -1965.0524         48.0004         43.0004
 -16464731.76543 -12783362.12842  21001090.1204   21001094.9714   21001089.8804
      2031.5414       1582.9984         50.0004         46.0004
 -19854493.56443 -15427837.53442  20658834.0444   20658835.8844   20658833.2604
      -626.8374       -488.4564         52.0004         48.0004
                  -1328309.10142  25095001.017    25095008.8164
                      2107.5814                         32.0004
   -405841.52343   -269170.19442  23626166.8764   23626172.6004   23626166.1504
     -1991.2414      -1551.6074         42.0004         38.0004
 -13182817.65443 -10222796.32342  21552949.8384   21552953.3314   21552949.4914
     -1257.9064       -980.1844         48.0004         44.0004
  -9857385.76843  -7644314.58842  22698062.7334   22698066.2664   22698062.5524
      2594.2404       2021.4824         45.0004         41.0004
  -5990461.82443  -4625185.50042  23787395.2094   23787398.7064   23787395.0634
     -2914.8164      -2271.2794         43.0004         39.0004
  -1964388.09543  -1501852.68942  23643060.5174   23643065.7034   23643059.8704
      2258.6674       1759.9984         42.0004         38.0004
 04 12 24  0 53 30.0000000  0  9G 3G 1G19G25G15G14G11G22G20
 -18552306.26143 -14416787.74842  21546852.3544   21546857.3694   21546852.2314
     -2535.6184      -1975.8024         48.0004         43.0004
 -16525402.83443 -12830638.27042  20989544.8114   20989549.6344   20989544.5734
      2013.9564       1569.3284         50.0004         46.0004
 -19835378.38243 -15412942.60542  20662471.6484   20662473.4104   20662470.8244
      -646.7164       -503.9384         52.0004         48.0004
                  -1391573.03842  25079551.190    25079560.6704
                      2109.5454                         32.0004
   -346016.69443   -222553.51342  23637551.0434   23637556.9594   23637550.4184
     -1996.4184      -1555.6414         42.0004         38.0004
 -13144782.97343 -10193158.91742  21560187.5994   21560191.1464   21560187.2514
     -1276.9074       -994.9844         48.0004         44.0004
  -9935163.95143  -7704920.95342  22683262.0334   22683265.5404   22683261.8834
      2591.4284       2019.2944         45.0004         41.0004
  -5902993.92643  -4557028.77642  23804039.9954   23804043.4824   23804039.8484
     -2915.4884      -2271.8014         43.0004         39.0004
  -2032033.23543  -1554563.15642  23630187.9564   23630193.1544   23630187.4044
      2251.7144       1754.5784         42.0004         38.0004
 04 12 24  0 54  0.0000000  0  9G 3G 1G19G25G15G14G11G22G20
 -18476026.11843 -14357348.73242  21561368.0224   21561373.0394   21561367.8714
     -2549.2664      -1986.4414         48.0004         43.0004
 -16585553.29643 -12877508.75242  20978098.5354   20978103.4044   20978098.3054
      1996.5814       1555.7744         50.0004         46.0004
 -19815678.50843 -15397592.07842  20666220.4494   20666222.1864   20666219.5984
      -666.2724       -519.1714         52.0004         48.0004
  -1908115.91853  -1454904.37842  25064085.0284   25064095.6844   25064085.6944
      2710.6214       2112.1624         37.0004         32.0004
   -286036.72143   -175815.96642  23648964.9034   23648970.9794   23648964.2364
     -2001.9464      -1559.9554         42.0004         37.0004
 -13106182.03943 -10163080.28042  21567533.1124   21567536.6324   21567532.7644
     -1295.9424      -1009.8194         48.0004         44.0004
 -10012863.48343  -7765466.02542  22668476.1124   22668479.7184   22668476.0624
      2588.8654       2017.2994         45.0004         41.0004
  -5815520.33943  -4488867.62042  23820685.6974   23820689.1914   23820685.6264
     -2915.5664      -2271.8594         43.0004         38.0004
  -2099470.69243  -1607111.78042  23617355.0114   23617360.1654   23617354.4274
      2244.6054       1749.0424         42.0004         38.0004
 04 12 24  0 54 30.0000000  0  9G 3G 1G19G25G15G14G11G22G20
 -18399342.43643 -14297595.25742  21575960.3784   21575965.4734   21575960.2694
     -2562.2314      -1996.5364         48.0004         43.0004
 -16645181.64343 -12923972.38642  20966751.6964   20966756.4814   20966751.4394
      1979.4234       1542.4194         50.0004         46.0004
 -19795394.65443 -15381786.49842  20670080.3184   20670082.0784   20670079.4654
      -685.1734       -533.8974         52.0004         47.0004
                                  25048602.654

   -225901.64443   -128957.54042  23660408.3614   23660414.2824   23660407.5944
     -2006.5144      -1563.5134         42.0004         37.0004
 -13067016.57443 -10132561.74942  21574986.0804   21574989.5874   21574985.7214
     -1314.1774      -1024.0264         48.0004         44.0004
 -10090483.48843  -7825949.14242  22653705.5694   22653709.0494   22653705.4564
      2586.4944       2015.4524         45.0004         40.0004
  -5728042.65043  -4420703.26042  23837332.2954   23837335.6114   23837332.2954
     -2915.5964      -2271.8914         43.0004         38.0004
  -2166700.68543  -1659498.76142  23604561.5384   23604566.5804   23604560.9984
      2238.1424       1744.0084         42.0004         38.0004
 04 12 24  0 55  0.0000000  0  9G 3G 1G19G25G15G14G11G22G20
 -18322257.79343 -14237529.35642  21590629.0694   21590634.2684   21590629.0034
     -2576.0234      -2007.2864         48.0004         43.0004
 -16704286.11443 -12970027.80342  20955504.5224   20955509.2654   20955504.2514
      1961.5324       1528.4674         50.0004         46.0004
 -19774527.91543 -15365526.72242  20674051.1864   20674052.9184   20674050.3074
      -705.2354       -549.5344         52.0004         48.0004
                  -1581762.09142  25033105.149    25033113.6484
                      2116.4234                         32.0004
   -165611.69643    -81978.46242  23671881.2574   23671887.1574   23671880.3374
     -2011.9844      -1567.7744         42.0004         38.0004
 -13027289.14843 -10101605.33242  21582545.9784   21582549.5194   21582545.6434
     -1333.5034      -1039.0894         49.0004         44.0004
 -10168023.18843  -7886369.66442  22638950.1884   22638953.7134   22638950.1324
      2583.4384       2013.0664         45.0004         41.0004
  -5640562.26243  -4352536.77742  23853979.3764   23853982.4674   23853979.3254
     -2916.0944      -2272.2794         42.0004         38.0004
  -2233723.86543  -1711724.58142  23591807.3624   23591812.5024   23591806.8444
      2230.6624       1738.1754         42.0004         38.0004
 04 12 24  0 55 30.0000000  0  9G 3G 1G19G25G15G14G11G22G20
 -18244774.18243 -14177152.56542  21605373.7944   21605378.9574   21605373.6894
     -2589.5894      -2017.8574         48.0004         43.0004
 -16762864.26443 -13015673.09442  20944357.4814   20944362.2424   20944357.1834
      1943.7464       1514.5934         50.0004         46.0004
 -19753078.10443 -15348812.60142  20678132.8914   20678134.6864   20678132.0674
      -724.8714       -564.8464         52.0004         47.0004
  -2152436.79343                  25017592.5254                   25017591.5294
      2718.9114                         36.0004
   -105166.18043    -34878.15442  23683383.6544   23683389.6324   23683382.7454
     -2017.6714      -1572.2164         42.0004         37.0004
 -12987000.76143 -10070211.79042  21590212.5874   21590216.2374   21590212.2794
     -1352.4064      -1053.8154         49.0004         44.0004
 -10245480.28043  -7946725.83242  22624210.6454   22624214.1194   22624210.5654
      2580.3264       2010.6404         45.0004         41.0004
  -5553079.99243  -4284368.82742  23870626.7714   23870629.9484   23870626.8224
     -2916.2844      -2272.4314         42.0004         38.0004
  -2300539.71043  -1763788.83842  23579092.6984   23579097.8484   23579092.1974
      2223.4994       1732.5994         43.0004         38.0004
 04 12 24  0 56  0.0000000  0  9G 3G 1G19G25G15G14G11G22G20
 -18166894.10643 -14116466.84442  21620194.0334   21620199.1354   21620193.8644
     -2602.8934      -2028.2334         48.0004         43.0004
 -16820914.22743 -13060906.82042  20933310.9324   20933315.6704   20933310.6324
      1925.9414       1500.7204         50.0004         46.0004
 -19731046.00143 -15331644.75642  20682325.4274   20682327.2884   20682324.6354
      -744.3484       -580.0224         52.0004         47.0004
  -2234032.71343  -1708865.20842  25002065.2184   25002071.4674   25002064.1784
      2720.6074       2120.3884         37.0004         32.0004
    -44564.68343     12343.71242  23694915.8324   23694921.6954   23694914.9024
     -2022.3984      -1575.8884         42.0004         37.0004
 -12946152.98543 -10038382.36942  21597985.6764   21597989.3034   21597985.3524
     -1371.0444      -1068.3404         48.0004         44.0004
 -10322853.35743  -8007016.52642  22609486.9874   22609490.5244   22609486.9374
      2577.4944       2008.4324         45.0004         41.0004
  -5465597.15843  -4216200.45942  23887274.2574   23887277.3794   23887274.2254
     -2916.0704      -2272.2624         42.0004         37.0004
  -2367148.38143  -1815691.63842  23566417.4614   23566422.7714   23566416.9644
      2216.5234       1727.1554         43.0004         38.0004
 04 12 24  0 56 30.0000000  0  9G 3G 1G19G25G15G14G11G22G20
 -18088620.25543 -14055474.29042  21635089.1234   21635094.2184   21635088.9974
     -2616.0054      -2038.4514         48.0004         43.0004
 -16878433.75043 -13105727.21042  20922365.3664   20922370.0494   20922365.0474
      1908.1614       1486.8824         51.0004         46.0004
 -19708431.97743 -15314023.46042  20686628.7714   20686630.5904   20686627.9704
      -763.7364       -595.1274         52.0004         47.0004
                  -1772503.27942  24986523.880    24986530.9424
                      2122.3204                         32.0004
     16192.84343     59687.15742  23706477.6894   23706483.6054   23706476.8044
     -2028.2044      -1580.4204         42.0004         38.0004
 -12904747.51643 -10006118.38042  21605864.8714   21605868.5434   21605864.5434
     -1389.8864      -1083.0204         48.0004         44.0004
 -10400141.39843  -8067240.95542  22594779.6514   22594783.0934   22594779.5514
      2574.5554       2006.1564         46.0004         41.0004
  -5378115.03943  -4148032.63842  23903921.6974   23903924.5494   23903921.5114
     -2916.2974      -2272.4374         42.0004         37.0004
  -2433549.85443  -1867433.00342  23553781.6134   23553787.0564   23553781.2144
      2209.7254       1721.8654         43.0004         38.0004
 04 12 24  0 57  0.0000000  0  9G 3G 1G19G25G15G14G11G22G20
 -18009955.38843 -13994177.05042  21650058.5964   21650063.6684   21650058.5054
     -2628.7234      -2048.3524         48.0004         43.0004
 -16935420.99043 -13150132.83642  20911521.0344   20911525.7294   20911520.7304
      1890.6954       1473.2564         51.0004         46.0004
 -19685236.72943 -15295949.26342  20691042.7384   20691044.5274   20691041.9064
      -782.8764       -610.0324         52.0004         47.0004
                                  24970969.340

     77106.55243    107152.29042  23718069.2144   23718075.2424   23718068.4624
     -2032.9514      -1584.1134         42.0004         37.0004
 -12862786.27943  -9973421.31842  21613849.8694   21613853.5234   21613849.5004
     -1408.1964      -1097.3034         48.0004         44.0004
 -10477342.87043  -8127397.93242  22580088.7374   22580092.1554   22580088.6424
      2571.9384       2004.1114         46.0004         41.0004
  -5290634.92543  -4079866.38042  23920568.6414   23920571.4894   23920568.4614
     -2915.9034      -2272.1154         42.0004         37.0004
  -2499744.37643  -1919013.10242  23541185.2314   23541190.3944   23541184.8544
      2203.0374       1716.6504         43.0004         38.0004
 04 12 24  0 57 30.0000000  0  9G 3G 1G19G25G15G14G11G22G20
 -17930901.05243 -13932576.33742  21665102.1624   21665107.3204   21665102.0714
     -2641.3754      -2058.2044         48.0004         43.0004
 -16991873.32243 -13194121.65242  20900778.4824   20900783.2274   20900778.1844
      1873.0234       1459.4984         51.0004         46.0004
 -19661460.11443 -15277422.06142  20695567.2904   20695569.0804   20695566.4874
      -802.0114       -624.9444         52.0004         47.0004
                                  24955401.754

    138177.53443    154739.97242  23729690.6694   23729696.6374   23729689.9894
     -2038.3514      -1588.3294         42.0004         37.0004
 -12820270.44843  -9940292.11242  21621940.4014   21621944.0964   21621939.9644
     -1426.1974      -1111.3124         48.0004         44.0004
 -10554455.77543  -8187485.88242  22565414.6864   22565418.0884   22565414.4924
      2569.1364       2001.9174         46.0004         41.0004
  -5203157.20743  -4011702.00242  23937215.2134   23937218.0434   23937215.0244
     -2915.5694      -2271.8744         42.0004         37.0004
  -2565731.37043  -1970431.48342  23528628.3104   23528633.4134   23528627.9844
      2196.5074       1711.5654         42.0004         38.0004
 04 12 24  0 58  0.0000000  0  9G 3G 1G19G25G15G14G11G22G20
 -17851461.24043 -13870675.24442  21680219.0884   21680224.2534   21680218.9874
     -2654.3554      -2068.3144         48.0004         43.0004
 -17047789.95343 -13237693.04642  20890137.9564   20890142.6474   20890137.6254
      1855.2204       1445.6384         51.0004         46.0004
 -19637104.13743 -15258443.39642  20700202.1164   20700203.9024   20700201.2884
      -821.3344       -639.9924         52.0004         47.0004
                                  24939821.715

    199404.72343    202449.38342  23741341.8194   23741347.9324   23741341.2814
     -2043.3284      -1592.1954         42.0004         37.0004
 -12777202.72643  -9906732.85942  21630135.9564   21630139.5724   21630135.5634
     -1444.4794      -1125.5674         48.0004         44.0004
 -10631479.79143  -8247504.58642  22550757.5064   22550760.9344   22550757.3914
      2566.1434       1999.5844         46.0004         41.0004
  -5115684.27443  -3943541.35142  23953860.8874   23953863.8104   23953860.7224
     -2915.3884      -2271.7254         42.0004         38.0004
  -2631512.02143  -2021689.08242  23516110.6264   23516115.7174   23516110.2564
      2189.5314       1706.1314         43.0004         38.0004
 04 12 24  0 58 30.0000000  0  9G 3G 1G19G25G15G14G11G22G20
 -17771636.59743 -13808474.29842  21695409.2564   21695414.4304   21695409.1584
     -2667.3154      -2078.4144         47.0004         43.0004
 -17103167.49443 -13280844.36042  20879599.9764   20879604.6204   20879599.6124
      1836.8814       1431.3314         51.0004         46.0004
 -19612167.83443 -15239012.53942  20704947.3224   20704949.1374   20704946.5174
      -841.0584       -655.3644         52.0004         47.0004
                                  24924230.202

    260790.09743    250282.05342  23753023.1974   23753029.1794   23753022.6294
     -2048.9604      -1596.5874         42.0004         37.0004
 -12733583.23443  -9872743.66242  21638436.4644   21638440.0704   21638436.0914
     -1463.3814      -1140.2824         48.0004         44.0004
 -10708412.05643  -8307451.78542  22536117.8194   22536121.2634   22536117.6514
      2562.8884       1997.0454         46.0004         41.0004
  -5028215.85943  -3875384.20842  23970505.5494   23970508.6304   23970505.4034
     -2915.8344      -2272.0714         42.0004         38.0004
  -2697084.74843  -2072784.65442  23503632.6694   23503637.5164   23503632.0544
      2182.0964       1700.3384         43.0004         38.0004
 04 12 24  0 59  0.0000000  0  9G 3G 1G19G25G15G14G11G22G20
 -17691430.24343 -13745975.90742  21710672.1944   21710677.2844   21710672.0204
     -2679.9934      -2088.3084         48.0004         43.0004
 -17158004.67743 -13323574.62142  20869164.7594   20869169.4424   20869164.4374
      1818.8714       1417.2954         51.0004         46.0004
 -19586652.35943 -15219130.38242  20709802.7514   20709804.6004   20709801.9524
      -860.1194       -670.2304         52.0004         47.0004
                                  24908627.233

    322333.22743    298237.65342  23764734.5154   23764740.6654   23764733.9654
     -2053.9704      -1600.4884         42.0004         37.0004
 -12689414.45343  -9838326.44542  21646841.5064   21646845.1474   21646841.1444
     -1481.4774      -1154.3924         48.0004         44.0004
 -10785251.41043  -8367326.59842  22521495.8794   22521499.2024   22521495.6454
      2559.8574       1994.7034         46.0004         41.0004
  -4940753.45243  -3807231.73642  23987148.8774   23987152.2134   23987148.7804
     -2915.5144      -2271.8314         42.0004         37.0004
  -2762450.23343  -2123718.73742  23491193.7914   23491198.8714   23491193.3164
      2174.9114       1694.7374         43.0004         38.0004
 04 12 24  0 59 30.0000000  0  9G 3G 1G19G25G15G14G11G22G20
 -17610845.82243 -13683182.92242  21726007.1204   21726012.0454   21726006.8434
     -2692.9974      -2098.4444         47.0004         43.0004
 -17212300.35543 -13365882.93342  20858832.5664   20858837.3224   20858832.2814
      1800.2694       1402.7964         51.0004         46.0004
 -19560559.47043 -15198798.28842  20714768.1054   20714769.9534   20714767.3094
      -879.9664       -685.6944         52.0004         47.0004
                                  24893013.239

    384033.51143    346315.71442  23776475.6774   23776481.7524   23776475.1844
     -2059.7764      -1605.0174         42.0004         38.0004
 -12644699.03843  -9803483.26742  21655350.6004   21655354.1964   21655350.2634
     -1500.2234      -1169.0074         48.0004         44.0004
 -10861997.47043  -8427128.69542  22506891.5474   22506894.9144   22506891.2974
      2556.0804       1991.7534         46.0004         41.0004
  -4853299.07843  -3739085.54742  24003790.7054   24003794.2364   24003790.6984
     -2915.5864      -2271.8824         41.0004         36.0004
  -2827609.77943  -2174492.34342  23478794.2744   23478799.4114   23478793.7274
      2168.2764       1689.5634         43.0004         38.0004
                            4  1
RINEX FILE SPLICE; other post-header comments skipped       COMMENT
 04 12 24  1  0  0.0000000  0  9G 3G 1G19G25G15G14G11G22G20
 -17529884.74443 -13620096.42742  21741413.5924   21741418.4734   21741413.2654
     -2704.4084      -2107.3094         47.0004         43.0004
 -17266051.95543 -13407767.28242  20848603.9754   20848608.7424   20848603.6914
      1783.2594       1389.5684         51.0004         46.0004
 -19533888.83843 -15178016.00242  20719843.3224   20719845.1944   20719842.5594
      -897.9514       -699.6954         52.0004         47.0004
                                  24877388.869

    445891.99543    394517.02542  23788247.0114   23788253.2214   23788246.6644
     -2063.9654      -1608.2744         42.0004         37.0004
 -12599438.23243  -9768215.11942  21663963.4704   21663967.0374   21663963.1234
     -1517.2304      -1182.2534         48.0004         44.0004
 -10938647.91443  -8486856.30642  22492305.3404   22492308.8094   22492305.1654
      2553.9964       1990.1344         46.0004         41.0004
  -4765853.10843  -3670945.90142  24020431.3974   24020434.6854   24020431.2744
     -2914.1534      -2270.7654         41.0004         37.0004
  -2892562.59643  -2225104.88142  23466434.2184   23466439.2154   23466433.5284
      2162.2194       1684.8524         43.0004         38.0004
 04 12 24  1  0 30.0000000  0  9G 3G 1G19G25G15G14G11G22G20
 -17448549.16443 -13556718.11542  21756891.1854   21756896.2004   21756890.9294
     -2717.6804      -2117.6864         47.0004         43.0004
 -17319257.03443 -13449225.77442  20838479.3544   20838484.1164   20838479.0814
      1764.1574       1374.6654         51.0004         46.0004
 -19506640.58143 -15156783.62142  20725028.5804   20725030.3664   20725027.7634
      -918.1224       -715.4144         52.0004         47.0004
                                  24861755.188

    507909.46443    442842.24042  23800048.7504   23800054.8094   23800048.2724
     -2070.4294      -1613.3234         42.0004         37.0004
 -12553633.06343  -9732522.79142  21672679.8754   21672683.4054   21672679.5304
     -1536.1334      -1196.9934         48.0004         44.0004
 -11015200.56343  -8546507.70442  22477737.8404   22477741.3224   22477737.6364
      2549.8414       1986.8894         46.0004         41.0004
  -4678416.06443  -3602813.21142  24037070.0544   24037073.5964   24037070.1444
     -2914.7934      -2271.2554         41.0004         37.0004
  -2957307.99743  -2275555.79342  23454113.6584   23454118.5084   23454112.9184
      2154.3474       1678.7114         43.0004         38.0004
 04 12 24  1  1  0.0000000  0  9G 3G 1G19G25G15G14G11G22G20
 -17366842.62543 -13493050.74942  21772439.4554   21772444.5094   21772439.2554
     -2729.4104      -2126.8054         47.0004         43.0004
 -17371914.80143 -13490257.78542  20828458.8874   20828463.6004   20828458.6034
      1746.3614       1360.8014         51.0004         46.0004
 -19478816.94543 -15135102.88642  20730323.2314   20730325.0894   20730322.4614
      -936.8214       -729.9914         52.0004         47.0004
                                  24846112.420

    570085.10743    491290.69742  23811880.5474   23811886.5874   23811880.1154
     -2074.9514      -1616.8444         42.0004         37.0004
 -12507286.35143  -9696408.47942  21681499.4584   21681502.8604   21681499.0904
     -1553.5964      -1210.5934         48.0004         44.0004
 -11091655.09443  -8606082.64442  22463188.9774   22463192.4444   22463188.7454
      2547.0064       1984.6814         46.0004         41.0004
  -4590990.16443  -3534689.22042  24053706.6654   24053710.4144   24053706.7894
     -2913.7344      -2270.4404         41.0004         37.0004
  -3021847.04543  -2325845.91442  23441832.2574   23441837.0644   23441831.5854
      2147.9924       1673.7614         43.0004         38.0004
 04 12 24  1  1 30.0000000  0  8G 3G 1G19G15G14G11G22G20
 -17284767.00643 -13429095.77942  21788057.9904   21788063.0684   21788057.8534
     -2742.7534      -2137.2144         47.0004         43.0004
 -17424022.96843 -13530861.54042  20818543.0234   20818547.7064   20818542.7504
      1726.8784       1345.6094         51.0004         46.0004
 -19450417.86943 -15112973.76242  20735727.4244   20735729.2924   20735726.6334
      -957.0964       -745.7864         52.0004         47.0004
    632419.78243    539863.06742  23823742.3994   23823748.5654   23823742.1104
     -2081.1934      -1621.7134         42.0004         37.0004
 -12460399.44643  -9659873.23342  21690421.8194   21690425.1394   21690421.4044
     -1572.5884      -1225.3874         48.0004         44.0004
 -11168009.33043  -8665579.44842  22448659.2384   22448662.6814   22448658.9864
      2542.7784       1981.3844         46.0004         41.0004
  -4503575.96743  -3466574.32942  24070340.9924   24070344.7984   24070341.0574
     -2914.4164      -2270.9834         41.0004         36.0004
  -3086179.36943  -2375974.94542  23429590.0814   23429594.8964   23429589.4904
      2140.1234       1667.6334         43.0004         38.0004
 04 12 24  1  2  0.0000000  0  8G 3G 1G19G15G14G11G22G20
 -17202325.00143 -13364855.32742  21803746.3334   21803751.3254   21803746.0884
     -2754.1144      -2146.0654         47.0004         43.0004
 -17475579.62943 -13571035.54942  20808732.1324   20808736.7624   20808731.8474
      1709.4244       1332.0154         51.0004         46.0004
 -19421443.70143 -15090396.51442  20741241.0934   20741242.9274   20741240.2734
      -975.3334       -760.0004         52.0004         47.0004
    694913.73943    588559.55342  23835634.6534   23835640.7794   23835634.3124
     -2085.6164      -1625.1534         41.0004         37.0004
 -12412974.17043  -9622918.48042  21699446.5104   21699449.8924   21699446.1064
     -1589.7474      -1238.7674         48.0004         44.0004
 -11244261.37643  -8724996.60242  22434148.8924   22434152.4154   22434148.6534
      2540.0704       1979.2844         46.0004         41.0004
  -4416173.92443  -3398468.93442  24086973.1574   24086976.7724   24086973.0244
     -2913.3044      -2270.1104         40.0004         35.0004
  -3150304.97643  -2425942.91342  23417387.2034   23417392.2084   23417386.6824
      2134.0154       1662.8644         43.0004         38.0004
 04 12 24  1  2 30.0000000  0  8G 3G 1G19G15G14G11G22G20
 -17119519.76643 -13300331.83542  21819503.7184   21819508.6804   21819503.4424
     -2766.4774      -2155.7154         47.0004         43.0004
 -17526583.48943 -13610778.80242  20799026.3994   20799031.0244   20799026.0884
      1690.7364       1317.4454         51.0004         46.0004
 -19391896.16443 -15067372.48142  20746863.8654   20746865.6904   20746863.0244
      -994.7144       -775.1144         52.0004         47.0004
    757566.83643    637380.03942  23847557.3954   23847563.4364   23847556.7494
     -2091.3714      -1629.6354         41.0004         37.0004
 -12365012.99243  -9585546.14542  21708573.2054   21708576.5864   21708572.7934
     -1607.7094      -1252.7674         48.0004         43.0004
 -11320410.64343  -8784333.68542  22419658.2304   22419661.7024   22419657.9414
      2536.4214       1976.4264         46.0004         41.0004
  -4328786.15643  -3330374.64042  24103602.4224   24103606.3094   24103602.3084
     -2912.7544      -2269.6754         40.0004         35.0004
  -3214224.57743  -2475750.36742  23405223.7024   23405228.7174   23405223.0354
      2127.0984       1657.4744         43.0004         38.0004
 04 12 24  1  3  0.0000000  0  8G 3G 1G19G15G14G11G22G20
 -17036353.28343 -13235526.84842  21835329.7764   21835334.7854   21835329.5334
     -2778.2464      -2164.8624         47.0004         43.0004
 -17577032.33143 -13650089.57842  20789426.2204   20789430.9134   20789425.9354
      1672.4724       1303.2344         51.0004         46.0004
 -19361775.40443 -15043901.78942  20752595.6574   20752597.5364   20752594.8404
     -1013.3424       -789.6144         52.0004         47.0004
    820379.70843    686325.04842  23859510.2884   23859516.3404   23859509.6304
     -2096.5084      -1633.6444         41.0004         37.0004
 -12316517.17543  -9547757.19642  21717801.7334   21717805.0514   21717801.2614
     -1625.3314      -1266.5024         48.0004         44.0004
 -11396455.00143  -8843589.01942  22405187.3014   22405190.9304   22405187.1834
      2533.1054       1973.8394         46.0004         41.0004
  -4241413.19543  -3262291.86142  24120229.1774   24120232.7424   24120229.0964
     -2912.0804      -2269.1644         40.0004         36.0004
  -3277937.59543  -2525396.83842  23393099.4534   23393104.5254   23393098.8294
      2120.3834       1652.2484         43.0004         38.0004
 04 12 24  1  3 30.0000000  0  8G 3G 1G19G15G14G11G22G20
 -16952827.78743 -13170442.11842  21851224.2284   21851229.2424   21851223.9404
     -2790.4524      -2174.3844         47.0004         43.0004
 -17626924.17043 -13688966.32142  20779932.0984   20779936.7724   20779931.8104
      1653.4384       1288.3694         51.0004         46.0004
 -19331082.31043 -15019985.11842  20758436.4114   20758438.2634   20758435.5534
     -1033.0904       -805.0144         52.0004         47.0004
    883352.78443    735394.88342  23871493.7544   23871499.8054   23871493.1774
     -2102.2324      -1638.1054         41.0004         37.0004
 -12267488.49943  -9509553.04142  21727131.5434   21727134.9614   21727131.0914
     -1643.5514      -1280.6974         48.0004         44.0004
 -11472392.68243  -8902761.22742  22390736.7444   22390740.4724   22390736.6774
      2529.0164       1970.6444         46.0004         41.0004
  -4154055.51543  -3194221.00242  24136852.7404   24136856.3734   24136852.7244
     -2911.8914      -2269.0054         41.0004         36.0004
  -3341443.98843  -2574882.29842  23381014.5634   23381019.6644   23381013.9724
      2112.9144       1646.4224         43.0004         38.0004
 04 12 24  1  4  0.0000000  0  8G 3G 1G19G15G14G11G22G20
 -16868946.01643 -13105079.76742  21867186.3554   21867191.4964   21867186.1314
     -2802.0534      -2183.4094         47.0004         42.0004
 -17676257.34443 -13727407.74642  20770544.2244   20770549.0014   20770543.9664
      1635.1144       1274.1234         51.0004         46.0004
 -19299817.76743 -14995623.16242  20764385.8764   20764387.7424   20764385.0104
     -1051.8054       -819.5874         52.0004         47.0004
    946486.24543    784589.66942  23883507.7364   23883513.7174   23883507.1714
     -2107.4334      -1642.1504         41.0004         37.0004
 -12217929.09543  -9470935.32342  21736562.3894   21736565.7754   21736561.9674
     -1660.8934      -1294.2094         48.0004         43.0004
 -11548222.10443  -8961849.07342  22376307.0284   22376310.5704   22376306.7984
      2525.7204       1968.0914         46.0004         41.0004
  -4066714.33043  -3126162.98942  24153473.2504   24153476.7844   24153473.2864
     -2910.9984      -2268.3054         41.0004         36.0004
  -3404744.00743  -2624206.94342  23368968.9204   23368974.0514   23368968.3314
      2106.5094       1641.4384         43.0004         38.0004
 04 12 24  1  4 30.0000000  0  8G 3G 1G19G15G14G11G22G20
 -16784711.46643 -13039442.53442  21883215.7084   21883220.8554   21883215.4624
     -2813.7374      -2192.5154         47.0004         42.0004
 -17725030.95643 -13765413.14842  20761262.9504   20761267.6874   20761262.6894
      1616.3764       1259.5154         51.0004         46.0004
 -19267983.37143 -14970817.16542  20770443.7214   20770445.6564   20770442.9264
     -1070.6684       -834.2864         52.0004         47.0004
   1009779.73043    833909.16042  23895552.1914   23895558.2564   23895551.8084
     -2112.6444      -1646.2114         41.0004         37.0004
 -12167841.61143  -9431906.11742  21746093.7324   21746097.0724   21746093.3064
     -1678.3864      -1307.8434         48.0004         43.0004
 -11623942.46643  -9020851.93642  22361897.6914   22361901.5024   22361897.6294
      2522.1494       1965.3034         46.0004         41.0004
  -3979391.40643  -3058119.21542  24170090.0124   24170093.9734   24170090.2234
     -2910.4714      -2267.8944         41.0004         36.0004
  -3467838.60443  -2673371.53942  23356962.3454   23356967.3984   23356961.8054
      2099.6374       1636.0764         43.0004         38.0004
 04 12 24  1  5  0.0000000  0  8G 3G 1G19G15G14G11G22G20
 -16700126.22543 -12973532.03242  21899311.7224   21899316.9324   21899311.5644
     -2825.6394      -2201.7914         47.0004         42.0004
 -17773242.82243 -13802980.82642  20752088.5814   20752093.2454   20752088.2634
      1597.3514       1244.6964         51.0004         46.0004
 -19235579.43143 -14945567.36842  20776609.9804   20776611.9184   20776609.1854
     -1090.1104       -849.4394         52.0004         47.0004
   1073233.88943    883353.85442  23907627.1644   23907633.2114   23907626.7414
     -2117.9244      -1650.3274         42.0004         37.0004
 -12117227.43443  -9392466.50442  21755725.1834   21755728.6234   21755724.8664
     -1696.3464      -1321.8144         48.0004         43.0004
 -11699551.72643  -9079768.22342  22347509.7394   22347513.5384   22347509.6394
      2518.0684       1962.1344         46.0004         42.0004
  -3892087.18243  -2990090.03842  24186703.5944   24186707.5524   24186703.7204
     -2910.2284      -2267.7034         41.0004         36.0004
  -3530727.29343  -2722375.69042  23344994.9244   23344999.9294   23344994.4914
      2092.3714       1630.4214         43.0004         38.0004
 04 12 24  1  5 30.0000000  0  8G 3G 1G19G15G14G11G22G20
 -16615193.43343 -12907350.71642  21915473.8894   21915479.1894   21915473.7434
     -2836.8034      -2210.4944         47.0004         42.0004
 -17820891.97443 -13840110.02042  20743021.2294   20743025.8824   20743020.9094
      1578.9174       1230.3204         51.0004         46.0004
 -19202607.74143 -14919875.16942  20782884.3604   20782886.2444   20782883.5224
     -1108.4074       -863.7024         52.0004         47.0004
   1136848.17343    932923.31342  23919732.6224   23919738.8184   23919732.2504
     -2123.0244      -1654.2994         42.0004         37.0004
 -12066089.23643  -9352618.56942  21765456.4884   21765459.9154   21765456.1174
     -1713.2484      -1335.0084         48.0004         44.0004
 -11775048.65143  -9138596.98342  22333143.1064   22333146.9234   22333143.0424
      2514.7254       1959.5254         46.0004         41.0004
  -3804803.37743  -2922076.76342  24203313.3114   24203317.0504   24203313.3754
     -2909.5724      -2267.1974         41.0004         36.0004
  -3593410.77643  -2771219.93242  23333066.5644   23333071.6524   23333066.1604
      2086.0134       1625.4654         43.0004         38.0004
 04 12 24  1  6  0.0000000  0  8G 3G 1G19G15G14G11G22G20
 -16529914.99843 -12840900.06542  21931701.9574   21931707.1984   21931701.7194
     -2848.0714      -2219.2724         47.0004         42.0004
 -17867975.90143 -13876798.78942  20734061.4334   20734066.0754   20734061.1374
      1560.2084       1215.7474         51.0004         46.0004
 -19169068.39943 -14893740.65042  20789266.7764   20789268.5984   20789265.8984
     -1127.1144       -878.2654         52.0004         47.0004
   1200623.71343    982618.42042  23931868.8224   23931875.1124   23931868.3484
     -2128.3124      -1658.4144         41.0004         37.0004
 -12014428.36643  -9312363.34242  21775287.3294   21775290.6454   21775286.9184
     -1730.5684      -1348.4994         48.0004         44.0004
 -11850430.98143  -9197336.44942  22318798.3044   22318802.0144   22318798.2024
      2510.9504       1956.5824         46.0004         42.0004
  -3717540.22443  -2854079.52342  24219918.8804   24219922.5954   24219919.1394
     -2908.1684      -2266.1024         41.0004         36.0004
  -3655888.39843  -2819903.76742  23321177.4344   23321182.5924   23321176.9224
      2079.4514       1620.3494         43.0004         38.0004
 04 12 24  1  6 30.0000000  0  8G 3G 1G19G15G14G11G22G20
 -16444293.22443 -12774181.88242  21947995.2894   21948000.6014   21947995.0814
     -2859.8374      -2228.4524         47.0004         42.0004
 -17914492.83543 -13913045.73942  20725209.6384   20725214.1634   20725209.2834
      1541.0334       1200.8004         51.0004         46.0004
 -19134962.10943 -14867164.34542  20795756.9154   20795758.8354   20795756.0884
     -1146.3364       -893.2504         52.0004         47.0004
   1264560.85943   1032439.44542  23944035.8364   23944042.2094   23944035.1634
     -2133.5984      -1662.5384         41.0004         36.0004
 -11962246.58043  -9271702.21842  21785217.1734   21785220.5384   21785216.8214
     -1747.9424      -1362.0334         48.0004         43.0004
 -11925696.97943  -9255985.25742  22304475.7074   22304479.3874   22304475.4604
      2506.9394       1953.4554         46.0004         42.0004
  -3630298.38543  -2786098.93042  24236520.5954   24236524.1194   24236520.7224
     -2907.5544      -2265.6264         40.0004         36.0004
  -3718160.17743  -2868427.18742  23309327.5144   23309332.5984   23309326.9954
      2072.5014       1614.9404         43.0004         39.0004
 04 12 24  1  7  0.0000000  0  8G 3G 1G19G15G14G11G22G20
 -16358331.45443 -12707198.75942  21964353.4264   21964358.6684   21964353.1184
     -2871.1754      -2237.2824         46.0004         42.0004
 -17960441.70543 -13948850.04442  20716465.8614   20716470.4014   20716465.4914
      1522.0184       1185.9854         51.0004         46.0004
 -19100290.44643 -14840147.49142  20802354.6364   20802356.6494   20802353.8524
     -1165.3704       -908.0884         52.0004         47.0004
   1328659.47343   1082386.29642  23956233.4214   23956239.8734   23956232.7544
     -2140.0334      -1667.5504         41.0004         36.0004
 -11909546.36943  -9230637.12842  21795245.6084   21795249.0234   21795245.3034
     -1765.5904      -1375.8044         48.0004         43.0004
 -12000845.52243  -9314542.55142  22290175.4024   22290179.0824   22290175.1224
      2502.4614       1949.9664         46.0004         42.0004
  -3543079.20743  -2718136.01042  24253117.8884   24253121.4914   24253117.9474
     -2906.6124      -2264.8924         41.0004         36.0004
  -3780226.65343  -2916790.63542  23297516.6604   23297521.6824   23297516.1304
      2064.9774       1609.0684         43.0004         39.0004
 04 12 24  1  7 30.0000000  0  8G 3G 1G19G15G14G11G22G20
 -16272031.93043 -12639952.45442  21980775.6064   21980780.9334   21980775.4154
     -2882.3924      -2246.0284         46.0004         42.0004
 -18005820.90743 -13984210.44942  20707830.4344   20707835.0164   20707830.0844
      1502.9504       1171.1204         51.0004         46.0004
 -19065054.40143 -14812690.86242  20809059.8494   20809061.8804   20809059.0614
     -1184.2164       -922.7684         52.0004         47.0004
   1392919.67943   1132459.04542  23968461.8964   23968468.2824   23968461.1944
     -2145.2414      -1671.6144         41.0004         36.0004
 -11856329.69443  -9189169.59242  21805372.4534   21805375.8014   21805372.1084
     -1782.7044      -1389.1264         48.0004         43.0004
 -12075874.68443  -9373006.82042  22275897.8574   22275901.5084   22275897.6264
      2498.5514       1946.9264         46.0004         42.0004
  -3455883.56043  -2650191.42942  24269710.7054   24269714.3904   24269710.7334
     -2906.4214      -2264.7444         41.0004         36.0004
  -3842088.02743  -2964994.27042  23285744.7114   23285749.7504   23285744.2774
      2058.2164       1603.8004         43.0004         39.0004
 04 12 24  1  8  0.0000000  0  8G 3G 1G19G15G14G11G22G20
 -16185397.89743 -12572445.48742  21997261.6314   21997266.8874   21997261.4314
     -2893.4784      -2254.6574         46.0004         42.0004
 -18050629.12843 -14019125.93942  20699303.7114   20699308.2884   20699303.3764
      1483.7744       1156.1904         51.0004         46.0004
 -19029255.15743 -14784795.38042  20815872.2504   20815874.2794   20815871.4644
     -1202.9454       -937.3494         52.0004         47.0004
   1457341.46443   1182657.72342  23980720.9074   23980727.3364   23980720.3094
     -2150.0224      -1675.3434         41.0004         36.0004
 -11802598.75343  -9147301.33742  21815597.1124   21815600.4654   21815596.7764
     -1799.8494      -1402.4624         48.0004         43.0004
 -12150783.11543  -9431377.01342  22261643.2614   22261646.8824   22261643.0564
      2494.4924       1943.7614         46.0004         42.0004
  -3368712.63443  -2582266.07542  24286298.7764   24286302.4194   24286298.7854
     -2905.4414      -2263.9854         41.0004         36.0004
  -3903744.49043  -3013038.24242  23274011.9844   23274016.8434   23274011.4344
      2051.4994       1598.5704         43.0004         39.0004
 04 12 24  1  8 30.0000000  0  8G 3G 1G19G15G14G11G22G20
 -16098432.34343 -12504680.20042  22013810.6724   22013815.9694   22013810.4314
     -2904.2354      -2263.0334         46.0004         42.0004
 -18094865.31543 -14053595.68242  20690885.8574   20690890.4184   20690885.5214
      1465.1394       1141.6704         51.0004         46.0004
 -18992894.62743 -14756462.52942  20822791.4624   20822793.4874   20822790.6674
     -1221.2044       -951.5824         52.0004         47.0004
   1521924.52043   1232982.04842  23993010.8314   23993017.5684   23993010.8314
     -2155.4884      -1679.5994         41.0004         36.0004
 -11748356.28843  -9105034.48342  21825919.0594   21825922.4924   21825918.7304
     -1816.2994      -1415.2974         48.0004         43.0004
 -12225569.92843  -9489652.43942  22247411.7904   22247415.4274   22247411.5654
      2491.0284       1941.0664         46.0004         42.0004
  -3281567.86143  -2514361.09842  24302882.0514   24302885.4424   24302882.0514
     -2904.3414      -2263.1194         41.0004         36.0004
  -3965196.97243  -3060923.26742  23262317.9824   23262322.6714   23262317.3084
      2044.9144       1593.4384         43.0004         38.0004
 04 12 24  1  9  0.0000000  0  8G 3G 1G19G15G14G11G22G20
 -16011136.66343 -12436657.66742  22030422.5624   22030427.8624   22030422.2864
     -2914.9974      -2271.4184         46.0004         42.0004
 -18138526.66943 -14087617.49842  20682577.4044   20682581.9264   20682577.0714
      1446.1544       1126.8734         51.0004         46.0004
 -18955972.37743 -14727691.97042  20829817.5774   20829819.5974   20829816.7474
     -1239.7964       -966.0674         52.0004         47.0004
   1586670.43643   1283433.29442  24005332.1354   24005338.4424   24005331.4054
     -2160.4434      -1683.4444         41.0004         36.0004
 -11693603.03043  -9062369.61142  21836338.2164   21836341.6824   21836337.8984
     -1833.1674      -1428.4524         48.0004         43.0004
 -12300231.56043  -9547830.32242  22233204.1714   22233207.8034   22233203.9854
      2487.0134       1937.9414         47.0004         42.0004
  -3194448.70743  -2446476.09142  24319460.5364   24319463.6834   24319460.4494
     -2903.3824      -2262.3744         41.0004         36.0004
  -4026444.08943  -3108648.28342  23250662.9144   23250667.6774   23250662.1694
      2038.7874       1588.6684         43.0004         38.0004
 04 12 24  1  9 30.0000000  0  8G 3G 1G19G15G14G11G22G20
 -15923515.13743 -12368381.23442  22047096.4274   22047101.7524   22047096.1574
     -2926.2364      -2280.1774         46.0004         41.0004
 -18181613.35643 -14121191.53542  20674378.2724   20674382.8024   20674377.9334
      1426.4864       1111.5554         51.0004         46.0004
 -18918491.07043 -14698485.78942  20836950.0534   20836952.0654   20836949.2304
     -1258.8634       -980.9234         52.0004         47.0004
   1651578.01843   1334010.53942  24017683.4634   24017690.0834   24017682.7254
     -2166.5434      -1688.2154         41.0004         36.0004
 -11638342.64343  -9019309.58942  21846853.9674   21846857.3734   21846853.6144
     -1850.6484      -1442.0554         48.0004         43.0004
 -12374768.35243  -9605910.92342  22219020.2414   22219023.9434   22219020.0994
      2482.4754       1934.3884         47.0004         42.0004
  -3107357.70443  -2378613.02742  24336033.2354   24336036.8884   24336033.0874
     -2902.8664      -2261.9564         41.0004         36.0004
  -4087487.76743  -3156214.76442  23239046.7114   23239051.5074   23239045.9624
      2031.2364       1582.7774         43.0004         39.0004
 04 12 24  1 10  0.0000000  0  8G 3G 1G19G15G14G11G22G20
 -15835569.25243 -12299852.04842  22063831.9894   22063837.3424   22063831.6804
     -2936.1324      -2287.8844         46.0004         41.0004
 -18224122.88443 -14154315.83142  20666288.9784   20666293.4994   20666288.6324
      1408.1924       1097.3114         51.0004         46.0004
 -18880450.92643 -14668844.14842  20844188.8684   20844190.9014   20844188.0504
     -1276.6274       -994.7574         52.0004         47.0004
   1716648.27343   1384714.48342  24030065.9024   24030072.5894   24030065.1994
     -2171.0814      -1691.7524         40.0004         36.0004
 -11582576.22743  -8975855.25742  21857465.9884   21857469.4134   21857465.6294
     -1866.5104      -1454.4114         48.0004         43.0004
 -12449177.59643  -9663892.15042  22204860.7204   22204864.2374   22204860.5284
      2478.8404       1931.5714         47.0004         42.0004
  -3020294.74443  -2310771.84742  24352600.6004   24352604.7244   24352600.4874
     -2900.5974      -2260.1864         40.0004         36.0004
  -4148326.91643  -3203621.88742  23227469.3734   23227474.3004   23227468.6444
      2025.3664       1578.2044         43.0004         39.0004
 04 12 24  1 10 30.0000000  0  8G 3G 1G19G15G14G11G22G20
 -15747301.80743 -12231072.30042  22080628.7704   22080634.1424   22080628.5094
     -2947.3964      -2296.6704         46.0004         41.0004
 -18266053.79543 -14186989.26142  20658309.7914   20658314.2914   20658309.4474
      1388.1694       1081.6974         51.0004         46.0004
 -18841852.98443 -14638767.85842  20851533.8574   20851535.8684   20851533.0404
     -1295.8314      -1009.7304         52.0004         47.0004
   1781881.06943   1435545.11342  24042479.1844   24042486.1124   24042478.5644
     -2177.0984      -1696.4284         40.0004         36.0004
 -11526306.02243  -8932008.35642  21868173.8694   21868177.3154   21868173.5164
     -1883.9434      -1468.0074         48.0004         43.0004
 -12523457.58943  -9721772.64942  22190725.6334   22190729.2414   22190725.4894
      2473.8244       1927.6544         47.0004         42.0004
  -2933260.75343  -2242953.25542  24369162.7474   24369166.7064   24369162.6634
     -2900.7034      -2260.2804         41.0004         36.0004
  -4208961.84843  -3250869.84242  23215930.9674   23215935.8624   23215930.3024
      2017.9014       1572.3874         44.0004         39.0004
 04 12 24  1 11  0.0000000  0  8G 3G 1G19G15G14G11G22G20
 -15658715.72843 -12162044.27242  22097486.2344   22097491.6054   22097485.9484
     -2958.0564      -2304.9734         46.0004         41.0004
 -18307405.00443 -14219210.97442  20650440.9244   20650445.4304   20650440.5934
      1368.7754       1066.5764         51.0004         47.0004
 -18802698.83843 -14608258.16642  20858984.6724   20858986.6834   20858983.8374
     -1314.3914      -1024.1964         51.0004         47.0004
   1847276.75543   1486502.68642  24054923.6824   24054930.4024   24054922.9484
     -2182.4114      -1700.5814         40.0004         36.0004
 -11469534.41843  -8887770.77442  21878977.1894   21878980.6614   21878976.8264
     -1900.7814      -1481.1304         48.0004         43.0004
 -12597606.78543  -9779551.22942  22176615.5334   22176619.0594   22176615.3744
      2469.5894       1924.3694         47.0004         42.0004
  -2846256.87443  -2175158.08042  24385719.1574   24385722.9704   24385719.0604
     -2899.6724      -2259.4724         41.0004         37.0004
  -4269393.02143  -3297959.02842  23204431.2364   23204436.1534   23204430.5984
      2011.2354       1567.1944         43.0004         39.0004
 04 12 24  1 11 30.0000000  0  8G 3G 1G19G15G14G11G22G20
 -15569814.02343 -12092770.29842  22114403.7734   22114409.1374   22114403.4604
     -2968.3714      -2313.0074         46.0004         41.0004
 -18348175.26843 -14250980.00142  20642682.5754   20642687.0914   20642682.2324
      1349.6954       1051.7164         51.0004         46.0004
 -18762989.91543 -14577316.17242  20866541.0864   20866543.0624   20866540.2384
     -1332.4534      -1038.2674         51.0004         47.0004
   1912835.13743   1537587.02542  24067399.0734   24067405.9334   24067398.6284
     -2187.6184      -1704.6414         40.0004         36.0004
 -11412263.75743  -8843144.29842  21889875.4254   21889878.8794   21889875.0834
     -1916.9644      -1493.7254         48.0004         43.0004
 -12671623.66343  -9837226.70342  22162530.6444   22162534.0974   22162530.4324
      2465.4494       1921.1374         47.0004         42.0004
  -2759284.14743  -2107387.19142  24402269.7204   24402273.4404   24402269.6134
     -2898.0304      -2258.2074         41.0004         36.0004
  -4329620.88743  -3344889.81842  23192970.1834   23192975.0054   23192969.6354
      2004.8674       1562.2354         43.0004         39.0004
 04 12 24  1 12  0.0000000  0  8G 3G 1G19G15G14G11G22G20
 -15480599.22343 -12023252.36642  22131380.8874   22131386.2674   22131380.4964
     -2979.1524      -2321.4124         46.0004         41.0004
 -18388363.11843 -14282295.20442  20635035.1114   20635039.5724   20635034.7494
      1329.8134       1036.2154         51.0004         47.0004
 -18722727.38943 -14545942.81042  20874202.7614   20874204.8114   20874201.9904
     -1351.2584      -1052.9214         51.0004         47.0004
   1978556.52943   1588798.37342  24079905.5834   24079912.4144   24079904.9934
     -2193.3604      -1709.1014         40.0004         36.0004
 -11354495.96543  -8798130.46242  21900868.2934   21900871.7564   21900867.9524
     -1933.8134      -1506.8594         48.0004         43.0004
 -12745506.36043  -9894797.62942  22148471.1784   22148474.6514   22148471.0164
      2460.4844       1917.2704         47.0004         42.0004
  -2672343.21843  -2039641.07542  24418814.1754   24418817.7904   24418813.9284
     -2897.6984      -2257.9484         41.0004         36.0004
  -4389645.36143  -3391662.09742  23181547.9534   23181552.6864   23181547.4244
      1997.3954       1556.4164         43.0004         39.0004
 04 12 24  1 12 30.0000000  0  8G 3G 1G19G15G14G11G22G20
 -15391073.73843 -11953492.33442  22148417.0194   22148422.4844   22148416.6834
     -2989.5774      -2329.5464         46.0004         41.0004
 -18427967.14443 -14313155.48142  20627498.7284   20627503.1684   20627498.3464
      1310.0434       1020.8034         51.0004         47.0004
 -18681912.11943 -14514138.73242  20881969.6964   20881971.7294   20881968.9094
     -1369.9874      -1067.5374         51.0004         47.0004
   2044441.54043   1640137.19542  24092443.0774   24092450.2774   24092442.3944
     -2199.0654      -1713.5394         40.0004         36.0004
 -11296233.15343  -8752730.89142  21911955.4354   21911958.8494   21911955.0414
     -1950.4534      -1519.8394         47.0004         43.0004
 -12819252.94043  -9952262.47742  22134437.7034   22134441.1214   22134437.5224
      2455.8004       1913.5984         47.0004         42.0004
  -2585434.42443  -1971919.98142  24435352.4484   24435356.0904   24435352.1914
     -2896.8904      -2257.3164         41.0004         36.0004
  -4449466.39343  -3438275.86742  23170164.3084   23170169.1404   23170163.7684
      1990.3074       1550.8914         43.0004         39.0004
 04 12 24  1 13  0.0000000  0  8G 3G 1G19G15G14G11G22G20
 -15301240.81143 -11883492.72542  22165511.7064   22165517.1814   22165511.3684
     -3000.1524      -2337.7704         46.0004         41.0004
 -18466986.52743 -14343560.19342  20620073.5494   20620078.0374   20620073.2094
      1290.2654       1005.3864         51.0004         47.0004
 -18640546.24943 -14481905.62742  20889841.4624   20889843.4384   20889840.6374
     -1388.6234      -1082.0414         51.0004         47.0004
   2110489.63543   1691603.11642  24105011.7894   24105018.8754   24105010.9744
     -2205.1264      -1718.2734         40.0004         36.0004
 -11237478.06743  -8706947.72642  21923136.1894   21923139.5884   21923135.8214
     -1967.0574      -1532.7734         47.0004         43.0004
 -12892862.26343 -10009620.38942  22120430.2964   22120433.6964   22120430.1974
      2450.7624       1909.6714         47.0004         42.0004
  -2498559.38843  -1904225.22742  24451884.3714   24451888.0664   24451884.0154
     -2895.6974      -2256.3904         41.0004         36.0004
  -4509084.73043  -3484731.68442  23158819.2744   23158824.1604   23158818.7384
      1983.3694       1545.4794         44.0004         39.0004
 04 12 24  1 13 30.0000000  0  8G 3G 1G19G15G14G11G22G20
 -15211102.47043 -11813255.13942  22182664.5094   22182669.9954   22182664.1914
     -3010.1174      -2345.5504         46.0004         41.0004
 -18505419.12943 -14373507.66842  20612760.0104   20612764.5834   20612759.7004
      1270.6344        990.0974         51.0004         47.0004
 -18598629.78243 -14449243.47642  20897817.8514   20897819.9054   20897817.0624
     -1406.9194      -1096.3034         51.0004         47.0004
   2176701.65843   1743196.73742  24117611.6944   24117618.5174   24117610.7764
     -2210.4994      -1722.4664         41.0004         36.0004
 -11178232.04143  -8660782.01342  21934410.3854   21934413.7354   21934409.9854
     -1983.6124      -1545.6794         47.0004         43.0004
 -12966331.81743 -10066869.37742  22106449.4794   22106452.8874   22106449.3674
      2446.1694       1906.0974         47.0004         43.0004
  -2411717.92643  -1836556.63842  24468409.7094   24468413.5394   24468409.3634
     -2894.5404      -2255.4854         41.0004         36.0004
  -4568499.74843  -3531029.07742  23147513.0334   23147517.7924   23147512.5284
      1976.4704       1540.1054         44.0004         39.0004
 04 12 24  1 14  0.0000000  0  8G 3G 1G19G15G14G11G22G20
 -15120661.86343 -11742782.01442  22199874.7434   22199880.3904   22199874.5154
     -3019.5254      -2352.8684         46.0004         41.0004
 -18543264.25043 -14402997.37342  20605558.2864   20605562.8924   20605557.9834
      1251.7674        975.4024         51.0004         47.0004
 -18556165.03043 -14416154.09542  20905898.6474   20905900.7294   20905897.8434
     -1424.4994      -1110.0094         51.0004         47.0004
   2243077.24743   1794917.86042  24130242.5434   24130249.4084   24130241.9384
     -2215.6144      -1726.4364         40.0004         36.0004
 -11118498.07443  -8614236.07842  21945777.4114   21945780.7684   21945776.9844
     -1999.2604      -1557.8684         47.0004         43.0004
 -13039660.18243 -10124008.35342  22092495.4844   22092498.8924   22092495.4294
      2441.8994       1902.7904         47.0004         43.0004
  -2324911.56143  -1768915.37542  24484928.2864   24484932.2624   24484928.0584
     -2892.9814      -2254.2674         41.0004         36.0004
  -4627712.42343  -3577168.79542  23136245.1854   23136250.1214   23136244.7024
      1970.5134       1535.4594         44.0004         39.0004
 04 12 24  1 14 30.0000000  0  8G 3G 1G19G15G14G11G22G20
 -15029922.39243 -11672075.99742  22217141.9324   22217147.5734   22217141.7324
     -3029.5594      -2360.6904         46.0004         41.0004
 -18580521.26943 -14432028.80942  20598468.4754   20598473.1064   20598468.1934
      1232.3754        960.2924         51.0004         47.0004
 -18513153.72543 -14382638.83042  20914083.4894   20914085.5414   20914082.6964
     -1442.4484      -1123.9794         51.0004         47.0004
   2309615.90843   1846766.03042  24142904.6584   24142911.5114   24142903.9134
     -2220.2974      -1730.0974         40.0004         36.0004
 -11058278.71043  -8567311.92842  21957236.7304   21957240.1204   21957236.3154
     -2015.0954      -1570.1974         47.0004         43.0004
 -13112846.39343 -10181036.55842  22078568.6864   22078572.0664   22078568.5914
      2437.2884       1899.1904         47.0004         43.0004
  -2238141.70543  -1701302.56542  24501439.9494   24501444.0654   24501439.8074
     -2891.4324      -2253.0744         40.0004         36.0004
  -4686723.46643  -3623151.39942  23125015.6154   23125020.6874   23125015.2114
      1964.0124       1530.3974         44.0004         39.0004
                            4  1
RINEX FILE SPLICE; other post-header comments skipped       COMMENT
 04 12 24  1 15  0.0000000  0  8G 3G 1G19G15G14G11G22G20
 -14938886.17843 -11601138.76142  22234465.6664   22234471.3144   22234465.4754
     -3039.5074      -2368.4444         46.0004         41.0004
 -18617188.33143 -14460600.54742  20591490.9384   20591495.6114   20591490.6874
      1212.4614        944.7874         51.0004         47.0004
 -18469596.72343 -14348698.34542  20922372.1044   20922374.1884   20922371.3264
     -1461.0464      -1138.4704         51.0004         47.0004
   2376318.47843   1898741.89542  24155597.8304   24155604.8514   24155597.0674
     -2226.2804      -1734.7634         41.0004         36.0004
 -10997575.84443  -8520011.01442  21968788.0364   21968791.5284   21968787.6404
     -2031.3284      -1582.8524         47.0004         43.0004
 -13185887.98743 -10237952.08242  22064669.2304   22064672.7344   22064669.1994
      2432.3984       1895.3904         47.0004         43.0004
  -2151408.56243  -1633718.35142  24517944.9074   24517948.9154   24517944.6614
     -2890.2854      -2252.1694         40.0004         36.0004
  -4745532.30543  -3668976.44142  23113824.7844   23113829.6974   23113824.2574
      1957.0404       1524.9644         44.0004         39.0004
 04 12 24  1 15 30.0000000  0  8G 3G 1G19G15G14G11G22G20
 -14847555.99543 -11529972.46142  22251845.2764   22251850.9604   22251845.0854
     -3050.0684      -2376.6734         46.0004         41.0004
 -18653264.29743 -14488711.68942  20584625.9194   20584630.5654   20584625.6414
      1192.1044        928.9034         51.0004         47.0004
 -18425495.48843 -14314333.78342  20930764.2644   20930766.3904   20930763.5124
     -1479.7184      -1153.0434         51.0004         47.0004
   2443184.92643   1950845.49242  24168322.0844   24168329.3094   24168321.3514
     -2232.1064      -1739.3094         40.0004         36.0004
 -10936391.99943  -8472335.32442  21980430.9414   21980434.4624   21980430.5434
     -2047.8844      -1595.7584         47.0004         43.0004
 -13258783.42143 -10294753.70542  22050797.7004   22050801.2284   22050797.5764
      2426.6664       1890.9004         47.0004         43.0004
  -2064712.78243  -1566163.23242  24534442.7194   24534446.8204   24534442.5764
     -2889.2194      -2251.3494         40.0004         36.0004
  -4804139.31343  -3714644.21942  23102672.1214   23102677.0654   23102671.6804
      1949.5434       1519.1214         44.0004         39.0004
 04 12 24  1 16  0.0000000  0  8G 3G 1G19G15G14G11G22G20
 -14755934.87443 -11458579.44942  22269280.3104   22269285.8634   22269280.0534
     -3058.6934      -2383.3934         45.0004         41.0004
 -18688748.40343 -14516361.63442  20577873.5114   20577878.1844   20577873.2084
      1173.2544        914.2234         51.0004         47.0004
 -18380851.66543 -14279546.42342  20939259.7624   20939261.8694   20939258.9684
     -1496.8874      -1166.4104         51.0004         47.0004
   2510215.19143   2003076.70642  24181077.5314   24181084.6314   24181076.8074
     -2237.1514      -1743.2214         40.0004         36.0004
 -10874729.31843  -8424286.50242  21992164.9804   21992168.4914   21992164.6194
     -2062.9974      -1607.5284         47.0004         42.0004
 -13331531.01343 -10351440.14042  22036954.3154   22036957.7124   22036954.1864
      2422.6334       1887.7604         47.0004         43.0004
  -1978055.37243  -1498638.05542  24550933.0664   24550937.2774   24550932.9934
     -2887.3874      -2249.9134         40.0004         36.0004
  -4862545.02843  -3760155.12542  23091557.8824   23091562.7704   23091557.3954
      1943.8604       1514.6934         44.0004         39.0004
 04 12 24  1 16 30.0000000  0  8G 3G 1G19G15G14G11G22G20
 -14664025.60343 -11386961.90842  22286770.2174   22286775.6984   22286769.8944
     -3068.4624      -2391.0134         45.0004         41.0004
 -18723639.55043 -14543549.54242  20571233.9474   20571238.6444   20571233.6444
      1153.0704        898.4944         51.0004         47.0004
 -18335666.84943 -14244337.51742  20947858.1054   20947860.3384   20947857.3194
     -1515.1964      -1180.6874         51.0004         46.0004
   2577409.11543   2055435.47042  24193864.1934   24193871.3064   24193863.5604
     -2242.5784      -1747.4624         41.0004         36.0004
 -10812590.29143  -8375866.51542  22003989.6734   22003993.2144   22003989.3244
     -2079.1474      -1620.1124         47.0004         42.0004
 -13404129.19443 -10408010.14042  22023139.3484   22023142.7204   22023139.2394
      2417.4124       1883.6834         47.0004         43.0004
  -1891437.13043  -1431143.42842  24567415.8084   24567420.2894   24567415.8914
     -2886.7754      -2249.4544         40.0004         35.0004
  -4920749.83643  -3805509.49342  23080481.7544   23080486.7024   23080481.2424
      1936.9994       1509.3434         44.0004         39.0004
 04 12 24  1 17  0.0000000  0  8G 3G 1G19G15G14G11G22G20
 -14571830.65243 -11315121.77242  22304314.3064   22304319.9434   22304314.0424
     -3077.9534      -2398.4044         45.0004         41.0004
 -18757936.38643 -14570274.35242  20564707.5514   20564712.1754   20564707.2194
      1133.2984        883.0824         51.0004         47.0004
 -18289942.19343 -14208707.94942  20956559.1974   20956561.4924   20956558.4574
     -1533.1984      -1194.7114         51.0004         46.0004
   2644767.42543   2107922.31042  24206682.2594   24206689.5834   24206681.5614
     -2247.8884      -1751.5984         40.0004         36.0004
 -10749977.02943  -8327076.99242  22015904.5734   22015908.0694   22015904.2174
     -2095.0064      -1632.4684         47.0004         42.0004
 -13476575.62243 -10464461.90242  22009353.3134   22009356.5534   22009353.1554
      2412.2894       1879.7074         48.0004         43.0004
  -1804858.63343  -1363679.75342  24583891.2594   24583895.4054   24583891.4224
     -2885.4874      -2248.4204         39.0004         35.0004
  -4978753.56943  -3850707.17742  23069444.0094   23069448.8894   23069443.5484
      1930.1404       1504.0034         44.0004         39.0004
 04 12 24  1 17 30.0000000  0  8G 3G 1G19G15G14G11G22G20
 -14479352.96143 -11243061.31442  22321912.1694   22321917.9234   22321912.0144
     -3087.5174      -2405.8514         45.0004         41.0004
 -18791637.70543 -14596535.11942  20558294.4184   20558298.9924   20558294.0564
      1113.3544        867.5514         51.0004         47.0004
 -18243678.97243 -14172658.72342  20965362.7784   20965365.1194   20965362.0574
     -1551.1264      -1208.6694         51.0004         46.0004
   2712290.35543   2160537.40342  24219531.7684   24219538.8414   24219530.8794
     -2253.9104      -1756.2934         40.0004         36.0004
 -10686891.73543  -8277919.65942  22027909.2824   22027912.8824   22027908.9374
     -2110.5584      -1644.5774         47.0004         42.0004
 -13548868.41843 -10520793.93842  21995596.4594   21995599.6844   21995596.3494
      2407.0614       1875.6314         48.0004         43.0004
  -1718320.56743  -1296247.58542  24600358.7314   24600363.0174   24600359.1634
     -2884.1094      -2247.3634         40.0004         35.0004
  -5036556.26143  -3895748.20042  23058444.5094   23058449.4384   23058444.0754
      1923.4704       1498.8064         44.0004         39.0004
 04 12 24  1 18  0.0000000  0  8G 3G 1G19G15G14G11G22G20
 -14386595.55843 -11170782.89142  22339563.3164   22339569.0954   22339563.1854
     -3096.6164      -2412.9444         45.0004         40.0004
 -18824742.91443 -14622331.38842  20551994.6644   20551999.2664   20551994.3284
      1093.6274        852.1824         51.0004         47.0004
 -18196879.30543 -14136191.49042  20974268.4494   20974270.8344   20974267.7234
     -1569.0014      -1222.5934         51.0004         46.0004
   2779977.30843   2213280.32842  24232412.1104   24232419.4664   24232411.4164
     -2259.0084      -1760.2624         40.0004         36.0004
 -10623337.35543  -8228396.78942  22040003.4494   22040006.8204   22040003.0234
     -2126.3444      -1656.8904         47.0004         42.0004
 -13621006.37543 -10577005.31642  21981869.0574   21981872.2784   21981868.9174
      2402.1094       1871.7844         48.0004         43.0004
  -1631823.97743  -1228847.71942  24616818.5374   24616822.9024   24616818.7164
     -2882.4844      -2246.0844         40.0004         36.0004
  -5094158.84743  -3940633.29242  23047483.0584   23047488.0774   23047482.6044
      1916.7294       1493.5514         44.0004         39.0004
 04 12 24  1 18 30.0000000  0  8G 3G 1G19G15G14G11G22G20
 -14293561.15343 -11098288.64842  22357267.1484   22357273.0274   22357267.0634
     -3105.3964      -2419.7814         45.0004         40.0004
 -18857250.76643 -14647662.18442  20545808.5784   20545813.2304   20545808.2814
      1074.0574        836.9424         51.0004         47.0004
 -18149544.52643 -14099307.29142  20983275.9944   20983278.3484   20983275.2304
     -1586.1744      -1235.9724         51.0004         46.0004
   2847828.52843   2266151.23942  24245323.8904   24245331.2584   24245323.5094
     -2264.0164      -1764.1574         40.0004         36.0004
 -10559315.98143  -8178510.03642  22052186.2614   22052189.7324   22052185.9324
     -2141.4834      -1668.6884         47.0004         42.0004
 -13692987.54843 -10633094.53242  21968171.4024   21968174.7214   21968171.3174
      2396.9664       1867.7704         48.0004         43.0004
  -1545369.41643  -1161480.61342  24633270.2984   24633274.6534   24633270.5174
     -2880.7354      -2244.7154         41.0004         36.0004
  -5151561.18843  -3985362.35942  23036559.8034   23036564.7094   23036559.3364
      1910.6024       1488.7864         44.0004         39.0004
 04 12 24  1 19  0.0000000  0  8G 3G 1G19G15G14G11G22G20
 -14200251.69143 -11025580.07142  22375023.4664   22375029.3084   22375023.3644
     -3114.6204      -2426.9694         45.0004         40.0004
 -18889159.77343 -14672526.34642  20539736.4934   20539741.1384   20539736.2164
      1053.9744        821.2984         51.0004         47.0004
 -18101675.67943 -14062006.93442  20992385.2074   20992387.5134   20992384.4114
     -1604.2334      -1250.0384         51.0004         46.0004
   2915844.90343   2319150.85642  24258266.8234   24258274.3174   24258266.5024
     -2269.9034      -1768.7514         40.0004         35.0004
 -10494829.30743  -8128260.71142  22064457.6314   22064461.1454   22064457.3234
     -2157.0144      -1680.7874         47.0004         42.0004
 -13764809.23043 -10689059.46342  21954504.2174   21954507.5454   21954504.1234
      2391.6524       1863.6354         48.0004         43.0004
  -1458956.92943  -1094146.27342  24649714.1794   24649718.5154   24649714.3554
     -2879.2704      -2243.5854         41.0004         36.0004
  -5208762.99443  -4029935.16442  23025674.6134   23025679.5094   23025674.1664
      1903.5944       1483.3264         44.0004         39.0004
 04 12 24  1 19 30.0000000  0  8G 3G 1G19G15G14G11G22G20
 -14106671.55643 -10952660.55942  22392831.2424   22392837.0214   22392831.1684
     -3123.5824      -2433.9564         45.0004         40.0004
 -18920470.38043 -14696924.22142  20533778.3524   20533782.9244   20533778.0054
      1033.8334        805.5934         51.0004         47.0004
 -18053275.56243 -14024292.60342  21001595.4514   21001597.7704   21001594.6994
     -1622.0724      -1263.9454         51.0004         46.0004
   2984024.85543   2372277.93742  24271241.2434   24271248.7934   24271240.9264
     -2275.7094      -1773.2874         40.0004         36.0004
 -10429881.07343  -8077651.73642  22076816.9924   22076820.4544   22076816.6664
     -2172.3084      -1692.7084         47.0004         42.0004
 -13836471.15743 -10744899.91542  21940867.3994   21940870.7554   21940867.2814
      2386.3734       1859.5194         48.0004         43.0004
  -1372588.61743  -1026846.36442  24666149.6784   24666153.6614   24666149.9534
     -2877.9004      -2242.5304         40.0004         36.0004
  -5265766.17343  -4074353.18942  23014827.3074   23014832.0344   23014826.7904
      1897.0824       1478.2444         44.0004         39.0004
 04 12 24  1 20  0.0000000  0  8G 3G 1G19G15G14G11G22G20
 -14012822.32343 -10879531.37542  22410690.2894   22410695.9244   22410690.2104
     -3132.5004      -2440.9074         45.0004         40.0004
 -18951180.43943 -14720854.14442  20527934.4114   20527938.9804   20527934.0824
      1014.0084        790.1394         51.0004         47.0004
 -18004344.62443 -13986164.64742  21010906.7524   21010909.0564   21010906.0034
     -1639.4904      -1277.5194         51.0004         46.0004
   3052369.98743   2425533.71142  24284247.0584   24284254.7064   24284246.8584
     -2281.2034      -1777.5524         40.0004         36.0004
 -10364472.60943  -8026684.14642  22089263.8134   22089267.2964   22089263.4664
     -2187.6054      -1704.6164         47.0004         42.0004
 -13907970.39243 -10800613.59242  21927261.5874   21927264.8304   21927261.4544
      2380.9284       1855.2584         48.0004         43.0004
  -1286264.09343   -959580.58742  24682576.6734   24682581.0594   24682576.7994
     -2876.3114      -2241.2774         40.0004         35.0004
  -5322569.45443  -4118615.46642  23004017.9214   23004022.6604   23004017.4234
      1890.4784       1473.0974         44.0004         39.0004
 04 12 24  1 20 30.0000000  0  8G 3G 1G19G15G14G11G22G20
 -13918707.53143 -10806195.27042  22428599.9834   22428605.4484   22428599.7864
     -3141.6704      -2448.0464         45.0004         40.0004
 -18981290.06143 -14744316.18542  20522204.7794   20522209.2884   20522204.4214
       993.3944        774.0674         51.0004         47.0004
 -17954885.58343 -13947625.17242  21020318.5084   21020320.8394   21020317.7714
     -1657.6424      -1291.6724         51.0004         46.0004
   3120879.04743   2478917.21442  24297284.1284   24297291.6564   24297283.7104
     -2286.4874      -1781.6744         40.0004         36.0004
 -10298607.40043  -7975360.63242  22101797.5514   22101800.9984   22101797.2004
     -2203.3184      -1716.8714         47.0004         42.0004
 -13979306.04843 -10856199.80042  21913686.8784   21913690.0834   21913686.7364
      2374.8194       1850.5044         48.0004         43.0004
  -1199984.91143   -892350.11242  24698995.2894   24698999.4744   24698995.2784
     -2875.3834      -2240.5494         40.0004         35.0004
  -5379174.52843  -4162723.28642  22993246.3854   22993250.9324   22993245.8774
      1883.3384       1467.5354         44.0004         40.0004
 04 12 24  1 21  0.0000000  0  8G 3G 1G19G15G14G11G22G20
 -13824329.80443 -10732654.26242  22446559.5544   22446565.0414   22446559.3484
     -3150.2904      -2454.7774         45.0004         40.0004
 -19010797.86443 -14767309.27842  20516589.5724   20516594.1464   20516589.2464
       973.5344        758.5974         51.0004         47.0004
 -17904899.41243 -13908674.95642  21029830.6314   21029832.9624   21029829.8614
     -1674.9564      -1305.1674         51.0004         46.0004
   3189552.54743   2532428.90442  24310352.4774   24310359.9874   24310352.0014
     -2291.6034      -1785.6674         41.0004         36.0004
 -10232287.29743  -7923682.66342  22114417.8934   22114421.3314   22114417.5744
     -2218.2414      -1728.4974         47.0004         42.0004
 -14050475.76543 -10911656.72042  21900143.7124   21900146.9354   21900143.5524
      2369.6374       1846.4634         48.0004         43.0004
  -1113751.43443   -825155.26642  24715405.0944   24715409.2034   24715404.9154
     -2873.5124      -2239.1054         40.0004         35.0004
  -5435580.86443  -4206676.23042  22982512.6624   22982517.2244   22982512.1544
      1876.9284       1462.5364         44.0004         40.0004
 04 12 24  1 21 30.0000000  0  8G 3G 1G19G15G14G11G22G20
 -13729691.45943 -10658910.18842  22464568.6584   22464574.2324   22464568.4304
     -3159.3624      -2461.8394         45.0004         40.0004
 -19039702.45043 -14789832.33442  20511089.2374   20511093.7904   20511088.9044
       953.0574        742.6464         51.0004         47.0004
 -17854387.61743 -13869315.15642  21039442.7394   21039445.0504   21039441.9634
     -1692.8424      -1319.1104         51.0004         46.0004
   3258391.25343   2586069.28442  24323452.3354   24323459.5574   24323451.8324
     -2297.8494      -1790.5184         40.0004         36.0004
 -10165514.06843  -7871651.61142  22127124.5054   22127127.9104   22127124.1174
     -2233.8854      -1740.6864         47.0004         42.0004
 -14121477.41043 -10966982.65942  21886632.4354   21886635.7784   21886632.3764
      2363.5724       1841.7414         48.0004         43.0004
  -1027563.70943   -757996.02942  24731806.1054   24731810.0224   24731805.9234
     -2872.3004      -2238.1444         40.0004         35.0004
  -5491788.26843  -4250474.18542  22971816.7984   22971821.2374   22971816.3064
      1869.9174       1457.0764         44.0004         40.0004
 04 12 24  1 22  0.0000000  0  8G 3G 1G19G15G14G11G22G20
 -13634796.33043 -10584966.03442  22482626.6114   22482632.3334   22482626.4514
     -3166.9384      -2467.7324         45.0004         40.0004
 -19068004.11543 -14811885.58042  20505703.6114   20505708.1384   20505703.3114
       933.6664        727.5514         51.0004         47.0004
 -17803352.71343 -13829547.74042  21049154.3934   21049156.6614   21049153.6114
     -1709.4584      -1332.0464         51.0004         46.0004
   3327394.10543   2639837.58242  24336583.2894   24336590.4374   24336582.7954
     -2302.4444      -1794.0974         40.0004         35.0004
 -10098291.44243  -7819270.37642  22139916.6564   22139920.0124   22139916.2424
     -2247.8314      -1751.5494         47.0004         42.0004
 -14192310.07243 -11022176.93042  21873153.5354   21873156.7404   21873153.3874
      2358.7874       1838.0314         48.0004         43.0004
   -941423.46643   -690873.79942  24748198.2264   24748201.8214   24748197.8114
     -2870.1884      -2236.4994         39.0004         34.0004
  -5547798.11143  -4294118.19442  22961158.5694   22961162.9414   22961158.0344
      1864.2794       1452.6854         44.0004         40.0004
 04 12 24  1 22 30.0000000  0  8G 3G 1G19G15G14G11G22G20
 -13539646.78443 -10510823.62042  22500733.0034   22500738.8144   22500732.8914
     -3176.0634      -2474.8484         45.0004         40.0004
 -19095701.58443 -14833468.02242  20500432.9584   20500437.4864   20500432.6484
       913.0744        711.4924         51.0004         47.0004
 -17751796.10343 -13789373.80242  21058965.3284   21058967.5924   21058964.5544
     -1727.4624      -1346.0704         51.0004         46.0004
   3396561.41343   2693734.03342  24349745.5414   24349752.6384   24349745.0974
     -2308.7244      -1799.0064         40.0004         35.0004
 -10030621.42743  -7766540.53442  22152793.6984   22152797.2304   22152793.3504
     -2263.2284      -1763.5454         46.0004         41.0004
 -14262971.42643 -11077237.71942  21859707.0804   21859710.2264   21859706.9474
      2352.3294       1833.0054         48.0004         43.0004
   -855330.93443   -623788.80342  24764581.2084   24764584.8514   24764580.8174
     -2869.0814      -2235.6494         39.0004         34.0004
  -5603610.44343  -4337608.29042  22950537.7924   22950542.1884   22950537.2644
      1856.8974       1446.9304         44.0004         40.0004
 04 12 24  1 23  0.0000000  0  8G 3G 1G19G15G14G11G22G20
 -13444245.13543 -10436484.75642  22518887.4504   22518893.1834   22518887.3484
     -3184.6274      -2481.5234         45.0004         40.0004
 -19122793.60543 -14854578.68542  20495277.5144   20495282.0524   20495277.2004
       892.5864        695.5104         51.0004         47.0004
 -17699719.02843 -13748794.30742  21068875.3484   21068877.5764   21068874.5594
     -1744.9134      -1359.6764         51.0004         46.0004
   3465893.76543   2747759.13442  24362939.2204   24362946.5474   24362938.6594
     -2314.1524      -1803.2404         40.0004         35.0004
  -9962506.07643  -7713463.68042  22165755.6024   22165759.1784   22165755.1924
     -2278.4064      -1775.3774         46.0004         42.0004
 -14333458.91043 -11132163.02242  21846293.7464   21846296.8414   21846293.6204
      2346.1744       1828.1794         48.0004         43.0004
                   -556740.95742  24780954.650    24780959.0024
                     -2234.9844                         34.0004
  -5659224.99343  -4380944.26342  22939954.7044   22939959.1174   22939954.1174
      1850.1274       1441.6544         44.0004         40.0004
 04 12 24  1 23 30.0000000  0  8G 3G 1G19G15G14G11G22G20
 -13348594.69943 -10361952.03842  22537089.2404   22537094.9444   22537089.0894
     -3192.1204      -2487.3644         45.0004         40.0004
 -19149279.91543 -14875217.36942  20490237.2844   20490241.8954   20490237.0024
       873.0514        680.2974         51.0004         47.0004
 -17647123.40043 -13707810.74342  21078884.0524   21078886.2204   21078883.2304
     -1761.5954      -1372.6724         51.0004         46.0004
   3535390.72443   2801912.43142  24376164.0434   24376171.1854   24376163.4354
     -2319.2094      -1807.1954         39.0004         35.0004
  -9893948.24243  -7660042.02342  22178801.7474   22178805.3354   22178801.3774
     -2292.4594      -1786.3254         46.0004         42.0004
 -14403771.28643 -11186951.86642  21832913.8414   21832916.7844   21832913.6664
      2341.0054       1824.1544         48.0004         43.0004
   -683290.13043   -489731.16142  24797318.9554   24797324.4784   24797318.4874
     -2865.2264      -2232.6474         38.0004         33.0004
  -5714642.35543  -4424126.59842  22929409.0424   22929413.5744   22929408.4754
      1844.1784       1437.0144         44.0004         40.0004
 04 12 24  1 24  0.0000000  0  8G 3G 1G19G15G14G11G22G20
 -13252698.74043 -10287228.00642  22555337.6914   22555343.3924   22555337.4884
     -3200.1544      -2493.6264         45.0004         40.0004
 -19175160.32843 -14895383.92442  20485312.4904   20485317.0074   20485312.1584
       852.9924        664.6704         51.0004         47.0004
 -17594011.87143 -13666425.17142  21088990.8094   21088992.9914   21088990.0184
     -1778.5504      -1385.8854         50.0004         46.0004
   3605051.69943   2856193.52442  24389420.1754   24389427.4014   24389419.5384
     -2324.2794      -1811.1234         40.0004         35.0004
  -9824950.84443  -7606277.85742  22191931.5614   22191935.1644   22191931.1984
     -2306.7044      -1797.4334         46.0004         42.0004
 -14473907.29943 -11241603.29442  21819567.3664   21819570.3804   21819567.1974
      2335.3914       1819.7834         48.0004         43.0004
   -597344.33543   -422760.49542  24813673.8354   24813678.5634   24813673.5334
     -2863.3744      -2231.2014         38.0004         33.0004
  -5769863.46843  -4467156.00342  22918900.7564   22918905.2274   22918900.2564
      1837.9834       1432.1904         44.0004         40.0004
 04 12 24  1 24 30.0000000  0  8G 3G 1G19G15G14G11G22G20
 -13156559.38243 -10212314.30742  22573632.3504   22573638.2174   22573632.2164
     -3208.5944      -2500.1954         44.0004         40.0004
 -19200433.22743 -14915077.08942  20480503.2254   20480507.6964   20480502.9074
       832.3374        648.5744         51.0004         47.0004
 -17540385.23643 -13624638.22942  21099195.6714   21099197.8504   21099194.8704
     -1796.1254      -1399.5724         50.0004         46.0004
   3674877.71543   2910603.23442  24402707.7314   24402715.1694   24402707.1854
     -2330.5764      -1816.0244         40.0004         36.0004
  -9755515.69243  -7552172.57742  22205144.6444   22205148.2434   22205144.2984
     -2321.7304      -1809.1424         46.0004         42.0004
 -14543863.90543 -11296114.92242  21806255.0714   21806258.0954   21806254.8774
      2328.9764       1814.7864         48.0004         43.0004
   -511448.32143   -355828.62042  24830019.2784   24830024.1464   24830019.2474
     -2862.4574      -2230.4694         38.0004         34.0004
  -5824887.74843  -4510032.03142  22908429.9994   22908434.3854   22908429.4794
      1830.8714       1426.6504         44.0004         40.0004
 04 12 24  1 25  0.0000000  0  8G 3G 1G19G15G14G11G22G20
 -13060180.16543 -10137213.70842  22591972.7534   22591978.7494   22591972.5744
     -3216.2044      -2506.1284         44.0004         40.0004
 -19225098.64043 -14934296.88942  20475809.4814   20475814.0144   20475809.2054
       812.3454        633.0014         51.0004         47.0004
 -17486245.98043 -13582451.83842  21109498.1134   21109500.2654   21109497.2864
     -1812.8354      -1412.5934         50.0004         46.0004
   3744867.95743   2965140.91542  24416026.6864   24416034.0754   24416025.9794
     -2335.6024      -1819.9494         40.0004         36.0004
  -9685645.76643  -7497728.52342  22218440.4904   22218444.0594   22218440.1364
     -2335.7594      -1820.0754         46.0004         41.0004
 -14613640.02943 -11350485.90942  21792977.0414   21792980.1044   21792976.9214
      2323.2274       1810.3104         48.0004         43.0004
   -425603.51843   -288936.63542  24846355.2144   24846359.7724   24846355.1534
     -2860.4554      -2228.9344         38.0004         34.0004
  -5879716.48443  -4552755.69342  22897996.4034   22898000.5994   22897995.9024
      1824.9344       1422.0264         44.0004         40.0004
 04 12 24  1 25 30.0000000  0  8G 3G 1G19G15G14G11G22G20
 -12963563.88043 -10061928.39342  22610358.2134   22610364.4234   22610358.1314
     -3224.7054      -2512.7554         44.0004         40.0004
 -19249156.07443 -14953042.94542  20471231.4534   20471236.0384   20471231.2064
       791.4854        616.7334         51.0004         47.0004
 -17431596.02043 -13539867.49342  21119897.7374   21119899.8524   21119896.8784
     -1830.2994      -1426.1964         50.0004         46.0004
   3815022.35243   3019806.51942  24429376.7504   24429384.0004   24429376.0314
     -2341.7194      -1824.6964         40.0004         35.0004
  -9615343.79543  -7442947.81342  22231818.4354   22231822.0614   22231818.0944
     -2350.9704      -1831.9154         46.0004         41.0004
 -14683234.08043 -11404715.02242  21779733.6964   21779736.8104   21779733.5944
      2316.3964       1804.9844         48.0004         43.0004
   -339810.46943   -222084.94742  24862681.3594   24862685.9064   24862680.9944
     -2858.8894      -2227.7304         38.0004         34.0004
  -5934349.84643  -4595327.11042  22887599.9804   22887604.2004   22887599.4684
      1817.6074       1416.3194         44.0004         40.0004
 04 12 24  1 26  0.0000000  0  8G 3G 1G19G15G14G11G22G20
 -12866713.03043  -9986460.29442  22628788.4294   22628794.5844   22628788.3044
     -3232.9934      -2519.2164         44.0004         40.0004
 -19272604.50443 -14971314.44542  20466769.3684   20466773.9124   20466769.1374
       770.6894        600.5254         51.0004         47.0004
 -17376436.64543 -13496886.20642  21130394.2304   21130396.3944   21130393.3784
     -1847.8064      -1439.8714         50.0004         46.0004
   3885341.42943   3074600.45942  24442758.1374   24442765.5294   24442757.4884
     -2347.4364      -1829.1714         40.0004         35.0004
  -9544611.80243  -7387832.01642  22245278.3524   22245281.9734   22245277.9374
     -2365.6604      -1843.3704         46.0004         41.0004
 -14752643.47143 -11458800.24242  21766525.5764   21766528.6634   21766525.4214
      2309.7904       1799.8334         48.0004         43.0004
   -254069.09943   -155273.56042  24878997.3574   24879002.3394   24878996.7714
     -2857.8904      -2226.9484         38.0004         34.0004
  -5988787.64243  -4637746.14842  22877240.6934   22877244.9974   22877240.2084
      1810.4184       1410.7114         44.0004         40.0004
 04 12 24  1 26 30.0000000  0  8G 3G 1G19G15G14G11G22G20
 -12769630.11543  -9910811.36342  22647262.8284   22647268.9744   22647262.5794
     -3240.0004      -2524.6754         44.0004         40.0004
 -19295443.14943 -14989110.78742  20462423.3314   20462427.9004   20462423.0924
       750.8094        585.0364         51.0004         47.0004
 -17320769.66643 -13453509.38042  21140987.2524   21140989.5114   21140986.4384
     -1864.2464      -1452.6674         50.0004         46.0004
   3955825.33743   3129522.84342  24456170.9624   24456178.3924   24456170.3274
     -2352.3274      -1832.9684         39.0004         35.0004
  -9473452.09543  -7332382.93642  22258819.6424   22258823.2724   22258819.2294
     -2379.3084      -1854.0074         46.0004         41.0004
 -14821866.13143 -11512739.97142  21753352.9254   21753356.0154   21753352.7244
      2304.0024       1795.2934         48.0004         43.0004
                    -88502.93242  24895303.210    24895308.1424
                     -2225.1924                         32.0004
  -6043030.07143  -4680012.93942  22866918.7504   22866923.0004   22866918.2184
      1804.4454       1406.0614         44.0004         40.0004
 04 12 24  1 27  0.0000000  0  8G 3G 1G19G15G14G11G22G20
 -12672319.23943  -9834984.78942  22665780.5304   22665786.7524   22665780.3794
     -3246.7894      -2529.9674         44.0004         40.0004
 -19317672.72043 -15006432.53042  20458193.1984   20458197.7614   20458192.9614
       731.4694        569.9854         51.0004         47.0004
 -17264598.16643 -13409739.42042  21151676.3034   21151678.6134   21151675.5334
     -1880.1284      -1465.0344         50.0004         46.0004
   4026472.59643   3184572.50642  24469614.6934   24469622.2714   24469614.1114
     -2357.3044      -1836.8654         39.0004         35.0004
  -9401868.64443  -7276603.66042  22272441.5524   22272445.1744   22272441.1644
     -2392.3134      -1864.1344         46.0004         41.0004
 -14890901.40643 -11566533.68042  21740215.9014   21740219.0574   21740215.7344
      2298.7754       1791.2724         48.0004         44.0004
    -82745.10143    -21774.49642  24911598.8784   24911604.8704   24911594.9504
     -2855.3694      -2223.0824         37.0004         32.0004
  -6097078.67443  -4722128.69642  22856633.5534   22856637.9664   22856633.0514
      1799.0524       1401.8604         44.0004         40.0004
 04 12 24  1 27 30.0000000  0  8G 3G 1G19G15G14G11G22G20
 -12574781.99343  -9758981.83942  22684341.2944   22684347.5354   22684341.2284
     -3255.8684      -2537.0394         44.0004         40.0004
 -19339291.21943 -15023278.10742  20454079.3804   20454083.8864   20454079.0824
       709.4874        552.8354         51.0004         47.0004
 -17207922.76643 -13365576.81642  21162461.3044   21162463.6054   21162460.5374
     -1898.3644      -1479.2554         50.0004         46.0004
   4097284.75343   3239750.64642  24483089.7774   24483097.3634   24483089.3964
     -2363.9164      -1841.9914         39.0004         34.0004
  -9329862.50043  -7220495.02642  22286143.8704   22286147.5124   22286143.5364
     -2407.9474      -1876.3254         46.0004         41.0004
 -14959746.12143 -11620178.90642  21727115.2004   21727118.2974   21727115.0274
      2290.6554       1784.8994         48.0004         44.0004
      2836.48543     44912.42842  24927884.7734   24927892.2494   24927882.4454
     -2852.5164      -2222.7224         37.0004         32.0004
  -6150932.49243  -4764092.68942  22846385.5524   22846389.9414   22846385.0034
      1791.1354       1395.6884         44.0004         40.0004
 04 12 24  1 28  0.0000000  0  8G 3G 1G19G15G14G11G22G20
 -12477021.94343  -9682805.27042  22702944.4744   22702950.6934   22702944.4534
     -3262.3994      -2542.1304         44.0004         40.0004
 -19360299.08543 -15039647.87542  20450081.6904   20450086.2194   20450081.4144
       689.9054        537.6004         51.0004         47.0004
 -17150746.32343 -13321023.78442  21173341.5684   21173343.9514   21173340.8294
     -1914.4894      -1491.8134         50.0004         46.0004
   4168261.15643   3295056.76542  24496596.3124   24496603.8364   24496595.8694
     -2369.0514      -1846.0184         39.0004         35.0004
  -9257437.17143  -7164059.75642  22299925.9764   22299929.6354   22299925.6604
     -2421.3004      -1886.7274         46.0004         41.0004
 -15028399.00943 -11673674.65642  21714050.9464   21714054.0834   21714050.7764
      2284.9734       1780.4824         48.0004         44.0004
                    111556.77942  24944160.253    24944164.9974
                     -2220.8584                         31.0004
  -6204592.66743  -4805905.78242  22836174.3244   22836178.7034   22836173.7714
      1785.2914       1391.1354         44.0004         40.0004
 04 12 24  1 28 30.0000000  0  8G 3G 1G19G15G14G11G22G20
 -12379042.00143  -9606457.36542  22721589.5954   22721595.7204   22721589.5314
     -3268.8194      -2547.1304         44.0004         39.0004
 -19380695.78843 -15055541.40842  20446200.2894   20446204.8504   20446200.0454
       670.4284        522.4104         51.0004         47.0004
 -17093070.52543 -13276081.65342  21184316.9654   21184319.3454   21184316.1984
     -1930.0884      -1503.9544         50.0004         46.0004
   4239401.39843   3350490.56942  24510133.8864   24510141.4904   24510133.6034
     -2372.8014      -1848.9414         39.0004         35.0004
  -9184595.10943  -7107299.75242  22313787.5094   22313791.1034   22313787.1594
     -2434.2674      -1896.8334         46.0004         41.0004
 -15096858.36843 -11727019.59442  21701023.5174   21701026.7044   21701023.3754
      2279.5204       1776.2594         48.0004         44.0004
                    178158.02442  24960424.903    24960428.9044
                     -2218.7864                         32.0004
  -6258059.43343  -4847568.17442  22825999.7984   22826004.3334   22825999.3174
      1779.8424       1386.8844         44.0004         40.0004
 04 12 24  1 29  0.0000000  0  8G 3G 1G19G15G14G11G22G20
 -12280844.01343  -9529939.55442  22740276.0844   22740282.2274   22740275.9904
     -3276.7564      -2553.3124         44.0004         40.0004
 -19400479.75543 -15070957.47942  20442435.5744   20442440.0814   20442435.2714
       649.2594        505.9134         51.0004         47.0004
 -17034896.26843 -13230751.09442  21195387.2384   21195389.6284   21195386.4354
     -1947.5154      -1517.5554         50.0004         46.0004
   4310706.55343   3406052.88742  24523702.9624   24523710.8684   24523702.6454
     -2380.4474      -1854.8894         39.0004         35.0004
  -9111337.95543  -7050216.29142  22327727.9294   22327731.5424   22327727.5454
     -2448.9594      -1908.2784         46.0004         41.0004
 -15165120.75643 -11780211.05542  21688033.7054   21688036.7624   21688033.4664
      2272.1074       1770.4974         48.0004         44.0004
                    244716.62442  24976679.183    24976683.4124
                     -2217.8084                         32.0004
  -6311332.16743  -4889079.36242  22815862.4034   22815866.7884   22815861.7974
      1772.5364       1381.1994         45.0004         40.0004
 04 12 24  1 29 30.0000000  0  8G 3G 1G19G15G14G11G22G20
 -12182431.98643  -9453254.96442  22759003.4064   22759009.5004   22759003.2144
     -3283.8844      -2558.8674         44.0004         39.0004
 -19419651.71243 -15085896.66742  20438787.2794   20438791.7884   20438786.9794
       628.8054        489.9844         51.0004         47.0004
 -16976226.90943 -13185034.75142  21206551.6644   21206554.0884   21206550.8594
     -1963.8204      -1530.2594         50.0004         46.0004
   4382175.33343   3461742.67342  24537303.0694   24537311.3874   24537302.5204
     -2384.7594      -1858.2364         39.0004         34.0004
  -9037669.39243  -6992812.26342  22341746.5494   22341750.2214   22341746.2584
     -2462.3834      -1918.7334         46.0004         41.0004
 -15233185.97643 -11833248.87542  21675081.2174   21675084.4074   21675081.0474
      2265.5864       1765.3834         48.0004         44.0004
                    311231.49642  24992923.003    24992925.7404
                     -2216.3604                         32.0004
  -6364412.45743  -4930440.61142  22805761.4584   22805765.9144   22805760.9254
      1766.2784       1376.3204         44.0004         40.0004
                            4  1
RINEX FILE SPLICE; other post-header comments skipped       COMMENT
 04 12 24  1 30  0.0000000  0  8G 3G 1G19G15G14G11G22G20
 -12083808.45043  -9376405.54942  22777770.9984   22777776.9334   22777770.7604
     -3290.7874      -2564.2454         44.0004         39.0004
 -19438211.00843 -15100358.45242  20435255.5394   20435260.0734   20435255.2354
       608.3974        474.0724         51.0004         47.0004
 -16917064.26343 -13138934.03242  21217809.9884   21217812.4564   21217809.1634
     -1980.2034      -1543.0084         50.0004         46.0004
   4453807.96243   3517560.17342  24550934.3514   24550942.7704   24550933.6494
     -2390.4484      -1862.7064         39.0004         34.0004
  -8963591.69743  -6935089.42942  22355843.0274   22355846.8004   22355842.8104
     -2475.9104      -1929.2874         46.0004         41.0004
 -15301051.31743 -11886130.95942  21662166.8414   21662170.0504   21662166.7174
      2258.8184       1760.1064         48.0004         44.0004
                    377702.32042  25009155.840    25009159.4724
                     -2214.8414                         31.0004
  -6417300.45743  -4971652.01842  22795697.2644   22795701.6224   22795696.7344
      1759.8504       1371.3094         45.0004         40.0004
 04 12 24  1 30 30.0000000  0  8G 3G 1G19G15G14G11G22G20
 -11984976.32243  -9299393.60442  22796578.1104   22796584.1544   22796577.9174
     -3298.2654      -2570.0834         44.0004         39.0004
 -19456157.44043 -15114342.67942  20431840.4604   20431845.0064   20431840.1584
       587.6304        457.8884         51.0004         47.0004
 -16857410.39243 -13092450.53542  21229161.7744   21229164.2654   21229160.9434
     -1996.8484      -1555.9844         50.0004         46.0004
   4525604.17543   3573505.13242  24564596.7664   24564605.3314   24564595.9164
     -2396.4094      -1867.3504         39.0004         35.0004
  -8889107.47743  -6877049.81642  22370017.0244   22370020.7694   22370016.7944
     -2489.8194      -1940.1204         46.0004         41.0004
 -15368715.35543 -11938856.16342  21649290.9054   21649294.0284   21649290.6304
      2251.7594       1754.5884         48.0004         44.0004
                                  25025377.574

  -6469996.45343  -5012713.80042  22785669.5124   22785673.8824   22785668.9954
      1753.2614       1366.1764         45.0004         40.0004
 04 12 24  1 31  0.0000000  0  7G 3G 1G19G15G14G11G20
 -11885938.12643  -9222221.08342  22815424.4664   22815430.6104   22815424.2584
     -3304.2804      -2574.7594         44.0004         39.0004
 -19473490.31743 -15127848.81342  20428542.0644   20428546.6244   20428541.8104
       568.0314        442.6134         51.0004         47.0004
 -16797266.74443 -13045585.38942  21240606.7344   21240609.2374   21240605.9304
     -2012.4604      -1568.1514         50.0004         46.0004
   4597564.68343   3629578.08242  24578290.6024   24578299.1214   24578289.7294
     -2401.2154      -1871.0654         39.0004         35.0004
  -8814219.09443  -6818695.27042  22384267.7824   22384271.6214   22384267.6034
     -2502.4334      -1949.9394         46.0004         41.0004
 -15436175.51643 -11991422.53142  21636453.5234   21636456.7744   21636453.3454
      2245.7544       1749.9414         48.0004         44.0004
  -6522500.31643  -5053625.87842  22775678.2644   22775682.8054   22775677.7844
      1747.5304       1361.7054         45.0004         40.0004
 04 12 24  1 31 30.0000000  0  7G 3G 1G19G15G14G11G20
 -11786697.69043  -9144890.98342  22834309.4604   22834315.4994   22834309.1974
     -3311.2734      -2580.2184         44.0004         39.0004
 -19490210.39543 -15140877.44542  20425360.3514   20425364.8624   20425360.0664
       546.9524        426.1874         51.0004         47.0004
 -16736636.41543 -12998341.01842  21252144.3164   21252146.8394   21252143.5464
     -2029.1044      -1581.1234         50.0004         46.0004
   4669688.18843   3685778.07542  24592015.2014   24592023.5964   24592014.5824
     -2406.5724      -1875.2514         39.0004         34.0004
  -8738930.15943  -6760028.60842  22398594.8404   22398598.6754   22398594.6504
     -2516.2594      -1960.7294         46.0004         41.0004
 -15503430.72543 -12043829.16542  21623655.3034   21623658.5064   21623655.1024
      2238.4274       1744.2324         48.0004         44.0004
  -6574813.61643  -5094389.47642  22765723.3314   22765727.9314   22765722.8034
      1740.4644       1356.2044         45.0004         40.0004
 04 12 24  1 32  0.0000000  0  7G 3G 1G19G15G14G11G20
 -11687257.22343  -9067405.01442  22853232.4704   22853238.5924   22853232.1834
     -3317.6964      -2585.2214         44.0004         39.0004
 -19506316.33443 -15153427.52642  20422295.4794   20422300.0084   20422295.2264
       526.9684        410.6164         51.0004         47.0004
 -16675520.61743 -12950718.35942  21263774.2934   21263776.8624   21263773.5034
     -2044.9574      -1593.4744         50.0004         46.0004
   4741975.42743   3742105.65542  24605771.1264   24605779.4624   24605770.5224
     -2412.1724      -1879.6214         39.0004         35.0004
  -8663242.21143  -6701051.03242  22412997.8534   22413001.6494   22412997.6224
     -2529.1694      -1970.7844         46.0004         41.0004
 -15570478.01443 -12096073.80542  21610896.5904   21610899.8594   21610896.4494
      2231.6434       1738.9254         49.0004         44.0004
  -6626935.76443  -5135004.11342  22755804.8854   22755809.3664   22755804.3154
      1734.4564       1351.5214         45.0004         40.0004
 04 12 24  1 32 30.0000000  0  7G 3G 1G19G15G14G11G20
 -11587619.31143  -8989765.18342  22872193.1464   22872199.2694   22872192.7734
     -3324.4574      -2590.4774         44.0004         39.0004
 -19521807.91543 -15165498.88842  20419347.5344   20419352.0634   20419347.2734
       505.9594        394.2504         51.0004         47.0004
 -16613921.33443 -12902718.96342  21275496.2374   21275498.8594   21275495.4544
     -2061.3664      -1606.2654         50.0004         46.0004
   4814426.14143   3798560.58242  24619558.1904   24619566.7434   24619557.5264
     -2416.9584      -1883.3474         39.0004         34.0004
  -8587158.16243  -6641764.80242  22427476.3244   22427480.0124   22427476.0214
     -2542.8014      -1981.4024         46.0004         41.0004
 -15637315.81043 -12148155.19742  21598177.7764   21598181.0284   21598177.6284
      2224.2424       1733.1714         49.0004         44.0004
  -6678867.14643  -5175470.10342  22745922.6654   22745927.1504   22745922.1514
      1727.7174       1346.2744         45.0004         40.0004
 04 12 24  1 33  0.0000000  0  7G 3G 1G19G15G14G11G20
 -11487787.13443  -8911973.98742  22891190.6224   22891196.8444   22891190.2214
     -3331.4844      -2595.9504         43.0004         39.0004
 -19536685.16043 -15177091.54642  20416516.4774   20416521.0064   20416516.2464
       485.2914        378.1534         51.0004         47.0004
 -16551840.98643 -12854344.71242  21287309.8154   21287312.3964   21287309.0194
     -2077.8064      -1619.0494         50.0004         46.0004
   4887040.19243   3855142.78442  24633376.2624   24633384.8184   24633375.5744
     -2423.8214      -1888.6854         38.0004         34.0004
  -8510680.83143  -6582172.12142  22442029.5304   22442033.1964   22442029.1784
     -2556.2514      -1991.8804         46.0004         41.0004
 -15703942.04943 -12200071.73542  21585499.2774   21585502.4824   21585499.0884
      2216.9784       1727.5204         49.0004         44.0004
  -6730608.34543  -5215787.90442  22736076.6754   22736081.0694   22736076.1514
      1721.0494       1341.0814         45.0004         40.0004
 04 12 24  1 33 30.0000000  0  7G 3G 1G19G15G14G11G20
 -11387763.73843  -8834033.79242  22910224.3304   22910230.7994   22910224.1704
     -3337.5224      -2600.6654         43.0004         39.0004
 -19550947.98543 -15188205.43242  20413802.3754   20413806.8854   20413802.1124
       464.9394        362.2894         51.0004         47.0004
 -16489281.79543 -12805597.33442  21299214.5374   21299217.0514   21299213.7304
     -2093.5424      -1631.3254         50.0004         46.0004
   4959817.31543   3911852.09842  24647225.5784   24647233.8524   24647224.8074
     -2429.2284      -1892.8984         38.0004         34.0004
  -8433812.79543  -6522274.98542  22456657.1864   22456660.7504   22456656.8244
     -2569.0424      -2001.8564         46.0004         41.0004
 -15770354.87643 -12251821.97042  21572861.3334   21572864.5604   21572861.1304
      2209.9654       1722.0694         49.0004         44.0004
  -6782159.80443  -5255957.84342  22726266.6794   22726271.1224   22726266.2114
      1714.8304       1336.2344         45.0004         40.0004
 04 12 24  1 34  0.0000000  0  8G 3G 1G19G25G15G14G11G20
 -11287552.25543  -8755947.01242  22929293.8784   22929300.3504   22929293.7854
     -3343.1634      -2605.0584         43.0004         39.0004
 -19564596.61343 -15198840.72642  20411205.1294   20411209.6444   20411204.8684
       445.0654        346.8134         51.0004         47.0004
 -16426246.33243 -12756478.83542  21311209.7974   21311212.3774   21311209.0404
     -2108.7544      -1643.1804         50.0004         46.0004
   -172463.40343    -92841.71042  23821577.2534   23821583.6614   23821576.6404
      2623.8054       2044.5254         51.0004         37.0004
   5032757.01243   3968688.06042  24661105.5824   24661113.5704   24661104.8864
     -2434.1334      -1896.7224         38.0004         34.0004
  -8356557.14943  -6462075.82442  22471358.4484   22471362.1104   22471358.1014
     -2581.4274      -2011.4974         46.0004         41.0004
 -15836552.68543 -12303404.68142  21560264.1944   21560267.4894   21560264.0714
      2203.2944       1716.8554         49.0004         44.0004
  -6833522.40943  -5295980.62442  22716492.7774   22716497.0824   22716492.2264
      1709.3204       1331.9344         45.0004         40.0004
 04 12 24  1 34 30.0000000  0  8G 3G 1G19G25G15G14G11G20
 -11187155.55743  -8677715.93442  22948398.7044   22948405.4334   22948398.7034
     -3349.9374      -2610.3374         43.0004         39.0004
 -19577630.72843 -15208997.17842  20408724.8284   20408729.3224   20408724.5564
       423.7264        330.1764         51.0004         47.0004
 -16362736.74843 -12706990.89742  21323295.3144   21323297.9044   21323294.5584
     -2125.2894      -1656.0694         50.0004         45.0004
   -251091.96743   -154110.60042  23806614.4814   23806621.7964   23806614.5854
      2617.9504       2039.9554         46.0004         37.0004
   5105858.93843   4025650.44542  24675016.6004   24675024.7584   24675015.9874
     -2440.3334      -1901.5604         39.0004         34.0004
  -8278916.37443  -6401576.55642  22486133.0494   22486136.7654   22486132.7044
     -2594.8244      -2021.9344         46.0004         41.0004
 -15902533.55643 -12354818.33542  21547708.3774   21547711.7934   21547708.3294
      2195.2124       1710.5544         49.0004         44.0004
  -6884696.24043  -5335856.30942  22706754.6524   22706758.9954   22706754.1634
      1702.1664       1326.3544         45.0004         40.0004
 04 12 24  1 35  0.0000000  0  8G 3G 1G19G25G15G14G11G20
 -11086575.59643  -8599342.04542  22967538.6344   22967545.3484   22967538.6004
     -3355.6414      -2614.7814         43.0004         39.0004
 -19590049.50443 -15218674.14342  20406361.5644   20406366.1134   20406361.3034
       403.6864        314.5614         51.0004         47.0004
 -16298754.53943 -12657134.67642  21335470.7204   21335473.3654   21335470.0074
     -2140.4714      -1667.8954         50.0004         45.0004
   -329561.21943   -215255.40742  23791682.4644   23791689.1574   23791682.6334
      2613.0574       2036.1464         43.0004         37.0004
   5179124.06643   4082739.98342  24688958.6874   24688967.0584   24688957.8834
     -2444.6394      -1904.9134         38.0004         34.0004
  -8200892.59943  -6340778.85442  22500980.5144   22500984.2934   22500980.1844
     -2606.9934      -2031.4304         46.0004         41.0004
 -15968294.73143 -12406060.79342  21535194.3664   21535197.8134   21535194.3414
      2188.3364       1705.1714         49.0004         44.0004
  -6935681.19143  -5375584.82142  22697052.4744   22697056.8624   22697052.0604
      1696.1764       1321.6884         45.0004         41.0004
 04 12 24  1 35 30.0000000  0  8G 3G 1G19G25G15G14G11G20
 -10985815.96643  -8520828.15842  22986712.8454   22986719.3134   22986712.5614
     -3361.1704      -2619.0894         43.0004         39.0004
 -19601853.24243 -15227871.86442  20404115.3314   20404119.9864   20404115.1174
       383.3864        298.7444         51.0004         47.0004
 -16234302.16643 -12606912.09442  21347735.6334   21347738.3194   21347734.9144
     -2156.1094      -1680.0874         50.0004         46.0004
   -407868.02443   -276273.63442  23776780.8964   23776787.8464   23776781.3784
      2607.6084       2031.9014         42.0004         37.0004
   5252551.65943   4139956.10442  24702931.6354   24702939.8794   24702930.9994
     -2450.7934      -1909.7174         39.0004         34.0004
  -8122488.85843  -6279685.07542  22515900.3004   22515904.0844   22515899.9634
     -2619.8024      -2041.3974         46.0004         41.0004
 -16033834.51343 -12457130.74842  21522722.5134   21522726.0554   21522722.5154
      2181.0734       1699.5354         49.0004         44.0004
  -6986477.88643  -5415166.61842  22687386.2114   22687390.6224   22687385.7344
      1690.2154       1317.0514         45.0004         40.0004
 04 12 24  1 36  0.0000000  0  8G 3G 1G19G25G15G14G11G20
 -10884880.09443  -8442176.93542  23005920.4004   23005926.8084   23005920.1404
     -3367.0764      -2623.6874         43.0004         38.0004
 -19613042.57143 -15236590.81842  20401986.1074   20401990.7274   20401985.8744
       363.2684        283.0764         51.0004         47.0004
 -16169382.35843 -12556325.27542  21360089.4554   21360092.2044   21360088.7134
     -2171.1594      -1691.8094         50.0004         45.0004
   -486009.82043   -337163.26442  23761911.0694   23761918.0744   23761911.4404
      2602.5004       2027.9224         42.0004         37.0004
   5326141.14243   4197298.38042  24716935.4294   24716943.6924   24716934.8244
     -2455.1744      -1913.1304         39.0004         35.0004
  -8043708.50343  -6218297.83142  22530891.6354   22530895.4624   22530891.3394
     -2631.5994      -2050.5864         45.0004         41.0004
 -16099151.61243 -12508027.17142  21510293.0784   21510296.6174   21510293.0924
      2174.0644       1694.1054         49.0004         44.0004
  -7037087.45543  -5454602.63042  22677755.3764   22677759.8784   22677754.9934
      1684.3114       1312.4504         45.0004         40.0004
 04 12 24  1 36 30.0000000  0  8G 3G 1G19G25G15G14G11G20
 -10783770.35843  -8363390.24142  23025161.0784   23025167.4364   23025160.8054
     -3373.1824      -2628.4464         43.0004         38.0004
 -19623617.26643 -15244830.84042  20399973.8704   20399978.3974   20399973.6134
       342.6094        266.9764         51.0004         47.0004
 -16103997.25743 -12505375.89142  21372531.8604   21372534.6074   21372531.1384
     -2186.8984      -1704.0784         50.0004         45.0004
   -563983.21343   -397921.65242  23747073.2124   23747080.2324   23747073.4824
      2597.0204       2023.6514         42.0004         37.0004
   5399892.45643   4254766.72642  24730970.1184   24730978.3634   24730969.6434
     -2460.8044      -1917.4984         39.0004         34.0004
  -7964553.76743  -6156618.85742  22545954.3754   22545958.1484   22545954.0364
     -2644.0694      -2060.3124         45.0004         41.0004
 -16164243.69343 -12558748.26742  21497906.5464   21497909.9984   21497906.5264
      2166.3584       1688.0624         49.0004         44.0004
  -7087509.97343  -5493892.86842  22668160.2704   22668164.7944   22668159.8974
      1677.8714       1307.4294         45.0004         40.0004
 04 12 24  1 37  0.0000000  0  8G 3G 1G19G25G15G14G11G20
 -10682489.20043  -8284469.97742  23044434.3094   23044440.6914   23044433.9714
     -3378.1524      -2632.3264         43.0004         38.0004
 -19633576.92343 -15252591.61342  20398078.5384   20398083.1534   20398078.2894
       322.2384        251.1014         51.0004         47.0004
 -16038148.69243 -12454065.37042  21385062.5234   21385065.2074   21385061.7604
     -2202.1594      -1715.9634         50.0004         45.0004
   -641784.64143   -458546.05842  23732268.0254   23732275.0674   23732268.1764
      2590.8624       2018.8554         42.0004         38.0004
   5473805.83243   4312361.39942  24745035.7004   24745043.8604   24745034.9324
     -2465.6564      -1921.2724         39.0004         34.0004
  -7885026.98843  -6094649.98642  22561087.8274   22561091.6574   22561087.4874
     -2656.5334      -2070.0224         45.0004         41.0004
 -16229108.42043 -12609292.19042  21485563.2144   21485566.6144   21485563.1814
      2158.8564       1682.2144         49.0004         44.0004
  -7137745.50643  -5533037.40442  22658600.6774   22658605.2924   22658600.2704
      1671.9484       1302.8144         45.0004         41.0004
 04 12 24  1 37 30.0000000  0  8G 3G 1G19G25G15G14G11G20
 -10581040.02743  -8205418.80242  23063739.4724   23063745.9894   23063739.1654
     -3383.5284      -2636.5104         43.0004         38.0004
 -19642921.64843 -15259873.21842  20396300.3184   20396304.9144   20396300.0724
       302.0004        235.3404         51.0004         47.0004
 -15971839.05043 -12402395.57142  21397680.9104   21397683.5184   21397680.1274
     -2217.1604      -1727.6454         50.0004         45.0004
   -719411.26443   -519034.23342  23717496.1494   23717503.1844   23717496.2354
      2585.3594       2014.5634         43.0004         38.0004
   5547881.05143   4370082.15842  24759132.1034   24759140.0964   24759131.0124
     -2470.8694      -1925.3424         38.0004         34.0004
  -7805131.03743  -6032393.43842  22576291.4504   22576295.4414   22576291.0644
     -2668.7824      -2079.5654         45.0004         41.0004
 -16293744.03343 -12659657.60342  21473263.5504   21473266.8874   21473263.4484
      2151.5314       1676.5404         49.0004         44.0004
  -7187794.62943  -5572036.69642  22649076.6674   22649081.2314   22649076.2004
      1665.8844       1298.0944         45.0004         41.0004
 04 12 24  1 38  0.0000000  0  8G 3G 1G19G25G15G14G11G20
 -10479425.55143  -8126238.83642  23083076.1764   23083082.6474   23083075.9884
     -3389.8054      -2641.4014         43.0004         38.0004
 -19651651.66843 -15266675.83442  20394639.0924   20394643.6614   20394638.8024
       280.8474        218.8394         51.0004         47.0004
 -15905070.60743 -12350368.25442  21410386.5434   21410389.1764   21410385.7784
     -2233.1154      -1740.0814         50.0004         45.0004
   -796859.70543   -579383.57042  23702758.1364   23702765.1124   23702758.2054
      2579.0194       2009.6264         43.0004         38.0004
   5622117.77243   4427928.73142  24773258.9004   24773266.9934   24773257.8604
     -2476.6544      -1929.8454         38.0004         34.0004
  -7724868.66643  -5969851.38042  22591564.8434   22591568.9104   22591564.5054
     -2681.1524      -2089.2004         45.0004         41.0004
 -16358148.40943 -12709842.82542  21461007.8434   21461011.1524   21461007.7054
      2142.8774       1669.8004         49.0004         44.0004
  -7237657.64143  -5610890.98042  22639588.0304   22639592.6084   22639587.5654
      1658.9394       1292.6734         45.0004         41.0004
 04 12 24  1 38 30.0000000  0  8G 3G 1G19G25G15G14G11G20
 -10377648.55843  -8046932.23142  23102443.6924   23102450.2714   23102443.5324
     -3395.1274      -2645.5424         43.0004         38.0004
 -19659767.03043 -15272999.50042  20393094.7514   20393099.3354   20393094.4714
       260.3414        202.8864         51.0004         47.0004
 -15837845.66943 -12297985.23742  21423179.0554   21423181.7464   21423178.2604
     -2248.3704      -1751.9724         50.0004         45.0004
   -874126.55143   -639591.40542  23688054.7154   23688061.6514   23688054.7244
      2572.6664       2004.6774         43.0004         38.0004
   5696515.50743   4485900.79842  24787416.2194   24787424.5824   24787415.4954
     -2482.4554      -1934.3574         38.0004         34.0004
  -7644242.54243  -5907025.88042  22606907.4394   22606911.6094   22606907.1684
     -2693.4194      -2098.7574         45.0004         41.0004
 -16422319.45143 -12759846.22042  21448796.4704   21448799.7964   21448796.3544
      2135.0924       1663.7294         49.0004         44.0004
  -7287335.18643  -5649600.74042  22630134.8054   22630139.2724   22630134.3344
      1652.9184       1287.9984         45.0004         41.0004
 04 12 24  1 39  0.0000000  0  8G 3G 1G19G25G15G14G11G20
 -10275712.17943  -7967501.43842  23121841.6764   23121848.2614   23121841.4694
     -3400.4864      -2649.7284         43.0004         38.0004
 -19667268.00843 -15278844.41942  20391667.3764   20391671.9524   20391667.0814
       239.7934        186.8534         51.0004         47.0004
 -15770166.86143 -12245248.54942  21436057.9574   21436060.6304   21436057.1164
     -2263.4154      -1763.6914         50.0004         45.0004
   -951209.11743   -699655.64742  23673386.4364   23673393.3384   23673386.2774
      2566.4514       1999.8284         43.0004         38.0004
   5771074.01343   4543998.13442  24801603.8844   24801612.8134   24801603.5574
     -2487.9754      -1938.6654         38.0004         33.0004
  -7563255.67443  -5843919.27642  22622318.7574   22622322.9514   22622318.4484
     -2705.5604      -2108.2274         45.0004         41.0004
 -16486255.51043 -12809666.51142  21436629.8734   21436633.1344   21436629.7414
      2127.4404       1657.7564         49.0004         44.0004
  -7336827.71743  -5688166.32942  22620716.7334   22620721.1554   22620716.2664
      1646.7154       1283.1504         45.0004         41.0004
 04 12 24  1 39 30.0000000  0  8G 3G 1G19G25G15G14G11G20
 -10173619.06143  -7887948.46542  23141269.4344   23141276.1014   23141269.2714
     -3405.5524      -2653.6674         43.0004         38.0004
 -19674154.16243 -15284210.25742  20390357.0064   20390361.5654   20390356.6994
       219.4454        171.0084         51.0004         47.0004
 -15702035.92843 -12192159.55842  21449022.8594   21449025.5304   21449022.0314
     -2278.2724      -1775.2744         50.0004         45.0004
  -1028103.66843   -759573.38242  23658753.8144   23658760.8244   23658753.6354
      2560.1494       1994.9164         43.0004         38.0004
   5845793.77843   4602221.14642  24815822.6424   24815831.3514   24815822.0634
     -2492.9754      -1942.5684         38.0004         33.0004
  -7481910.06143  -5780533.13142  22637798.4024   22637802.6014   22637798.1374
     -2717.1244      -2117.2364         45.0004         41.0004
 -16549953.96443 -12859301.66042  21424508.3694   21424511.7194   21424508.2944
      2119.6044       1651.6424         49.0004         45.0004
  -7386135.22643  -5726587.74842  22611333.8514   22611338.0984   22611333.3394
      1640.6614       1278.4374         45.0004         41.0004
 04 12 24  1 40  0.0000000  0  8G 3G 1G19G25G15G14G11G20
 -10071372.20843  -7808275.72342  23160726.6304   23160733.2024   23160726.3574
     -3410.9914      -2657.9184         43.0004         38.0004
 -19680426.21143 -15289097.57442  20389163.4374   20389168.0114   20389163.1524
       198.3364        154.5424         51.0004         47.0004
 -15633455.53643 -12138720.33942  21462073.3134   21462075.9574   21462072.4504
     -2294.0194      -1787.5494         49.0004         45.0004
  -1104807.23943   -819342.31542  23644157.5654   23644164.5054   23644157.4124
      2552.9734       1989.3234         43.0004         38.0004
   5920674.14443   4660569.25042  24830072.0404   24830080.9634   24830071.7454
     -2499.1994      -1947.4244         38.0004         34.0004
  -7400209.11443  -5716870.10442  22653345.6424   22653349.8174   22653345.3414
     -2729.7304      -2127.0554         45.0004         40.0004
 -16613413.31443 -12908750.49442  21412432.5834   21412435.8384   21412432.4384
      2110.7164       1644.7144         49.0004         45.0004
  -7435258.58343  -5764865.66842  22601985.9214   22601990.1464   22601985.3324
      1633.9184       1273.1854         45.0004         41.0004
 04 12 24  1 40 30.0000000  0  8G 3G 1G19G25G15G14G11G20
  -9968974.49443  -7728485.43542  23180212.2784   23180219.0074   23180211.9444
     -3415.8994      -2661.7414         43.0004         38.0004
 -19686084.46043 -15293506.60442  20388086.7694   20388091.2964   20388086.4214
       178.2914        138.9364         51.0004         47.0004
 -15564428.34443 -12084932.96542  21475208.6724   21475211.4674   21475207.8934
     -2308.3904      -1798.7394         49.0004         45.0004
  -1181316.62643   -878959.89842  23629598.1674   23629605.0754   23629598.1804
      2546.9884       1984.6624         43.0004         38.0004
   5995714.81143   4719042.30842  24844351.7964   24844361.0944   24844351.7104
     -2503.8564      -1951.0544         38.0004         34.0004
  -7318155.31943  -5652932.12642  22668959.9304   22668964.1194   22668959.6754
     -2740.9154      -2135.7784         45.0004         40.0004
 -16676631.47743 -12958011.38942  21400402.5434   21400405.7854   21400402.4044
      2103.0874       1638.7724         49.0004         45.0004
  -7484198.20243  -5803000.41942  22592672.9484   22592677.3014   22592672.3514
      1628.2664       1268.7754         45.0004         41.0004
 04 12 24  1 41  0.0000000  0  8G 3G 1G19G25G15G14G11G20
  -9866428.65443  -7648579.71642  23199726.2994   23199732.9704   23199725.7944
     -3420.5354      -2665.3504         42.0004         38.0004
 -19691128.69143 -15297437.17942  20387126.9274   20387131.4304   20387126.5614
       157.9634        123.0914         51.0004         47.0004
 -15494956.43743 -12030799.06942  21488428.7974   21488431.5644   21488428.0114
     -2323.1074      -1810.2164         49.0004         45.0004
  -1257628.55343   -938423.64442  23615076.4024   23615083.3494   23615076.4374
      2540.5654       1979.6594         43.0004         38.0004
   6070915.73143   4777640.21442  24858662.3314   24858671.7104   24858661.7944
     -2509.7654      -1955.6534         38.0004         34.0004
  -7235751.26043  -5588721.21742  22684640.8034   22684645.1074   22684640.6054
     -2752.5464      -2144.8324         45.0004         40.0004
 -16739606.14143 -13007082.54542  21388418.8514   21388422.1424   21388418.7074
      2095.0744       1632.5264         49.0004         45.0004
  -7532954.06643  -5840991.97942  22583395.0484   22583399.3624   22583394.4674
      1622.3344       1264.1604         45.0004         41.0004
 04 12 24  1 41 30.0000000  0  8G 3G 1G19G25G15G14G11G20
  -9763737.83143  -7568561.01142  23219267.9424   23219274.4074   23219267.4594
     -3424.3554      -2668.3304         42.0004         38.0004
 -19695559.56543 -15300889.81342  20386283.7334   20386288.2894   20386283.4044
       138.1174        107.6294         51.0004         47.0004
 -15425042.59843 -11976320.79542  21501733.0394   21501735.7624   21501732.2344
     -2337.0964      -1821.1174         49.0004         45.0004
  -1333740.22043   -997731.32042  23600592.8194   23600599.6174   23600592.8914
      2534.6254       1975.0344         43.0004         38.0004
   6146276.21643   4836362.46842  24873003.1514   24873012.0414   24873002.6374
     -2513.7854      -1958.8014         38.0004         34.0004
  -7153000.04043  -5524239.79742  22700387.9124   22700392.1584   22700387.6604
     -2763.5714      -2153.4284         45.0004         40.0004
 -16802335.97443 -13055962.93342  21376481.7884   21376484.9994   21376481.5954
      2087.6494       1626.7384         49.0004         45.0004
  -7581527.13943  -5878841.11042  22574151.8334   22574156.1474   22574151.3234
      1616.7704       1259.8254         45.0004         41.0004
 04 12 24  1 42  0.0000000  0  8G 3G 1G19G25G15G14G11G20
  -9660905.01943  -7488431.66142  23238836.5414   23238842.9804   23238835.9114
     -3429.5474      -2672.3754         42.0004         38.0004
 -19699377.44043 -15303864.78742  20385557.2314   20385561.7634   20385556.8794
       117.4144         91.4864         51.0004         47.0004
 -15354689.13343 -11921499.97542  21515120.8384   21515123.6604   21515120.0494
     -2352.1744      -1832.8694         49.0004         45.0004
  -1409648.53643  -1056880.55842  23586147.9224   23586154.8254   23586147.8304
      2527.1684       1969.2184         43.0004         38.0004
   6221796.09143   4895208.88742  24887374.2084   24887383.4434   24887373.9214
     -2519.7784      -1963.4694         38.0004         34.0004
  -7069904.58343  -5459490.14442  22716200.5444   22716204.6714   22716200.3244
     -2775.2204      -2162.5054         45.0004         40.0004
 -16864818.68643 -13104650.74942  21364591.6954   21364594.9214   21364591.5204
      2078.9324       1619.9504         49.0004         45.0004
  -7629918.09743  -5916548.32142  22564943.2794   22564947.6384   22564942.7144
      1610.3944       1254.8504         45.0004         41.0004
 04 12 24  1 42 30.0000000  0  8G 3G 1G19G25G15G14G11G20
  -9557932.85943  -7408193.70942  23258431.4664   23258437.9464   23258430.9594
     -3434.5394      -2676.2594         42.0004         38.0004
 -19702582.38643 -15306362.15142  20384947.3564   20384951.8434   20384947.0254
        96.5694         75.2484         51.0004         47.0004
 -15283898.06343 -11866338.15842  21528591.9824   21528594.7744   21528591.1844
     -2367.0614      -1844.4604         49.0004         45.0004
  -1485349.96643  -1115868.58342  23571742.2014   23571749.2544   23571742.1674
      2519.7054       1963.4034         43.0004         38.0004
   6297475.12243   4954179.30942  24901775.8604   24901784.8264   24901775.4344
     -2525.2804      -1967.7494         39.0004         34.0004
  -6986467.24743  -5394474.08942  22732078.2014   22732082.3264   22732077.9024
     -2786.9294      -2171.6344         44.0004         40.0004
 -16927051.92243 -13153144.16342  21352749.1554   21352752.3044   21352748.9294
      2070.0894       1613.0494         49.0004         45.0004
  -7678126.89543  -5954113.58942  22555769.4644   22555773.7854   22555768.9254
      1603.8324       1249.7384         45.0004         41.0004
 04 12 24  1 43  0.0000000  0  8G 3G 1G19G25G15G14G11G20
  -9454824.48943  -7327849.62642  23278052.4554   23278059.0044   23278052.0864
     -3439.2774      -2679.9544         43.0004         38.0004
 -19705174.96343 -15308382.34542  20384454.0144   20384458.5194   20384453.6574
        76.2194         59.3844         51.0004         47.0004
 -15212672.21943 -11810837.55442  21542145.8524   21542148.6324   21542145.0574
     -2381.3344      -1855.5934         49.0004         45.0004
  -1560841.35843  -1174692.95442  23557376.6484   23557383.4394   23557376.4094
      2513.2944       1958.4104         42.0004         38.0004
   6373312.99043   5013273.49342  24916207.5844   24916216.3904   24916207.0934
     -2530.4494      -1971.7554         38.0004         33.0004
  -6902690.90043  -5329193.87042  22748020.4614   22748024.4864   22748020.0274
     -2798.0454      -2180.2954         44.0004         40.0004
 -16989033.94443 -13201441.83642  21340954.3084   21340957.4814   21340954.1544
      2061.7444       1606.5504         49.0004         45.0004
  -7726154.21343  -5991537.45542  22546630.1444   22546634.5114   22546629.6114
      1597.8204       1245.0514         45.0004         41.0004
 04 12 24  1 43 30.0000000  0  8G 3G 1G19G25G15G14G11G20
  -9351582.56643  -7247401.47842  23297698.7474   23297705.4324   23297698.5304
     -3443.3914      -2683.1564         43.0004         38.0004
 -19707155.31943 -15309925.48442  20384077.2004   20384081.7004   20384076.8544
        56.1544         43.7674         51.0004         47.0004
 -15141013.87043 -11754999.93242  21555781.9774   21555784.7844   21555781.2034
     -2395.3314      -1866.4854         49.0004         45.0004
  -1636119.30743  -1233350.97842  23543051.5444   23543058.3604   23543051.5774
      2506.3134       1952.9694         42.0004         38.0004
   6449309.60243   5072491.35842  24930669.3144   24930678.6334   24930668.2434
     -2534.9874      -1975.3064         38.0004         33.0004
  -6818578.09843  -5263651.47342  22764026.4474   22764030.7244   22764026.0584
     -2808.9994      -2188.8254         44.0004         39.0004
 -17050762.39443 -13249541.91542  21329207.7134   21329210.9454   21329207.6254
      2053.7554       1600.3444         49.0004         45.0004
  -7774000.38143  -6028820.15942  22537525.2304   22537529.6284   22537524.7464
      1592.1244       1240.6224         46.0004         41.0004
 04 12 24  1 44  0.0000000  0  8G 3G 1G19G25G15G14G11G20
  -9248210.04843  -7166851.56742  23317369.8974   23317376.6094   23317369.6494
     -3447.8254      -2686.6214         42.0004         38.0004
 -19708524.02943 -15310992.00642  20383816.7414   20383821.2554   20383816.4084
        35.7564         27.8634         51.0004         47.0004
 -15068925.53543 -11698827.25742  21569499.9684   21569502.8094   21569499.1934
     -2409.9964      -1877.9224         49.0004         45.0004
  -1711180.96543  -1291840.47542  23528767.4754   23528774.4604   23528767.5214
      2498.7144       1947.0464         42.0004         37.0004
   6525464.42043   5131832.52342  24945161.3284   24945170.5274   24945160.2584
     -2541.2754      -1980.2154         38.0004         33.0004
  -6734131.84243  -5197849.26642  22780095.8194   22780100.4714   22780095.4854
     -2820.2404      -2197.5864         44.0004         39.0004
 -17112235.49443 -13297443.02042  21317509.8254   21317513.0204   21317509.6734
      2045.1174       1593.6194         49.0004         45.0004
  -7821665.95443  -6065962.12942  22528454.6154   22528459.1634   22528454.1624
      1586.2484       1236.0424         46.0004         41.0004
 04 12 24  1 44 30.0000000  0  8G 3G 1G19G25G15G14G11G20
  -9144709.71843  -7086202.09042  23337065.2214   23337072.1224   23337065.1184
     -3452.2994      -2690.0954         42.0004         38.0004
 -19709281.35743 -15311582.14142  20383672.6224   20383677.1554   20383672.3024
        15.1974         11.8494         51.0004         47.0004
 -14996409.66243 -11642321.44042  21583299.3494   21583302.1954   21583298.5964
     -2424.0724      -1888.8774         49.0004         45.0004
  -1786023.00843  -1350158.84542  23514525.2864   23514532.3824   23514525.3454
      2491.3224       1941.2874         42.0004         38.0004
   6601777.21643   5191296.77942  24959683.3934   24959692.6004   24959682.1964
     -2547.6784      -1983.7804         37.0004         32.0004
  -6649354.93943  -5131789.40442  22796228.3404   22796233.0284   22796228.0674
     -2831.3024      -2206.2074         44.0004         40.0004
 -17173451.00643 -13345143.41642  21305860.8164   21305864.0984   21305860.7004
      2036.4034       1586.8354         49.0004         45.0004
  -7869151.24643  -6102963.64442  22519418.5984   22519423.0104   22519418.1154
      1580.0914       1231.2434         46.0004         41.0004
                            4  1
RINEX FILE SPLICE; other post-header comments skipped       COMMENT
 04 12 24  1 45  0.0000000  0  8G 3G 1G19G25G15G14G11G20
  -9041084.72243  -7005455.47942  23356784.4534   23356791.4304   23356784.2324
     -3456.2394      -2693.1734         42.0004         37.0004
 -19709427.86943 -15311696.30242  20383644.7634   20383649.2554   20383644.4624
        -5.1334         -3.9924         51.0004         47.0004
 -14923468.91043 -11585484.54742  21597179.4904   21597182.3724   21597178.7684
     -2438.2614      -1899.9364         49.0004         44.0004
  -1860642.05643  -1408303.44242  23500325.7064   23500332.7834   23500325.8214
      2483.6024       1935.2704         43.0004         38.0004
   6678247.81143   5250883.99342  24974235.6054   24974244.8444   24974234.5964
     -2551.5064      -1988.1854         37.0004         33.0004
  -6564249.96043  -5065473.89242  22812423.3374   22812428.0514   22812422.9874
     -2842.0654      -2214.5914         44.0004         39.0004
 -17234407.30743 -13392641.82942  21294261.2254   21294264.4744   21294261.0904
      2027.6914       1580.0104         50.0004         45.0004
  -7916457.02343  -6139825.26142  22510416.5744   22510421.0104   22510416.1404
      1574.0324       1226.5214         46.0004         41.0004
 04 12 24  1 45 30.0000000  0  8G 3G 1G19G25G15G14G11G20
  -8937337.89043  -6924613.89342  23376526.8104   23376533.9184   23376526.7954
     -3460.1914      -2696.2464         42.0004         37.0004
 -19708964.22043 -15311335.01742  20383732.9764   20383737.4664   20383732.6954
       -25.5594        -19.9234         51.0004         47.0004
 -14850105.66743 -11528318.44342  21611140.1844   21611143.0274   21611139.4034
     -2452.3114      -1910.8864         49.0004         45.0004
  -1935035.18443  -1466272.03642  23486169.1024   23486176.1854   23486169.1704
      2475.9404       1929.2954         43.0004         38.0004
   6754875.68643   5310593.76642  24988817.4714   24988826.5234   24988816.8904
     -2556.5544      -1992.1244         37.0004         33.0004
  -6478819.77943  -4998904.97842  22828680.0894   22828684.8544   22828679.8474
     -2852.8264      -2222.9804         44.0004         39.0004
 -17295101.97843 -13439936.37642  21282711.3734   21282714.6384   21282711.2334
      2018.8494       1573.1344         50.0004         45.0004
  -7963583.40043  -6176547.10142  22501448.6744   22501453.2064   22501448.2234
      1567.9174       1221.7604         46.0004         41.0004
 04 12 24  1 46  0.0000000  0  8G 3G 1G19G25G15G14G11G20
  -8833471.96943  -6843679.52042  23396291.6644   23396299.0144   23396291.8234
     -3464.8324      -2699.8694         42.0004         37.0004
 -19707890.95443 -15310498.70842  20383937.1764   20383941.7234   20383936.8954
       -46.3564        -36.1224         51.0004         47.0004
 -14776322.63043 -11470825.21242  21625180.7524   21625183.5084   21625179.9334
     -2466.8134      -1922.1964         49.0004         45.0004
  -2009199.06043  -1524061.97542  23472056.2544   23472063.0394   23472056.2064
      2467.7394       1922.9154         43.0004         38.0004
   6831660.52443   5370425.83442  25003429.3664   25003438.2334   25003428.9224
     -2562.3714      -1996.6504         38.0004         34.0004
  -6393067.17043  -4932084.82342  22844998.3494   22845003.0894   22844998.0524
     -2864.3644      -2231.9714         44.0004         39.0004
 -17355533.30543 -13487025.73042  21271211.6734   21271214.9404   21271211.5204
      2009.5084       1565.8554         50.0004         45.0004
  -8010531.21443  -6213129.79442  22492514.7774   22492519.3384   22492514.3634
      1561.3994       1216.6754         46.0004         41.0004
 04 12 24  1 46 30.0000000  0  8G 3G 1G19G25G15G14G11G20
  -8729489.61543  -6762654.42042  23416079.0584   23416086.2404   23416079.0924
     -3467.8914      -2702.2524         42.0004         37.0004
 -19706208.05143 -15309187.35142  20384257.4554   20384262.0064   20384257.1514
       -65.8654        -51.3104         51.0004         47.0004
 -14702122.08143 -11413006.66542  21639300.6714   21639303.4674   21639299.8774
     -2480.0004      -1932.4614         49.0004         45.0004
  -2083130.29943  -1581670.65842  23457987.5174   23457994.2164   23457987.4644
      2460.9804       1917.6434         43.0004         38.0004
   6908602.24643   5430380.13542  25018071.0144   25018080.4454   25018070.3894
     -2567.0624      -2000.2884         38.0004         34.0004
  -6306994.65343  -4865015.39442  22861377.4764   22861382.0614   22861377.2294
     -2874.1524      -2239.5954         44.0004         39.0004
 -17415698.98743 -13533908.07142  21259762.4944   21259765.8184   21259762.3794
      2001.4074       1559.5594         50.0004         45.0004
  -8057300.43643  -6249573.32942  22483614.9164   22483619.4044   22483614.4624
      1556.2154       1212.6414         46.0004         41.0004
 04 12 24  1 47  0.0000000  0  8G 3G 1G19G25G15G14G11G20
  -8625393.38743  -6681540.61042  23435888.0204   23435895.3324   23435888.0534
     -3472.1694      -2705.5814         42.0004         37.0004
 -19703915.93243 -15307401.28242  20384693.5794   20384698.1974   20384693.3204
       -86.5864        -67.4774         51.0004         47.0004
 -14627506.27343 -11354864.53742  21653499.6854   21653502.3804   21653498.8474
     -2494.1144      -1943.4764         49.0004         45.0004
  -2156825.66043  -1639095.53142  23443963.7364   23443970.2854   23443963.5884
      2452.5434       1911.0714         43.0004         38.0004
   6985700.74343   5490456.53642  25032742.5804   25032752.1064   25032741.7824
     -2572.0844      -2004.2264         38.0004         33.0004
  -6220604.73943  -4797698.62842  22877817.0714   22877821.5774   22877816.6284
     -2885.0574      -2248.0994         44.0004         39.0004
 -17475596.47343 -13580581.43942  21248364.4094   21248367.6994   21248364.2624
      1991.8274       1552.0804         50.0004         45.0004
  -8103891.19443  -6285877.80042  22474748.9364   22474753.4114   22474748.5054
      1549.8614       1207.6824         46.0004         41.0004
 04 12 24  1 47 30.0000000  0  8G 3G 1G19G25G15G14G11G20
  -8521186.59843  -6600340.63942  23455718.1824   23455725.4134   23455718.0324
     -3475.5424      -2708.2154         42.0004         37.0004
 -19701015.48443 -15305141.19442  20385245.5314   20385250.1424   20385245.2634
      -107.0624        -83.4304         51.0004         47.0004
 -14552478.03243 -11296401.01642  21667777.1094   21667779.8394   21667776.2704
     -2508.0884      -1954.3424         49.0004         45.0004
  -2230282.13443  -1696334.24442  23429985.4204   23429991.8714   23429985.3654
      2444.2254       1904.5884         43.0004         39.0004
   7062955.64943   5550654.86042  25047443.8714   25047453.9034   25047443.0194
     -2578.2674      -2009.0114         38.0004         34.0004
  -6133900.42143  -4730136.86642  22894316.4834   22894320.9344   22894315.9904
     -2895.6684      -2256.3644         44.0004         39.0004
 -17535224.03643 -13627044.46542  21237017.6684   21237020.9414   21237017.5324
      1982.8514       1545.0914         50.0004         45.0004
  -8150304.34343  -6322043.86042  22465916.7954   22465921.2704   22465916.2954
      1543.7034       1202.8804         46.0004         41.0004
 04 12 24  1 48  0.0000000  0  8G 3G 1G19G25G15G14G11G20
  -8416873.18143  -6519057.57742  23475568.4604   23475575.7344   23475568.4234
     -3478.5364      -2710.5354         42.0004         37.0004
 -19697508.33143 -15302408.34942  20385912.9054   20385917.5214   20385912.6334
      -126.6104        -98.6394         51.0004         47.0004
 -14477040.90343 -11237618.90242  21682132.3984   21682135.1444   21682131.5624
     -2520.9464      -1964.3624         49.0004         45.0004
  -2303497.46743  -1753385.05442  23416052.8714   23416059.4404   23416053.0094
      2436.6644       1898.6994         43.0004         38.0004
   7140365.30443   5610973.82342  25062174.6064   25062184.6434   25062173.6144
     -2582.5804      -2012.3844         38.0004         34.0004
  -6046885.43343  -4662333.04142  22910874.9544   22910879.4834   22910874.4394
     -2905.5664      -2264.0744         44.0004         39.0004
 -17594580.81643 -13673296.50242  21225722.3554   21225725.6944   21225722.2494
      1974.4044       1538.4994         50.0004         45.0004
  -8196541.50843  -6358072.80642  22457118.2364   22457122.5764   22457117.6974
      1539.0424       1199.2604         46.0004         41.0004
 04 12 24  1 48 30.0000000  0  9G 3G 1G19G25G15G23G14G11G20
  -8312455.28043  -6437693.08342  23495438.7974   23495445.8384   23495438.5814
     -3481.9174      -2713.1764         41.0004         37.0004
 -19693394.30243 -15299202.60742  20386695.7454   20386700.4184   20386695.4854
      -147.0894       -114.6114         51.0004         47.0004
 -14401196.93643 -11178519.76942  21696565.1764   21696567.8964   21696564.2794
     -2534.6324      -1975.0374         49.0004         45.0004
  -2376467.86843  -1810245.02342  23402167.0794   23402173.4514   23402167.2504
      2428.7224       1892.5094         43.0004         39.0004
   7217930.16543   5671413.74142  25076935.0524   25076945.0094   25076934.1124
     -2587.6484      -2016.3524         39.0004         34.0004
   -318156.00443   -194833.77142  24170635.4444   24170639.2604   24170635.5154
      3600.2034       2805.3484         47.0004         36.0004
  -5959562.02243  -4594288.87042  22927492.0084   22927496.6484   22927491.6144
     -2915.7274      -2271.9944         44.0004         39.0004
 -17653664.04643 -13719335.37242  21214479.2054   21214482.5424   21214479.0764
      1965.0934       1531.2564         50.0004         45.0004
  -8242602.35743  -6393964.35942  22448353.1474   22448357.4524   22448352.6224
      1532.8164       1194.3914         46.0004         42.0004
 04 12 24  1 49  0.0000000  0  9G 3G 1G19G25G15G23G14G11G20
  -8207934.84843  -6356248.70542  23515328.3434   23515335.6184   23515328.2424
     -3485.7224      -2716.1454         42.0004         37.0004
 -19688673.41243 -15295523.99242  20387594.0944   20387598.7814   20387593.8284
      -167.4764       -130.5024         51.0004         47.0004
 -14324947.79643 -11119104.91642  21711074.9304   21711077.6644   21711074.0424
     -2548.5074      -1985.8474         49.0004         44.0004
  -2449189.65243  -1866911.27042  23388328.6024   23388334.9574   23388328.6674
      2419.8064       1885.5604         43.0004         39.0004
   7295650.43243   5731974.72142  25091724.7424   25091735.4374   25091723.9314
     -2593.4674      -2020.8634         38.0004         34.0004
   -426076.25243   -278927.39942  24150098.9744   24150102.3994   24150098.8534
      3594.9654       2801.2764         43.0004         36.0004
  -5871931.93643  -4526005.73242  22944167.4424   22944172.1324   22944167.0634
     -2926.0264      -2280.0174         43.0004         39.0004
 -17712470.69243 -13765158.74142  21203288.6494   21203292.0034   21203288.5384
      1955.6134       1523.8494         50.0004         45.0004
  -8288486.34743  -6429718.10342  22439621.7274   22439626.0554   22439621.2124
      1526.5714       1189.5334         46.0004         42.0004
 04 12 24  1 49 30.0000000  0  9G 3G 1G19G25G15G23G14G11G20
  -8103315.28443  -6274727.09842  23535236.8744   23535244.1344   23535236.6104
     -3488.7444      -2718.4964         42.0004         37.0004
 -19683346.90843 -15291373.46742  20388607.7604   20388612.3654   20388607.4584
      -187.5894       -146.1784         51.0004         47.0004
 -14248296.34043 -11059376.56042  21725661.2584   21725664.0074   21725660.3834
     -2561.7474      -1996.1714         49.0004         44.0004
  -2521659.98143  -1923381.56942  23374537.8694   23374544.2394   23374537.9794
      2411.6354       1879.1854         43.0004         39.0004
   7373525.26343   5792656.12442  25106543.8694   25106554.7944   25106543.5564
     -2598.0784      -2024.4694         38.0004         34.0004
   -533843.82843   -362902.10142  24129591.3444   24129595.0214   24129591.5604
      3589.7414       2797.1954         42.0004         37.0004
  -5783998.50043  -4457486.23142  22960900.5644   22960905.3224   22960900.2694
     -2936.1414      -2287.9014         43.0004         39.0004
 -17770999.15543 -13810765.32942  21192151.0604   21192154.4104   21192150.9584
      1946.2764       1516.5674         50.0004         45.0004
  -8334194.57743  -6465334.88842  22430923.8304   22430928.0974   22430923.2404
      1520.6774       1184.9414         46.0004         42.0004
 04 12 24  1 50  0.0000000  0  9G 3G 1G19G25G15G23G14G11G20
  -7998599.34743  -6193130.41142  23555163.7784   23555171.0294   23555163.5064
     -3491.4954      -2720.6354         42.0004         37.0004
 -19677415.46343 -15286751.56542  20389736.4244   20389741.0484   20389736.1404
      -207.4564       -161.6514         51.0004         47.0004
 -14171245.52143 -10999337.03442  21740323.6084   21740326.3994   21740322.7144
     -2574.6514      -2006.2164         49.0004         44.0004
  -2593875.67443  -1979653.46942  23360795.6114   23360801.9104   23360795.6754
      2403.3754       1872.7574         43.0004         39.0004
   7451554.59943   5853457.90842  25121392.7564   25121403.5154   25121392.4284
     -2603.2854      -2028.5164         38.0004         34.0004
   -641456.68943   -446756.18942  24109113.4464   24109116.9904   24109113.3534
      3584.5944       2793.1764         42.0004         37.0004
  -5695764.70043  -4388732.66742  22977690.9894   22977695.6384   22977690.6044
     -2945.7944      -2295.4244         43.0004         39.0004
 -17829247.72943 -13856153.82142  21181066.7974   21181070.0584   21181066.6794
      1937.1604       1509.4894         50.0004         45.0004
  -8379727.68143  -6500815.20542  22422259.1734   22422263.3994   22422258.6234
      1515.1054       1180.6004         46.0004         42.0004
 04 12 24  1 50 30.0000000  0  9G 3G 1G19G25G15G23G14G11G20
  -7893790.10743  -6111461.00042  23575108.4504   23575115.6874   23575108.1644
     -3494.8504      -2723.2554         41.0004         37.0004
 -19670880.07443 -15281659.05242  20390980.0544   20390984.6584   20390979.7674
      -227.7194       -177.4344         51.0004         47.0004
 -14093798.29343 -10938988.60942  21755061.4124   21755064.1424   21755060.4904
     -2588.0124      -2016.6344         49.0004         44.0004
  -2665833.54643  -2035724.45842  23347102.4994   23347108.8414   23347102.5614
      2394.6244       1865.9434         44.0004         39.0004
   7529737.53543   5914379.42642  25136270.5854   25136281.6164   25136270.5024
     -2608.0504      -2032.2524         38.0004         34.0004
   -748912.75343   -530488.12142  24088665.1404   24088668.8604   24088665.2044
      3579.2894       2789.0624         41.0004         36.0004
  -5607233.59443  -4319747.42742  22994537.9444   22994542.6174   22994537.5614
     -2955.9024      -2303.2954         43.0004         39.0004
 -17887214.28543 -13901322.56342  21170036.0464   21170039.3764   21170035.9734
      1927.6124       1502.0544         50.0004         45.0004
  -8425086.23843  -6536159.52442  22413627.6264   22413631.9424   22413627.0864
      1509.2034       1176.0094         46.0004         42.0004
 04 12 24  1 51  0.0000000  0  9G 3G 1G19G25G15G23G14G11G20
  -7788890.21243  -6029720.95842  23595070.2774   23595077.6874   23595070.1174
     -3498.4914      -2726.0964         41.0004         36.0004
 -19663741.09843 -15276096.21442  20392338.5714   20392343.1894   20392338.2924
      -248.1134       -193.3384         51.0004         47.0004
 -14015956.79543 -10878332.95542  21769874.1904   21769876.9234   21769873.2694
     -2601.3624      -2027.0364         49.0004         44.0004
  -2737530.18843  -2091591.89842  23333459.0704   23333465.3714   23333459.0294
      2385.1064       1858.5214         44.0004         39.0004
   7608073.96743   5975420.52442  25151177.8554   25151188.6584   25151177.5484
     -2613.6224      -2036.5744         39.0004         34.0004
   -856209.15243   -614095.61142  24068247.3384   24068250.9634   24068247.2224
      3573.7234       2784.7064         41.0004         36.0004
  -5518407.34543  -4250532.23742  23011441.0704   23011445.7214   23011440.6234
     -2965.7454      -2310.9714         43.0004         39.0004
 -17944896.58543 -13946269.79942  21159059.5194   21159062.7674   21159059.3944
      1917.9054       1494.4534         50.0004         45.0004
  -8470270.34643  -6571367.89442  22405029.4204   22405033.7074   22405028.8464
      1503.0414       1171.2004         46.0004         42.0004
 04 12 24  1 51 30.0000000  0  9G 3G 1G19G25G15G23G14G11G20
  -7683903.06243  -5947912.89642  23615048.5184   23615056.1344   23615048.4714
     -3500.2004      -2727.4274         41.0004         36.0004
 -19656000.05343 -15270064.22942  20393811.6294   20393816.2914   20393811.3404
      -267.5564       -208.4874         51.0004         47.0004
 -13937724.41343 -10817372.71642  21784761.2924   21784764.0544   21784760.4084
     -2613.7304      -2036.6734         49.0004         44.0004
  -2808963.15243  -2147253.86742  23319865.8094   23319872.0684   23319865.7564
      2377.2514       1852.4054         44.0004         39.0004
   7686563.09243   6036580.63342  25166114.1684   25166124.8544   25166114.0174
     -2618.2474      -2040.1844         38.0004         33.0004
   -963344.55843   -697577.66942  24047860.0354   24047863.9674   24047859.6694
      3568.7464       2780.8404         41.0004         36.0004
  -5429289.47143  -4181089.78742  23028399.8194   23028404.3404   23028399.3654
     -2974.7104      -2317.9504         43.0004         39.0004
 -18002293.08043 -13990994.32742  21148137.3964   21148140.5664   21148137.2174
      1909.0834       1487.5924         50.0004         45.0004
  -8515281.11143  -6606441.20942  22396464.0334   22396468.4584   22396463.5474
      1497.9054       1167.1964         46.0004         42.0004
 04 12 24  1 52  0.0000000  0  9G 3G 1G19G25G15G23G14G11G20
  -7578830.52743  -5866038.34142  23635043.3034   23635050.9324   23635043.4154
     -3503.3884      -2729.8994         41.0004         37.0004
 -19647656.64143 -15263562.86942  20395399.3324   20395403.9844   20395399.0464
      -287.9714       -224.3874         51.0004         47.0004
 -13859102.92543 -10756109.28942  21799722.4604   21799725.3204   21799721.6294
     -2626.9234      -2046.9474         49.0004         44.0004
  -2880128.17843  -2202707.06642  23306323.4914   23306329.7654   23306323.4274
      2367.9564       1845.1594         44.0004         39.0004
   7765205.11143   6097859.84842  25181079.2154   25181090.6354   25181083.4904
     -2623.2514      -2044.0824         38.0004         33.0004
  -1070315.59243   -780931.65842  24027503.7634   24027507.9724   24027503.5784
      3563.1124       2776.4594         41.0004         37.0004
  -5339881.87143  -4111421.58142  23045413.5434   23045418.2174   23045413.2294
     -2984.7684      -2325.7904         43.0004         39.0004
 -18059400.95343 -14035493.95842  21137270.0914   21137273.2894   21137269.9414
      1898.9294       1479.6904         50.0004         45.0004
  -8560118.13543  -6641379.12742  22387931.8954   22387936.2054   22387931.3544
      1491.8434       1162.4764         46.0004         42.0004
 04 12 24  1 52 30.0000000  0  9G 3G 1G19G25G15G23G14G11G20
  -7473676.04643  -5784099.91542  23655053.4364   23655061.3314   23655053.7554
     -3506.2444      -2732.1274         41.0004         37.0004
 -19638712.27343 -15256593.23242  20397101.4074   20397106.0254   20397101.0954
      -308.0014       -240.0014         51.0004         47.0004
 -13780095.26443 -10694544.93542  21814757.3044   21814760.0724   21814756.3484
     -2639.8144      -2056.9954         49.0004         44.0004
  -2951022.79043  -2257949.54342  23292832.6464   23292838.7944   23292832.6274
      2358.8114       1838.0274         44.0004         39.0004
                   6159257.48042  25196073.574    25196081.2334
                     -2048.3004                         33.0004
  -1177120.80743   -864156.41742  24007179.2664   24007183.6584   24007178.8974
      3557.3394       2771.9424         41.0004         36.0004
  -5250187.81243  -4041530.16742  23062481.7894   23062486.5014   23062481.4254
     -2994.2914      -2333.2104         43.0004         39.0004
 -18116218.48843 -14079767.35042  21126458.0854   21126461.2454   21126457.9164
      1889.2714       1472.1704         50.0004         45.0004
  -8604782.53743  -6676182.55242  22379432.3934   22379436.8414   22379431.9644
      1486.0144       1157.9274         46.0004         42.0004
 04 12 24  1 53  0.0000000  0  9G 3G 1G19G25G15G23G14G11G20
  -7368442.37043  -5702099.80542  23675078.8294   23675086.8104   23675079.3224
     -3507.9104      -2733.4234         41.0004         37.0004
 -19629167.74643 -15249155.93842  20398917.6324   20398922.2894   20398917.3494
      -326.7004       -254.5624         51.0004         47.0004
 -13700704.31443 -10632681.92142  21829864.8414   21829867.7754   21829863.9424
     -2651.3864      -2066.0094         49.0004         44.0004
  -3021643.87543  -2312978.89242  23279393.8134   23279399.8974   23279393.7474
      2350.8324       1831.8214         44.0004         39.0004
   7922944.93543   6220773.36442  25211096.3734   25211106.9754   25211100.4444
     -2633.2464      -2051.8714         38.0004         33.0004
  -1283757.74243   -947250.05442  23986886.8764   23986890.9594   23986886.4514
      3553.1364       2768.6774         41.0004         36.0004
  -5160209.91843  -3971417.58742  23079604.1774   23079608.7264   23079603.7454
     -3002.5904      -2339.6704         43.0004         39.0004
 -18172743.61743 -14123812.89842  21115701.6604   21115704.8604   21115701.5224
      1880.7694       1465.5464         50.0004         45.0004
  -8649274.50843  -6710851.60342  22370965.8824   22370970.3544   22370965.4134
      1481.6174       1154.5084         46.0004         42.0004
 04 12 24  1 53 30.0000000  0  9G 3G 1G19G25G15G23G14G11G20
  -7263132.50343  -5620040.30742  23695118.9834   23695126.7194   23695119.3604
     -3511.8854      -2736.5194         41.0004         37.0004
 -19619024.08243 -15241251.78642  20400847.9714   20400852.5434   20400847.6334
      -348.0384       -271.1884         51.0004         47.0004
 -13620932.88943 -10570522.43242  21845044.8214   21845047.7914   21845043.9724
     -2665.1344      -2076.7254         49.0004         44.0004
  -3091988.31843  -2367792.68842  23266007.6984   23266013.5894   23266007.6644
      2340.2834       1823.6004         44.0004         39.0004
                   6282406.95842  25226148.195    25226161.3654
                     -2056.3124                         33.0004
  -1390224.48243  -1030211.05542  23966626.7554   23966630.9914   23966626.6284
      3545.8174       2762.9744         41.0004         37.0004
  -5069951.15043  -3901086.14242  23096779.8894   23096784.5134   23096779.4804
     -3012.7724      -2347.6114         43.0004         39.0004
 -18228974.41943 -14167629.10242  21105001.3034   21105004.4844   21105001.1264
      1869.5204       1456.7854         50.0004         45.0004
  -8693594.86443  -6745386.93742  22362531.9594   22362536.4024   22362531.5344
      1474.5494       1149.0024         46.0004         42.0004
 04 12 24  1 54  0.0000000  0  9G 3G 1G19G25G15G23G14G11G20
  -7157749.45843  -5537923.75142  23715172.8064   23715180.5124   23715173.0804
     -3514.1184      -2738.2764         41.0004         36.0004
 -19608282.29643 -15232881.55842  20402892.0724   20402896.6384   20402891.7614
      -367.6104       -286.4444         51.0004         47.0004
 -13540783.60743 -10508068.50042  21860296.7074   21860299.7724   21860295.8814
     -2677.4764      -2086.3374         48.0004         44.0004
  -3162053.20343  -2422388.64642  23252674.7504   23252680.5114   23252674.6264
      2331.0284       1816.3844         44.0004         39.0004
   8081289.43453   6344158.04952  25241228.7264   25241241.6154   25241230.0824
     -2643.1444      -2059.5834         37.0004         33.0004
  -1496518.49043  -1113037.44642  23946399.8294   23946403.7634   23946399.3574
      3540.7674       2759.0404         41.0004         37.0004
  -4979414.11343  -3830537.86542  23114008.5044   23114013.2764   23114008.0894
     -3021.9104      -2354.7394         43.0004         39.0004
 -18284908.98743 -14211214.46242  21094357.3514   21094360.5044   21094357.1354
      1859.9054       1449.2754         50.0004         45.0004
  -8737743.93043  -6779788.78642  22354130.5994   22354135.1114   22354130.2214
      1469.1934       1144.8194         46.0004         42.0004
 04 12 24  1 54 30.0000000  0  9G 3G 1G19G25G15G23G14G11G20
  -7052295.94643  -5455752.33142  23735240.1564   23735247.7174   23735240.2264
     -3515.7574      -2739.5434         41.0004         36.0004
 -19596943.24343 -15224045.93842  20405049.8024   20405054.3924   20405049.5044
      -387.5714       -302.0054         51.0004         47.0004
 -13460259.19043 -10445322.27042  21875619.9764   21875623.1214   21875619.1804
     -2690.1004      -2096.1824         48.0004         44.0004
  -3231834.93543  -2476763.97642  23239395.7324   23239401.4304   23239395.5874
      2321.4844       1808.9444         44.0004         39.0004
   8160687.31043   6406026.18542  25256337.8374   25256347.7504   25256344.2274
     -2648.6854      -2063.9074         37.0004         33.0004
  -1602637.61943  -1195727.59442  23926206.0844   23926210.0394   23926205.5534
      3534.4804       2754.1384         42.0004         37.0004
  -4888601.67943  -3759775.00442  23131289.6114   23131294.3514   23131289.2984
     -3031.2544      -2362.0174         43.0004         39.0004
 -18340545.17943 -14254567.33942  21083770.0514   21083773.2674   21083769.9104
      1849.9804       1441.5484         50.0004         45.0004
  -8781722.13943  -6814057.50942  22345761.8694   22345766.3424   22345761.4234
      1463.3434       1140.2704         46.0004         42.0004
 04 12 24  1 55  0.0000000  0  9G 3G 1G19G25G15G23G14G11G20
  -6946773.74643  -5373527.41842  23755320.7084   23755328.0084   23755320.7104
     -3518.2364      -2741.4834         41.0004         36.0004
 -19585007.19643 -15214745.12542  20407321.1164   20407325.7584   20407320.8514
      -407.8074       -317.7714         51.0004         47.0004
 -13379361.52443 -10382285.19342  21891014.3714   21891017.4974   21891013.5524
     -2702.8874      -2106.1434         48.0004         44.0004
  -3301329.83543  -2530915.77142  23226171.1274   23226176.9974   23226170.9834
      2311.7934       1801.4024         44.0004         39.0004
   8240235.66843   6468011.60942  25271475.4814   25271487.7484   25271478.6364
     -2653.8634      -2067.9284         38.0004         33.0004
  -1708579.12543  -1278279.31542  23906046.0574   23906049.9294   23906045.5214
      3528.3894       2749.3954         41.0004         37.0004
  -4797515.85743  -3688799.10642  23148622.7554   23148627.4064   23148622.4454
     -3040.6394      -2369.3244         43.0004         39.0004
 -18395880.13443 -14297685.47442  21073240.0564   21073243.3794   21073239.9684
      1839.4834       1433.3814         50.0004         45.0004
  -8825529.18343  -6848192.86142  22337425.6684   22337430.0754   22337425.2094
      1457.3914       1135.6324         46.0004         42.0004
 04 12 24  1 55 30.0000000  0  9G 3G 1G19G25G15G23G14G11G20
  -6841187.37243  -5291252.45442  23775413.2874   23775420.4534   23775413.1884
     -3520.9144      -2743.5664         41.0004         36.0004
 -19572476.68843 -15204981.09842  20409705.5974   20409710.2034   20409705.3484
      -427.9344       -333.4604         51.0004         47.0004
 -13298094.89443 -10318960.60742  21906478.8444   21906482.0914   21906478.0994
     -2715.3094      -2115.8274         48.0004         44.0004
  -3370536.09443  -2584842.68242  23213001.4304   23213007.4764   23213001.3634
      2301.6394       1793.4824         44.0004         39.0004
   8319932.63043   6530112.84442  25286641.5314   25286655.0074   25286641.6794
     -2659.2494      -2072.1204         38.0004         33.0004
  -1814341.98243  -1360691.82442  23885919.8814   23885923.8384   23885919.4184
      3522.4234       2744.7324         41.0004         37.0004
  -4706160.90443  -3617613.49642  23166006.9744   23166011.6754   23166006.7854
     -3050.1474      -2376.7344         43.0004         39.0004
 -18450913.15643 -14340568.34342  21062767.6254   21062770.9514   21062767.5264
      1829.1814       1425.3304         50.0004         46.0004
  -8869166.91043  -6882196.26742  22329121.6894   22329126.1074   22329121.1804
      1451.4694       1131.0074         46.0004         42.0004
 04 12 24  1 56  0.0000000  0  9G 3G 1G19G25G15G23G14G11G20
  -6735538.41143  -5208928.74242  23795517.6694   23795524.9404   23795517.6124
     -3522.3154      -2744.6604         41.0004         37.0004
 -19559351.67243 -15194753.81242  20412203.2534   20412207.8204   20412202.9624
      -447.4934       -348.6984         51.0004         47.0004
 -13216461.00243 -10255349.84142  21922013.3484   21922016.5314   21922012.5534
     -2726.9314      -2124.8804         48.0004         43.0004
  -3439449.55943  -2638541.42242  23199887.6374   23199893.7074   23199887.4954
      2292.1534       1786.0934         44.0004         39.0004
   8399778.72743   6592330.28042  25301835.9884   25301848.5194   25301836.4674
     -2663.4034      -2075.3654         38.0004         34.0004
  -1919923.09043  -1442962.71542  23865828.6344   23865832.4044   23865828.0334
      3516.4004       2740.0574         42.0004         37.0004
  -4614538.37643  -3546219.39842  23183442.3124   23183446.8134   23183442.0354
     -3058.5034      -2383.2484         43.0004         38.0004
 -18505641.00743 -14383213.41242  21052353.2504   21052356.5764   21052353.1574
      1819.3544       1417.6864         50.0004         46.0004
  -8912634.91843  -6916067.43442  22320849.9034   22320854.4234   22320849.3904
      1446.2064       1126.9254         46.0004         42.0004
 04 12 24  1 56 30.0000000  0  9G 3G 1G19G25G15G23G14G11G20
  -6629829.75143  -5126558.50742  23815633.6504   23815640.8304   23815633.4174
     -3524.5124      -2746.3774         41.0004         36.0004
 -19545633.24643 -15184064.14142  20414813.7944   20414818.3494   20414813.4984
      -466.9994       -363.8994         51.0004         47.0004
 -13134462.79743 -10191455.20442  21937617.2454   21937620.3384   21937616.3554
     -2739.2074      -2134.4514         48.0004         44.0004
  -3508067.29543  -2692009.74942  23186830.0474   23186836.1644   23186829.9144
      2282.2344       1778.3594         44.0004         39.0004
   8479773.56943   6654663.61442  25317058.8694   25317070.8614   25317058.8634
     -2668.4214      -2079.2644         38.0004         33.0004
  -2025320.58443  -1525090.55542  23845771.9704   23845775.8734   23845771.5344
      3510.0264       2735.0834         42.0004         37.0004
  -4522651.36743  -3474619.19042  23200927.8064   23200932.2274   23200927.5204
     -3067.4544      -2390.2214         43.0004         38.0004
 -18560061.74243 -14425619.16742  21041997.3714   21042000.6344   21041997.2114
      1809.1414       1409.7174         50.0004         46.0004
  -8955933.88443  -6949806.87842  22312610.4234   22312614.9254   22312609.8644
      1440.5164       1122.4764         46.0004         42.0004
 04 12 24  1 57  0.0000000  0  9G 3G 1G19G25G15G23G14G11G20
  -6524064.40743  -5044144.10642  23835760.3514   23835767.5544   23835759.9954
     -3526.7714      -2748.1164         41.0004         36.0004
 -19531322.43843 -15172912.86342  20417537.0514   20417541.5634   20417536.7554
      -486.9324       -379.4204         51.0004         47.0004
 -13052102.85743 -10127278.69542  21953289.8264   21953292.9724   21953288.9964
     -2751.6284      -2144.1314         48.0004         44.0004
  -3576386.28543  -2745245.29542  23173829.2324   23173835.3364   23173829.1384
      2271.9764       1770.3634         44.0004         39.0004
   8559916.60843   6717112.43042  25332309.7224   25332321.5794   25332309.5434
     -2674.1734      -2083.7464         37.0004         33.0004
  -2130532.08643  -1607073.44742  23825750.6894   23825754.8474   23825750.1694
      3503.9344       2730.3344         42.0004         37.0004
  -4430502.46243  -3402814.91642  23218463.0944   23218467.6854   23218462.9734
     -3076.0554      -2396.9234         43.0004         38.0004
 -18614173.42243 -14467784.10842  21031700.1834   21031703.5254   21031700.0914
      1798.4594       1401.4004         50.0004         46.0004
  -8999063.91843  -6983414.68842  22304402.9464   22304407.5084   22304402.4444
      1434.5384       1117.8284         46.0004         42.0004
 04 12 24  1 57 30.0000000  0  9G 3G 1G19G25G15G23G14G11G20
  -6418245.51543  -4961687.98842  23855897.2024   23855904.4784   23855896.6514
     -3527.8694      -2748.9954         41.0004         36.0004
 -19516420.69343 -15161301.12242  20420372.7604   20420377.3044   20420372.4624
      -506.4474       -394.6224         51.0004         47.0004
 -12969384.37143 -10062822.80542  21969030.7274   21969033.8344   21969029.8934
     -2763.0004      -2152.9794         48.0004         43.0004
  -3644403.88943  -2798245.98542  23160885.8154   23160892.0104   23160885.7634
      2262.2794       1762.8164         44.0004         39.0004
   8640206.72643   6779675.82242  25347588.6774   25347600.5214   25347588.1694
     -2679.2014      -2087.6764         37.0004         33.0004
  -2235555.70443  -1688909.96042  23805764.8174   23805769.4654   23805764.4164
      3497.9054       2725.6414         41.0004         37.0004
  -4338094.78643  -3330808.99742  23236047.9314   23236052.2604   23236047.6234
     -3084.6434      -2403.6124         43.0004         38.0004
 -18667974.40043 -14509706.94342  21021462.2144   21021465.5514   21021462.1004
      1788.1874       1393.4004         50.0004         46.0004
  -9042026.27743  -7016891.83942  22296227.5574   22296231.9584   22296227.0044
      1429.3304       1113.7624         46.0004         42.0004
 04 12 24  1 58  0.0000000  0  9G 3G 1G19G25G15G23G14G11G20
  -6312375.57343  -4879192.07842  23876043.7084   23876050.9944   23876043.1954
     -3530.4424      -2750.9964         41.0004         36.0004
 -19500928.75343 -15149229.49042  20423320.7464   20423325.3414   20423320.4764
      -526.7914       -410.5064         51.0004         47.0004
 -12886309.85343  -9998089.49042  21984839.3814   21984842.4574   21984838.5414
     -2775.7124      -2162.8934         48.0004         43.0004
  -3712116.42843  -2851008.97642  23148000.5364   23148006.6884   23148000.4234
      2251.4064       1754.3424         43.0004         39.0004
   8720644.04743   6842353.94742  25362895.8024   25362907.9644   25362894.9704
     -2684.7564      -2091.9734         38.0004         33.0004
  -2340388.84243  -1770598.08742  23785815.4614   23785819.9364   23785814.8964
      3490.5984       2719.9414         41.0004         37.0004
  -4245430.87243  -3258603.41142  23253681.4444   23253685.6974   23253681.1004
     -3093.8154      -2410.7604         43.0004         38.0004
 -18721462.36543 -14551385.87442  21011283.7974   21011287.1414   21011283.6504
      1777.0424       1384.6984         50.0004         46.0004
  -9084820.83443  -7050238.23342  22288084.0084   22288088.4274   22288083.4434
      1423.0524       1108.8544         46.0004         42.0004
 04 12 24  1 58 30.0000000  0  9G 3G 1G19G25G15G23G14G11G20
  -6206457.27143  -4796658.50442  23896199.3614   23896206.8334   23896199.0144
     -3531.6044      -2751.8924         41.0004         36.0004
 -19484847.87043 -15136698.93742  20426380.8524   20426385.4204   20426380.5584
      -545.6674       -425.2064         51.0004         47.0004
 -12802882.07843  -9933080.90742  22000715.1594   22000718.2574   22000714.3554
     -2786.5414      -2171.3244         48.0004         43.0004
  -3779520.87743  -2903531.89642  23135173.8304   23135180.1164   23135173.6284
      2241.9324       1746.9664         43.0004         39.0004
                   6905146.28942  25378230.619    25378243.1254
                     -2095.0074                         32.0004
  -2445029.45643  -1852136.14342  23765902.8454   23765907.1904   23765902.2054
      3484.7274       2715.3744         41.0004         37.0004
  -4152513.25643  -3186200.13442  23271363.1804   23271367.4984   23271362.8794
     -3101.5614      -2416.7944         43.0004         38.0004
 -18774635.06243 -14592819.14242  21001165.2944   21001168.7114   21001165.2124
      1767.1964       1377.0374         50.0004         46.0004
  -9127447.94843  -7083454.16142  22279972.3614   22279976.7474   22279971.8044
      1418.2454       1105.1254         47.0004         42.0004
 04 12 24  1 59  0.0000000  0  9G 3G 1G19G25G15G23G14G11G20
  -6100494.35843  -4714090.13242  23916363.0564   23916370.9144   23916363.1074
     -3533.1564      -2753.0934         40.0004         35.0004
 -19468180.05643 -15123711.03842  20429552.6484   20429557.1764   20429552.3384
      -565.2074       -440.4144         51.0004         47.0004
 -12719104.71443  -9867799.91042  22016657.4974   22016660.5774   22016656.6834
     -2798.2634      -2180.4644         48.0004         43.0004
  -3846614.84843  -2955812.88242  23122406.2194   23122412.5734   23122406.0424
      2231.3794       1738.7384         43.0004         39.0004
                   6968051.65442  25393593.206    25393605.3504
                     -2098.4474                         32.0004
  -2549476.12643  -1933523.11642  23746027.0374   23746031.4124   23746026.5704
      3477.9994       2710.1324         41.0004         37.0004
  -4059345.67143  -3113602.07742  23289092.4874   23289096.8164   23289092.1704
     -3109.7064      -2423.1474         43.0004         38.0004
 -18827491.35543 -14634005.86542  20991107.0864   20991110.5284   20991106.9784
      1756.7004       1368.8534         50.0004         46.0004
  -9169909.41343  -7116541.01542  22271892.2484   22271896.5564   22271891.6754
      1412.7814       1100.8744         47.0004         42.0004
 04 12 24  1 59 30.0000000  0  9G 3G 1G19G25G15G23G14G11G20
  -5994487.92143  -4631487.88642  23936535.8824   23936543.4264   23936535.5184
     -3533.6714      -2753.5074         40.0004         35.0004
 -19450925.01443 -15110265.55942  20432836.1964   20432840.7204   20432835.8744
      -584.5394       -455.4744         51.0004         47.0004
 -12634979.08143  -9802247.53442  22032665.9864   22032669.1784   22032665.3014
     -2809.6824      -2189.3604         48.0004         43.0004
  -3913394.11443  -3007848.64242  23109698.5104   23109704.6914   23109698.3364
      2220.9834       1730.6374         43.0004         39.0004
                                  25408983.394

  -2653725.44343  -2014756.27942  23726189.0184   23726193.4064   23726188.6274
      3472.0424       2705.4854         42.0004         37.0004
  -3965929.46343  -3040810.29842  23306869.0654   23306873.4104   23306868.6604
     -3117.6314      -2429.3204         43.0004         38.0004
 -18880027.84843 -14674943.39542  20981109.7194   20981113.1734   20981109.5804
      1746.3324       1360.7834         50.0004         46.0004
  -9212203.97643  -7149497.80242  22263843.8694   22263848.1434   22263843.2924
      1407.5564       1096.8024         47.0004         42.0004
                            4  1
RINEX FILE SPLICE; other post-header comments skipped       COMMENT
 04 12 24  2  0  0.0000000  0  9G 3G 1G19G25G15G23G14G11G20
  -5888441.84943  -4548854.70642  23956716.0504   23956723.5634   23956715.6464
     -3535.2264      -2754.7294         40.0004         35.0004
 -19433084.76543 -15096364.07842  20436231.0724   20436235.6464   20436230.7684
      -604.2124       -470.8094         51.0004         47.0004
 -12550508.77243  -9736426.59242  22048740.2564   22048743.4364   22048739.5294
     -2821.1644      -2198.3074         48.0004         43.0004
  -3979856.35843  -3059637.39842  23097051.1294   23097057.4314   23097050.9404
      2210.2744       1722.2894         44.0004         39.0004
                                  25424401.315

  -2757775.89143  -2095834.52242  23706388.8474   23706393.2054   23706388.5824
      3465.0434       2700.0284         42.0004         37.0004
  -3872268.20843  -2967827.56642  23324692.2344   23324696.7114   23324691.9194
     -3125.5114      -2435.4594         43.0004         38.0004
 -18932243.21143 -14715630.69042  20971173.4744   20971176.9394   20971173.3324
      1735.2754       1352.1714         50.0004         46.0004
  -9254332.92543  -7182325.54442  22255827.0804   22255831.2754   22255826.4904
      1401.8304       1092.3354         47.0004         42.0004
 04 12 24  2  0 30.0000000  0  9G 3G 1G19G25G15G23G14G11G20
  -5782357.88043  -4466192.04642  23976903.1664   23976910.8354   23976902.8954
     -3536.8694      -2755.9824         40.0004         35.0004
 -19414659.63343 -15082006.84242  20439737.2564   20439741.8404   20439736.9764
      -624.0184       -486.2524         51.0004         47.0004
 -12465695.86243  -9670338.69042  22064879.6254   22064882.9044   22064878.9394
     -2832.8254      -2207.3974         48.0004         43.0004
  -4045997.43343  -3111175.87542  23084464.9474   23084471.1094   23084464.7634
      2199.2224       1713.6734         44.0004         39.0004
                                  25439846.773

  -2861624.34443  -2176755.32842  23686627.1674   23686631.4364   23686626.8514
      3457.9184       2694.4754         42.0004         37.0004
  -3778363.85343  -2894655.41042  23342561.6244   23342566.1704   23342561.2764
     -3134.4364      -2442.4144         43.0004         38.0004
 -18984134.43543 -14756065.41342  20961298.8914   20961302.3854   20961298.7764
      1724.2064       1343.5614         50.0004         46.0004
  -9296295.76643  -7215023.85242  22247841.7564   22247846.0464   22247841.1434
      1396.1164       1087.8864         47.0004         42.0004
 04 12 24  2  1  0.0000000  0  9G 3G 1G19G25G15G23G14G11G20
  -5676240.34543  -4383503.23242  23997096.7514   23997104.4974   23997096.1544
     -3538.0454      -2756.9124         40.0004         35.0004
 -19395652.43143 -15067196.04442  20443354.1884   20443358.8054   20443353.9004
      -643.9824       -501.8084         51.0004         47.0004
 -12380544.59443  -9603987.12542  22081083.4854   22081086.7194   22081082.7954
     -2844.8164      -2216.7434         48.0004         43.0004
  -4111815.84943  -3162462.93342  23071940.0944   23071946.1394   23071939.9874
      2187.9584       1704.9054         44.0004         39.0004
                                  25455319.325

  -2965270.31243  -2257518.35242  23666903.5664   23666908.2074   23666903.4244
      3450.4754       2688.6774         42.0004         37.0004
  -3684220.56443  -2821297.07442  23360476.5624   23360481.0574   23360476.1934
     -3142.6114      -2448.7854         43.0004         38.0004
 -19035701.11443 -14796247.23942  20951486.1524   20951489.5604   20951485.9674
      1712.8714       1334.7134         50.0004         46.0004
  -9338094.46043  -7247594.25342  22239887.6154   22239891.9454   22239887.0334
      1389.9474       1083.0654         47.0004         42.0004
 04 12 24  2  1 30.0000000  0  9G 3G 1G19G25G15G23G14G11G20
  -5570091.31943  -4300789.85442  24017296.1714   24017304.0854   24017295.8064
     -3539.7734      -2758.2624         40.0004         35.0004
 -19376063.66043 -15051932.08342  20447081.8044   20447086.4314   20447081.4984
      -663.2634       -516.8224         51.0004         47.0004
 -12295056.87343  -9537373.39542  22097351.2784   22097354.5264   22097350.5904
     -2855.8694      -2225.3534         48.0004         43.0004
  -4177307.76343  -3213495.57842  23059477.3664   23059483.4454   23059477.3064
      2176.9454       1696.3194         44.0004         39.0004
                                  25470819.257

  -3068710.78543  -2338121.28042  23647219.2834   23647223.9924   23647219.1104
      3444.2584       2683.8384         42.0004         37.0004
  -3589840.07743  -2747753.88842  23378436.5784   23378441.0124   23378436.3254
     -3150.6814      -2455.0734         42.0004         38.0004
 -19086940.21143 -14836173.80742  20941735.6414   20941739.0664   20941735.4744
      1701.7974       1326.0724         50.0004         46.0004
  -9379728.76443  -7280036.54742  22231964.8474   22231969.1874   22231964.2854
      1384.4264       1078.7714         47.0004         42.0004
