     2.10           OBSERVATION DATA    G (GPS)             RINEX VERSION / TYPE
teqc  2003Apr29                         20041228 00:22:13UTCPGM / RUN BY / DATE
OBSERVATION MODE: IGS-Net                                   COMMENT
PERT Perth (PERT)                                           MARKER NAME
50133M001                                                   MARKER NUMBER
200313003           ASHTECH UZ-12        CJ00               REC # / TYPE / VERS
CR620023901         ASH701945C_M    NONE                    ANT # / TYPE
        0.0595        0.0000        0.0000                  ANTENNA: DELTA H/E/N
  -2368687.2881  4881316.4469  -3341795.6980                APPROX POSITION XYZ
  115.88525091  -31.80196610  12.5793  LonLatAlt  S/W       COMMENT
Solaris 2.7|Ultra 2|cc SC5.0|=+-|*Sparc                     COMMENT
MSWin2000|IAx86-PII|bcc32 5.0|MSWin95->XP|486/DX+           COMMENT
BIT 2 OF LLI FLAGS DATA COLLECTED UNDER A/S CONDITION       COMMENT
AUTOMATIC           ESA/ESOC                                OBSERVER / AGENCY
     1     1                                                WAVELENGTH FACT L1/2
     9    L1    L2    C1    P2    P1    D1    D2    S1    S2# / TYPES OF OBSERV
    30.0000                                                 INTERVAL
 SNR is mapped to RINEX snr flag value [1-9]                COMMENT
  L1: 1 -> 1;  90 -> 5; 210 -> 9                            COMMENT
  L2: 1 -> 1; 150 -> 5; 250 -> 9                            COMMENT
pseudorange smoothing corrections not applied               COMMENT
Checked by ROCK 1.0 [27.12.04-00:18]; status 2: file fixed  COMMENT
    29                                                      # OF SATELLITES
   G01   632   633   637   633   632   632   633   632   633PRN / # OF OBS
   G03   720   731   736   731   720   720   731   720   731PRN / # OF OBS
   G04   825   835   842   835   825   825   835   825   835PRN / # OF OBS
   G05   792   794   794   794   792   792   794   792   794PRN / # OF OBS
   G06   829   830   832   830   829   829   830   829   830PRN / # OF OBS
   G07   521   523   529   523   521   521   523   521   523PRN / # OF OBS
   G08   826   826   831   826   826   826   826   826   826PRN / # OF OBS
   G09   765   770   779   770   765   765   770   765   770PRN / # OF OBS
   G10   835   845   859   845   835   835   845   835   845PRN / # OF OBS
   G11   737   740   761   740   737   737   740   737   740PRN / # OF OBS
   G13   834   839   848   839   834   834   839   834   839PRN / # OF OBS
   G14   737   743   745   743   737   737   743   737   743PRN / # OF OBS
   G15   870   875   881   875   870   870   875   870   875PRN / # OF OBS
   G16   601   604   611   604   601   601   604   601   604PRN / # OF OBS
   G17   676   687   694   687   676   676   687   676   687PRN / # OF OBS
   G18   658   668   675   668   658   658   668   658   668PRN / # OF OBS
   G19   677   678   683   678   677   677   678   677   678PRN / # OF OBS
   G20   770   774   777   774   770   770   774   770   774PRN / # OF OBS
   G21   716   719   719   719   716   716   719   716   719PRN / # OF OBS
   G22   699   706   708   706   699   699   706   699   706PRN / # OF OBS
   G23   846   850   852   850   846   846   850   846   850PRN / # OF OBS
   G24   854   862   867   862   854   854   862   854   862PRN / # OF OBS
   G25   802   809   820   809   802   802   809   802   809PRN / # OF OBS
   G26   619   625   631   625   619   619   625   619   625PRN / # OF OBS
   G27   691   696   699   696   691   691   696   691   696PRN / # OF OBS
   G28   653   663   666   663   653   653   663   653   663PRN / # OF OBS
   G29   620   625   630   625   620   620   625   620   625PRN / # OF OBS
   G30   821   821   825   821   821   821   821   821   821PRN / # OF OBS
   G31   760   777   778   777   760   760   777   760   777PRN / # OF OBS
Checked by ROCK 1.0 [28.12.04-00:24]; status 0: file OK     COMMENT
  2004    12    27     0     0    0.0000000     GPS         TIME OF FIRST OBS
  2004    12    27    23    59   30.0000000     GPS         TIME OF LAST OBS
                                                            END OF HEADER
 04 12 27  0  0  0.0000000  0  7G15G19G 3G 1G22G11G14
  -4509354.86943  -3471359.36842  22797071.1124   22797074.8574   22797070.4414
     -1619.8314      -1262.1984         46.0004         41.0004
 -19344421.68543 -15037521.03242  20731472.8334   20731473.7974   20731471.9564
       921.9324        718.3794         52.0004         47.0004
 -19585047.68743 -15215870.73442  20651568.3994   20651572.2724   20651568.2464
     -1195.4574       -931.5234         50.0004         46.0004
 -11034624.90143  -8547491.02642  22227377.4294   22227381.8544   22227377.1414
      3151.7914       2455.9344         46.0004         42.0004
 -12567381.94543  -9750579.78542  22458996.1584   22458997.6204   22458996.1654
     -2732.4644      -2129.1954         46.0004         41.0004
  -3757084.93343  -2892244.84342  23932238.8184   23932241.8834   23932238.5534
      2674.0014       2083.6384         41.0004         37.0004
 -13080444.12343 -10143277.34642  21343559.5274   21343562.4344   21343559.2024
       378.9994        295.3084         49.0004         44.0004
 04 12 27  0  0 30.0000000  0  7G15G19G 3G 1G22G11G14
  -4460698.66443  -3433445.47542  22806330.0944   22806333.9084   22806329.4814
     -1623.5704      -1265.1224         46.0004         41.0004
 -19371811.51243 -15058863.75442  20726260.7134   20726261.6584   20726259.8704
       904.2134        704.5854         52.0004         47.0004
 -19548907.38443 -15187709.47942  20658445.6754   20658449.5364   20658445.5234
     -1213.6184       -945.6834         50.0004         46.0004
 -11129030.29343  -8621053.64242  22209412.6064   22209417.0604   22209412.3294
      3141.9584       2448.2754         46.0004         42.0004
 -12485343.04443  -9686653.40742  22474607.6764   22474609.1564   22474607.6114
     -2736.8084      -2132.5704         46.0004         41.0004
  -3837300.21243  -2954750.23942  23916974.2274   23916977.2994   23916973.9174
      2674.0184       2083.6494         41.0004         37.0004
 -13091511.81343 -10151901.51642  21341453.4124   21341456.3394   21341453.1044
       358.9714        279.7234         49.0004         45.0004
 04 12 27  0  1  0.0000000  0  7G15G19G 3G 1G22G11G14
  -4411922.29243  -3395437.94042  22815611.8684   22815615.7434   22815611.2984
     -1627.8644      -1268.4704         46.0004         41.0004
 -19398665.70343 -15079789.09042  20721150.5264   20721151.5014   20721149.6754
       886.1734        690.5204         52.0004         47.0004
 -19512221.40343 -15159123.01442  20665426.7944   20665430.6854   20665426.6504
     -1231.7654       -959.8124         50.0004         46.0004
 -11223135.95143  -8694382.69542  22191504.9254   22191509.3124   22191504.6474
      3131.8304       2440.3824         47.0004         42.0004
 -12403167.44743  -9622620.52342  22490245.0984   22490246.7044   22490245.0634
     -2741.2854      -2136.0644         46.0004         42.0004
  -3917522.69043  -3017261.22242  23901708.4044   23901711.4744   23901708.1984
      2674.2664       2083.8494         41.0004         37.0004
 -13101970.46543 -10160051.10542  21339463.1894   21339466.0764   21339462.8634
       338.5814        263.8354         49.0004         44.0004
 04 12 27  0  1 30.0000000  0  7G15G19G 3G 1G22G11G14
  -4363025.51843  -3357336.56942  22824916.6574   22824920.5414   22824916.0124
     -1632.1404      -1271.7954         46.0004         41.0004
 -19424982.97243 -15100296.05042  20716142.5274   20716143.5174   20716141.6824
       868.2884        676.5884         52.0004         47.0004
 -19474990.96343 -15130112.30342  20672511.5524   20672515.4134   20672511.3784
     -1250.1754       -974.1664         50.0004         46.0004
 -11316939.02343  -8767475.97742  22173654.8354   22173659.1274   22173654.5514
      3121.5754       2432.3944         47.0004         42.0004
 -12320857.55443  -9558482.97042  22505908.2734   22505909.7714   22505908.2064
     -2746.0944      -2139.8164         46.0004         41.0004
  -3997752.17443  -3079777.65542  23886440.9934   23886444.2014   23886440.9804
      2674.7584       2084.2194         41.0004         36.0004
 -13111820.07143 -10167726.11842  21337588.8744   21337591.7364   21337588.5384
       317.9604        247.7464         49.0004         45.0004
 04 12 27  0  2  0.0000000  0  7G15G19G 3G 1G22G11G14
  -4314008.11743  -3319141.21442  22834244.3564   22834248.3654   22834243.7524
     -1635.9154      -1274.7384         46.0004         41.0004
 -19450762.22343 -15120383.77942  20711236.9164   20711237.8844   20711236.0774
       850.2574        662.5354         52.0004         47.0004
 -19437217.24443 -15100678.25342  20679699.6984   20679703.5364   20679699.5024
     -1268.2394       -988.2374         50.0004         46.0004
 -11410436.54243  -8840331.14242  22155862.8904   22155867.1534   22155862.5294
      3111.3164       2424.3934         47.0004         42.0004
 -12238415.10643  -9494242.15242  22521596.5004   22521598.0714   22521596.3824
     -2750.2764      -2143.0704         46.0004         42.0004
  -4077987.92943  -3142298.97842  23871172.4714   23871175.8124   23871172.3994
      2674.5804       2084.0834         41.0004         36.0004
 -13121060.00343 -10174926.06442  21335830.5944   21335833.4454   21335830.2664
       297.6394        231.9284         49.0004         45.0004
 04 12 27  0  2 30.0000000  0  7G15G19G 3G 1G22G11G14
  -4264868.90043  -3280850.94442  22843595.2624   22843599.3384   22843594.6174
     -1640.4294      -1278.2614         46.0004         41.0004
 -19476001.19143 -15140050.50042  20706434.0824   20706435.0524   20706433.2784
       831.9424        648.2634         52.0004         47.0004
 -19398900.39543 -15070820.98142  20686991.1654   20686995.0104   20686990.9434
     -1286.6804      -1002.6124         50.0004         46.0004
 -11503624.86443  -8912945.40842  22138129.6864   22138133.9794   22138129.3434
      3100.7254       2416.1494         47.0004         42.0004
 -12155841.54843  -9429899.15142  22537309.7714   22537311.3744   22537309.6744
     -2754.8944      -2146.6744         46.0004         41.0004
  -4158228.64143  -3204824.18942  23855903.2504   23855906.3734   23855903.2044
      2674.0384       2083.6654         41.0004         36.0004
 -13129689.02943 -10181649.97942  21334188.5984   21334191.3744   21334188.2434
       276.9964        215.8384         49.0004         44.0004
 04 12 27  0  3  0.0000000  0  7G15G19G 3G 1G22G11G14
  -4215608.38743  -3242466.15642  22852969.2554   22852973.3344   22852968.6424
     -1643.5524      -1280.6944         46.0004         41.0004
 -19500699.32443 -15159295.79142  20701734.1814   20701735.1354   20701733.3574
       814.6484        634.7744         52.0004         47.0004
 -19360042.00543 -15040541.73342  20694385.6904   20694389.5314   20694385.4444
     -1303.8194      -1015.9634         50.0004         46.0004
 -11596501.67743  -8985316.92342  22120455.7534   22120460.0934   22120455.4494
      3091.0664       2408.6144         47.0004         42.0004
 -12073139.81843  -9365456.27442  22553047.4494   22553049.0704   22553047.3284
     -2758.5304      -2149.5044         46.0004         41.0004
  -4238474.08143  -3267353.06542  23840632.9714   23840636.1774   23840632.8784
      2675.9074       2085.1254         41.0004         36.0004
 -13137707.59543 -10187898.20342  21332662.6814   21332665.4704   21332662.3524
       257.6034        200.7334         49.0004         45.0004
 04 12 27  0  3 30.0000000  0  7G15G19G 3G 1G22G11G14
  -4166225.59343  -3203986.07442  22862366.5444   22862370.5864   22862365.9194
     -1648.1654      -1284.2954         46.0004         41.0004
 -19524854.56143 -15178118.05142  20697137.6204   20697138.5484   20697136.7724
       796.1254        620.3584         52.0004         47.0004
 -19320642.63543 -15009840.94642  20701883.1614   20701886.9714   20701882.9394
     -1322.2654      -1030.3494         50.0004         46.0004
 -11689063.41743  -9057442.93242  22102841.8364   22102846.1994   22102841.6084
      3080.1134       2400.0794         47.0004         43.0004
 -11990311.34243  -9300914.65442  22568809.1854   22568810.8644   22568809.0794
     -2763.1214      -2153.0674         46.0004         41.0004
  -4318723.36143  -3329884.91442  23825362.0034   23825365.1544   23825361.8124
      2674.6694       2084.1544         41.0004         37.0004
 -13145114.77443 -10193670.03442  21331253.1394   21331255.9514   21331252.8204
       236.5834        184.3544         49.0004         45.0004
 04 12 27  0  4  0.0000000  0  7G15G19G 3G 1G22G11G14
  -4116720.13943  -3165410.42642  22871787.0994   22871791.1674   22871786.4994
     -1652.5954      -1287.7374         46.0004         41.0004
 -19548465.82043 -15196516.42742  20692644.5504   20692645.4604   20692643.6834
       777.5864        605.9084         52.0004         47.0004
 -19280703.59543 -14978719.63642  20709483.3684   20709487.1254   20709483.0994
     -1340.6924      -1044.6964         50.0004         46.0004
 -11781307.15743  -9129321.14442  22085288.3774   22085292.8004   22085288.1634
      3069.0684       2391.4794         47.0004         42.0004
 -11907358.11643  -9236275.80742  22584594.4774   22584596.2844   22584594.5334
     -2767.4444      -2156.4504         46.0004         41.0004
  -4398975.96743  -3392419.38442  23810090.4704   23810093.6314   23810090.2494
      2674.8784       2084.3094         41.0004         37.0004
 -13151910.42543 -10198965.34442  21329960.0164   21329962.7684   21329959.6804
       215.9874        168.3004         49.0004         45.0004
 04 12 27  0  4 30.0000000  0  7G15G19G 3G 1G22G11G14
  -4067091.41343  -3126738.72542  22881231.1054   22881235.2224   22881230.4944
     -1656.2104      -1290.5514         45.0004         41.0004
 -19571531.83843 -15214489.94042  20688255.2474   20688256.1494   20688254.3874
       760.0454        592.2424         52.0004         47.0004
 -19240226.06143 -14947178.72442  20717185.9814   20717189.7914   20717185.7484
     -1357.9434      -1058.1294         50.0004         46.0004
 -11873229.87743  -9200949.22342  22067796.0264   22067800.4334   22067795.8294
      3058.7704       2383.4464         47.0004         42.0004
 -11824282.24143  -9171541.38842  22600403.4874   22600405.1934   22600403.5154
     -2770.9784      -2159.1964         46.0004         41.0004
  -4479231.08843  -3454955.80242  23794818.3104   23794821.5474   23794818.0994
      2675.2734       2084.6304         41.0004         36.0004
 -13158094.03643 -10203783.73142  21328783.3434   21328786.0464   21328782.9474
       195.9634        152.6924         49.0004         45.0004
 04 12 27  0  5  0.0000000  0  7G15G19G 3G 1G22G11G14
  -4017339.59743  -3087971.09142  22890698.5234   22890702.6564   22890697.9284
     -1660.6444      -1294.0094         45.0004         41.0004
 -19594051.54943 -15232037.76542  20683969.8834   20683970.8004   20683969.0304
       741.3274        577.6574         52.0004         47.0004
 -19199211.58643 -14915219.41542  20724990.8244   20724994.5814   20724990.6014
     -1376.1734      -1072.3404         50.0004         46.0004
 -11964829.00943  -9272325.14542  22050365.4154   22050369.6624   22050365.1274
      3047.6634       2374.8144         47.0004         43.0004
 -11741086.10143  -9106713.26642  22616235.1054   22616236.9604   22616235.1344
     -2775.4124      -2162.6544         46.0004         41.0004
  -4559488.54443  -3517494.03842  23779545.7864   23779549.1644   23779545.3574
      2674.8564       2084.2994         41.0004         36.0004
 -13163665.72343 -10208125.29942  21327723.0984   21327725.7894   21327722.7094
       175.3064        136.6304         49.0004         45.0004
 04 12 27  0  5 30.0000000  0  7G15G19G 3G 1G22G11G14
  -3967463.67543  -3049106.75142  22900189.7124   22900193.7574   22900189.1014
     -1664.4614      -1296.9814         45.0004         41.0004
 -19616023.14643 -15249158.48942  20679788.7904   20679789.7324   20679787.9574
       723.4424        563.7234         52.0004         47.0004
 -19157660.60143 -14882842.05542  20732897.8074   20732901.4684   20732897.5204
     -1393.8064      -1086.0764         50.0004         46.0004
 -12056100.97143  -9343446.12442  22032996.8924   22033001.1924   22032996.6584
      3037.1344       2366.5944         47.0004         43.0004
 -11657771.00043  -9041792.43942  22632089.5404   22632091.3744   22632089.5164
     -2778.9774      -2165.4304         46.0004         41.0004
  -4639746.86243  -3580032.96642  23764273.0024   23764276.6124   23764272.8084
      2675.6824       2084.9544         41.0004         36.0004
 -13168624.59343 -10211989.34642  21326779.4454   21326782.1524   21326779.0934
       155.2624        120.9834         49.0004         45.0004
 04 12 27  0  6  0.0000000  0  7G15G19G 3G 1G22G11G14
  -3917463.09843  -3010145.28642  22909704.4144   22909708.5524   22909703.8284
     -1668.5754      -1300.1864         45.0004         41.0004
 -19637445.13743 -15265850.94942  20675712.3164   20675713.2734   20675711.4734
       705.0194        549.3774         52.0004         48.0004
 -19115573.99843 -14850047.32642  20740906.6384   20740910.3194   20740906.3794
     -1411.5994      -1099.9414         50.0004         46.0004
 -12147042.44643  -9414309.58742  22015691.2764   22015695.5994   22015691.1014
      3025.9374       2357.8774         47.0004         43.0004
 -11574338.62443  -8976780.22642  22647966.1374   22647968.0674   22647966.2094
     -2782.5034      -2168.1814         46.0004         41.0004
  -4720004.84543  -3642571.63742  23749000.2214   23749003.9364   23749000.1504
      2675.5504       2084.8524         41.0004         37.0004
 -13172970.14843 -10215375.48742  21325952.4544   21325955.2104   21325952.1164
       134.8924        105.1254         49.0004         45.0004
 04 12 27  0  6 30.0000000  0  7G15G19G 3G 1G22G11G14
  -3867337.69843  -2971086.55142  22919243.0064   22919247.1674   22919242.4014
     -1673.3024      -1303.8694         45.0004         41.0004
 -19658316.43843 -15282114.30142  20671740.6564   20671741.6014   20671739.8114
       685.9824        534.5324         52.0004         48.0004
 -19072953.16643 -14816836.30942  20749017.1594   20749020.8204   20749016.8914
     -1430.2274      -1114.4554         50.0004         46.0004
 -12237650.70343  -9484913.39742  21998449.0764   21998453.4164   21998448.8844
      3014.0284       2348.5894         47.0004         43.0004
 -11490791.18043  -8911678.36842  22663864.6214   22663866.6344   22663864.7414
     -2787.5034      -2172.0814         45.0004         41.0004
  -4800262.34343  -3705109.90742  23733727.6624   23733731.4184   23733727.4984
      2674.5514       2084.0684         41.0004         37.0004
 -13176702.26443 -10218283.61642  21325242.2734   21325244.9744   21325241.9474
       113.6434         88.5404         49.0004         45.0004
 04 12 27  0  7  0.0000000  0  7G15G19G 3G 1G22G11G14
  -3817086.08443  -2931929.46842  22928805.6154   22928809.7644   22928804.9794
     -1677.5384      -1307.1774         45.0004         41.0004
 -19678634.95543 -15297946.91742  20667874.1684   20667875.1324   20667873.3334
       667.6934        520.2714         52.0004         48.0004
 -19029798.47643 -14783209.29942  20757229.1714   20757232.8944   20757228.9494
     -1447.7864      -1128.1514         50.0004         46.0004
 -12327921.89843  -9555254.55742  21981271.0354   21981275.3384   21981270.8154
      3002.8224       2339.8604         47.0004         43.0004
 -11407129.87743  -8846487.76042  22679784.9124   22679786.9274   22679785.0404
     -2790.8414      -2174.6814         45.0004         41.0004
  -4880517.72143  -3767646.53342  23718455.5054   23718459.2914   23718455.4274
      2674.5704       2084.0764         41.0004         37.0004
 -13179819.97243 -10220712.98242  21324649.0004   21324651.6824   21324648.6664
        93.3354         72.7264         49.0004         45.0004
 04 12 27  0  7 30.0000000  0  7G15G19G 3G 1G22G11G14
  -3766709.19743  -2892674.76742  22938391.9834   22938396.1904   22938391.3824
     -1681.3824      -1310.1704         45.0004         41.0004
 -19698401.01643 -15313349.04342  20664112.8004   20664113.7764   20664111.9674
       649.5504        506.1484         52.0004         47.0004
 -18986112.46243 -14749168.27242  20765542.3484   20765546.0844   20765542.1274
     -1465.2334      -1141.7344         50.0004         46.0004
 -12417854.42543  -9625331.82042  21964157.4414   21964161.6644   21964157.2324
      2991.8524       2331.2994         47.0004         43.0004
 -11323357.95443  -8781210.96742  22695726.1964   22695728.2524   22695726.2704
     -2794.5194      -2177.5424         45.0004         41.0004
  -4960771.55243  -3830181.94342  23703183.7204   23703187.2914   23703183.5404
      2674.6914       2084.1654         41.0004         37.0004
 -13182324.68443 -10222664.70042  21324172.3224   21324175.0534   21324171.9924
        72.8754         56.7914         49.0004         45.0004
 04 12 27  0  8  0.0000000  0  7G15G19G 3G 1G22G11G14
  -3716205.86943  -2853321.54742  22948002.4304   22948006.6794   22948001.8764
     -1685.3014      -1313.2164         45.0004         41.0004
 -19717612.59143 -15328319.10142  20660456.9874   20660457.9354   20660456.1424
       631.2644        491.8894         52.0004         48.0004
 -18941895.41643 -14714713.45542  20773956.6474   20773960.3124   20773956.3534
     -1482.6124      -1155.2774         50.0004         46.0004
 -12507444.50643  -9695142.23642  21947109.0074   21947113.2234   21947108.7694
      2980.8664       2322.7344         47.0004         43.0004
 -11239476.43843  -8715848.78942  22711688.2154   22711690.4404   22711688.3034
     -2797.6404      -2179.9774         45.0004         40.0004
  -5041022.22943  -3892714.89442  23687912.5974   23687916.0074   23687912.1974
      2674.8144       2084.2674         41.0004         37.0004
 -13184215.12443 -10224137.76042  21323812.5594   21323815.2684   21323812.2454
        52.8124         41.1484         49.0004         44.0004
 04 12 27  0  8 30.0000000  0  7G15G19G 3G 1G22G11G14
  -3665575.37243  -2813869.22442  22957637.1784   22957641.2814   22957636.5774
     -1689.4954      -1316.4844         45.0004         41.0004
 -19736267.91943 -15342855.72242  20656907.0254   20656907.9234   20656906.1554
       612.8984        477.5894         52.0004         47.0004
 -18897148.42243 -14679845.69642  20782471.7244   20782475.3754   20782471.4714
     -1499.9734      -1168.8024         50.0004         45.0004
 -12596688.79843  -9764683.21942  21930126.3434   21930130.6004   21930126.1204
      2969.3814       2313.8164         47.0004         43.0004
 -11155486.82343  -8650402.36242  22727671.0074   22727673.1384   22727671.0704
     -2801.1194      -2182.6844         45.0004         41.0004
  -5121268.66843  -3955244.56342  23672642.3114   23672645.5664   23672641.9374
      2675.2354       2084.5944         41.0004         37.0004
 -13185490.81943 -10225131.79742  21323569.8154   21323572.4704   21323569.4874
        32.6404         25.4304         49.0004         45.0004
 04 12 27  0  9  0.0000000  0  7G15G19G 3G 1G22G11G14
  -3614818.59143  -2774318.50242  22967295.7034   22967300.0634   22967295.1404
     -1694.4304      -1320.3374         45.0004         40.0004
 -19754367.46143 -15356959.26942  20653462.7694   20653463.6724   20653461.9204
       593.7684        462.6654         52.0004         48.0004
 -18851874.36643 -14644567.23042  20791087.0564   20791090.7424   20791086.8284
     -1518.1864      -1183.0124         50.0004         45.0004
 -12685585.84143  -9833953.61442  21913209.7844   21913214.0494   21913209.5134
      2957.0584       2304.1934         47.0004         43.0004
 -11071392.53543  -8584874.36742  22743673.5774   22743675.7764   22743673.6524
     -2805.1104      -2185.8054         45.0004         40.0004
  -5201511.56543  -4017771.46642  23657372.4824   23657375.5484   23657372.2654
      2674.3454       2083.9034         41.0004         37.0004
 -13186152.80743 -10225647.62342  21323443.8714   21323446.4844   21323443.5464
        11.4754          8.9364         49.0004         45.0004
 04 12 27  0  9 30.0000000  0  7G15G19G 3G 1G22G11G14
  -3563933.34243  -2734667.67642  22976978.8144   22976983.2174   22976978.2064
     -1698.0824      -1323.1784         45.0004         40.0004
 -19771908.29243 -15370627.45542  20650124.8344   20650125.7724   20650123.9914
       575.8064        448.6764         52.0004         48.0004
 -18806072.55443 -14608877.53442  20799802.9074   20799806.5564   20799802.6474
     -1535.2094      -1196.2664         50.0004         45.0004
 -12774130.90743  -9902949.74442  21896360.1634   21896364.4504   21896359.9164
      2945.9754       2295.5664         47.0004         43.0004
 -10987193.50043  -8519264.77142  22759696.1714   22759698.3844   22759696.1834
     -2808.0574      -2188.0904         45.0004         40.0004
  -5281748.17743  -4080293.47242  23642103.8694   23642106.9204   23642103.6404
      2674.5974       2084.0994         41.0004         37.0004
 -13186199.71943 -10225684.16742  21323434.8944   21323437.5504   21323434.5594
        -8.2294         -6.4284         49.0004         45.0004
 04 12 27  0 10  0.0000000  0  7G15G19G 3G 1G22G11G14
  -3512919.92443  -2694916.97342  22986686.3644   22986690.7244   22986685.7184
     -1702.1684      -1326.3624         45.0004         40.0004
 -19788889.84343 -15383859.84042  20646893.3104   20646894.3044   20646892.4954
       557.2194        434.1914         52.0004         47.0004
 -18759744.96643 -14572778.13742  20808618.7764   20808622.4474   20808618.5264
     -1552.3404      -1209.6124         50.0004         45.0004
 -12862321.77643  -9971669.87442  21879577.9644   21879582.2904   21879577.6894
      2934.2244       2286.4174         47.0004         43.0004
 -10902892.59943  -8453575.77642  22775738.1534   22775740.2964   22775738.2224
     -2811.0864      -2190.4564         45.0004         40.0004
  -5361978.26043  -4142810.39642  23626836.5504   23626839.6814   23626836.4464
      2674.6664       2084.1634         42.0004         37.0004
 -13185632.04343 -10225241.81542  21323542.8384   21323545.5734   21323542.4874
       -28.6274        -22.3124         49.0004         45.0004
 04 12 27  0 10 30.0000000  0  7G15G19G 3G 1G22G11G14
  -3461777.46643  -2655065.72342  22996418.5044   22996422.8904   22996417.8674
     -1706.6154      -1329.8244         45.0004         40.0004
 -19805310.88043 -15396655.45642  20643768.5014   20643769.5164   20643767.6794
       538.1904        419.3684         52.0004         47.0004
 -18712892.58543 -14536269.80642  20817534.5114   20817538.1864   20817534.2424
     -1570.2444      -1223.5644         50.0004         45.0004
 -12950154.95843 -10040111.29742  21862863.7224   21862868.1964   21862863.5554
      2921.8884       2276.7904         48.0004         43.0004
 -10818491.11243  -8387808.43042  22791799.1884   22791801.4304   22791799.2754
     -2814.8444      -2193.3834         45.0004         40.0004
  -5442200.73643  -4205321.36842  23611570.6854   23611574.0724   23611570.8044
      2674.1744       2083.7724         42.0004         37.0004
 -13184449.23043 -10224320.14442  21323767.9284   21323770.6634   21323767.5754
       -49.5944        -38.6474         49.0004         45.0004
 04 12 27  0 11  0.0000000  0  7G15G19G 3G 1G22G11G14
  -3410506.47243  -2615114.32942  23006175.0944   23006179.4974   23006174.5634
     -1711.3744      -1333.5304         45.0004         41.0004
 -19821171.16943 -15409014.13642  20640750.3944   20640751.3804   20640749.5654
       519.1714        404.5614         52.0004         47.0004
 -18665517.57343 -14499354.23042  20826549.6664   20826553.3734   20826549.3814
     -1587.9954      -1237.3984         50.0004         45.0004
 -13037628.48043 -10108272.46842  21846218.0454   21846222.4944   21846217.8414
      2909.5774       2267.1994         48.0004         43.0004
 -10733991.74943  -8321964.80442  22807878.9714   22807881.0424   22807879.0364
     -2818.2734      -2196.0494         45.0004         40.0004
  -5522415.90643  -4267826.66942  23596306.3284   23596309.7454   23596306.3284
      2673.2614       2083.0614         42.0004         38.0004
 -13182652.25643 -10222919.89042  21324109.8934   21324112.6104   21324109.5494
       -70.3284        -54.8054         49.0004         45.0004
 04 12 27  0 11 30.0000000  0  7G15G19G 3G 1G22G11G14
  -3359105.56043  -2575061.69742  23015956.3834   23015960.6724   23015955.8984
     -1715.7114      -1336.9194         45.0004         40.0004
 -19836468.63543 -15420934.24642  20637839.3604   20637840.3554   20637838.5594
       500.3844        389.9054         52.0004         47.0004
 -18617620.12343 -14462031.55542  20835664.2334   20835667.9394   20835663.9624
     -1605.3524      -1250.9334         50.0004         45.0004
 -13124738.35343 -10176150.25942  21829641.6154   21829646.0494   21829641.3684
      2897.4534       2257.7714         48.0004         43.0004
 -10649395.40543  -8256045.60542  22823977.0924   22823979.2094   22823977.1724
     -2821.4284      -2198.5144         45.0004         40.0004
  -5602621.89243  -4330324.81242  23581043.7274   23581046.9214   23581043.8154
      2673.2044       2083.0194         42.0004         37.0004
 -13180240.26043 -10221040.40042  21324568.8374   21324571.6064   21324568.4994
       -90.8954        -70.8504         49.0004         45.0004
 04 12 27  0 12  0.0000000  0  7G15G19G 3G 1G22G11G14
  -3307574.26443  -2534907.48042  23025762.5164   23025766.8934   23025761.9674
     -1719.6464      -1339.9774         45.0004         40.0004
 -19851202.04143 -15432414.83242  20635035.6964   20635036.6724   20635034.9094
       481.9604        375.5564         52.0004         47.0004
 -18569201.78243 -14424302.99942  20844877.8524   20844881.6774   20844877.6554
     -1622.3244      -1264.1604         50.0004         45.0004
 -13211481.72543 -10243742.47342  21813134.8324   21813139.3034   21813134.6404
      2885.4984       2248.4404         48.0004         43.0004
 -10564704.04643  -8190052.37642  22840093.3824   22840095.5244   22840093.4774
     -2824.4144      -2200.8444         45.0004         40.0004
  -5682817.66243  -4392814.97742  23565782.8794   23565786.2024   23565782.9344
      2673.3134       2083.1094         42.0004         38.0004
 -13177213.11743 -10218681.59042  21325144.9124   21325147.6754   21325144.5754
      -111.0674        -86.5434         49.0004         45.0004
 04 12 27  0 12 30.0000000  0  7G15G19G 3G 1G22G11G14
  -3255912.34343  -2494651.46842  23035593.4334   23035597.8284   23035592.9234
     -1724.6034      -1343.8524         45.0004         40.0004
 -19865370.71643 -15443455.36642  20632339.5114   20632340.5034   20632338.7254
       462.4174        360.3234         52.0004         48.0004
 -18520264.55043 -14386170.11342  20854190.3534   20854194.1714   20854190.1184
     -1640.2644      -1278.1124         50.0004         45.0004
 -13297855.89443 -10311047.00042  21796698.3194   21796702.8404   21796698.1384
      2872.3864       2238.2284         48.0004         43.0004
 -10479919.62643  -8123986.64142  22856227.3314   22856229.5454   22856227.3924
     -2827.9414      -2203.6004         45.0004         40.0004
  -5763002.68443  -4455296.77442  23550524.3404   23550527.5584   23550524.2724
      2672.3404       2082.3444         43.0004         38.0004
 -13173571.14643 -10215843.68342  21325837.9454   21325840.7104   21325837.6314
      -131.9394       -102.8094         49.0004         45.0004
 04 12 27  0 13  0.0000000  0  7G15G19G 3G 1G22G11G14
  -3204119.67443  -2454293.56542  23045449.3114   23045453.5944   23045448.7724
     -1728.6464      -1346.9984         45.0004         40.0004
 -19878974.02843 -15454055.35242  20629750.8524   20629751.8994   20629750.1024
       444.1814        346.1154         52.0004         48.0004
 -18470809.84943 -14347634.00742  20863601.2474   20863605.1114   20863601.0724
     -1657.1544      -1291.2864         50.0004         45.0004
 -13383858.36343 -10378061.88442  21780332.5724   21780337.0984   21780332.3654
      2860.7944       2229.1864         48.0004         43.0004
 -10395044.16243  -8057849.94942  22872378.6904   22872380.8274   22872378.7894
     -2830.6314      -2205.6864         45.0004         40.0004
  -5843176.39243  -4517769.73942  23535267.7514   23535270.9904   23535267.6594
      2672.4714       2082.4444         42.0004         38.0004
 -13169314.78543 -10212527.03242  21326647.9074   21326650.6834   21326647.5484
      -152.0924       -118.5234         49.0004         45.0004
 04 12 27  0 13 30.0000000  0  7G15G19G 3G 1G22G11G14
  -3152195.37943  -2413833.10042  23055330.2134   23055334.5094   23055329.6494
     -1732.7024      -1350.1614         45.0004         40.0004
 -19892010.35343 -15464213.53642  20627270.1894   20627271.1614   20627269.4034
       425.4684        331.5474         52.0004         48.0004
 -18420838.72343 -14308695.49242  20873110.4904   20873114.2914   20873110.2674
     -1674.0164      -1304.4204         50.0004         45.0004
 -13469485.52843 -10444784.32342  21764038.3544   21764042.7654   21764038.0464
      2848.1974       2219.3884         48.0004         43.0004
 -10310079.03443  -7991643.39942  22888547.1484   22888549.1834   22888547.1034
     -2833.6054      -2207.9994         45.0004         40.0004
  -5923337.19343  -4580232.68542  23520013.6404   23520016.8254   23520013.5104
      2672.2404       2082.2724         42.0004         38.0004
 -13164443.77243 -10208731.44142  21327574.9254   21327577.5874   21327574.5114
      -172.4064       -134.3454         49.0004         44.0004
 04 12 27  0 14  0.0000000  0  7G15G19G 3G 1G22G11G14
  -3100139.55543  -2373270.14842  23065236.1594   23065240.3924   23065235.5474
     -1737.5284      -1353.9164         45.0004         40.0004
 -19904479.24643 -15473929.55742  20624897.4224   20624898.4184   20624896.6324
       405.9504        316.3374         52.0004         48.0004
 -18370352.88843 -14269355.90042  20882717.5784   20882721.4654   20882717.4004
     -1691.6374      -1318.1464         50.0004         45.0004
 -13554734.91543 -10511212.38942  21747815.8254   21747820.3564   21747815.6084
      2835.2434       2209.2874         48.0004         43.0004
 -10225026.53343  -7925368.75042  22904732.1384   22904734.1494   22904732.0944
     -2836.6774      -2210.3994         45.0004         40.0004
  -6003484.83343  -4642685.35542  23504762.0924   23504765.3644   23504761.9224
      2671.2384       2081.4844         43.0004         38.0004
 -13158958.43843 -10204457.15142  21328618.7304   21328621.4014   21328618.3014
      -193.2644       -150.5964         49.0004         44.0004
 04 12 27  0 14 30.0000000  0  7G15G19G 3G 1G22G11G14
  -3047951.13443  -2332603.88942  23075167.2574   23075171.5474   23075166.6024
     -1741.8524      -1357.2814         45.0004         40.0004
 -19916379.32643 -15483202.35342  20622632.9264   20622633.9124   20622632.1264
       387.5094        301.9704         52.0004         48.0004
 -18319353.55743 -14229616.17942  20892422.4414   20892426.3234   20892422.2644
     -1708.2424      -1331.0844         50.0004         45.0004
 -13639603.24043 -10577343.53642  21731665.9664   21731670.3854   21731665.7124
      2823.0384       2199.7904         48.0004         43.0004
 -10139887.62243  -7859026.77042  22920933.6144   22920935.5524   22920933.6084
     -2839.2694      -2212.4194         45.0004         40.0004
  -6083617.84743  -4705126.61442  23489513.2244   23489516.5694   23489513.2034
      2671.1954       2081.4544         43.0004         38.0004
 -13152858.56043 -10199703.99742  21329779.4654   21329782.1884   21329779.0864
      -213.2424       -166.1534         49.0004         45.0004
                            4  1
RINEX FILE SPLICE; other post-header comments skipped       COMMENT
 04 12 27  0 15  0.0000000  0  7G15G19G 3G 1G22G11G14
  -2995629.98843  -2291834.20042  23085123.6574   23085127.9864   23085123.0244
     -1746.4104      -1360.8404         45.0004         40.0004
 -19927709.93043 -15492031.39942  20620476.8214   20620477.7604   20620476.0064
       368.0064        286.7544         52.0004         48.0004
 -18267842.49243 -14189477.71042  20902224.6794   20902228.5904   20902224.5244
     -1725.8284      -1344.8234         50.0004         45.0004
 -13724087.86243 -10643175.68042  21715589.0974   21715593.4484   21715588.8094
      2809.3984       2189.1324         48.0004         43.0004
 -10054664.46143  -7792619.14742  22937151.0574   22937153.0254   22937151.0214
     -2842.4384      -2214.8934         44.0004         40.0004
  -6163735.56243  -4767555.97142  23474267.2394   23474270.5834   23474267.3254
      2669.7564       2080.3274         43.0004         38.0004
 -13146144.53043 -10194472.27642  21331057.1674   21331059.8254   21331056.7774
      -234.4364       -182.6924         49.0004         45.0004
 04 12 27  0 15 30.0000000  0  7G15G19G 3G 1G22G11G14
  -2943175.25743  -2250960.41242  23095105.4914   23095109.7974   23095104.8574
     -1750.2554      -1363.8294         45.0004         40.0004
 -19938470.01543 -15500415.88542  20618429.2514   20618430.1864   20618428.4304
       349.7444        272.5434         52.0004         48.0004
 -18215820.88843 -14148941.41042  20912124.0414   20912128.0054   20912123.9214
     -1741.8894      -1357.3144         50.0004         45.0004
 -13808185.75643 -10708706.48042  21699585.7824   21699590.1354   21699585.5304
      2797.3284       2179.7474         48.0004         44.0004
  -9969358.67343  -7726147.15942  22953384.1744   22953386.2044   22953384.1744
     -2844.1864      -2216.2494         44.0004         40.0004
  -6243836.89443  -4829972.55742  23459024.4094   23459027.7524   23459024.4534
      2670.4024       2080.8364         43.0004         38.0004
 -13138816.78843 -10188762.34742  21332451.5394   21332454.2754   21332451.1904
      -253.9014       -197.8494         49.0004         44.0004
 04 12 27  0 16  0.0000000  0  7G15G19G 3G 1G22G11G14
  -2890586.98143  -2209982.56342  23105112.7014   23105117.0304   23105112.1574
     -1754.8844      -1367.4434         45.0004         40.0004
 -19948658.67243 -15508355.10542  20616490.4134   20616491.3614   20616489.6074
       330.4914        257.5334         52.0004         48.0004
 -18163290.31843 -14108008.51942  20922120.3924   20922124.2794   20922120.2004
     -1758.9234      -1370.5874         50.0004         45.0004
 -13891894.06143 -10773933.71642  21683656.6414   21683660.9204   21683656.3564
      2784.1954       2169.5224         48.0004         44.0004
  -9883972.12343  -7659612.20942  22969632.6814   22969634.7774   22969632.7174
     -2846.9594      -2218.4084         44.0004         40.0004
  -6323921.01543  -4892375.73442  23443784.8904   23443788.1324   23443784.8874
      2669.5184       2080.1434         43.0004         38.0004
 -13130875.21143 -10182574.11442  21333962.6714   21333965.4974   21333962.3464
      -274.5194       -213.9064         49.0004         44.0004
 04 12 27  0 16 30.0000000  0  7G15G19G 3G 1G22G11G14
  -2837864.84643  -2168900.42342  23115145.4194   23115149.7704   23115144.8634
     -1760.5814      -1371.8824         45.0004         40.0004
 -19958275.36043 -15515848.63242  20614660.4654   20614661.3774   20614659.6334
       309.8374        241.4254         52.0004         48.0004
 -18110252.99043 -14066680.75142  20932213.0594   20932216.9944   20932212.8994
     -1777.4824      -1385.0734         50.0004         45.0004
 -13975210.34943 -10838855.48342  21667802.0914   21667806.3444   21667801.8014
      2769.5244       2158.0644         48.0004         44.0004
  -9798506.80643  -7593015.89542  22985896.2434   22985898.3884   22985896.3084
     -2851.1364      -2221.6614         44.0004         40.0004
  -6403987.56743  -4954765.22242  23428548.7184   23428551.9164   23428548.7094
      2667.7064       2078.7364         43.0004         38.0004
 -13122320.50643 -10175908.10342  21335590.6304   21335593.3624   21335590.2744
      -296.3954       -230.9664         49.0004         44.0004
 04 12 27  0 17  0.0000000  0  7G15G19G 3G 1G22G11G14
  -2785007.78843  -2127713.12942  23125203.8094   23125208.1344   23125203.1884
     -1764.2134      -1374.7164         45.0004         40.0004
 -19967319.04643 -15522895.67142  20612939.4154   20612940.3954   20612938.6594
       291.9024        227.4574         52.0004         48.0004
 -18056709.83843 -14024958.83242  20942401.9984   20942405.9764   20942401.8464
     -1793.1294      -1397.2454         50.0004         45.0004
 -14058131.19443 -10903469.10642  21652022.8304   21652027.0114   21652022.5224
      2757.5724       2148.7574         48.0004         44.0004
  -9712963.87743  -7526359.09842  23002174.6234   23002176.6824   23002174.6454
     -2852.7694      -2222.9294         44.0004         40.0004
  -6484034.81443  -5017139.66142  23413316.2334   23413319.5124   23413316.2454
      2668.0724       2079.0154         43.0004         38.0004
 -13113152.59243 -10168764.28242  21337335.2464   21337337.9344   21337334.8934
      -315.8304       -246.0984         49.0004         44.0004
 04 12 27  0 17 30.0000000  0  7G15G19G 3G 1G22G11G14
  -2732015.48543  -2086420.43242  23135287.9234   23135292.2594   23135287.3114
     -1769.3554      -1378.7154         45.0004         40.0004
 -19975788.77243 -15529495.46042  20611327.7094   20611328.6874   20611326.9264
       272.1594        212.0644         52.0004         48.0004
 -18002662.33643 -13982843.91742  20952686.9654   20952690.8774   20952686.7784
     -1810.5484      -1410.8284         50.0004         45.0004
 -14140653.74343 -10967772.37242  21636319.3144   21636323.4624   21636319.0044
      2743.3964       2137.6894         48.0004         44.0004
  -9627345.32243  -7459643.37242  23018467.4094   23018469.3304   23018467.4294
     -2856.0034      -2225.4624         44.0004         40.0004
  -6564061.55943  -5079498.15042  23398087.7024   23398090.9414   23398087.7184
      2666.3524       2077.6714         43.0004         39.0004
 -13103371.71543 -10161142.81942  21339196.4744   21339199.1794   21339196.0784
      -336.8094       -262.4514         49.0004         44.0004
 04 12 27  0 18  0.0000000  0  7G15G19G 3G 1G22G11G14
  -2678887.67843  -2045022.17542  23145397.8344   23145402.2824   23145397.1774
     -1773.3684      -1381.8424         45.0004         40.0004
 -19983683.76943 -15535647.41642  20609825.3844   20609826.3214   20609824.5634
       253.5234        197.5634         52.0004         48.0004
 -17948112.32543 -13940337.44842  20963067.4994   20963071.4704   20963067.3284
     -1826.7684      -1423.4514         50.0004         45.0004
 -14222775.39843 -11031763.25242  21620692.0714   21620696.2034   21620691.7784
      2730.7504       2127.8514         49.0004         44.0004
  -9541652.70443  -7392869.94842  23034774.3304   23034776.1154   23034774.2824
     -2857.7094      -2226.7804         45.0004         40.0004
  -6644067.39243  -5141840.31942  23382863.1704   23382866.4054   23382863.1994
      2666.4644       2077.7654         43.0004         39.0004
 -13092978.56843 -10153044.26042  21341174.1804   21341176.9324   21341173.7854
      -356.7344       -277.9794         49.0004         44.0004
 04 12 27  0 18 30.0000000  0  7G15G19G 3G 1G22G11G14
  -2625623.84743  -2003517.91542  23155533.6884   23155538.0684   23155533.0124
     -1778.0184      -1385.4704         44.0004         40.0004
 -19991003.37843 -15541351.01142  20608432.4764   20608433.4654   20608431.6774
       233.8764        182.2394         52.0004         48.0004
 -17893061.41343 -13897440.66042  20973543.3744   20973547.3224   20973543.1834
     -1843.7404      -1436.6864         50.0004         45.0004
 -14304493.09843 -11095439.35642  21605141.7144   21605145.8064   21605141.4024
      2716.6404       2116.8554         49.0004         44.0004
  -9455887.79443  -7326040.18142  23051094.8624   23051096.6554   23051094.8694
     -2860.4234      -2228.8964         44.0004         39.0004
  -6724051.03343  -5204165.19042  23367642.7784   23367645.8334   23367642.6354
      2665.3414       2076.8894         43.0004         38.0004
 -13081973.16643 -10144468.62742  21343268.4314   21343271.1654   21343268.1154
      -377.5794       -294.2104         49.0004         44.0004
 04 12 27  0 19  0.0000000  0  7G15G19G 3G 1G22G11G14
  -2572223.23543  -1961907.07242  23165695.4524   23165699.9554   23165694.8344
     -1781.7944      -1388.4054         44.0004         40.0004
 -19997746.47743 -15546605.38242  20607149.3174   20607150.2844   20607148.5254
       215.6264        168.0284         52.0004         48.0004
 -17837510.95843 -13854154.61642  20984114.2544   20984118.2484   20984114.1034
     -1859.5284      -1448.9674         49.0004         45.0004
 -14385803.71243 -11158798.26442  21589668.7464   21589672.8744   21589668.4994
      2703.9584       2106.9814         49.0004         44.0004
  -9370051.88243  -7259155.06942  23067428.8784   23067430.5594   23067428.8174
     -2861.9874      -2230.1244         44.0004         39.0004
  -6804011.10943  -5266471.73342  23352426.7704   23352429.9364   23352426.6954
      2665.2864       2076.8504         43.0004         38.0004
 -13070355.87743 -10135416.18942  21345479.1374   21345481.8654   21345478.8164
      -396.9004       -309.2654         49.0004         44.0004
 04 12 27  0 19 30.0000000  0  7G15G19G 3G 1G22G11G14
  -2518686.16243  -1920189.90242  23175883.2654   23175887.7434   23175882.6754
     -1787.3274      -1392.7214         44.0004         40.0004
 -20003913.45543 -15551410.82042  20605975.7424   20605976.7614   20605974.9614
       195.5524        152.3764         52.0004         48.0004
 -17781463.63043 -13810481.40542  20994779.6534   20994783.7234   20994779.5314
     -1876.9124      -1462.5314         49.0004         45.0004
 -14466705.70043 -11221838.75042  21574273.6634   21574277.7304   21574273.3694
      2689.4974       2095.7174         49.0004         44.0004
  -9284147.71843  -7192216.79042  23083775.9254   23083777.6544   23083775.9254
     -2865.0134      -2232.4744         44.0004         40.0004
  -6883947.95143  -5328760.15542  23337215.2624   23337218.3634   23337215.0864
      2663.6194       2075.5504         43.0004         39.0004
 -13058128.14143 -10125888.08242  21347805.8874   21347808.7694   21347805.6194
      -418.2704       -325.9334         49.0004         44.0004
 04 12 27  0 20  0.0000000  0  7G15G19G 3G 1G22G11G14
  -2465011.20243  -1878365.30242  23186097.2974   23186101.6384   23186096.7014
     -1792.0554      -1396.4014         44.0004         39.0004
 -20009502.12343 -15555765.62842  20604912.2504   20604913.2834   20604911.4434
       176.2334        137.3204         52.0004         48.0004
 -17724919.84643 -13766421.34642  21005539.6454   21005543.6594   21005539.5014
     -1893.2884      -1475.2924         49.0004         45.0004
 -14547194.82943 -11284557.53542  21558957.0674   21558961.1584   21558956.8064
      2675.5754       2084.8534         49.0004         44.0004
  -9198175.47243  -7125225.46742  23100136.0154   23100137.6884   23100135.9804
     -2867.4664      -2234.3914         44.0004         40.0004
  -6963858.99643  -5391028.45942  23322008.7504   23322011.8074   23322008.5984
      2663.0314       2075.0804         43.0004         39.0004
 -13045289.22143 -10115883.73142  21350249.0984   21350251.9664   21350248.7964
      -438.6494       -341.8154         49.0004         44.0004
 04 12 27  0 20 30.0000000  0  7G15G19G 3G 1G22G11G14
  -2411197.90043  -1836432.89642  23196337.7134   23196341.9764   23196337.0904
     -1796.0664      -1399.5274         44.0004         39.0004
 -20014512.14743 -15559669.54642  20603958.8604   20603959.9084   20603958.0744
       157.4824        122.7164         52.0004         48.0004
 -17667881.42043 -13721975.83542  21016393.6954   21016397.7064   21016393.5674
     -1909.5234      -1487.9264         49.0004         45.0004
 -14627268.38143 -11346952.49042  21543719.5294   21543723.6254   21543719.2834
      2662.2124       2074.4464         49.0004         44.0004
  -9112137.16343  -7058182.67042  23116508.6574   23116510.3444   23116508.6254
     -2869.0084      -2235.5974         44.0004         39.0004
  -7043743.48543  -5453276.08542  23306807.3664   23306810.1444   23306807.1624
      2662.4924       2074.6644         43.0004         38.0004
 -13031839.42543 -10105403.37142  21352808.5314   21352811.3984   21352808.1974
      -458.4294       -357.2144         49.0004         45.0004
 04 12 27  0 21  0.0000000  0  7G15G19G 3G 1G22G11G14
  -2357247.22743  -1794393.43942  23206604.2174   23206608.4414   23206603.5794
     -1800.8714      -1403.2754         44.0004         39.0004
 -20018944.24543 -15563123.13642  20603115.4904   20603116.5354   20603114.6854
       137.8974        107.4444         52.0004         48.0004
 -17610351.30443 -13677147.19142  21027341.3624   21027345.3294   21027341.1924
     -1926.0764      -1500.8424         49.0004         45.0004
 -14706924.97043 -11409022.54242  21528561.3454   21528565.4574   21528561.1324
      2648.0464       2063.4184         49.0004         44.0004
  -9026035.54843  -6991090.54742  23132893.2514   23132894.9364   23132893.1574
     -2871.3964      -2237.4544         44.0004         39.0004
  -7123601.67843  -5515503.21542  23291610.8134   23291613.6344   23291610.6444
      2661.1734       2073.6384         43.0004         39.0004
 -13017780.70543 -10094448.52642  21355483.8574   21355486.6754   21355483.4924
      -478.9144       -373.1824         49.0004         44.0004
 04 12 27  0 21 30.0000000  0  7G15G19G 3G 1G22G11G14
  -2303158.02643  -1752246.02542  23216897.0674   23216901.2184   23216896.4754
     -1805.5624      -1406.9324         44.0004         39.0004
 -20022796.86143 -15566125.17742  20602382.3274   20602383.4244   20602381.5534
       118.4304         92.2764         52.0004         48.0004
 -17552330.35743 -13631936.09242  21038382.3794   21038386.3794   21038382.2244
     -1942.3684      -1513.5394         49.0004         45.0004
 -14786161.09343 -11470764.95242  21513483.1594   21513487.3444   21513482.9634
      2633.8424       2052.3454         49.0004         44.0004
  -8939871.61043  -6923949.84242  23149289.7564   23149291.4004   23149289.7274
     -2873.3494      -2238.9704         44.0004         40.0004
  -7203431.78843  -5577708.46542  23276419.6764   23276422.4244   23276419.4444
      2660.3064       2072.9624         43.0004         39.0004
 -13003112.97543 -10083019.12542  21358275.0764   21358277.8374   21358274.6564
      -499.3144       -389.0844         49.0004         44.0004
 04 12 27  0 22  0.0000000  0  8G15G19G 3G 1G22G11G14G20
  -2248929.22143  -1709989.85342  23227216.5144   23227220.5974   23227215.8464
     -1810.2624      -1410.5904         44.0004         39.0004
 -20026068.91443 -15568674.83142  20601759.7124   20601760.7544   20601758.9094
        99.2334         77.3284         52.0004         48.0004
 -17493819.87143 -13586343.53042  21049516.5704   21049520.5924   21049516.4264
     -1958.5414      -1526.1404         49.0004         45.0004
 -14864973.45143 -11532177.15442  21498485.6604   21498489.8784   21498485.4484
      2619.8364       2041.4354         49.0004         44.0004
  -8853646.50943  -6856761.47642  23165697.9344   23165699.5834   23165697.8434
     -2875.2034      -2240.4134         44.0004         40.0004
  -7283232.23843  -5639890.59242  23261234.0994   23261236.9234   23261233.8654
      2659.4674       2072.3084         43.0004         39.0004
 -12987836.19343 -10071115.13642  21361182.0724   21361184.8904   21361181.7234
      -519.3934       -404.7304         49.0004         44.0004
   -159525.75343    -89160.70642  24170549.8484   24170554.8924   24170547.9494
      2518.3604       1962.3524         51.0004         35.0004
 04 12 27  0 22 30.0000000  0  8G15G19G 3G 1G22G11G14G20
  -2194560.94143  -1667624.98742  23237562.4724   23237566.4604   23237561.8384
     -1814.7424      -1414.0814         44.0004         39.0004
 -20028760.25343 -15570771.97742  20601247.5054   20601248.6034   20601246.7134
        79.9914         62.3294         52.0004         48.0004
 -17434822.34343 -13540371.46542  21060743.4584   21060747.4424   21060743.2954
     -1974.5514      -1538.6174         49.0004         45.0004
 -14943359.62443 -11593257.26542  21483569.1984   21483573.4794   21483568.9884
      2605.7354       2030.4204         49.0004         44.0004
  -8767362.08643  -6789526.91342  23182117.2454   23182118.9834   23182117.1144
     -2877.0674      -2241.8674         44.0004         39.0004
  -7363002.39943  -5702049.12942  23246054.2974   23246057.1644   23246054.0484
      2658.4564       2071.5194         43.0004         39.0004
 -12971951.31243 -10058737.30442  21364204.9004   21364207.7514   21364204.5094
      -539.7104       -420.5444         49.0004         44.0004
   -234972.02043   -147949.95642  24156192.8514   24156197.5384   24156191.4344
      2511.5974       1957.0954         45.0004         35.0004
 04 12 27  0 23  0.0000000  0  8G15G19G 3G 1G22G11G14G20
  -2140052.93043  -1625151.25142  23247935.0244   23247939.1054   23247934.4014
     -1819.3254      -1417.6514         44.0004         39.0004
 -20030870.62843 -15572416.42842  20600845.9354   20600847.0144   20600845.1324
        60.6924         47.2974         52.0004         48.0004
 -17375339.92543 -13494021.55242  21072062.6534   21072066.5604   21072062.4574
     -1990.7994      -1551.2624         49.0004         44.0004
 -15021317.24743 -11654003.44642  21468734.3344   21468738.5924   21468734.1044
      2591.4684       2019.3234         49.0004         44.0004
  -8681020.27343  -6722247.60442  23198547.4514   23198549.2584   23198547.3664
     -2878.8714      -2243.2754         44.0004         39.0004
  -7442741.39343  -5764183.39342  23230880.4624   23230883.2234   23230880.2604
      2657.4484       2070.7384         43.0004         39.0004
 -12955459.21243 -10045886.31342  21367343.1994   21367346.0694   21367342.8104
      -559.8904       -436.2684         49.0004         44.0004
   -310217.63543   -206582.84342  24141873.7684   24141878.3874   24141872.7954
      2504.9274       1951.8954         42.0004         35.0004
 04 12 27  0 23 30.0000000  0  8G15G19G 3G 1G22G11G14G20
  -2085404.47743  -1582568.07942  23258334.3034   23258338.3834   23258333.6634
     -1823.9054      -1421.2234         44.0004         39.0004
 -20032399.05943 -15573607.41442  20600555.1344   20600556.1614   20600554.2894
        41.4184         32.2604         52.0004         48.0004
 -17315373.76243 -13447294.69942  21083473.8334   21083477.7794   21083473.6324
     -2006.7304      -1563.6824         49.0004         44.0004
 -15098843.24343 -11714413.29042  21453981.5954   21453985.8404   21453981.3394
      2577.0914       2008.1204         49.0004         44.0004
  -8594622.15343  -6654924.43942  23214988.5044   23214990.2624   23214988.4814
     -2880.5934      -2244.6144         44.0004         39.0004
  -7522447.70743  -5826292.17442  23215712.7014   23215715.6294   23215712.5834
      2656.3804       2069.9084         43.0004         39.0004
 -12938360.34943 -10032562.52442  21370597.0684   21370599.8554   21370596.6334
      -579.8374       -451.8214         49.0004         44.0004
   -385262.02343   -265058.94042  24127593.1724   24127597.6414   24127592.3534
      2498.2394       1946.6694         40.0004         35.0004
 04 12 27  0 24  0.0000000  0  8G15G19G 3G 1G22G11G14G20
  -2030614.92743  -1539874.96242  23268760.4344   23268764.5754   23268759.7804
     -1829.0724      -1425.2574         44.0004         39.0004
 -20033344.90743 -15574344.44742  20600375.0984   20600376.1754   20600374.3034
        21.4994         16.7444         52.0004         48.0004
 -17254925.63943 -13400192.29942  21094976.7494   21094980.6664   21094976.5214
     -2023.1194      -1576.4864         49.0004         44.0004
 -15175934.77543 -11774484.59842  21439311.4854   21439315.7564   21439311.2584
      2562.3974       1996.6734         49.0004         44.0004
  -8508169.31743  -6587558.63342  23231439.9584   23231441.6734   23231439.9734
     -2882.7504      -2246.3034         44.0004         39.0004
  -7602120.17243  -5888374.60442  23200551.4524   23200554.3574   23200551.4254
      2655.1474       2068.9544         43.0004         39.0004
 -12920655.19243 -10018766.30642  21373966.2194   21373969.0544   21373965.8114
      -600.3844       -467.8364         49.0004         44.0004
   -460104.70343   -323377.87942  24113351.0604   24113355.2744   24113350.4524
      2491.1044       1941.1114         40.0004         35.0004
 04 12 27  0 24 30.0000000  0  8G15G19G 3G 1G22G11G14G20
  -1975683.92743  -1497071.61742  23279213.4734   23279217.6974   23279212.8274
     -1833.3494      -1428.5824         44.0004         40.0004
 -20033708.13043 -15574627.48442  20600306.0004   20600307.0494   20600305.1924
         2.5804          2.0214         52.0004         48.0004
 -17193997.69443 -13352715.99842  21106570.9314   21106574.8964   21106570.7194
     -2038.6884      -1588.5954         49.0004         44.0004
 -15252589.40243 -11834215.45342  21424724.5544   21424728.8884   21424724.3034
      2547.9394       1985.4134         49.0004         44.0004
  -8421663.41343  -6520151.47542  23247901.3994   23247903.2344   23247901.4244
     -2884.1624      -2247.3984         44.0004         39.0004
  -7681757.85043  -5950429.91642  23185396.8224   23185399.7614   23185396.7864
      2654.4174       2068.3794         43.0004         39.0004
 -12902344.49743 -10004498.22742  21377450.5614   21377453.4454   21377450.2534
      -620.2034       -483.2724         49.0004         44.0004
   -534745.57943   -381539.53542  24099147.2204   24099151.5514   24099146.7094
      2484.8844       1936.2754         40.0004         36.0004
 04 12 27  0 25  0.0000000  0  8G15G19G 3G 1G22G11G14G20
  -1920610.75243  -1454157.49942  23289693.5824   23289697.9394   23289692.9834
     -1837.8594      -1432.0954         44.0004         40.0004
 -20033487.65643 -15574455.69642  20600347.9434   20600348.9874   20600347.1514
       -16.9024        -13.1674         52.0004         48.0004
 -17132591.55843 -13304867.07742  21118256.0774   21118260.1184   21118255.8994
     -2054.6034      -1600.9754         49.0004         44.0004
 -15328804.06143 -11893603.47942  21410221.3364   21410225.7034   21410221.1154
      2533.3884       1974.0654         49.0004         44.0004
  -8335105.70543  -6452703.96842  23264372.7464   23264374.7064   23264372.7154
     -2885.9444      -2248.7894         44.0004         39.0004
  -7761359.33243  -6012457.02542  23170249.1384   23170252.0684   23170249.1204
      2653.0724       2067.3324         43.0004         39.0004
 -12883428.83043  -9989758.74342  21381050.1404   21381052.9274   21381049.8014
      -640.5344       -499.1204         49.0004         44.0004
   -609184.38443   -439543.75942  24084982.1334   24084986.1584   24084981.4884
      2477.9784       1930.8894         40.0004         35.0004
 04 12 27  0 25 30.0000000  0  8G15G19G 3G 1G22G11G14G20
  -1865395.08443  -1411132.33642  23300200.6584   23300205.1094   23300200.1974
     -1842.3064      -1435.5624         44.0004         39.0004
 -20032683.18243 -15573828.84442  20600501.1184   20600502.0674   20600500.2864
       -36.1314        -28.1534         52.0004         48.0004
 -17070708.85043 -13256646.81042  21130031.9934   21130036.0224   21130031.8264
     -2070.0354      -1613.0074         49.0004         44.0004
 -15404576.12143 -11952646.61542  21395802.3464   21395806.7244   21395802.1264
      2518.8594       1962.7454         49.0004         44.0004
  -8248497.77543  -6385217.31742  23280853.7504   23280855.7154   23280853.7494
     -2887.1954      -2249.7644         44.0004         39.0004
  -7840923.79843  -6074455.27642  23155108.4954   23155111.3434   23155108.4334
      2652.3714       2066.7804         43.0004         39.0004
 -12863908.75143  -9974548.28842  21384764.7174   21384767.4494   21384764.3554
      -660.0504       -514.3324         49.0004         44.0004
   -683420.54143   -497390.04642  24070855.3674   24070859.6454   24070854.7674
      2471.4784       1925.8254         40.0004         35.0004
 04 12 27  0 26  0.0000000  0  8G15G19G 3G 1G22G11G14G20
  -1810037.90843  -1367996.90542  23310734.8654   23310739.2484   23310734.3184
     -1847.3884      -1439.5294         44.0004         39.0004
 -20031295.62343 -15572747.63842  20600765.1954   20600766.1154   20600764.3584
       -56.0484        -43.6644         52.0004         48.0004
 -17008352.72643 -13208057.63842  21141898.0134   21141902.0124   21141897.8234
     -2086.5304      -1625.8804         49.0004         44.0004
 -15479904.25643 -12011343.83842  21381467.7864   21381472.2144   21381467.6014
      2503.4574       1950.7284         49.0004         44.0004
  -8161842.55043  -6317693.80542  23297343.7554   23297345.6754   23297343.7104
     -2889.3154      -2251.4124         44.0004         39.0004
  -7920451.11843  -6136424.60742  23139974.8664   23139977.6554   23139974.8164
      2650.4174       2065.2564         43.0004         38.0004
 -12843786.52943  -9958868.63542  21388593.8974   21388596.5944   21388593.5144
      -680.8144       -530.4964         49.0004         44.0004
   -757455.30443   -555079.43942  24056767.1234   24056771.1384   24056766.3974
      2464.6814       1920.5224         40.0004         35.0004
 04 12 27  0 26 30.0000000  0  8G15G19G 3G 1G22G11G14G20
  -1754537.03143  -1324749.49642  23321296.3024   23321300.7944   23321295.7184
     -1852.5634      -1443.5574         44.0004         39.0004
 -20029322.84543 -15571210.42142  20601140.6024   20601141.5054   20601139.7634
       -75.7324        -59.0054         52.0004         48.0004
 -16945523.55043 -13159099.86042  21153854.0674   21153858.0064   21153853.8444
     -2102.4194      -1638.2854         49.0004         44.0004
 -15554784.03943 -12069691.71042  21367218.6424   21367223.0374   21367218.4644
      2488.2224       1938.8744         49.0004         44.0004
  -8075139.80843  -6250133.27742  23313842.6974   23313844.6774   23313842.6884
     -2891.0794      -2252.7894         43.0004         39.0004
  -7999938.69243  -6198362.95542  23124848.9394   23124851.6454   23124848.7304
      2648.8004       2064.0034         43.0004         39.0004
 -12823061.37743  -9942719.16342  21392537.7514   21392540.4844   21392537.3484
      -701.0644       -546.2734         49.0004         44.0004
   -831286.53943   -612610.21742  24042717.4844   24042721.5134   24042716.8864
      2457.1824       1914.6854         40.0004         35.0004
 04 12 27  0 27  0.0000000  0  8G15G19G 3G 1G22G11G14G20
  -1698893.20943  -1281390.70242  23331885.1114   23331889.3934   23331884.3654
     -1857.3384      -1447.2764         43.0004         39.0004
 -20026765.63443 -15569217.80142  20601627.2424   20601628.1424   20601626.4154
       -94.7654        -73.8474         52.0004         48.0004
 -16882224.45843 -13109775.92642  21165899.5534   21165903.4434   21165899.2894
     -2117.5084      -1650.0014         49.0004         44.0004
 -15629213.95843 -12127689.03142  21353055.2024   21353059.4644   21353054.9314
      2473.8484       1927.6714         49.0004         44.0004
  -7988391.91043  -6182537.56842  23330350.1884   23330352.2854   23330350.1684
     -2892.1714      -2253.6384         43.0004         39.0004
  -8079386.28343  -6260270.14142  23109730.4484   23109733.3734   23109730.3034
      2647.8744       2063.2774         43.0004         39.0004
 -12801735.12743  -9926101.30342  21396595.9864   21396598.6634   21396595.6114
      -720.7124       -561.5964         49.0004         44.0004
   -904915.15943   -669983.12042  24028706.1924   24028710.5694   24028705.5304
      2451.4414       1910.2144         40.0004         36.0004
 04 12 27  0 27 30.0000000  0  8G15G19G 3G 1G22G11G14G20
  -1643105.50843  -1237919.81242  23342501.1504   23342505.4094   23342500.3884
     -1862.5174      -1451.3134         43.0004         39.0004
 -20023623.03643 -15566769.03342  20602225.2494   20602226.1754   20602224.4164
      -115.0054        -89.6304         52.0004         48.0004
 -16818456.71043 -13060086.80342  21178034.1944   21178038.0954   21178033.9404
     -2133.8714      -1662.7644         49.0004         44.0004
 -15703190.90443 -12185333.39142  21338977.9264   21338982.0784   21338977.6454
      2457.9464       1915.2744         49.0004         45.0004
  -7901600.05443  -6114907.60442  23346866.3304   23346868.2504   23346866.1854
     -2894.1754      -2255.2084         43.0004         39.0004
  -8158791.90143  -6322144.63842  23094620.1804   23094623.0284   23094619.9754
      2645.5594       2061.4674         43.0004         39.0004
 -12779807.92943  -9909015.17942  21400768.5724   21400771.2494   21400768.2174
      -741.4254       -577.7244         49.0004         44.0004
   -978340.26943   -727197.47742  24014733.7554   24014738.2844   24014733.1914
      2443.7904       1904.2404         41.0004         36.0004
 04 12 27  0 28  0.0000000  0  8G15G19G 3G 1G22G11G14G20
  -1587173.31543  -1194336.31942  23353144.7454   23353148.9724   23353144.0424
     -1866.0724      -1454.0824         43.0004         39.0004
 -20019894.74443 -15563863.88142  20602934.7194   20602935.6494   20602933.9224
      -133.2614       -103.8394         52.0004         48.0004
 -16754222.35243 -13010034.08642  21190257.6224   21190261.4994   21190257.3694
     -2147.8714      -1673.6654         49.0004         44.0004
 -15776712.27843 -12242622.75142  21324987.3014   21324991.4324   21324986.9874
      2444.0294       1904.4344         49.0004         44.0004
  -7814765.62643  -6047244.45142  23363390.3614   23363392.3684   23363390.3614
     -2894.4434      -2255.4074         43.0004         39.0004
  -8238154.71243  -6383985.76242  23079517.8184   23079520.8114   23079517.6404
      2645.4074       2061.3544         43.0004         39.0004
 -12757280.63143  -9891461.43042  21405055.3474   21405058.0684   21405054.9844
      -759.9094       -592.1414         49.0004         44.0004
  -1051561.87443   -784253.23042  24000800.1414   24000804.6164   24000799.6284
      2438.3654       1900.0324         40.0004         36.0004
 04 12 27  0 28 30.0000000  0  8G15G19G 3G 1G22G11G14G20
  -1531096.48243  -1150640.10842  23363815.7504   23363820.0614   23363815.1144
     -1871.7144      -1458.4854         43.0004         39.0004
 -20015580.72943 -15560502.31942  20603755.7094   20603756.5954   20603754.8734
      -153.4844       -119.6014         52.0004         48.0004
 -16689523.57043 -12959619.47942  21202569.4434   21202573.2974   21202569.1814
     -2164.3874      -1686.5354         49.0004         44.0004
 -15849775.69543 -12299555.26642  21311083.7964   21311087.8824   21311083.4854
      2427.8784       1891.8384         49.0004         44.0004
  -7727890.35043  -5979549.48442  23379922.2974   23379924.2904   23379922.1434
     -2896.5714      -2257.0714         43.0004         39.0004
  -8317473.90143  -6445792.91042  23064423.9324   23064426.9174   23064423.6854
      2643.3324       2059.7384         43.0004         39.0004
 -12734154.68443  -9873441.22042  21409456.0974   21409458.8244   21409455.7394
      -780.8654       -608.4714         49.0004         44.0004
  -1124579.76043   -841150.24842  23986905.3054   23986909.4684   23986904.6354
      2430.1574       1893.6194         40.0004         36.0004
 04 12 27  0 29  0.0000000  0  8G15G19G 3G 1G22G11G14G20
  -1474874.28143  -1106830.63342  23374514.6084   23374518.9014   23374513.9384
     -1876.0594      -1461.8644         44.0004         39.0004
 -20010680.46943 -15556683.94742  20604688.2104   20604689.0834   20604687.3834
      -172.8274       -134.6674         52.0004         48.0004
 -16624362.05543 -12908844.31242  21214969.2514   21214973.1364   21214969.0014
     -2179.7034      -1698.4764         49.0004         44.0004
 -15922378.18843 -12356128.61142  21297268.0474   21297272.0984   21297267.6884
      2412.5034       1879.8744         49.0004         45.0004
  -7640975.37343  -5911823.57442  23396461.6754   23396463.7824   23396461.5754
     -2897.6354      -2257.8924         43.0004         39.0004
  -8396747.83843  -6507564.78342  23049338.5444   23049341.5364   23049338.2534
      2641.8124       2058.5584         43.0004         39.0004
 -12710430.50243  -9854954.84842  21413970.6724   21413973.4134   21413970.3414
      -800.6304       -623.8454         49.0004         44.0004
  -1197393.73243   -897888.35642  23973049.4884   23973053.5124   23973048.6754
      2423.8624       1888.7234         40.0004         36.0004
 04 12 27  0 29 30.0000000  0  8G15G19G 3G 1G22G11G14G20
  -1418506.30443  -1062907.56442  23385241.0714   23385245.4654   23385240.5134
     -1881.9554      -1466.4564         44.0004         39.0004
 -20005193.66643 -15552408.53342  20605732.3304   20605733.1914   20605731.5054
      -193.0634       -150.4384         52.0004         48.0004
 -16558739.87643 -12857710.16442  21227456.7464   21227460.6714   21227456.5244
     -2195.5364      -1710.8014         49.0004         44.0004
 -15994517.38343 -12412340.94742  21283540.4414   21283544.4484   21283540.0844
      2396.4164       1867.3204         49.0004         45.0004
  -7554022.26143  -5844067.94642  23413008.3754   23413010.4374   23413008.1384
     -2899.4474      -2259.3104         43.0004         38.0004
  -8475975.23543  -6569300.38942  23034262.0704   23034265.0974   23034261.8594
      2639.7594       2056.9504         44.0004         39.0004
 -12686109.02243  -9836003.05242  21418598.8844   21418601.6414   21418598.5764
      -821.2274       -639.9054         49.0004         44.0004
  -1270003.28743   -954467.18442  23959232.3144   23959236.2654   23959231.4044
      2416.2424       1882.7874         41.0004         36.0004
                            4  1
RINEX FILE SPLICE; other post-header comments skipped       COMMENT
 04 12 27  0 30  0.0000000  0  8G15G19G 3G 1G22G11G14G20
  -1361992.40943  -1018870.81442  23395995.4364   23395999.7114   23395994.7184
     -1886.0144      -1469.6194         43.0004         39.0004
 -19999120.46543 -15547676.18642  20606888.0234   20606888.8974   20606887.1954
      -212.1114       -165.2734         52.0004         48.0004
 -16492659.09343 -12806218.65942  21240031.4244   21240035.4404   21240031.2814
     -2210.4054      -1722.4174         49.0004         44.0004
 -16066190.90343 -12468190.41542  21269901.4064   21269905.3784   21269901.0524
      2381.5144       1855.7254         49.0004         45.0004
  -7467032.32843  -5776283.63942  23429561.8864   23429564.1924   23429561.8764
     -2900.0934      -2259.8054         43.0004         39.0004
  -8555154.92543  -6630998.83242  23019194.6324   23019197.6554   23019194.2934
      2638.7074       2056.1314         44.0004         39.0004
 -12661191.42043  -9816586.74342  21423340.5534   21423343.2454   21423340.1914
      -840.3794       -654.8394         49.0004         44.0004
  -1342408.43043  -1010886.74442  23945454.0664   23945457.7404   23945453.2504
      2410.1474       1878.0364         41.0004         36.0004
 04 12 27  0 30 30.0000000  0  8G15G19G 3G 1G22G11G14G20
  -1305332.62843   -974720.36342  23406777.5374   23406781.7184   23406776.8224
     -1891.5594      -1473.9464         44.0004         39.0004
 -19992461.01343 -15542487.01242  20608155.2564   20608156.1514   20608154.4264
      -232.1894       -180.9324         52.0004         47.0004
 -16426122.44343 -12754371.94642  21252692.9444   21252696.9834   21252692.7854
     -2225.7484      -1734.3504         49.0004         44.0004
 -16137396.85543 -12523675.55642  21256351.3244   21256355.2704   21256350.9744
      2365.3564       1843.1264         49.0004         45.0004
  -7380007.84543  -5708472.39842  23446122.2184   23446124.4704   23446122.2214
     -2901.6454      -2261.0274         43.0004         39.0004
  -8634286.44543  -6692659.72942  23004136.2554   23004139.3334   23004136.0024
      2636.6264       2054.5044         44.0004         39.0004
 -12635679.41543  -9796707.26342  21428195.3344   21428198.0274   21428194.9894
      -860.7054       -670.6814         49.0004         44.0004
  -1414609.72343  -1067147.43242  23931714.5074   23931718.2544   23931713.9804
      2403.1584       1872.5804         41.0004         36.0004
 04 12 27  0 31  0.0000000  0  8G15G19G 3G 1G22G11G14G20
  -1248526.55843   -930455.94442  23417587.3624   23417591.5584   23417586.6814
     -1896.5014      -1477.7884         43.0004         39.0004
 -19985215.25243 -15536840.98242  20609534.0624   20609535.0064   20609533.2454
      -251.5594       -196.0194         52.0004         48.0004
 -16359131.74243 -12702171.43742  21265440.9504   21265444.9114   21265440.7444
     -2240.8504      -1746.1264         49.0004         44.0004
 -16208132.50943 -12578794.22442  21242890.7494   21242894.6614   21242890.4094
      2349.6824       1830.9174         49.0004         45.0004
  -7292950.16143  -5640635.27842  23462689.0004   23462690.9734   23462688.9054
     -2902.7064      -2261.8404         43.0004         39.0004
  -8713368.82643  -6754282.32842  22989087.3564   22989090.4104   22989087.0434
      2635.0024       2053.2434         44.0004         39.0004
 -12609573.95843  -9776365.34642  21433163.0434   21433165.7364   21433162.7144
      -880.3364       -685.9824         49.0004         44.0004
  -1486607.00043  -1123249.18542  23918013.9354   23918017.5824   23918013.3654
      2396.2164       1867.1744         41.0004         36.0004
 04 12 27  0 31 30.0000000  0  8G15G19G 3G 1G22G11G14G20
  -1191572.73243   -886076.36742  23428425.3334   23428429.4614   23428424.5834
     -1900.9354      -1481.2414         43.0004         39.0004
 -19977381.77043 -15530736.98342  20611024.7764   20611025.7084   20611023.9444
      -270.8654       -211.0664         52.0004         48.0004
 -16291688.27743 -12649618.12542  21278275.1374   21278279.0004   21278274.8694
     -2256.0184      -1757.9284         48.0004         44.0004
 -16278394.25043 -12633543.61142  21229520.3734   21229524.2544   21229520.0304
      2334.0194       1818.7274         49.0004         45.0004
  -7205859.54143  -5572772.51242  23479261.8864   23479263.8494   23479261.6164
     -2904.1124      -2262.9434         43.0004         38.0004
  -8792399.49343  -6815864.63142  22974048.2974   22974051.2304   22974048.0404
      2633.4864       2052.0694         44.0004         39.0004
 -12582875.01243  -9755560.97142  21438243.6964   21438246.4024   21438243.3614
      -899.7704       -701.1234         49.0004         44.0004
  -1558398.78443  -1179190.78742  23904352.3894   23904356.1604   23904351.8564
      2389.7244       1862.1314         41.0004         36.0004
 04 12 27  0 32  0.0000000  0  8G15G19G 3G 1G22G11G14G20
  -1134471.92443   -841582.26742  23439291.1884   23439295.4994   23439290.5574
     -1905.6494      -1484.9204         43.0004         39.0004
 -19968961.54443 -15524175.77742  20612627.0814   20612628.0434   20612626.2434
      -290.5194       -226.3764         52.0004         48.0004
 -16223795.14443 -12596714.41542  21291194.7314   21291198.6534   21291194.4974
     -2270.5204      -1769.2614         48.0004         44.0004
 -16348180.76143 -12687922.68542  21216240.4674   21216244.3374   21216240.0854
      2318.2954       1806.4654         49.0004         45.0004
  -7118738.53643  -5504886.05142  23495840.4024   23495842.5294   23495840.2534
     -2904.4574      -2263.2134         43.0004         39.0004
  -8871378.23643  -6877406.47642  22959019.1604   22959022.0794   22959018.9184
      2631.5614       2050.5724         44.0004         39.0004
 -12555584.47543  -9734295.62642  21443436.8534   21443439.6654   21443436.5554
      -919.7094       -716.6394         49.0004         44.0004
  -1629985.97543  -1234972.97942  23890729.6674   23890733.4954   23890729.3134
      2382.9034       1856.7954         41.0004         36.0004
 04 12 27  0 32 30.0000000  0  8G15G19G 3G 1G22G11G14G20
  -1077222.72443   -796972.55642  23450185.4214   23450189.7804   23450184.8824
     -1910.4394      -1488.6534         43.0004         39.0004
 -19959953.75943 -15517156.73442  20614341.1984   20614342.1694   20614340.3634
      -309.5664       -241.2244         52.0004         48.0004
 -16155453.43843 -12543461.18342  21304199.7434   21304203.7174   21304199.4744
     -2285.1604      -1780.6484         48.0004         44.0004
 -16417488.76243 -12741928.90242  21203051.5874   21203055.4824   21203051.1934
      2302.6264       1794.2514         50.0004         45.0004
  -7031587.54643  -5436976.23342  23512424.6864   23512426.9234   23512424.5834
     -2905.2304      -2263.8114         43.0004         39.0004
  -8950303.00243  -6938906.25442  22944000.3094   22944003.1444   22943999.9794
      2630.3164       2049.5914         44.0004         39.0004
 -12527702.78943  -9712569.63942  21448742.5464   21448745.3224   21448742.2584
      -939.0234       -731.6914         48.0004         44.0004
  -1701367.70643  -1290595.07642  23877146.2214   23877149.9274   23877145.8484
      2376.0884       1851.4894         41.0004         36.0004
 04 12 27  0 33  0.0000000  0  8G15G19G 3G 1G22G11G14G20
  -1019826.66843   -752248.39942  23461107.6944   23461111.9054   23461107.0484
     -1915.4434      -1492.5534         43.0004         39.0004
 -19950360.03943 -15509681.11742  20616166.8114   20616167.8354   20616165.9944
      -329.5724       -256.8164         52.0004         48.0004
 -16086667.24643 -12489861.58942  21317289.3214   21317293.3044   21317289.0954
     -2300.3014      -1792.4404         48.0004         44.0004
 -16486317.51643 -12795561.68642  21189953.8564   21189957.7754   21189953.5004
      2286.1424       1781.4054         50.0004         45.0004
  -6944409.78443  -5369045.55942  23529014.1184   23529016.4074   23529013.9714
     -2906.4624      -2264.7784         43.0004         38.0004
  -9029174.19443  -7000364.29242  22928991.4864   22928994.3904   22928991.3214
      2627.9384       2047.7434         44.0004         39.0004
 -12499232.85143  -9690385.28042  21454160.1544   21454162.9464   21454159.8774
      -958.7974       -747.1184         48.0004         44.0004
  -1772545.35043  -1346058.12242  23863601.4944   23863605.3804   23863601.1254
      2369.3574       1846.2484         41.0004         36.0004
 04 12 27  0 33 30.0000000  0  8G15G19G 3G 1G22G11G14G20
   -962281.32843   -707407.93742  23472058.2234   23472062.5154   23472057.5394
     -1920.7854      -1496.7144         43.0004         39.0004
 -19940178.57743 -15501747.52142  20618104.2764   20618105.3264   20618103.4394
      -349.4554       -272.2974         52.0004         48.0004
 -16017436.94843 -12435915.93242  21330463.4954   21330467.3744   21330463.1844
     -2315.3824      -1804.1934         48.0004         44.0004
 -16554662.81043 -12848817.73442  21176948.1584   21176952.0634   21176947.8394
      2269.8494       1768.7204         50.0004         45.0004
  -6857204.70243  -5301093.59242  23545608.6094   23545611.0774   23545608.5064
     -2907.7654      -2265.7864         42.0004         38.0004
  -9107988.96443  -7061778.36542  22913993.5944   22913996.4274   22913993.3364
      2625.8914       2046.1514         44.0004         39.0004
 -12470174.07543  -9667742.08142  21459689.9504   21459692.6364   21459689.5994
      -978.8034       -762.6964         48.0004         44.0004
  -1843517.14943  -1401360.77442  23850096.1424   23850099.9634   23850095.5724
      2361.9954       1840.5194         41.0004         37.0004
 04 12 27  0 34  0.0000000  0  8G15G19G 3G 1G22G11G14G20
   -904586.45243   -662450.93542  23483037.2954   23483041.6184   23483036.5914
     -1926.0884      -1500.8474         43.0004         39.0004
 -19929409.48343 -15493356.03242  20620153.5934   20620154.6394   20620152.7494
      -369.2684       -287.7504         52.0004         48.0004
 -15947764.63943 -12381625.84842  21343721.7754   21343725.5994   21343721.4444
     -2330.2794      -1815.7974         48.0004         44.0004
 -16622522.18143 -12901695.14542  21164034.9424   21164038.7824   21164034.6494
      2253.3274       1755.8484         50.0004         45.0004
  -6769973.81943  -5233121.53042  23562208.1764   23562210.5564   23562208.1664
     -2908.6194      -2266.4564         42.0004         38.0004
  -9186745.71443  -7123147.23842  22899006.6394   22899009.5184   22899006.4824
      2623.7444       2044.4694         44.0004         40.0004
 -12440527.50643  -9644640.86342  21465331.4734   21465334.1994   21465331.1244
      -998.3264       -777.9244         48.0004         44.0004
  -1914282.86343  -1456502.86542  23836629.7874   23836633.5144   23836629.2934
      2354.6944       1834.8284         41.0004         36.0004
 04 12 27  0 34 30.0000000  0  8G15G19G 3G 1G22G11G14G20
   -846742.16943   -617377.51142  23494044.7174   23494049.0634   23494044.1504
     -1930.8824      -1504.5744         43.0004         38.0004
 -19918053.10543 -15484506.91942  20622314.6324   20622315.7134   20622313.8194
      -388.4564       -302.6884         52.0004         48.0004
 -15877652.91443 -12326993.35642  21357063.6464   21357067.4564   21357063.2854
     -2344.6174      -1826.9904         48.0004         44.0004
 -16689893.91543 -12954192.57942  21151214.4594   21151218.3344   21151214.2184
      2237.4064       1743.4284         50.0004         45.0004
  -6682719.03243  -5165130.81542  23578812.0894   23578814.5624   23578812.1614
     -2908.9784      -2266.7264         42.0004         38.0004
  -9265443.77643  -7184470.35742  22884030.9594   22884033.6994   22884030.7634
      2622.1644       2043.2434         44.0004         40.0004
 -12410294.98143  -9621083.05642  21471084.5914   21471087.2544   21471084.1974
     -1017.6704       -792.9974         48.0004         44.0004
  -1984843.19743  -1511484.89042  23823202.3674   23823206.3004   23823202.0044
      2348.2784       1829.8214         41.0004         37.0004
 04 12 27  0 35  0.0000000  0  8G15G19G 3G 1G22G11G14G20
   -788748.26543   -572187.50142  23505080.6374   23505085.1244   23505080.0634
     -1936.0804      -1508.6364         43.0004         39.0004
 -19906109.73343 -15475200.40742  20624587.3894   20624588.4734   20624586.5614
      -408.1904       -318.0784         52.0004         47.0004
 -15807104.06243 -12272020.24342  21370488.6654   21370492.4944   21370488.2934
     -2359.2964      -1838.4194         48.0004         44.0004
 -16756775.61143 -13006308.15542  21138487.3404   21138491.1484   21138487.0424
      2220.8834       1730.5444         50.0004         45.0004
  -6595441.75843  -5097122.57942  23595420.3874   23595422.7394   23595420.3744
     -2910.0764      -2267.5904         42.0004         38.0004
  -9344082.31143  -7245747.11642  22869066.7254   22869069.2084   22869066.4684
      2619.8904       2041.4774         44.0004         40.0004
 -12379477.93843  -9597069.77842  21476948.9234   21476951.5184   21476948.5184
     -1037.2894       -808.2684         48.0004         44.0004
  -2055197.90343  -1566306.72742  23809814.3894   23809818.1914   23809813.9694
      2341.3344       1824.4094         41.0004         37.0004
 04 12 27  0 35 30.0000000  0  8G15G19G 3G 1G22G11G14G20
   -730604.80543   -526880.97242  23516144.9994   23516149.4844   23516144.3444
     -1940.3974      -1512.0004         43.0004         39.0004
 -19893579.84043 -15465436.86542  20626971.8064   20626972.8554   20626970.9444
      -427.1774       -332.8534         52.0004         48.0004
 -15736120.82643 -12216708.65642  21383996.3124   21384000.1824   21383995.9824
     -2373.1724      -1849.2104         48.0004         44.0004
 -16823165.30643 -13058040.36942  21125853.7444   21125857.5674   21125853.4614
      2205.0334       1718.2294         50.0004         45.0004
  -6508143.79043  -5029098.22342  23612032.5984   23612035.1244   23612032.5414
     -2910.0734      -2267.5864         42.0004         38.0004
  -9422660.28443  -7306976.67942  22854113.6254   22854116.2134   22854113.5044
      2618.8644       2040.6764         44.0004         40.0004
 -12348077.88743  -9572602.21442  21482924.0454   21482926.7504   21482923.7094
     -1056.1364       -822.9654         48.0004         44.0004
  -2125347.40243  -1620968.65242  23796465.3304   23796469.1044   23796464.8204
      2335.2534       1819.6784         41.0004         36.0004
 04 12 27  0 36  0.0000000  0  8G15G19G 3G 1G22G11G14G20
   -672310.18643   -481456.64842  23527238.2074   23527242.6084   23527237.5314
     -1945.7334      -1516.1564         43.0004         38.0004
 -19880462.40743 -15455215.50842  20629467.8904   20629469.0274   20629467.1194
      -447.1594       -348.4334         52.0004         48.0004
 -15664704.43743 -12161059.55442  21397586.4194   21397590.2804   21397586.0834
     -2387.9074      -1860.6874         48.0004         44.0004
 -16889059.64943 -13109386.59442  21113314.4534   21113318.2674   21113314.1484
      2188.0834       1704.9984         50.0004         45.0004
  -6420825.40043  -4961057.96942  23628648.7724   23628651.2894   23628648.8164
     -2910.9674      -2268.2834         42.0004         37.0004
  -9501175.03843  -7368156.98042  22839172.7724   22839175.3574   22839172.6064
      2616.1054       2038.5254         45.0004         40.0004
 -12316095.07243  -9547680.54342  21489010.1474   21489012.8194   21489009.8194
     -1075.7864       -838.2704         48.0004         44.0004
  -2195290.14443  -1675469.45242  23783155.5804   23783159.4474   23783155.0834
      2328.1284       1814.1194         41.0004         36.0004
 04 12 27  0 36 30.0000000  0  8G15G19G 3G 1G22G11G14G20
   -613864.67043   -435914.73442  23538359.9404   23538364.3494   23538359.2764
     -1949.9154      -1519.4094         43.0004         38.0004
 -19866758.33043 -15444537.01742  20632075.6774   20632076.8694   20632074.9054
      -465.8424       -362.9844         52.0004         48.0004
 -15592857.59943 -12105075.03242  21411258.4324   21411262.2724   21411258.1084
     -2401.4214      -1871.2304         48.0004         43.0004
 -16954456.92043 -13160345.48442  21100869.6824   21100873.5744   21100869.4044
      2172.3204       1692.7114         50.0004         45.0004
  -6333488.58443  -4893003.35842  23645268.4424   23645271.0184   23645268.5164
     -2910.7524      -2268.1134         42.0004         38.0004
  -9579626.12543  -7429287.67842  22824243.9414   22824246.5924   22824243.8474
      2614.6074       2037.3534         44.0004         40.0004
 -12283531.45643  -9522306.30742  21495206.8034   21495209.4754   21495206.4884
     -1094.3474       -852.7384         48.0004         44.0004
  -2265026.91943  -1729809.76842  23769884.9784   23769888.8874   23769884.6544
      2321.7684       1809.1744         41.0004         37.0004
 04 12 27  0 37  0.0000000  0  8G15G19G 3G 1G22G11G14G20
   -555267.83243   -390254.91042  23549510.5784   23549515.1164   23549509.8864
     -1955.3924      -1523.6754         43.0004         38.0004
 -19852467.23943 -15433401.11842  20634795.1664   20634796.3904   20634794.4154
      -485.7854       -378.5274         52.0004         48.0004
 -15520582.40043 -12048756.73042  21425011.9804   21425015.8574   21425011.6294
     -2415.9134      -1882.5404         48.0004         43.0004
 -17019354.43743 -13210914.95442  21088520.0994   21088523.9584   21088519.7824
      2155.3364       1679.4824         50.0004         45.0004
  -6246134.08443  -4824934.95642  23661891.4784   23661894.0764   23661891.5834
     -2912.0504      -2269.1264         42.0004         38.0004
  -9658011.95443  -7490367.52142  22809327.5864   22809330.2654   22809327.4274
      2612.1584       2035.4384         45.0004         40.0004
 -12250388.02943  -9496480.26242  21501513.7924   21501516.4724   21501513.4874
     -1114.1294       -868.1514         48.0004         44.0004
  -2334557.54043  -1783989.43142  23756653.7664   23756657.6704   23756653.3384
      2314.6104       1803.5844         41.0004         37.0004
 04 12 27  0 37 30.0000000  0  8G15G19G 3G 1G22G11G14G20
   -496519.04943   -344476.69742  23560690.0264   23560694.7514   23560689.4144
     -1960.4534      -1527.6284         43.0004         38.0004
 -19837589.31643 -15421807.94942  20637626.3564   20637627.5594   20637625.5984
      -505.4224       -393.8494         52.0004         48.0004
 -15447881.00343 -11992106.32842  21438846.6534   21438850.5184   21438846.2304
     -2430.1244      -1893.5914         48.0004         43.0004
 -17083749.88943 -13261093.21842  21076265.9734   21076269.8864   21076265.7034
      2138.2934       1666.1944         50.0004         45.0004
  -6158763.24843  -4756853.83842  23678517.6664   23678520.2314   23678517.7824
     -2912.6124      -2269.5704         43.0004         38.0004
  -9736330.96243  -7551395.30842  22794423.9664   22794426.7474   22794423.8984
      2609.8394       2033.6324         45.0004         40.0004
 -12216666.14943  -9470203.47642  21507930.9244   21507933.4834   21507930.5944
     -1133.3974       -883.1704         48.0004         44.0004
  -2403881.74143  -1838008.22842  23743461.7864   23743465.7514   23743461.2894
      2307.8884       1798.3514         41.0004         37.0004
 04 12 27  0 38  0.0000000  0  8G15G19G 3G 1G22G11G14G20
   -437619.06543   -298580.65842  23571898.3464   23571902.9524   23571897.7114
     -1965.4394      -1531.5074         43.0004         38.0004
 -19822125.74643 -15409758.43342  20640569.0124   20640570.2284   20640568.2454
      -525.0314       -409.1134         52.0004         48.0004
 -15374756.65543 -11935126.35242  21452761.7244   21452765.6844   21452761.3294
     -2444.2254      -1904.5694         48.0004         43.0004
 -17147642.13943 -13310879.36942  21064107.6394   21064111.5834   21064107.3864
      2121.5634       1653.1544         50.0004         45.0004
  -6071378.38543  -4688761.78642  23695146.5884   23695149.0454   23695146.6324
     -2912.7554      -2269.6794         42.0004         38.0004
  -9814582.98643  -7612370.89242  22779533.0834   22779535.8924   22779532.9914
      2607.5074       2031.8304         45.0004         40.0004
 -12182368.13043  -9443477.75142  21514457.6064   21514460.1414   21514457.2834
     -1152.5894       -898.1144         48.0004         44.0004
  -2473000.34843  -1891866.85542  23730308.8694   23730312.8684   23730308.3474
      2300.8344       1792.8574         41.0004         37.0004
 04 12 27  0 38 30.0000000  0  8G15G19G 3G 1G22G11G14G20
   -378566.37943   -252565.63842  23583135.7314   23583140.3494   23583135.0424
     -1971.8414      -1536.4984         43.0004         38.0004
 -19806075.61043 -15397251.84542  20643623.2914   20643624.4884   20643622.4984
      -545.5884       -425.1374         52.0004         48.0004
 -15301210.47343 -11877817.66642  21466757.1134   21466761.1054   21466756.7624
     -2459.2254      -1916.2884         48.0004         43.0004
 -17211027.60343 -13360270.62542  21052045.7644   21052049.7474   21052045.4954
      2103.4654       1639.0574         50.0004         45.0004
  -5983979.60043  -4620658.89242  23711778.1664   23711780.4954   23711778.0234
     -2914.3884      -2270.9554         42.0004         37.0004
  -9892765.51843  -7673292.33042  22764655.4094   22764658.3564   22764655.3764
      2604.1114       2029.1724         45.0004         40.0004
 -12147494.09943  -9416303.18842  21521093.8894   21521096.4514   21521093.5704
     -1172.7314       -913.8224         48.0004         44.0004
  -2541912.10343  -1945564.28942  23717195.5384   23717199.4744   23717194.9864
      2292.8434       1786.6264         42.0004         37.0004
 04 12 27  0 39  0.0000000  0  8G15G19G 3G 1G22G11G14G20
   -319361.09343   -206431.69942  23594402.0994   23594406.8294   23594401.4174
     -1974.3854      -1538.4764         42.0004         38.0004
 -19789439.52943 -15384288.68142  20646789.0594   20646790.2304   20646788.2714
      -562.6604       -438.4084         52.0004         48.0004
 -15227245.20343 -11820182.43742  21480832.1264   21480836.2164   21480831.8984
     -2470.8704      -1925.3344         48.0004         43.0004
 -17273904.51543 -13409265.60842  21040080.7124   21040084.6844   21040080.3764
      2088.9874       1627.8094         50.0004         45.0004
  -5896568.59643  -4552546.47742  23728411.9794   23728414.3834   23728411.8224
     -2912.3804      -2269.3774         42.0004         38.0004
  -9970877.58743  -7734158.86442  22749791.2714   22749794.1894   22749791.1954
      2603.9844       2029.0924         45.0004         40.0004
 -12112046.02143  -9388681.31842  21527839.4814   21527842.0514   21527839.1194
     -1189.5874       -926.9464         48.0004         44.0004
  -2610617.49743  -1999100.91642  23704121.3734   23704125.3734   23704120.7094
      2288.3874       1783.1604         42.0004         37.0004
 04 12 27  0 39 30.0000000  0  8G15G19G 3G 1G22G11G14G20
   -260002.62243   -160178.38642  23605697.7794   23605702.4324   23605697.1274
     -1981.0394      -1543.6704         42.0004         38.0004
 -19772217.61243 -15370869.02342  20650066.3174   20650067.4394   20650065.5294
      -583.4974       -454.6804         52.0004         47.0004
 -15152862.87043 -11762222.20842  21494986.5734   21494990.7494   21494986.3834
     -2486.1484      -1937.2684         48.0004         43.0004
 -17336270.41543 -13457862.40142  21028212.8584   21028216.8544   21028212.5254
      2070.5404       1613.3974         50.0004         45.0004
  -5809146.15543  -4484425.13442  23745047.8964   23745050.4064   23745047.7054
     -2913.9414      -2270.6064         42.0004         38.0004
 -10048917.44543  -7794969.13042  22734940.8044   22734943.6964   22734940.6724
      2600.2524       2026.1714         45.0004         40.0004
 -12076025.07243  -9360613.05442  21534694.0424   21534696.6224   21534693.6984
     -1209.9174       -942.7924         48.0004         44.0004
  -2679116.21443  -2052476.49642  23691086.3234   23691090.5464   23691085.8284
      2279.9924       1776.6184         42.0004         37.0004
 04 12 27  0 40  0.0000000  0  8G15G19G 3G 1G22G11G14G20
   -200491.19743   -113805.90542  23617022.4194   23617027.0744   23617021.7404
     -1985.8034      -1547.3704         42.0004         38.0004
 -19754410.74243 -15356993.55442  20653454.8494   20653456.0044   20653454.0664
      -602.9884       -469.8504         52.0004         47.0004
 -15078066.24843 -11703939.15242  21509219.8104   21509224.0814   21509219.6884
     -2499.7574      -1947.8534         48.0004         43.0004
 -17398123.55743 -13506059.64742  21016442.5744   21016446.6154   21016442.2644
      2053.6444       1600.2464         50.0004         45.0004
  -5721714.46843  -4416296.59042  23761685.7514   23761688.1464   23761685.5004
     -2914.2034      -2270.8064         42.0004         38.0004
 -10126884.28943  -7855722.50242  22720104.3384   22720107.0664   22720104.2064
      2598.0294       2024.4454         45.0004         41.0004
 -12039433.31643  -9332099.99942  21541657.2244   21541659.8474   21541656.8944
     -1229.0514       -957.7014         48.0004         44.0004
  -2747408.60843  -2105691.31442  23678090.6224   23678094.9614   23678090.1064
      2273.5684       1771.6144         42.0004         37.0004
 04 12 27  0 40 30.0000000  0  8G15G19G 3G 1G22G11G14G20
   -140826.33043    -67313.85342  23628376.3304   23628380.8994   23628375.6754
     -1991.6504      -1551.9354         42.0004         38.0004
 -19736019.08443 -15342662.40742  20656954.6614   20656955.8254   20656953.8934
      -623.0534       -485.4994         52.0004         47.0004
 -15002857.72943 -11645335.14542  21523531.4774   21523535.8594   21523531.3894
     -2514.0324      -1958.9804         48.0004         43.0004
 -17459461.84343 -13553855.70042  21004770.2534   21004774.3594   21004769.9614
      2035.7744       1586.3114         50.0004         45.0004
  -5634274.63143  -4348161.68942  23778325.0414   23778327.4014   23778324.8274
     -2914.8724      -2271.3294         43.0004         38.0004
 -10204776.78043  -7916417.94342  22705281.8634   22705284.5034   22705281.7144
      2595.1714       2022.2124         45.0004         40.0004
 -12002272.09743  -9303143.21242  21548728.8174   21548731.3894   21548728.4594
     -1248.2954       -972.7004         48.0004         44.0004
  -2815494.63143  -2158745.31742  23665134.2764   23665138.5714   23665133.7774
      2266.0644       1765.7564         42.0004         37.0004
 04 12 27  0 41  0.0000000  0  8G15G19G 3G 1G22G11G14G20
    -81008.04943    -20702.24542  23639759.3334   23639763.9804   23639758.6404
     -1996.1644      -1555.4504         42.0004         37.0004
 -19717043.18443 -15327876.00842  20660565.6994   20660566.8424   20660564.8914
      -642.0094       -500.2574         52.0004         47.0004
 -14927239.95143 -11586412.23842  21537921.1364   21537925.4784   21537920.9964
     -2527.0804      -1969.1464         48.0004         43.0004
 -17520283.35443 -13601249.07242  20993196.2924   20993200.4244   20993196.0214
      2018.9744       1573.2364         50.0004         45.0004
  -5546827.95143  -4280021.47942  23794965.7364   23794968.1654   23794965.6164
     -2914.5084      -2271.0364         43.0004         38.0004
 -10282593.65143  -7977054.46042  22690473.7164   22690476.3724   22690473.6284
      2592.8954       2020.4394         45.0004         41.0004
 -11964543.20143  -9273744.07942  21555908.3634   21555911.0344   21555908.0024
     -1266.6424       -986.9994         48.0004         44.0004
  -2883374.58943  -2211638.73842  23652217.3184   23652221.5434   23652216.7564
      2259.7084       1760.8044         42.0004         38.0004
 04 12 27  0 41 30.0000000  0  8G15G19G 3G 1G22G11G14G20
    -21035.45643     26029.61342  23651171.7174   23651176.4444   23651171.1014
     -2002.1994      -1560.1484         42.0004         37.0004
 -19697482.95843 -15312634.28842  20664287.9064   20664289.0264   20664287.0764
      -662.1184       -515.9414         52.0004         47.0004
 -14851214.78443 -11527171.88642  21552388.2664   21552392.6414   21552388.1524
     -2541.3074      -1980.2514         48.0004         43.0004
 -17580585.35643 -13648237.63242  20981721.1974   20981725.3174   20981720.9294
      2000.9124       1559.1394         50.0004         46.0004
  -5459375.21643  -4211876.56342  23811607.4884   23811609.9594   23811607.3944
     -2915.6094      -2271.9024         43.0004         38.0004
 -10360332.92543  -8037630.49342  22675680.4004   22675682.9894   22675680.3054
      2589.7144       2017.9554         45.0004         40.0004
 -11926247.75843  -9243903.48642  21563195.6964   21563198.3964   21563195.3824
     -1286.3214      -1002.3384         48.0004         44.0004
  -2951048.01343  -2264371.26242  23639339.4604   23639343.6744   23639338.9394
      2251.8594       1754.6924         42.0004         37.0004
 04 12 27  0 42  0.0000000  0  8G15G19G 3G 1G22G11G14G20
     39092.13943     72882.23642  23662613.7374   23662618.2754   23662613.0624
     -2006.9884      -1563.8794         42.0004         38.0004
 -19677338.57943 -15296937.38742  20668121.2394   20668122.4204   20668120.4294
      -681.1324       -530.7444         52.0004         47.0004
 -14774784.41143 -11467615.78042  21566932.4894   21566936.8504   21566932.4094
     -2554.4164      -1990.4594         47.0004         43.0004
 -17640365.43143 -13694819.50142  20970345.4114   20970349.5464   20970345.1394
      1983.9654       1545.9494         50.0004         45.0004
  -5371917.11043  -4143727.44942  23828250.2214   23828252.5404   23828250.1124
     -2915.4494      -2271.7794         42.0004         38.0004
 -10437993.15243  -8098144.93142  22660902.1824   22660904.7514   22660902.0154
      2587.5314       2016.2574         45.0004         41.0004
 -11887386.93443  -9213622.32842  21570590.7114   21570593.3574   21570590.3744
     -1304.7604      -1016.6824         48.0004         44.0004
  -3018514.39643  -2316942.43842  23626501.0494   23626505.1394   23626500.5484
      2245.6174       1749.8384         42.0004         38.0004
 04 12 27  0 42 30.0000000  0  8G15G19G 3G 1G22G11G14G20
     99374.67343    119855.59042  23674085.2384   23674089.6434   23674084.4754
     -2011.4714      -1567.3754         42.0004         37.0004
 -19656610.88843 -15280785.95342  20672065.6544   20672066.7694   20672064.8154
      -700.2884       -545.6744         52.0004         47.0004
 -14697951.57243 -11407746.07042  21581553.2634   21581557.7254   21581553.1854
     -2567.5614      -2000.6874         47.0004         43.0004
 -17699621.88943 -13740993.35342  20959069.3444   20959073.4264   20959069.0404
      1966.8334       1532.6074         50.0004         46.0004
  -5284455.46243  -4075575.56342  23844893.6534   23844895.8714   23844893.5974
     -2915.2484      -2271.6174         42.0004         38.0004
 -10515573.25443  -8158596.93242  22646139.1144   22646141.6264   22646138.9684
      2584.9824       2014.2804         45.0004         40.0004
 -11847962.54243  -9182902.03342  21578092.9384   21578095.5674   21578092.5994
     -1323.1724      -1031.0414         48.0004         44.0004
  -3085774.22343  -2369352.65342  23613701.9294   23613706.0004   23613701.3804
      2238.7544       1744.4804         42.0004         37.0004
 04 12 27  0 43  0.0000000  0  8G15G19G 3G 1G22G11G14G20
    159812.25543    166949.74242  23685586.1424   23685590.5994   23685585.3984
     -2017.1824      -1571.8274         42.0004         37.0004
 -19635300.42543 -15264180.41542  20676120.8634   20676122.0134   20676120.0454
      -720.2744       -561.2444         52.0004         47.0004
 -14620718.79443 -11347564.71342  21596250.2124   21596254.6934   21596250.1454
     -2581.3204      -2011.4244         47.0004         43.0004
 -17758352.89143 -13786757.75942  20947893.2034   20947897.2944   20947892.9174
      1948.5164       1518.3074         50.0004         46.0004
  -5196991.80443  -4007422.11442  23861537.6284   23861539.6644   23861537.5414
     -2915.8874      -2272.1234         42.0004         38.0004
 -10593072.05343  -8218985.58442  22631391.5904   22631394.0374   22631391.4384
      2581.6984       2011.7134         45.0004         41.0004
 -11807976.46943  -9151744.06342  21585702.0154   21585704.7164   21585701.6814
     -1342.5274      -1046.1224         48.0004         44.0004
  -3152827.67743  -2421602.06642  23600942.1144   23600946.0354   23600941.5244
      2231.5344       1738.8524         42.0004         38.0004
 04 12 27  0 43 30.0000000  0  8G15G19G 3G 1G22G11G14G20
    220405.85943    214165.50342  23697116.7434   23697121.1194   23697116.0224
     -2021.4004      -1575.1294         42.0004         37.0004
 -19613406.97343 -15247120.58742  20680287.0444   20680288.2284   20680286.2364
      -738.4934       -575.4494         52.0004         47.0004
 -14543087.87143 -11287073.11742  21611023.0044   21611027.3794   21611022.8784
     -2593.3944      -2020.8214         47.0004         43.0004
 -17816555.75643 -13832110.63642  20936817.5454   20936821.6484   20936817.2724
      1932.2024       1505.6254         50.0004         46.0004
  -5109526.35443  -3939267.28742  23878181.8474   23878183.8344   23878181.7924
     -2914.5624      -2271.0804         42.0004         37.0004
 -10670487.20543  -8279309.05642  22616659.9954   22616662.4854   22616659.8044
      2579.8724       2010.2924         45.0004         41.0004
 -11767429.65443  -9120149.15642  21593417.7644   21593420.5584   21593417.4764
     -1360.0434      -1059.7724         48.0004         44.0004
  -3219674.18343  -2473690.21242  23588221.6574   23588225.4894   23588221.0434
      2225.9704       1734.5184         42.0004         38.0004
 04 12 27  0 44  0.0000000  0  8G15G19G 3G 1G22G11G14G20
    281155.03943    261502.47842  23708676.9104   23708681.2764   23708676.3494
     -2027.7814      -1580.0874         42.0004         37.0004
 -19590931.83743 -15229607.51542  20684563.9244   20684565.1114   20684563.1174
      -758.9494       -591.3844         52.0004         47.0004
 -14465061.96843 -11226273.75242  21625870.9064   21625875.2724   21625870.7504
     -2607.3214      -2031.6734         47.0004         43.0004
 -17874228.99743 -13877050.80742  20925842.6804   20925846.8174   20925842.4284
      1913.6304       1491.1434         50.0004         46.0004
  -5022060.97443  -3871112.51242  23894826.0844   23894828.0534   23894826.0564
     -2915.4034      -2271.7354         42.0004         37.0004
 -10747817.91143  -8339566.73242  22601944.5254   22601946.9644   22601944.2944
      2576.2064       2007.4374         45.0004         41.0004
 -11726324.44143  -9088119.13642  21601239.8924   21601242.6364   21601239.5704
     -1379.4334      -1074.8874         48.0004         44.0004
  -3286314.49043  -2525617.69242  23575540.3234   23575544.3164   23575539.9054
      2218.0444       1728.3464         42.0004         38.0004
 04 12 27  0 44 30.0000000  0  8G15G19G 3G 1G22G11G14G20
    342060.36243    308961.11742  23720266.7354   23720271.4234   23720266.2694
     -2032.3284      -1583.6224         42.0004         37.0004
 -19567875.41043 -15211641.48142  20688951.4454   20688952.6244   20688950.6164
      -777.9664       -606.2094         52.0004         47.0004
 -14386643.23443 -11165168.27142  21640793.5604   21640797.9074   21640793.3864
     -2620.2164      -2041.7354         47.0004         43.0004
 -17931370.55043 -13921576.68342  20914969.0024   20914973.1444   20914968.7504
      1896.0334       1477.4204         50.0004         46.0004
  -4934596.77643  -3802958.65842  23911470.0544   23911471.9544   23911470.0384
     -2915.3694      -2271.7134         42.0004         37.0004
 -10825062.90843  -8399757.61342  22587245.2844   22587247.6634   22587245.0734
      2573.6544       2005.4534         45.0004         41.0004
 -11684662.51643  -9055655.31042  21609167.9054   21609170.6474   21609167.5364
     -1397.8744      -1089.2584         48.0004         44.0004
  -3352748.23343  -2577384.22042  23562898.2924   23562902.3864   23562897.8584
      2210.9144       1722.7874         43.0004         38.0004
                            4  1
RINEX FILE SPLICE; other post-header comments skipped       COMMENT
 04 12 27  0 45  0.0000000  0  8G15G19G 3G 1G22G11G14G20
    403121.98543    356541.55542  23731886.5054   23731891.0834   23731886.0104
     -2037.9694      -1588.0344         42.0004         37.0004
 -19544238.20543 -15193222.89942  20693449.4934   20693450.6394   20693448.6644
      -797.5294       -621.4404         52.0004         47.0004
 -14307834.33743 -11103758.77442  21655790.4374   21655794.7934   21655790.2564
     -2633.5394      -2052.1064         47.0004         43.0004
 -17987978.54443 -13965686.79742  20904196.8644   20904201.0154   20904196.5914
      1878.0394       1463.4194         50.0004         46.0004
  -4847135.12143  -3734806.76542  23928113.5554   23928115.2454   23928113.5004
     -2915.4364      -2271.7684         42.0004         37.0004
 -10902220.57443  -8459880.44642  22572562.6674   22572565.0684   22572562.4594
      2570.2984       2002.8294         46.0004         41.0004
 -11642445.52343  -9022758.96742  21617201.5344   21617204.3224   21617201.1694
     -1416.5364      -1103.7974         48.0004         44.0004
  -3418975.75743  -2628990.04442  23550295.6274   23550299.5244   23550295.2024
      2204.1384       1717.5094         43.0004         38.0004
 04 12 27  0 45 30.0000000  0  8G15G19G 3G 1G22G11G14G20
    464340.33843    404244.13642  23743536.1264   23743540.5554   23743535.5844
     -2043.2024      -1592.0964         42.0004         37.0004
 -19520020.52143 -15174351.99342  20698057.9724   20698059.0944   20698057.1324
      -816.7524       -636.4334         52.0004         47.0004
 -14228637.31443 -11042046.84442  21670861.1764   21670865.5544   21670860.9654
     -2646.3064      -2062.0544         47.0004         43.0004
 -18044050.64343 -14009379.33142  20893526.7294   20893530.8554   20893526.4474
      1860.2464       1449.5424         50.0004         46.0004
  -4759676.59543  -3666657.33742  23944756.5724   23944758.0874   23944756.2824
     -2914.8454      -2271.3004         42.0004         37.0004
 -10979289.18143  -8519933.88242  22557896.9504   22557899.3824   22557896.7964
      2567.7434       2000.8494         46.0004         41.0004
 -11599674.80243  -8989431.14842  21625340.6044   21625343.3554   21625340.2054
     -1434.7944      -1118.0284         48.0004         44.0004
  -3484996.58843  -2680434.81542  23537732.2354   23537736.1074   23537731.8294
      2197.3214       1712.2044         42.0004         38.0004
 04 12 27  0 46  0.0000000  0  8G15G19G 3G 1G22G11G14G20
    525715.51143    452068.88542  23755215.4214   23755219.7524   23755214.9454
     -2049.2244      -1596.7964         42.0004         37.0004
 -19495223.39643 -15155029.57942  20702776.7084   20702777.8544   20702775.8904
      -836.8114       -652.0574         52.0004         47.0004
 -14149055.04843 -10980034.72242  21686005.1864   21686009.5744   21686004.9924
     -2659.7814      -2072.5594         47.0004         43.0004
 -18099585.12143 -14052652.94042  20882958.8954   20882962.9564   20882958.6254
      1841.5494       1434.9694         51.0004         46.0004
  -4672222.70743  -3598511.50142  23961398.4474   23961400.1304   23961398.4054
     -2915.5654      -2271.8684         42.0004         37.0004
 -11056267.81543  -8579917.21542  22543248.4614   22543250.8604   22543248.2024
      2563.8084       1997.7744         46.0004         41.0004
 -11556352.47543  -8955673.50142  21633584.6024   21633587.3124   21633584.2334
     -1453.8654      -1132.8874         48.0004         44.0004
  -3550811.19943  -2731718.90142  23525208.1454   23525211.8844   23525207.7464
      2189.6544       1706.2154         42.0004         38.0004
 04 12 27  0 46 30.0000000  0  8G15G19G 3G 1G22G11G14G20
    587248.12843    500016.33342  23766924.6644   23766929.1254   23766924.2104
     -2054.0354      -1600.5484         42.0004         37.0004
 -19469847.07443 -15135255.84442  20707605.6104   20707606.8404   20707604.8514
      -855.4604       -666.5944         52.0004         47.0004
 -14069089.80143 -10917724.18142  21701222.1014   21701226.4934   21701221.9214
     -2671.8464      -2081.9604         47.0004         43.0004
 -18154579.94743 -14095506.03742  20872493.7624   20872497.7764   20872493.4684
      1824.2144       1421.4444         51.0004         46.0004
  -4584774.31843  -3530369.95642  23978039.1954   23978041.0124   23978039.2234
     -2914.8544      -2271.3114         42.0004         37.0004
 -11133154.26443  -8639828.71442  22528617.4504   22528619.8414   22528617.1734
      2561.2104       1995.7434         46.0004         41.0004
 -11512479.97143  -8921487.16242  21641933.2154   21641935.9944   21641932.8874
     -1471.4194      -1146.5744         48.0004         44.0004
  -3616419.44543  -2782842.19242  23512723.4454   23512727.0134   23512722.8114
      2183.3504       1701.3094         42.0004         38.0004
 04 12 27  0 47  0.0000000  0  8G15G19G 3G 1G22G11G14G20
    648937.83643    548086.21042  23778663.8234   23778668.3474   23778663.4784
     -2059.0424      -1604.4554         42.0004         37.0004
 -19443892.88443 -15115031.82342  20712544.5994   20712545.7744   20712543.8144
      -874.5954       -681.4994         52.0004         47.0004
 -13988744.38743 -10855117.41642  21716511.4564   21716515.7594   21716511.2334
     -2684.3084      -2091.6754         47.0004         43.0004
 -18209033.57143 -14137937.42542  20862131.4814   20862135.5774   20862131.2384
      1806.2804       1407.5054         51.0004         46.0004
  -4497332.94543  -3462233.88942  23994678.6264   23994680.6324   23994678.6954
     -2914.7884      -2271.2554         41.0004         36.0004
 -11209947.73443  -8699667.76142  22514004.1334   22514006.5014   22514003.8934
      2558.4084       1993.5624         46.0004         41.0004
 -11468059.48643  -8886873.80442  21650386.1564   21650388.9534   21650385.8544
     -1489.4564      -1160.6034         48.0004         44.0004
  -3681821.48143  -2833804.77942  23500277.6604   23500281.4064   23500277.1554
      2176.6104       1696.0594         43.0004         38.0004
 04 12 27  0 47 30.0000000  0  8G15G19G 3G 1G22G11G14G20
    710785.92243    596279.48442  23790433.0774   23790437.7184   23790432.8104
     -2064.0394      -1608.3364         42.0004         37.0004
 -19417360.40343 -15094357.18142  20717593.5414   20717594.7584   20717592.7864
      -893.8064       -696.4694         52.0004         47.0004
 -13908020.36443 -10792215.61242  21731872.8944   21731877.0134   21731872.5804
     -2696.7684      -2101.3704         47.0004         42.0004
 -18262943.15943 -14179944.87742  20851872.8674   20851876.9224   20851872.5834
      1788.0174       1393.2614         51.0004         46.0004
  -4409899.05043  -3394103.63542  24011316.7464   24011318.6894   24011316.6884
     -2913.9714      -2270.6164         41.0004         36.0004
 -11286645.98743  -8759432.62042  22499408.8954   22499411.3384   22499408.6964
      2555.4024       1991.2214         46.0004         41.0004
 -11423091.94143  -8851834.17642  21658943.2614   21658946.0194   21658942.9814
     -1507.8194      -1174.8994         48.0004         44.0004
  -3747016.62343  -2884606.14642  23487871.3714   23487875.2654   23487870.9024
      2169.8854       1690.8264         43.0004         38.0004
 04 12 27  0 48  0.0000000  0  8G15G19G 3G 1G22G11G14G20
    772791.52543    644595.47642  23802232.4384   23802237.0774   23802232.0324
     -2069.1894      -1612.3554         42.0004         37.0004
 -19390251.53543 -15073233.40642  20722752.2664   20722753.4344   20722751.4624
      -912.9234       -711.3584         52.0004         47.0004
 -13826921.79843 -10729021.96242  21747305.4134   21747309.6304   21747305.1524
     -2709.3184      -2111.1494         47.0004         43.0004
 -18316308.04743 -14221527.89942  20841717.8364   20841721.8904   20841717.5634
      1769.9904       1379.2214         51.0004         46.0004
  -4322474.71243  -3325980.84042  24027953.0874   24027955.2854   24027953.0644
     -2914.0224      -2270.6614         41.0004         37.0004
 -11363248.63243  -8819122.97442  22484831.8744   22484834.3274   22484831.6674
      2552.1524       1988.6994         46.0004         41.0004
 -11377580.17643  -8816370.47642  21667603.9174   21667606.5684   21667603.5954
     -1525.8774      -1188.9944         48.0004         43.0004
  -3812006.34243  -2935247.45042  23475504.3344   23475508.0914   23475503.8804
      2163.2224       1685.6214         43.0004         38.0004
 04 12 27  0 48 30.0000000  0  8G15G19G 3G 1G22G11G14G20
    834955.77843    693035.11642  23814062.0124   23814066.5614   23814061.6154
     -2075.3234      -1617.1324         42.0004         37.0004
 -19362565.98643 -15051660.26342  20728020.6914   20728021.8464   20728019.9064
      -932.6264       -726.7204         52.0004         47.0004
 -13745449.97743 -10665537.46342  21762808.9954   21762813.2514   21762808.7534
     -2722.1104      -2121.1274         47.0004         43.0004
 -18369125.39243 -14262684.25742  20831667.0394   20831671.0144   20831666.7294
      1751.3104       1364.6684         50.0004         46.0004
  -4235059.93343  -3257865.50742  24044587.6054   24044589.9114   24044587.5554
     -2913.9084      -2270.5744         41.0004         36.0004
 -11439752.69143  -8878736.51142  22470273.5644   22470276.1564   22470273.3644
      2548.3164       1985.6864         46.0004         41.0004
 -11331525.24843  -8780483.54342  21676367.8974   21676370.5114   21676367.5894
     -1544.3954      -1203.4204         48.0004         44.0004
  -3876789.50643  -2985727.79842  23463176.5254   23463180.1944   23463176.1144
      2155.8024       1679.8424         43.0004         38.0004
 04 12 27  0 49  0.0000000  0  8G15G19G 3G 1G22G11G14G20
    897278.96743    741598.58542  23825921.7104   23825926.3444   23825921.2684
     -2080.3634      -1621.0514         42.0004         37.0004
 -19334304.75143 -15029638.53842  20733398.6124   20733399.8264   20733397.8334
      -951.8224       -741.6794         52.0004         47.0004
 -13663607.70143 -10601764.30042  21778383.1354   21778387.3524   21778382.8514
     -2734.4024      -2130.7124         47.0004         43.0004
 -18421393.57843 -14303412.71042  20821720.7684   20821724.6594   20821720.4324
      1733.0094       1350.3924         50.0004         46.0004
  -4147655.92343  -3189758.55242  24061220.0654   24061222.2864   24061220.0964
     -2913.6254      -2270.3494         41.0004         36.0004
 -11516157.14643  -8938272.43542  22455734.3164   22455736.7944   22455734.0244
      2544.7494       1982.9174         46.0004         41.0004
 -11284928.89543  -8744174.71242  21685234.9844   21685237.5314   21685234.6314
     -1562.4144      -1217.4694         48.0004         44.0004
  -3941366.45643  -3036047.47142  23450887.8744   23450891.6954   23450887.3894
      2149.0904       1674.6144         43.0004         38.0004
 04 12 27  0 49 30.0000000  0  8G15G19G 3G 1G22G11G14G20
    959760.67843    790285.58842  23837811.5524   23837816.1234   23837811.0514
     -2085.6264      -1625.1654         41.0004         36.0004
 -19305469.13143 -15007169.24842  20738885.8444   20738887.0964   20738885.0894
      -970.5164       -756.2444         52.0004         47.0004
 -13581398.09943 -10537704.90142  21794027.1254   21794031.3874   21794026.9054
     -2746.3254      -2139.9934         47.0004         42.0004
 -18473111.31143 -14343712.24042  20811879.1694   20811883.0644   20811878.8384
      1715.0324       1336.3944         50.0004         46.0004
  -4060264.29843  -3121661.25142  24077850.1844   24077852.5414   24077850.2394
     -2912.4604      -2269.4524         40.0004         36.0004
 -11592461.21043  -8997730.13142  22441213.9994   22441216.6624   22441213.7594
      2541.9604       1980.7404         46.0004         41.0004
 -11237793.68143  -8707445.98742  21694204.5614   21694207.1084   21694204.2064
     -1579.9884      -1231.1734         48.0004         43.0004
  -4005737.71043  -3086206.85142  23438638.3934   23438642.1214   23438637.9564
      2142.6604       1669.5994         43.0004         38.0004
 04 12 27  0 50  0.0000000  0  8G15G19G 3G 1G22G11G14G20
   1022401.50343    839096.56442  23849731.8804   23849736.3024   23849731.1224
     -2090.9384      -1629.3044         41.0004         37.0004
 -19276059.42743 -14984252.61942  20744482.3644   20744483.6004   20744481.5784
      -989.9244       -771.3814         52.0004         47.0004
 -13498823.18043 -10473360.84842  21809740.6474   21809744.9184   21809740.4094
     -2758.7734      -2149.7064         47.0004         42.0004
 -18524276.36843 -14383581.10442  20802142.7514   20802146.6664   20802142.4374
      1696.1214       1321.6534         50.0004         46.0004
  -3972885.71743  -3053574.11742  24094477.6134   24094480.2284   24094477.5404
     -2912.3354      -2269.3554         40.0004         35.0004
 -11668662.72143  -9057107.91542  22426713.3544   22426716.0554   22426713.0714
      2538.2594       1977.8684         46.0004         41.0004
 -11190121.12843  -8670298.56142  21703276.2964   21703278.8784   21703275.9834
     -1598.1664      -1245.3314         48.0004         43.0004
  -4069903.03243  -3136205.79242  23426428.0544   23426431.8584   23426427.6154
      2135.3714       1663.9234         43.0004         38.0004
 04 12 27  0 50 30.0000000  0  8G15G19G 3G 1G22G11G14G20
   1085201.80243    888031.82342  23861682.4144   23861686.7904   23861681.8974
     -2096.1304      -1633.3474         41.0004         37.0004
 -19246076.31843 -14960889.18442  20750188.0054   20750189.2354   20750187.1884
     -1008.9994       -786.2314         52.0004         47.0004
 -13415885.15043 -10408733.84142  21825523.2464   21825527.5044   21825523.0344
     -2770.6914      -2158.9834         47.0004         42.0004
 -18574886.72943 -14423017.73842  20792511.8664   20792515.8574   20792511.5694
      1677.6224       1307.2364         50.0004         46.0004
  -3885520.88743  -2985497.69742  24111102.6534   24111105.1434   24111102.5374
     -2912.2924      -2269.3314         40.0004         36.0004
 -11744759.87243  -9116404.38942  22412232.5054   22412235.1564   22412232.2174
      2534.8874       1975.2384         46.0004         41.0004
 -11141912.75543  -8632733.61042  21712450.0774   21712452.5824   21712449.7654
     -1615.8524      -1259.1124         48.0004         43.0004
  -4133862.21643  -3186044.09242  23414257.0814   23414260.8584   23414256.6124
      2128.5264       1658.5984         43.0004         38.0004
 04 12 27  0 51  0.0000000  0  8G15G19G 3G 1G22G11G14G20
   1148160.69143    937090.66342  23873663.1404   23873667.5334   23873662.5784
     -2100.6554      -1636.8724         41.0004         37.0004
 -19215521.89043 -14937080.56642  20756002.3564   20756003.5614   20756001.5204
     -1027.4304       -800.5934         52.0004         47.0004
 -13332588.11943 -10343827.09942  21841374.1974   21841378.4934   21841373.9364
     -2781.8584      -2167.6704         47.0004         42.0004
 -18624941.89643 -14462021.75842  20782986.6404   20782990.6174   20782986.3674
      1659.8824       1293.4214         50.0004         46.0004
  -3798172.36643  -2917433.96942  24127724.5594   24127726.9904   24127724.5374
     -2910.5164      -2267.9244         40.0004         36.0004
 -11820751.98043  -9175619.00442  22397771.6044   22397774.3294   22397771.4134
      2531.9924       1972.9774         46.0004         41.0004
 -11093171.83643  -8594753.69242  21721725.1794   21721727.7164   21721724.8234
     -1632.8724      -1272.3574         48.0004         43.0004
  -4197616.77643  -3235722.94342  23402124.8704   23402128.8234   23402124.4204
      2122.4254       1653.8444         43.0004         38.0004
 04 12 27  0 51 30.0000000  0  8G15G19G 3G 1G22G11G14G20
   1211279.66143    986274.21642  23885674.3334   23885678.5804   23885673.8004
     -2106.7204      -1641.5914         41.0004         36.0004
 -19184395.82943 -14912826.51442  20761925.4434   20761926.6934   20761924.6354
     -1046.9914       -815.8344         52.0004         47.0004
 -13248933.27343 -10278641.53442  21857293.1774   21857297.5494   21857292.9604
     -2794.4194      -2177.4624         47.0004         42.0004
 -18674438.90743 -14500590.84242  20773567.6664   20773571.6144   20773567.3744
      1640.5754       1278.3654         50.0004         46.0004
  -3710839.69143  -2849382.60542  24144343.3644   24144345.9274   24144343.5034
     -2910.6014      -2268.0004         41.0004         36.0004
 -11896636.77943  -9234749.99342  22383331.1294   22383333.8634   22383330.9834
      2527.6974       1969.6414         46.0004         41.0004
 -11043899.19343  -8556359.44642  21731101.4554   21731104.0304   21731101.1264
     -1651.3774      -1286.7784         48.0004         43.0004
  -4261165.55543  -3285241.43642  23390031.8434   23390035.8584   23390031.3984
      2114.9184       1647.9874         43.0004         38.0004
 04 12 27  0 52  0.0000000  0  8G15G19G 3G 1G22G11G14G20
   1274558.54743   1035582.39242  23897715.9754   23897720.2374   23897715.4164
     -2112.2134      -1645.8734         41.0004         37.0004
 -19152699.50343 -14888128.10142  20767957.0774   20767958.3384   20767956.2754
     -1066.4074       -830.9604         52.0004         47.0004
 -13164923.89543 -10213179.71242  21873279.6294   21873284.0154   21873279.3994
     -2806.4934      -2186.8744         47.0004         42.0004
 -18723376.73843 -14538724.20442  20764255.0704   20764259.0484   20764254.7924
      1621.5344       1263.5394         50.0004         46.0004
  -3623524.48443  -2781344.83242  24160958.8874   24160961.4774   24160958.8894
     -2910.7514      -2268.1144         41.0004         36.0004
 -11972413.15543  -9293796.50142  22368911.2764   22368914.1054   22368911.1494
      2524.0634       1966.8294         46.0004         41.0004
 -10994096.94943  -8517552.52042  21740578.5124   21740581.0754   21740578.1764
     -1669.1024      -1300.5924         48.0004         43.0004
  -4324509.09343  -3334599.99342  23377977.9814   23377982.0034   23377977.4514
      2107.7564       1642.4024         43.0004         38.0004
 04 12 27  0 52 30.0000000  0  8G15G19G 3G 1G22G11G14G20
   1337997.97643   1085015.65342  23909788.1204   23909792.6334   23909787.4634
     -2117.1824      -1649.7524         41.0004         37.0004
 -19120433.67843 -14862985.92442  20774096.9964   20774098.3434   20774096.2184
     -1084.9624       -845.4264         52.0004         47.0004
 -13080561.88843 -10147443.12142  21889333.1764   21889337.5414   21889332.9684
     -2817.9984      -2195.8394         47.0004         42.0004
 -18771753.08943 -14576420.05642  20755049.3704   20755053.3404   20755049.0774
      1603.1624       1249.2244         50.0004         46.0004
  -3536227.36643  -2713321.18742  24177571.0454   24177573.7224   24177571.0534
     -2909.6844      -2267.2854         41.0004         36.0004
 -12048079.10043  -9352756.96042  22354512.6244   22354515.2494   22354512.3554
      2520.2874       1963.8624         46.0004         41.0004
 -10943766.85343  -8478334.27842  21750156.0234   21750158.5544   21750155.6864
     -1686.5004      -1314.1484         48.0004         43.0004
  -4387647.04943  -3383798.36942  23365962.9924   23365967.2154   23365962.4904
      2101.1824       1637.2774         43.0004         38.0004
 04 12 27  0 53  0.0000000  0  8G15G19G 3G 1G22G11G14G20
   1401597.62143   1134573.77142  23921890.8124   23921895.3634   23921890.0664
     -2122.5524      -1653.9304         42.0004         37.0004
 -19087599.07643 -14837400.54142  20780345.2024   20780346.5934   20780344.4254
     -1103.8724       -860.1564         52.0004         47.0004
 -12995850.59443 -10081434.34442  21905453.1784   21905457.5524   21905453.0054
     -2829.4454      -2204.7564         47.0004         42.0004
 -18819566.83743 -14613677.51642  20745950.7604   20745954.6574   20745950.4254
      1584.5724       1234.7304         51.0004         46.0004
  -3448949.44343  -2645312.50942  24194179.6584   24194182.1164   24194179.6404
     -2908.8244      -2266.6134         41.0004         36.0004
 -12123632.94943  -9411630.06542  22340135.3384   22340137.8624   22340134.9774
      2516.9804       1961.2774         46.0004         41.0004
 -10892911.10543  -8438706.45242  21759833.4864   21759836.1094   21759833.1484
     -1703.9334      -1327.7404         48.0004         43.0004
  -4450579.86443  -3432836.90042  23353987.3504   23353991.3874   23353986.7344
      2094.7044       1632.2404         43.0004         38.0004
 04 12 27  0 53 30.0000000  0  8G15G19G 3G 1G22G11G14G20
   1465358.36443   1184257.40642  23934024.1004   23934028.7174   23934023.4944
     -2127.6424      -1657.9084         41.0004         37.0004
 -19054196.42143 -14811372.52442  20786701.5894   20786702.8994   20786700.7964
     -1122.6744       -874.8284         51.0004         47.0004
 -12910791.83843 -10015154.83342  21921639.3254   21921643.7324   21921639.1204
     -2840.8854      -2213.6834         46.0004         42.0004
 -18866815.49643 -14650494.64342  20736959.6264   20736963.5114   20736959.2924
      1565.7914       1220.0794         51.0004         46.0004
  -3361691.26543  -2577319.17042  24210784.2954   24210786.8284   24210784.3334
     -2908.2534      -2266.1694         41.0004         36.0004
 -12199072.77743  -9470414.32842  22325779.4714   22325782.0634   22325779.2344
      2512.8104       1958.0414         46.0004         41.0004
 -10841531.23943  -8398670.20442  21769610.8644   21769613.3974   21769610.5044
     -1721.1924      -1341.1834         48.0004         43.0004
  -4513307.20343  -3481715.31142  23342050.7714   23342054.7494   23342050.0904
      2087.7724       1626.8394         43.0004         38.0004
 04 12 27  0 54  0.0000000  0  8G15G19G 3G 1G22G11G14G20
   1529279.74043   1234066.21942  23946188.1304   23946192.7484   23946187.5884
     -2132.9254      -1662.0094         41.0004         37.0004
 -19020227.53643 -14784903.28342  20793165.6744   20793166.9804   20793164.8774
     -1141.3624       -889.3554         51.0004         47.0004
 -12825389.26243  -9948607.39542  21937890.9484   21937895.3904   21937890.7164
     -2852.2104      -2222.4864         46.0004         42.0004
 -18913498.65543 -14686871.12042  20728076.1084   20728079.9714   20728075.7794
      1547.0394       1205.4964         51.0004         46.0004
  -3274454.71043  -2509342.67442  24227384.9444   24227387.2564   24227384.9014
     -2907.0554      -2265.2314         41.0004         36.0004
 -12274398.21043  -9529109.44342  22311445.4814   22311448.1374   22311445.2564
      2509.3704       1955.3644         46.0004         41.0004
 -10789630.20643  -8358227.85242  21779487.3144   21779489.8474   21779486.9794
     -1738.4154      -1354.6144         48.0004         43.0004
  -4575830.23343  -3530434.53742  23330153.1024   23330157.0104   23330152.3474
      2081.2164       1621.7274         43.0004         38.0004
 04 12 27  0 54 30.0000000  0  8G15G19G 3G 1G22G11G14G20
   1593362.27143   1284000.61342  23958382.4954   23958387.3774   23958381.9534
     -2139.1874      -1666.8884         41.0004         36.0004
 -18985693.29843 -14757993.51142  20799737.3064   20799738.6424   20799736.5074
     -1160.8194       -904.5434         51.0004         47.0004
 -12739645.21643  -9881793.88842  21954207.5084   21954211.9794   21954207.2714
     -2864.0164      -2231.7104         46.0004         42.0004
 -18959614.38543 -14722805.44642  20719300.6124   20719304.4514   20719300.2654
      1527.5374       1190.2844         51.0004         46.0004
  -3187240.42643  -2441383.57542  24243981.4464   24243983.9814   24243981.5034
     -2906.9554      -2265.1564         41.0004         36.0004
 -12349607.07443  -9587713.73842  22297133.6674   22297136.3634   22297133.4254
      2504.6954       1951.7034         46.0004         41.0004
 -10737209.61243  -8317380.65642  21789462.6234   21789465.1654   21789462.2714
     -1756.1384      -1368.4214         48.0004         43.0004
  -4638148.63143  -3578994.29242  23318294.3214   23318298.1414   23318293.5344
      2073.8444       1615.9834         43.0004         38.0004
 04 12 27  0 55  0.0000000  0  8G15G19G 3G 1G22G11G14G20
   1657605.83943   1334060.47142  23970607.6884   23970612.4634   23970607.2184
     -2144.7924      -1671.2544         41.0004         36.0004
 -18950594.63943 -14730643.93042  20806416.3564   20806417.7184   20806415.5214
     -1179.6934       -919.2514         51.0004         47.0004
 -12653562.40843  -9814716.42142  21970588.6154   21970593.0324   21970588.2834
     -2875.3824      -2240.5624         46.0004         42.0004
 -19005161.20743 -14758296.46742  20710633.4254   20710637.1724   20710633.0064
      1508.3704       1175.3534         51.0004         46.0004
  -3100049.42043  -2373442.62242  24260573.4554   24260576.0394   24260573.2214
     -2906.3634      -2264.6954         40.0004         36.0004
 -12424697.68643  -9646225.88742  22282844.3444   22282847.0454   22282844.1914
      2500.5314       1948.4724         46.0004         41.0004
 -10684271.64543  -8276130.31942  21799536.2824   21799538.9374   21799536.0034
     -1773.5964      -1382.0114         48.0004         43.0004
  -4700262.52243  -3627394.68742  23306474.3754   23306478.1834   23306473.6334
      2066.6294       1610.3544         43.0004         38.0004
 04 12 27  0 55 30.0000000  0  8G15G19G 3G 1G22G11G14G20
   1722010.77043   1384246.07742  23982863.5874   23982868.2484   23982863.0144
     -2149.6464      -1675.0434         41.0004         36.0004
 -18914932.76743 -14702855.48242  20813202.6094   20813203.9634   20813201.7814
     -1198.4174       -933.8294         51.0004         47.0004
 -12567143.40543  -9747376.97042  21987033.5094   21987038.0654   21987033.2664
     -2886.6704      -2249.3524         46.0004         42.0004
 -19050137.59443 -14793342.99642  20702074.6604   20702078.4544   20702074.2854
      1489.2574       1160.4664         51.0004         46.0004
  -3012882.72143  -2305520.56542  24277160.6344   24277163.4664   24277160.4604
     -2905.6174      -2264.1214         40.0004         36.0004
 -12499668.54143  -9704644.71342  22268577.8144   22268580.5624   22268577.7124
      2496.6324       1945.4304         46.0004         42.0004
 -10630818.45043  -8234478.49642  21809708.1794   21809710.7704   21809707.8794
     -1790.6934      -1395.3474         48.0004         43.0004
  -4762172.26143  -3675636.01542  23294693.2044   23294697.0104   23294692.5644
      2060.1414       1605.3014         43.0004         38.0004
 04 12 27  0 56  0.0000000  0  8G15G19G 3G 1G22G11G14G20
   1786577.86943   1434558.03842  23995150.3584   23995155.0774   23995149.6514
     -2154.9904      -1679.2154         41.0004         36.0004
 -18878707.93243 -14674628.36542  20820095.9604   20820097.3524   20820095.1474
     -1217.1374       -948.4234         51.0004         47.0004
 -12480390.25143  -9679777.15242  22003542.1654   22003546.6694   22003541.8654
     -2897.5184      -2257.8044         46.0004         42.0004
 -19094541.25843 -14827943.24142  20693624.8714   20693628.7034   20693624.5524
      1470.4124       1145.7734         51.0004         46.0004
  -2925740.38243  -2237617.49942  24293743.3324   24293746.0894   24293743.2434
     -2904.4444      -2263.2024         40.0004         36.0004
 -12574516.85943  -9762968.05842  22254334.6784   22254337.3764   22254334.6164
      2492.5314       1942.2374         46.0004         42.0004
 -10576851.17243  -8192426.09242  21819977.8024   21819980.3954   21819977.4944
     -1807.6814      -1408.5824         48.0004         43.0004
  -4823877.33943  -3723717.85942  23282951.1654   23282954.8224   23282950.5394
      2053.0324       1599.7634         43.0004         39.0004
 04 12 27  0 56 30.0000000  0  8G15G19G 3G 1G22G11G14G20
   1851307.00243   1484996.25242  24007467.9634   24007472.4834   24007467.2974
     -2160.1634      -1683.2384         41.0004         36.0004
 -18841921.77743 -14645963.85142  20827096.1724   20827097.5424   20827095.3434
     -1235.4524       -962.6804         51.0004         47.0004
 -12393305.84443  -9611919.21742  22020113.8004   22020118.2834   22020113.5284
     -2908.0984      -2266.0424         46.0004         42.0004
 -19138371.19443 -14862096.43242  20685284.3614   20685288.1394   20685284.0154
      1451.5684       1131.1144         51.0004         46.0004
  -2838623.75343  -2169734.44442  24310321.3064   24310323.8604   24310321.0774
     -2902.9254      -2262.0174         41.0004         36.0004
 -12649242.02443  -9821195.44542  22240115.0014   22240117.6424   22240114.8834
      2488.8804       1939.3974         46.0004         42.0004
 -10522372.56243  -8149975.24142  21830344.7714   21830347.3874   21830344.4564
     -1824.1654      -1421.4264         48.0004         43.0004
  -4885378.27243  -3771640.62842  23271248.0034   23271251.5554   23271247.3854
      2046.7034       1594.8304         43.0004         38.0004
 04 12 27  0 57  0.0000000  0  8G15G19G 3G 1G22G11G14G20
   1916197.71543   1535560.41242  24019816.1634   24019820.7674   24019815.5454
     -2166.0594      -1687.8274         40.0004         36.0004
 -18804575.97243 -14616863.25442  20834202.8544   20834204.2424   20834202.0314
     -1254.3514       -977.3934         51.0004         47.0004
 -12305893.66543  -9543805.86642  22036747.8404   22036752.3214   22036747.5864
     -2919.3894      -2274.8344         46.0004         41.0004
 -19181626.58343 -14895801.92242  20677053.1154   20677056.9154   20677052.7814
      1432.1824       1116.0004         51.0004         46.0004
  -2751534.36743  -2101872.63142  24326893.7064   24326896.6044   24326893.7484
     -2902.4614      -2261.6544         40.0004         36.0004
 -12723842.79843  -9879325.90442  22225918.9734   22225921.5604   22225918.8444
      2484.5974       1936.0514         46.0004         42.0004
 -10467385.37543  -8107128.10442  21840808.4824   21840811.1174   21840808.1594
     -1841.5354      -1434.9504         48.0004         43.0004
  -4946675.64343  -3819404.78742  23259583.4504   23259586.9744   23259582.7634
      2039.6134       1589.3184         43.0004         38.0004
 04 12 27  0 57 30.0000000  0  8G15G19G 3G 1G22G11G14G20
   1981251.10443   1586251.28842  24032195.3244   24032200.2254   24032194.8314
     -2171.2384      -1691.8734         40.0004         36.0004
 -18766670.91043 -14587326.86442  20841415.9624   20841417.3354   20841415.1534
     -1272.6684       -991.6864         51.0004         47.0004
 -12218155.52443  -9475438.52142  22053443.8634   22053448.3124   22053443.5734
     -2929.8414      -2282.9924         46.0004         41.0004
 -19224304.85543 -14929057.70542  20668931.7214   20668935.5044   20668931.3734
      1413.1074       1101.1224         51.0004         46.0004
  -2664472.10543  -2034031.98442  24343460.9384   24343464.2434   24343461.0864
     -2901.9964      -2261.3064         40.0004         36.0004
 -12798316.56643  -9937357.39142  22211747.1234   22211749.7194   22211746.9894
      2480.3874       1932.7684         46.0004         42.0004
 -10411890.65743  -8063885.48242  21851368.8044   21851371.4294   21851368.4684
     -1858.1584      -1447.9114         48.0004         43.0004
  -5007768.58243  -3867009.63842  23247957.7314   23247961.4124   23247957.0254
      2033.0914       1584.2264         43.0004         38.0004
 04 12 27  0 58  0.0000000  0  8G15G19G 3G 1G22G11G14G20
   2046466.29943   1637068.25642  24044605.4274   24044610.4354   24044604.7474
     -2175.9374      -1695.5374         40.0004         36.0004
 -18728208.28743 -14557356.01042  20848735.1654   20848736.5774   20848734.3734
     -1290.9284      -1005.9114         51.0004         47.0004
 -12130094.67543  -9406819.71842  22070201.2814   22070205.7504   22070201.0254
     -2939.8794      -2290.8124         46.0004         41.0004
 -19266405.45643 -14961863.35342  20660920.2214   20660924.0234   20660919.8804
      1394.2074       1086.4034         51.0004         46.0004
  -2577438.77443  -1966213.89542  24360022.8734   24360026.1424   24360022.8214
     -2899.9694      -2259.7174         40.0004         36.0004
 -12872662.15943  -9995289.00642  22197599.5494   22197602.1494   22197599.4324
      2476.5384       1929.7814         46.0004         42.0004
 -10355891.30843  -8020249.64342  21862025.1544   21862027.7784   21862024.8144
     -1874.4864      -1460.6254         48.0004         43.0004
  -5068658.24743  -3914456.11342  23236370.8354   23236374.5074   23236370.1164
      2026.7504       1579.2914         43.0004         38.0004
 04 12 27  0 58 30.0000000  0  8G15G19G 3G 1G22G11G14G20
   2111843.43143   1688011.43642  24057046.4594   24057051.3894   24057045.5694
     -2182.6414      -1700.7574         40.0004         36.0004
 -18689189.56243 -14526951.82942  20856160.1974   20856161.6434   20856159.3934
     -1310.5604      -1021.2314         51.0004         47.0004
 -12041713.86743  -9337951.59142  22087019.6794   22087024.1184   22087019.3724
     -2952.1394      -2300.3714         46.0004         41.0004
 -19307927.02043 -14994217.80442  20653018.9024   20653022.7164   20653018.5694
      1373.8094       1070.4854         51.0004         46.0004
  -2490435.13243  -1898418.94142  24376579.3214   24376582.2414   24376579.2974
     -2900.2584      -2259.9374         41.0004         36.0004
 -12946878.12043 -10053119.59942  22183476.6764   22183479.3604   22183476.5394
      2471.1564       1925.5754         47.0004         42.0004
 -10299389.72043  -7976222.44842  21872777.1054   21872779.7404   21872776.7534
     -1892.3724      -1474.5854         48.0004         43.0004
  -5129345.08343  -3961744.52642  23224822.5024   23224826.1324   23224821.8394
      2019.0244       1573.2554         43.0004         39.0004
 04 12 27  0 59  0.0000000  0  8G15G19G 3G 1G22G11G14G20
   2177383.15043   1739081.27242  24069518.2224   24069523.0934   24069517.5824
     -2187.7294      -1704.7314         40.0004         36.0004
 -18649615.69443 -14496115.07142  20863690.9104   20863692.2864   20863690.0934
     -1328.8384      -1035.4764         51.0004         47.0004
 -11953015.56543  -9268836.06942  22103898.3624   22103902.9124   22103898.0854
     -2962.3044      -2308.2894         46.0004         41.0004
 -19348867.95643 -15026119.82342  20645228.0794   20645231.9114   20645227.7854
      1354.5954       1055.5114         51.0004         46.0004
  -2403461.92243  -1830647.66442  24393129.9684   24393132.7654   24393129.9814
     -2899.2444      -2259.1494         41.0004         36.0004
 -13020962.56843 -10110847.72542  22169378.9944   22169381.4754   22169378.7444
      2466.9564       1922.2954         47.0004         42.0004
 -10242387.73643  -7931805.34142  21883624.2584   21883626.9354   21883623.8824
     -1908.8714      -1487.4334         48.0004         43.0004
  -5189828.86943  -4008874.72042  23213312.7354   23213316.5534   23213312.1424
      2012.5194       1568.1984         43.0004         39.0004
 04 12 27  0 59 30.0000000  0  8G15G19G 3G 1G22G11G14G20
   2243085.37343   1790277.73842  24082021.0174   24082025.8614   24082020.2824
     -2193.1674      -1708.9554         40.0004         35.0004
 -18609488.19143 -14464846.90142  20871326.9684   20871328.3144   20871326.1564
     -1347.0624      -1049.6584         51.0004         47.0004
 -11864002.89643  -9199475.58942  22120836.8704   22120841.5594   22120836.6354
     -2972.3794      -2316.1404         46.0004         41.0004
 -19389227.21843 -15057568.58442  20637547.9844   20637551.7834   20637547.6444
      1335.4554       1040.6144         51.0004         46.0004
  -2316520.44743  -1762901.10942  24409674.4714   24409677.0774   24409674.3774
     -2897.7464      -2257.9904         40.0004         36.0004
 -13094914.29243 -10168472.43542  22155306.3864   22155308.8884   22155306.2214
      2462.6234       1918.9474         47.0004         42.0004
 -10184888.01943  -7887000.37942  21894566.0654   21894568.7524   21894565.6954
     -1925.1574      -1500.1174         47.0004         43.0004
  -5250110.11343  -4055847.10442  23201841.5324   23201845.3324   23201841.0504
      2005.7694       1562.9404         43.0004         38.0004
                            4  1
RINEX FILE SPLICE; other post-header comments skipped       COMMENT
 04 12 27  1  0  0.0000000  0  8G15G19G 3G 1G22G11G14G20
   2308950.27643   1841600.96742  24094554.7334   24094559.6694   24094554.1094
     -2198.3604      -1713.0104         40.0004         36.0004
 -18568808.16543 -14433148.20642  20879068.1654   20879069.4844   20879067.3454
     -1365.5804      -1064.1034         51.0004         47.0004
 -11774678.41743  -9129872.14842  22137834.7704   22137839.4024   22137834.5524
     -2983.2084      -2324.5784         46.0004         41.0004
 -19429003.33343 -15088562.94242  20629978.8064   20629982.6124   20629978.5054
      1315.9624       1025.4324         51.0004         46.0004
  -2229611.17043  -1695179.66142  24426212.8504   24426215.4284   24426212.8044
     -2897.3264      -2257.6554         40.0004         36.0004
 -13168730.98643 -10225991.92642  22141259.4994   22141262.0204   22141259.3764
      2458.0264       1915.3474         47.0004         42.0004
 -10126892.24743  -7841808.89142  21905602.3554   21905605.0094   21905601.9074
     -1941.5864      -1512.9294         47.0004         43.0004
  -5310188.89743  -4102661.71042  23190408.8374   23190412.7014   23190408.2784
      1998.9004       1557.5934         43.0004         39.0004
 04 12 27  1  0 30.0000000  0  8G15G19G 3G 1G22G11G14G20
   2374978.69343   1893051.64142  24107119.4684   24107124.6324   24107118.9114
     -2203.6864      -1717.1534         40.0004         36.0004
 -18527576.11143 -14401019.35242  20886914.3554   20886915.7134   20886913.5504
     -1383.9234      -1078.3684         51.0004         47.0004
 -11685044.20943  -9060027.35042  22154891.5834   22154896.2714   22154891.4254
     -2993.2514      -2332.4054         46.0004         41.0004
 -19468194.22743 -15119101.28942  20622521.0444   20622524.8414   20622520.7154
      1296.2594       1010.0614         51.0004         46.0004
  -2142734.06843  -1627483.27042  24442744.9714   24442747.6994   24442744.9554
     -2895.8384      -2256.4904         41.0004         36.0004
 -13242410.39043 -10283404.44142  22127238.7674   22127241.2404   22127238.5904
      2453.3504       1911.6944         47.0004         42.0004
 -10068402.02343  -7796232.11942  21916732.6984   21916735.3464   21916732.2534
     -1958.0854      -1525.7824         47.0004         43.0004
  -5370064.49743  -4149318.00442  23179014.8944   23179018.6724   23179014.2844
      1992.1144       1552.2934         43.0004         39.0004
 04 12 27  1  1  0.0000000  0  8G15G19G 3G 1G22G11G14G20
   2441170.11443   1944629.28242  24119715.4554   24119720.5174   24119714.8084
     -2208.6704      -1721.0364         40.0004         36.0004
 -18485794.14843 -14368462.00042  20894865.2194   20894866.5954   20894864.4044
     -1401.4694      -1092.0464         51.0004         47.0004
 -11595103.64643  -8989943.83742  22172006.7264   22172011.3924   22172006.5654
     -3002.7324      -2339.7814         46.0004         41.0004
 -19506799.49843 -15149183.30942  20615174.6404   20615178.4954   20615174.3734
      1277.4474        995.4174         51.0004         46.0004
  -2055890.84343  -1559813.29442  24459270.6804   24459273.7324   24459270.7814
     -2893.4054      -2254.5884         41.0004         36.0004
 -13315951.86843 -10340709.46342  22113244.3624   22113246.7724   22113244.0904
      2449.4524       1908.6564         47.0004         42.0004
 -10009420.44143  -7750272.45842  21927956.5674   21927959.1654   21927956.1264
     -1973.9404      -1538.1204         47.0004         43.0004
  -5429737.97843  -4195816.79042  23167659.3904   23167663.2684   23167658.7984
      1985.9604       1547.5084         43.0004         39.0004
 04 12 27  1  1 30.0000000  0  8G15G19G 3G 1G22G11G14G20
   2507524.35243   1996333.81542  24132342.2484   24132347.1574   24132341.6914
     -2214.9274      -1725.9274         40.0004         35.0004
 -18443463.98043 -14335477.47042  20902920.4044   20902921.7974   20902919.6154
     -1420.3364      -1106.7584         51.0004         47.0004
 -11504859.76343  -8919623.96642  22189179.5844   22189184.2904   22189179.4394
     -3013.3084      -2348.0374         46.0004         41.0004
 -19544818.00743 -15178808.10642  20607939.8914   20607943.8094   20607939.6354
      1257.2074        979.6364         51.0004         46.0004
  -1969082.54043  -1492170.53342  24475789.7444   24475792.8634   24475789.8524
     -2893.1564      -2254.4064         40.0004         36.0004
 -13389353.35343 -10397905.42642  22099276.5194   22099278.8584   22099276.2924
      2444.1194       1904.5174         47.0004         42.0004
  -9949950.09243  -7703931.94742  21939273.4074   21939276.0514   21939273.0364
     -1990.6984      -1551.2004         47.0004         43.0004
  -5489209.88943  -4242158.52542  23156342.2584   23156346.0914   23156341.6764
      1978.4244       1541.6244         43.0004         39.0004
 04 12 27  1  2  0.0000000  0  8G15G19G 3G 1G22G11G14G20
   2574042.50243   2048166.07042  24145000.2334   24145005.2844   24144999.6324
     -2219.8054      -1729.7154         40.0004         36.0004
 -18400586.12443 -14302066.18142  20911079.8724   20911081.2124   20911079.0464
     -1438.5224      -1120.9214         51.0004         46.0004
 -11414314.34443  -8849069.14042  22206409.8474   22206414.5604   22206409.6234
     -3023.3264      -2355.8364         46.0004         41.0004
 -19582247.77843 -15207974.14742  20600817.2274   20600821.1714   20600816.9424
      1237.8004        964.5084         51.0004         46.0004
  -1882309.41043  -1424555.17842  24492302.1184   24492305.3114   24492302.2744
     -2891.9044      -2253.4444         40.0004         35.0004
 -13462612.35343 -10454990.34242  22085335.7084   22085338.1854   22085335.5204
      2439.5334       1900.9364         47.0004         43.0004
  -9889992.28343  -7657211.59442  21950683.0644   21950685.6664   21950682.6414
     -2006.7494      -1563.7084         47.0004         43.0004
  -5548479.57243  -4288342.67942  23145063.6214   23145067.3874   23145063.0394
      1971.9474       1536.5814         43.0004         39.0004
 04 12 27  1  2 30.0000000  0  8G15G19G 3G 1G22G11G14G20
   2640723.70643   2100125.38842  24157689.2424   24157694.5414   24157688.4634
     -2225.7244      -1734.3314         40.0004         36.0004
 -18357162.82943 -14268229.86942  20919343.0394   20919344.4004   20919342.2134
     -1456.7714      -1135.1524         51.0004         46.0004
 -11323470.97543  -8778282.14542  22223696.7714   22223701.5284   22223696.5814
     -3033.5184      -2363.7664         46.0004         41.0004
 -19619088.55443 -15236681.23142  20593806.6474   20593810.6164   20593806.3834
      1217.8604        948.9734         51.0004         46.0004
  -1795572.77043  -1356968.23942  24508807.6534   24508810.6614   24508807.7464
     -2890.8984      -2252.6454         40.0004         36.0004
 -13535728.47043 -10511963.92942  22071422.2264   22071424.6074   22071422.0414
      2434.4744       1896.9804         47.0004         43.0004
  -9829550.21443  -7610113.89642  21962184.7484   21962187.4024   21962184.3434
     -2023.3074      -1576.6104         47.0004         42.0004
  -5607548.11543  -4334370.09442  23133823.1184   23133826.9534   23133822.6264
      1965.2664       1531.3794         43.0004         39.0004
 04 12 27  1  3  0.0000000  0  8G15G19G 3G 1G22G11G14G20
   2707568.59543   2152212.24842  24170409.4894   24170414.7574   24170408.8794
     -2231.3824      -1738.7334         40.0004         36.0004
 -18313194.91543 -14233969.18142  20927709.8044   20927711.2214   20927709.0144
     -1474.7614      -1149.1654         51.0004         46.0004
 -11232332.29743  -8707265.03042  22241039.9744   22241044.7074   22241039.7044
     -3042.8644      -2371.0604         45.0004         41.0004
 -19655338.65743 -15264928.05442  20586908.5264   20586912.4304   20586908.2254
      1198.2944        933.7304         51.0004         46.0004
  -1708873.10243  -1289410.12542  24525306.1874   24525309.0664   24525305.9984
     -2889.6334      -2251.6554         40.0004         36.0004
 -13608699.08343 -10568824.13942  22057536.2874   22057538.8074   22057536.1804
      2429.6334       1893.2244         47.0004         43.0004
  -9768625.53743  -7562640.15342  21973778.3334   21973781.0064   21973777.8954
     -2039.1134      -1588.9124         47.0004         42.0004
  -5666415.63243  -4380240.85742  23122620.9644   23122624.8184   23122620.4674
      1958.8004       1526.3344         43.0004         39.0004
 04 12 27  1  3 30.0000000  0  8G15G19G 3G 1G22G11G14G20
   2774577.71443   2204427.06842  24183161.0774   24183166.2264   24183160.4464
     -2236.2374      -1742.5364         40.0004         36.0004
 -18268683.44543 -14199284.94142  20936180.0124   20936181.4614   20936179.2434
     -1492.6854      -1163.1294         51.0004         46.0004
 -11140900.46143  -8636019.49842  22258438.9364   22258443.6174   22258438.6394
     -3052.4374      -2378.5204         45.0004         41.0004
 -19690996.44943 -15292713.33542  20580123.0434   20580126.9534   20580122.7514
      1178.7354        918.4874         51.0004         46.0004
  -1622210.61443  -1221880.96542  24541797.5664   24541800.4534   24541797.4684
     -2887.9784      -2250.3724         40.0004         35.0004
 -13681521.88843 -10625569.16842  22043678.5814   22043681.0004   22043678.5034
      2424.9964       1889.6044         47.0004         43.0004
  -9707220.27143  -7514791.90742  21985463.3574   21985466.0184   21985462.9164
     -2054.8634      -1601.2014         47.0004         42.0004
  -5725081.47443  -4425954.47942  23111457.0894   23111461.0174   23111456.6584
      1952.1874       1521.1864         43.0004         39.0004
 04 12 27  1  4  0.0000000  0  8G15G19G 3G 1G22G11G14G20
   2841750.20543   2256769.21042  24195943.6084   24195948.8574   24195943.1534
     -2241.9544      -1746.9704         40.0004         35.0004
 -18223630.73043 -14164178.96442  20944753.2644   20944754.7344   20944752.4884
     -1510.7524      -1177.1984         51.0004         46.0004
 -11049178.92243  -8564548.20442  22275893.0294   22275897.5454   22275892.7824
     -3062.1074      -2386.0564         45.0004         40.0004
 -19726061.51243 -15320036.74442  20573450.3894   20573454.3184   20573450.0674
      1158.9884        903.1204         51.0004         47.0004
  -1535586.73643  -1154381.91142  24558281.5264   24558284.1474   24558281.6824
     -2886.8744      -2249.5034         40.0004         35.0004
 -13754196.29543 -10682198.55442  22029849.0924   22029851.4534   22029848.9734
      2420.1014       1885.8044         47.0004         42.0004
  -9645337.29443  -7466571.43542  21997239.2754   21997241.9754   21997238.8664
     -2070.5654      -1613.4184         47.0004         42.0004
  -5783546.61543  -4471511.71242  23100331.5964   23100335.4194   23100331.1194
      1945.7004       1516.1284         44.0004         39.0004
 04 12 27  1  4 30.0000000  0  8G15G19G 3G 1G22G11G14G20
   2909086.42143   2309238.92442  24208757.4064   24208762.5474   24208756.8084
     -2247.4154      -1751.2354         40.0004         36.0004
 -18178038.01643 -14128652.20042  20953429.3184   20953430.8034   20953428.5264
     -1529.1274      -1191.5404         51.0004         46.0004
 -10957170.49343  -8492853.37442  22293401.7934   22293406.2974   22293401.5124
     -3072.0184      -2393.7824         45.0004         41.0004
 -19760532.88043 -15346897.54142  20566890.7444   20566894.6024   20566890.4004
      1138.7794        887.3684         51.0004         46.0004
  -1449002.61743  -1086913.83742  24574757.6954   24574760.7384   24574758.1034
     -2886.3284      -2249.0704         39.0004         34.0004
 -13826720.30943 -10738710.76842  22016048.3094   22016050.5434   22016048.1714
      2414.5574       1881.4714         47.0004         43.0004
  -9582979.11443  -7417980.66342  22009105.6644   22009108.3704   22009105.2544
     -2086.8404      -1626.1134         47.0004         42.0004
  -5841811.46343  -4516912.87842  23089244.1744   23089247.9114   23089243.6704
      1938.6754       1510.6574         43.0004         39.0004
 04 12 27  1  5  0.0000000  0  8G15G19G 3G 1G22G11G14G20
   2976586.06143   2361835.97342  24221602.3284   24221607.5324   24221601.6474
     -2252.6634      -1755.3124         40.0004         35.0004
 -18131907.34443 -14092706.25042  20962207.7124   20962209.2334   20962206.8894
     -1546.7414      -1205.2584         51.0004         46.0004
 -10864878.16943  -8420937.33042  22310964.3654   22310969.0064   22310964.1724
     -3081.3574      -2401.0634         45.0004         40.0004
 -19794409.82443 -15373295.14642  20560444.1384   20560447.9984   20560443.8104
      1119.1134        872.0244         51.0004         47.0004
  -1362458.99543  -1019477.33942  24591226.4754   24591229.4734   24591226.7524
     -2884.1324      -2247.3714         39.0004         35.0004
 -13899092.48343 -10795104.65942  22002276.2804   22002278.5544   22002276.1714
      2409.6264       1877.6494         47.0004         43.0004
  -9520148.38343  -7369021.68342  22021061.9664   22021064.6544   22021061.5384
     -2102.4324      -1638.2654         47.0004         42.0004
  -5899876.56143  -4562158.37742  23078194.7344   23078198.4434   23078194.1544
      1932.2584       1505.6584         43.0004         39.0004
 04 12 27  1  5 30.0000000  0  8G15G19G 3G 1G22G11G14G20
   3044249.84643   2414560.94042  24234478.2004   24234483.7974   24234477.7294
     -2257.4164      -1759.0284         40.0004         35.0004
 -18085239.47243 -14056341.70342  20971088.2724   20971089.8644   20971087.4704
     -1564.0844      -1218.7504         51.0004         46.0004
 -10772304.08643  -8348801.71842  22328580.6714   22328585.2824   22328580.4294
     -3090.0664      -2407.8274         45.0004         40.0004
 -19827690.58743 -15399228.19642  20554110.9934   20554114.8594   20554110.6814
      1100.0134        857.1724         51.0004         47.0004
  -1275956.21143   -952072.63042  24607687.5234   24607690.3864   24607687.8364
     -2882.4284      -2246.0354         40.0004         36.0004
 -13971310.40743 -10851378.34542  21988533.7184   21988535.9664   21988533.5604
      2405.1634       1874.1684         47.0004         43.0004
  -9456846.99943  -7319695.95142  22033107.8304   22033110.5314   22033107.4314
     -2117.4944      -1649.9884         47.0004         42.0004
  -5957741.46043  -4607247.89242  23067183.4024   23067187.1654   23067182.8094
      1926.1154       1500.8704         44.0004         39.0004
 04 12 27  1  6  0.0000000  0  8G15G19G 3G 1G22G11G14G20
   3112078.34543   2467414.22442  24247385.6904   24247390.9724   24247385.2794
     -2263.2674      -1763.5744         40.0004         35.0004
 -18038035.53643 -14019559.44142  20980070.8904   20980072.4824   20980070.0574
     -1582.3324      -1232.9874         51.0004         46.0004
 -10679450.85443  -8276448.59942  22346249.8784   22346254.7274   22346249.8214
     -3099.6524      -2415.3094         45.0004         40.0004
 -19860373.75443 -15424695.58542  20547891.5304   20547895.4494   20547891.2464
      1079.5874        841.2314         51.0004         46.0004
  -1189494.43543   -884699.88442  24624140.7184   24624143.7554   24624141.0654
     -2881.1704      -2245.0684         41.0004         36.0004
 -14043371.51343 -10907529.84742  21974820.8454   21974823.2004   21974820.7174
      2399.5504       1869.7714         47.0004         43.0004
  -9393076.73143  -7270004.84042  22045243.0274   22045245.6364   22045242.5184
     -2133.2674      -1662.2924         47.0004         42.0004
  -6015406.32943  -4652181.51942  23056210.1884   23056213.8284   23056209.5714
      1918.9644       1495.2924         44.0004         39.0004
 04 12 27  1  6 30.0000000  0  8G15G19G 3G 1G22G11G14G20
   3180070.78743   2520395.29742  24260324.2974   24260329.3314   24260323.6944
     -2269.1954      -1768.2134         39.0004         35.0004
 -17990297.99243 -13982361.38242  20989155.0854   20989156.6404   20989154.2454
     -1600.2674      -1246.9684         51.0004         46.0004
 -10586321.93343  -8203880.65642  22363971.6944   22363976.6404   22363971.6654
     -3109.0994      -2422.6764         45.0004         40.0004
 -19892459.07443 -15449697.12242  20541785.8434   20541789.8074   20541785.5884
      1059.4344        825.5104         51.0004         46.0004
  -1103075.03143   -817360.16242  24640585.6724   24640588.9824   24640586.1064
     -2880.3204      -2244.3964         41.0004         36.0004
 -14115275.16343 -10963558.66042  21961138.0654   21961140.4024   21961137.9084
      2393.8524       1865.3364         48.0004         43.0004
  -9328840.70543  -7219950.81742  22057466.6784   22057469.4374   22057466.2224
     -2149.0444      -1674.5804         47.0004         42.0004
  -6072871.94343  -4696959.89042  23045274.8294   23045278.5184   23045274.1734
      1912.0594       1489.9074         44.0004         39.0004
 04 12 27  1  7  0.0000000  0  8G15G19G 3G 1G22G11G14G20
   3248226.94643   2573503.91642  24273293.9694   24273299.0954   24273293.3154
     -2275.8734      -1773.3934         40.0004         35.0004
 -17942028.43143 -13944748.75842  20998340.4384   20998342.0404   20998339.6404
     -1618.9734      -1261.5434         50.0004         46.0004
 -10492920.27443  -8131100.18942  22381745.5224   22381750.3494   22381745.5004
     -3118.7354      -2430.1844         45.0004         40.0004
 -19923945.89943 -15474232.28942  20535794.1454   20535798.0794   20535793.8524
      1038.7174        809.3774         51.0004         47.0004
  -1016699.00443   -750054.25542  24657022.7504   24657025.7794   24657022.9974
     -2879.4384      -2243.7134         41.0004         36.0004
 -14187019.60943 -11019463.40042  21947485.5154   21947487.9044   21947485.3694
      2388.1954       1860.9274         48.0004         43.0004
  -9264141.67343  -7169536.00942  22069778.5244   22069781.2694   22069778.0694
     -2165.1754      -1687.1544         47.0004         42.0004
  -6130138.71643  -4741583.32342  23034377.3664   23034380.9424   23034376.7024
      1904.7194       1484.1954         44.0004         39.0004
 04 12 27  1  7 30.0000000  0  8G15G19G 3G 1G22G11G14G20
   3316547.38943   2626740.55142  24286294.9054   24286300.2904   24286294.4244
     -2280.0444      -1776.6554         40.0004         35.0004
 -17893228.08443 -13906722.53742  21007626.8594   21007628.4334   21007626.0684
     -1635.3004      -1274.2564         50.0004         46.0004
 -10399248.24943  -8058109.04442  22399570.8144   22399575.5424   22399570.7734
     -3126.6514      -2436.3434         45.0004         40.0004
 -19954832.69943 -15498299.91642  20529916.5524   20529920.4964   20529916.2684
      1019.6894        794.5774         51.0004         46.0004
   -930366.61343   -682782.33042  24673451.4364   24673454.3894   24673451.5344
     -2877.3774      -2242.1074         40.0004         35.0004
 -14258602.63943 -11075242.37142  21933863.7804   21933866.0854   21933863.5384
      2383.6234       1857.3604         47.0004         43.0004
  -9198981.24443  -7118761.66842  22082178.1744   22082180.9714   22082177.7624
     -2179.4304      -1698.2614         47.0004         42.0004
  -6187206.48243  -4786051.69942  23023517.7174   23023521.1854   23023517.0614
      1899.0684       1479.7924         44.0004         39.0004
 04 12 27  1  8  0.0000000  0  8G15G19G 3G 1G22G11G14G20
   3385031.71443   2680104.87442  24299327.2344   24299332.5024   24299326.6954
     -2285.5214      -1780.9384         40.0004         36.0004
 -17843899.27343 -13868284.52442  21017013.8834   21017015.4324   21017013.0484
     -1653.2724      -1288.2654         50.0004         46.0004
 -10305309.38143  -7984909.96442  22417446.9904   22417451.4854   22417446.7854
     -3135.8064      -2443.4854         45.0004         40.0004
 -19985119.16643 -15521899.74742  20524153.2654   20524157.1294   20524152.9764
       999.3014        778.6834         51.0004         46.0004
   -844079.23343   -615545.47542  24689871.5244   24689874.2964   24689871.1864
     -2875.4084      -2240.5734         40.0004         35.0004
 -14330022.99043 -11130894.58342  21920272.9114   21920275.2504   21920272.6974
      2377.6574       1852.7164         48.0004         43.0004
  -9133362.34243  -7067630.08442  22094665.0574   22094667.7434   22094664.6424
     -2195.0304      -1710.4294         47.0004         42.0004
  -6244076.11043  -4830365.67242  23012695.7074   23012699.2214   23012695.1264
      1892.0264       1474.2994         44.0004         39.0004
 04 12 27  1  8 30.0000000  0  8G15G19G 3G 1G22G11G14G20
   3453680.57143   2733597.42542  24312390.7734   24312396.0274   24312390.1854
     -2291.7384      -1785.7704         40.0004         36.0004
 -17794042.95343 -13829435.46342  21026501.2434   21026502.7874   21026500.4384
     -1670.8014      -1301.9174         50.0004         46.0004
 -10211105.59643  -7911504.46942  22435373.4604   22435377.9284   22435373.2454
     -3144.7834      -2450.4784         45.0004         40.0004
 -20014803.95843 -15545030.74642  20518504.3904   20518508.2504   20518504.1114
       979.2914        763.0784         51.0004         46.0004
   -757836.87043   -548343.67842  24706282.9484   24706285.5074   24706282.3794
     -2874.3374      -2239.7434         39.0004         35.0004
 -14401278.36843 -11186418.24542  21906713.5114   21906715.7224   21906713.2404
      2372.0284       1848.3384         48.0004         43.0004
  -9067287.28843  -7016143.04342  22107238.7584   22107241.3634   22107238.3524
     -2210.2434      -1722.2734         46.0004         42.0004
  -6300747.36443  -4874525.06542  23001911.4934   23001914.9954   23001910.9434
      1885.3004       1469.0654         44.0004         39.0004
 04 12 27  1  9  0.0000000  0  8G15G19G 3G 1G22G11G14G20
   3522493.17843   2787217.55842  24325485.5624   24325490.8734   24325484.8894
     -2297.1464      -1789.9704         40.0004         36.0004
 -17743661.42243 -13790177.15042  21036088.5524   21036090.1094   21036087.7564
     -1688.5514      -1315.7544         50.0004         46.0004
 -10116640.55643  -7837895.38942  22453349.5894   22453354.1314   22453349.3704
     -3153.6384      -2457.3814         44.0004         40.0004
 -20043886.92243 -15567692.77342  20512970.0954   20512973.9514   20512969.7864
       958.9344        747.2134         51.0004         47.0004
   -671640.95643   -481178.12342  24722685.4874   24722688.0004   24722685.0454
     -2872.6414      -2238.4224         39.0004         35.0004
 -14472367.02943 -11241812.00642  21893185.6904   21893187.9764   21893185.5374
      2366.4144       1843.9754         48.0004         43.0004
  -9000758.75443  -6964302.64142  22119898.7114   22119901.3404   22119898.3894
     -2225.5604      -1734.1984         47.0004         42.0004
  -6357221.27843  -4918530.68942  22991165.0184   22991168.4804   22991164.4664
      1878.8314       1464.0234         44.0004         40.0004
 04 12 27  1  9 30.0000000  0  8G15G19G 3G 1G22G11G14G20
   3591470.78843   2840966.27242  24338611.7984   24338616.7774   24338610.8264
     -2302.0344      -1793.8054         40.0004         35.0004
 -17692755.24643 -13750510.03142  21045775.6754   21045777.2334   21045774.9074
     -1705.7594      -1329.1694         50.0004         46.0004
 -10021915.84443  -7764083.98642  22471375.0064   22471379.7454   22471374.8214
     -3161.8654      -2463.7884         45.0004         40.0004
 -20072365.99143 -15589884.24442  20507550.7284   20507554.5464   20507550.4204
       939.1474        731.8054         51.0004         47.0004
   -585490.77343   -414048.13542  24739079.6024   24739081.8744   24739078.9164
     -2870.8564      -2237.0254         39.0004         34.0004
 -14543286.58843 -11297073.97542  21879690.1094   21879692.4134   21879690.0164
      2360.9894       1839.7244         48.0004         43.0004
  -8933778.33443  -6912110.12242  22132644.7234   22132647.3454   22132644.3854
     -2240.2944      -1745.6794         46.0004         42.0004
  -6413497.01043  -4962381.88542  22980456.1054   22980459.6464   22980455.6534
      1872.6054       1459.1684         44.0004         39.0004
 04 12 27  1 10  0.0000000  0  8G15G19G 3G 1G22G11G14G20
   3660611.97943   2894842.46142  24351768.9504   24351774.0014   24351768.1614
     -2307.0214      -1797.6854         40.0004         36.0004
 -17641327.24643 -13710436.29342  21055562.1764   21055563.7014   21055561.3924
     -1722.5304      -1342.2274         50.0004         46.0004
  -9926935.48343  -7690073.36642  22489449.1624   22489453.9494   22489449.0164
     -3170.0734      -2470.1824         44.0004         40.0004
 -20100241.65643 -15611605.52542  20502246.1784   20502249.9694   20502245.8594
       919.5584        716.5494         51.0004         47.0004
   -499388.30843   -346955.37542  24755464.3184   24755466.7114   24755463.6944
     -2869.0024      -2235.5504         38.0004         33.0004
 -14614036.41943 -11352203.70942  21866226.8914   21866229.1234   21866226.7684
      2355.8274       1835.7294         48.0004         43.0004
  -8866349.67543  -6859568.32742  22145475.9734   22145478.5964   22145475.6914
     -2254.5964      -1756.8234         46.0004         42.0004
  -6469575.87643  -5006079.66742  22969784.7334   22969788.0474   22969784.2434
      1866.4094       1454.3484         44.0004         39.0004
 04 12 27  1 10 30.0000000  0  8G15G19G 3G 1G22G11G14G20
   3729917.56443   2948846.77742  24364957.3304   24364962.5234   24364956.4994
     -2312.5074      -1801.9414         40.0004         35.0004
 -17589378.98943 -13669957.15742  21065447.6774   21065449.1314   21065446.8524
     -1739.9734      -1355.8244         50.0004         46.0004
  -9831702.02643  -7615865.51742  22507571.5264   22507576.2744   22507571.3824
     -3178.2894      -2476.5864         44.0004         40.0004
 -20127512.62143 -15632855.61542  20497056.6434   20497060.4464   20497056.3344
       899.3154        700.7654         51.0004         46.0004
   -413333.84143   -279900.02342  24771839.5354   24771844.4394   24771837.7234
     -2867.8964      -2234.7194         38.0004         33.0004
 -14684614.02243 -11407199.23942  21852796.3374   21852798.5634   21852796.2944
      2350.0404       1831.1684         48.0004         43.0004
  -8798474.75043  -6806678.79342  22158391.9954   22158394.7574   22158391.7404
     -2269.7404      -1768.6224         46.0004         41.0004
  -6525457.82443  -5049624.02642  22959150.6744   22959154.0484   22959150.2214
      1859.7804       1449.1834         44.0004         40.0004
 04 12 27  1 11  0.0000000  0  8G15G19G 3G 1G22G11G14G20
   3799388.00443   3002979.47142  24378177.1984   24378182.5474   24378176.5164
     -2318.8604      -1806.8834         40.0004         35.0004
 -17536911.48843 -13629073.42142  21075432.0004   21075433.3364   21075431.1284
     -1757.7724      -1369.6814         50.0004         46.0004
  -9736217.59443  -7541462.10642  22525741.6704   22525746.3004   22525741.5184
     -3187.0904      -2483.4484         44.0004         40.0004
 -20154177.52043 -15653633.44342  20491982.4324   20491986.2614   20491982.1244
       878.5244        684.5574         51.0004         47.0004
   -327327.27143   -212881.99442  24788205.7784   24788207.4044   24788206.5424
     -2866.3674      -2233.5194         38.0004         33.0004
 -14755016.78643 -11462058.52642  21839399.2154   21839401.3264   21839399.1154
      2343.6664       1826.2344         48.0004         43.0004
  -8730155.39043  -6753442.94642  22171392.7504   22171395.4844   22171392.4324
     -2284.9294      -1780.4624         46.0004         41.0004
  -6581142.61043  -5093014.74842  22948554.2384   22948557.6494   22948553.8104
      1852.7864       1443.7304         44.0004         39.0004
 04 12 27  1 11 30.0000000  0  8G15G19G 3G 1G22G11G14G20
   3869022.24343   3057239.85042  24391428.2054   24391433.4224   24391427.3084
     -2324.9584      -1811.6574         40.0004         35.0004
 -17483927.64143 -13587787.32942  21085514.4764   21085515.8244   21085513.6324
     -1775.2784      -1383.3424         50.0004         46.0004
  -9640486.00743  -7466866.11742  22543958.8864   22543963.5354   22543958.6384
     -3195.6684      -2490.1364         44.0004         40.0004
 -20180236.77043 -15673939.33742  20487023.5374   20487027.3524   20487023.2574
       858.1184        668.6484         51.0004         47.0004
   -241370.37943   -145902.68042  24804562.8944   24804566.7554   24804563.2944
     -2864.8274      -2232.3444         38.0004         33.0004
 -14825244.01143 -11516781.03242  21826035.3954   21826037.5434   21826035.3034
      2337.4284       1821.3604         48.0004         43.0004
  -8661395.12143  -6699863.52942  22184477.3724   22184480.1504   22184477.0734
     -2299.8284      -1792.0744         46.0004         41.0004
  -6636631.50643  -5136252.82342  22937994.9844   22937998.4594   22937994.5774
      1845.7634       1438.2534         44.0004         40.0004
 04 12 27  1 12  0.0000000  0  8G15G19G 3G 1G22G11G14G20
   3938821.04343   3111628.43342  24404710.5314   24404715.7614   24404709.9514
     -2329.6094      -1815.2714         40.0004         36.0004
 -17430428.32743 -13546099.56942  21095695.0504   21095696.4504   21095694.2084
     -1792.5384      -1396.7934         50.0004         46.0004
  -9544509.49343  -7392079.27142  22562222.6544   22562227.2694   22562222.4074
     -3203.7964      -2496.4714         44.0004         40.0004
 -20205688.90543 -15693772.15542  20482180.1814   20482183.9134   20482179.8714
       837.8604        652.8594         51.0004         46.0004
                    -78961.88442  24820910.753    24820914.3634
                     -2231.5684                         33.0004
 -14895293.22043 -11571364.81742  21812705.5434   21812707.6354   21812705.4124
      2331.4334       1816.6814         48.0004         43.0004
  -8592195.88543  -6645942.07342  22197645.5104   22197648.3784   22197645.1844
     -2314.4214      -1803.4474         46.0004         41.0004
  -6691924.12043  -5179337.96342  22927473.0794   22927476.5064   22927472.6504
      1839.4114       1433.3044         44.0004         39.0004
 04 12 27  1 12 30.0000000  0  8G15G19G 3G 1G22G11G14G20
   4008784.24943   3166145.13242  24418024.2334   24418029.3174   24418023.6294
     -2335.2144      -1819.6364         40.0004         35.0004
 -17376415.78443 -13504011.89542  21105973.3334   21105974.7124   21105972.4764
     -1809.7054      -1410.1634         50.0004         46.0004
  -9448291.33843  -7317104.14042  22580532.3584   22580536.9924   22580532.1254
     -3211.7204      -2502.6444         44.0004         40.0004
 -20230533.56643 -15713131.62342  20477452.3754   20477456.1144   20477452.0734
       817.3744        636.9104         51.0004         46.0004
    -69606.10543    -12060.56842  24837249.0584   24837253.8264   24837249.2084
     -2862.3594      -2229.7014         38.0004         33.0004
 -14965162.73843 -11625808.58942  21799409.7554   21799411.8974   21799409.6204
      2325.3434       1811.9524         48.0004         43.0004
  -8522560.19143  -6591680.50342  22210896.8384   22210899.5804   22210896.4784
     -2329.0974      -1814.8854         46.0004         41.0004
  -6747021.19843  -5222270.72342  22916988.4544   22916991.7664   22916987.9964
      1832.5814       1427.9864         44.0004         40.0004
 04 12 27  1 13  0.0000000  0  8G15G19G 3G 1G22G11G14G20
   4078912.30343   3220790.30042  24431369.0584   24431374.3384   24431368.6254
     -2340.1844      -1823.5044         40.0004         35.0004
 -17321891.31243 -13461525.32142  21116349.0244   21116350.4124   21116348.2124
     -1825.9544      -1422.8284         50.0004         46.0004
  -9351833.75543  -7241942.43642  22598887.6154   22598892.3614   22598887.4294
     -3218.9984      -2508.3044         44.0004         40.0004
 -20254769.65543 -15732016.87642  20472840.3454   20472844.1124   20472840.0484
       797.7974        621.6664         51.0004         46.0004
     16200.08743     54801.33142  24853577.6374   24853581.4814   24853578.4394
     -2859.2974      -2228.0284         38.0004         33.0004
 -15034850.28143 -11680110.57042  21786148.6494   21786150.7294   21786148.5174
      2319.8564       1807.6844         48.0004         43.0004
  -8452490.34543  -6537080.64442  22224230.6334   22224233.4664   22224230.2594
     -2342.8974      -1825.6354         46.0004         41.0004
  -6801922.33943  -5265050.81442  22906541.2564   22906544.3594   22906540.7434
      1826.7684       1423.4544         44.0004         40.0004
 04 12 27  1 13 30.0000000  0  8G15G19G 3G 1G22G11G14G20
   4149203.32943   3275562.46142  24444745.0004   24444750.2204   24444744.6294
     -2345.8564      -1827.9454         39.0004         35.0004
 -17266858.36143 -13418642.53442  21126821.4314   21126822.8464   21126820.6034
     -1843.3324      -1436.3654         50.0004         46.0004
  -9255141.18043  -7166597.62242  22617287.6344   22617292.5314   22617287.4114
     -3227.7834      -2515.1524         44.0004         40.0004
 -20278398.21243 -15750428.72942  20468343.9694   20468347.7144   20468343.6754
       777.0054        605.4484         51.0004         47.0004
    101953.47443    121622.06742  24869895.9844   24869899.5234   24869896.6644
     -2858.3324      -2227.2874         38.0004         34.0004
 -15104355.51443 -11734270.47842  21772922.2764   21772924.3344   21772922.1134
      2313.2324       1802.5054         48.0004         43.0004
  -8381990.51143  -6482145.72142  22237646.2824   22237649.0834   22237645.9194
     -2357.6904      -1837.1604         46.0004         41.0004
  -6856629.69543  -5307679.90442  22896130.7674   22896133.8794   22896130.1594
      1819.8994       1418.0944         44.0004         39.0004
 04 12 27  1 14  0.0000000  0  8G15G19G 3G 1G22G11G14G20
   4219659.15343   3330463.04542  24458152.4944   24458157.3844   24458151.9524
     -2352.0254      -1832.7474         40.0004         35.0004
 -17211316.98943 -13375363.56342  21137390.5974   21137392.0334   21137389.7654
     -1860.2844      -1449.5914         50.0004         45.0004
  -9158214.57643  -7091070.46042  22635732.2524   22635737.0814   22635731.9694
     -3235.2234      -2520.9494         44.0004         39.0004
 -20301416.76543 -15768365.25542  20463963.7124   20463967.4664   20463963.4134
       756.6254        589.5664         51.0004         47.0004
                    188402.77842  24886204.466    24886208.0964
                     -2225.5724                         32.0004
 -15173674.53743 -11788285.28142  21759731.2714   21759733.3764   21759731.0574
      2307.1134       1797.7234         48.0004         43.0004
  -8311061.27743  -6426876.20542  22251143.7024   22251146.4574   22251143.3074
     -2371.9584      -1848.2894         46.0004         41.0004
  -6911141.81143  -5350156.86042  22885757.3694   22885760.5734   22885756.8494
      1813.2114       1412.8954         44.0004         40.0004
 04 12 27  1 14 30.0000000  0  8G15G19G 3G 1G22G11G14G20
   4290279.26243   3385491.62942  24471591.1004   24471595.8884   24471590.4374
     -2356.6654      -1836.3644         39.0004         34.0004
 -17155269.70943 -13331690.38142  21148055.9774   21148057.4724   21148055.2094
     -1876.1944      -1461.9614         50.0004         46.0004
  -9061057.42443  -7015363.63342  22654220.6714   22654225.4444   22654220.4404
     -3241.9474      -2526.1904         44.0004         39.0004
 -20323825.18843 -15785826.35442  20459699.5254   20459703.2664   20459699.2434
       737.2564        574.4874         51.0004         46.0004
    273305.08843    255142.64542  24902502.9254   24902503.1744   24902503.2714
     -2854.6154      -2224.3694         37.0004         33.0004
 -15242805.95243 -11842153.91242  21746575.9484   21746578.1214   21746575.7744
      2301.6924       1793.5264         48.0004         43.0004
  -8239705.65243  -6371274.42542  22264722.3164   22264724.9684   22264721.9514
     -2385.0664      -1858.4894         46.0004         41.0004
  -6965459.30543  -5392482.15242  22875421.1134   22875424.2824   22875420.5384
      1807.5494       1408.4754         44.0004         39.0004
                            4  1
RINEX FILE SPLICE; other post-header comments skipped       COMMENT
 04 12 27  1 15  0.0000000  0  8G15G19G 3G 1G22G11G14G20
   4361063.26443   3440647.90742  24485060.8164   24485065.7544   24485060.3524
     -2361.9984      -1840.5214         39.0004         34.0004
 -17098718.70043 -13287624.68242  21158817.3114   21158818.7964   21158816.5524
     -1893.6244      -1475.5514         50.0004         46.0004
  -8963672.75143  -6939479.52042  22672752.3494   22672757.1664   22672752.1764
     -3250.2904      -2532.6924         44.0004         39.0004
 -20345623.53943 -15802812.07442  20455551.4364   20455555.1454   20455551.1284
       716.2314        558.1094         51.0004         46.0004
                    321840.72442  24918791.505    24918795.2654
                     -2222.5304                         32.0004
 -15311748.47643 -11895875.34942  21733456.5794   21733458.8224   21733456.4344
      2294.6394       1788.0204         48.0004         43.0004
  -8167926.54643  -6315342.67842  22278381.5554   22278384.1804   22278381.1474
     -2399.7704      -1869.9524         46.0004         41.0004
  -7019583.01143  -5434656.44342  22865121.6894   22865124.8794   22865121.1474
      1800.7024       1403.1464         44.0004         39.0004
 04 12 27  1 15 30.0000000  0  8G15G19G 3G 1G22G11G14G20
   4432010.74443   3495931.56142  24498561.8174   24498566.4774   24498561.2044
     -2368.0704      -1845.2514         39.0004         35.0004
 -17041666.31643 -13243168.29442  21169674.0084   21169675.5044   21169673.2564
     -1910.4274      -1488.6504         50.0004         45.0004
  -8866063.88543  -6863420.72242  22691326.7674   22691331.5734   22691326.6634
     -3257.6354      -2538.4154         44.0004         39.0004
 -20366811.51843 -15819322.18242  20451519.4884   20451523.2074   20451519.1694
       695.8284        542.1954         51.0004         46.0004
    444442.29243    388496.13342  24935069.5794   24935076.2774   24935068.2514
     -2851.0624      -2221.6234         37.0004         32.0004
 -15380500.25943 -11949448.16142  21720373.6264   21720375.7404   21720373.4244
      2288.2684       1783.0644         48.0004         43.0004
  -8095727.01943  -6259083.32042  22292120.6344   22292123.3224   22292120.2464
     -2413.8844      -1880.9504         46.0004         41.0004
  -7073513.58943  -5476680.24142  22854858.9584   22854862.1904   22854858.4324
      1794.0614       1397.9624         44.0004         40.0004
 04 12 27  1 16  0.0000000  0  8G15G19G 3G 1G22G11G14G20
   4503122.29243   3551343.09642  24512093.8534   24512098.6184   24512093.3214
     -2373.4954      -1849.4824         39.0004         35.0004
 -16984113.76443 -13198322.17042  21180625.9034   21180627.4534   21180625.1244
     -1926.9774      -1501.5384         50.0004         45.0004
  -8768233.14143  -6787189.01942  22709943.4954   22709948.1604   22709943.3834
     -3264.8664      -2544.0494         44.0004         39.0004
 -20387388.02143 -15835355.81842  20447603.8074   20447607.6204   20447603.5714
       675.2504        526.1654         51.0004         46.0004
                    455109.29842  24951337.338    24951341.6544
                     -2220.2614                         32.0004
 -15449059.13543 -12002870.64442  21707327.2254   21707329.4624   21707327.0534
      2281.7014       1777.9424         48.0004         43.0004
  -8023108.88243  -6202497.77242  22305939.5364   22305942.0584   22305939.0764
     -2428.0214      -1891.9694         46.0004         41.0004
  -7127250.80143  -5518553.37842  22844633.0464   22844636.2774   22844632.4644
      1788.0254       1393.2634         44.0004         39.0004
 04 12 27  1 16 30.0000000  0  8G15G19G 3G 1G22G11G14G20
   4574397.62143   3606882.24142  24525657.1324   24525662.1264   24525656.3944
     -2378.7904      -1853.6044         39.0004         35.0004
 -16926063.47343 -13153088.19842  21191672.5644   21191674.1034   21191671.7354
     -1943.2924      -1514.2584         50.0004         45.0004
  -8670183.72343  -6710786.94342  22728601.8464   22728606.3944   22728601.5804
     -3271.9314      -2549.5604         44.0004         39.0004
 -20407352.85843 -15850912.82442  20443804.6714   20443808.4514   20443804.3884
       655.3504        510.6694         51.0004         47.0004
                    521679.43342  24967594.278    24967600.1324
                     -2218.2814                         32.0004
 -15517423.30843 -12056141.41642  21694318.0494   21694320.2084   21694317.7944
      2275.5624       1773.1694         48.0004         43.0004
  -7950075.29143  -6145588.48842  22319837.3844   22319839.9444   22319836.9134
     -2441.2574      -1902.2734         46.0004         41.0004
  -7180795.36043  -5560276.39042  22834443.7974   22834447.0914   22834443.2734
      1781.6584       1388.3054         44.0004         40.0004
 04 12 27  1 17  0.0000000  0  8G15G19G 3G 1G22G11G14G20
   4645836.79743   3662549.01342  24539251.6284   24539256.6774   24539250.8834
     -2383.7654      -1857.4614         39.0004         34.0004
 -16867517.21443 -13107467.75942  21202813.5294   21202815.1344   21202812.7164
     -1959.5274      -1526.9034         50.0004         45.0004
  -8571918.24643  -6634216.48642  22747301.1734   22747305.7874   22747300.9784
     -3278.8554      -2554.9474         44.0004         39.0004
 -20426705.49643 -15865992.80242  20440122.0054   20440125.7694   20440121.6954
       635.0594        494.8644         51.0004         47.0004
                    588206.19342  24983840.876    24983847.9064
                     -2216.1964                         32.0004
 -15585590.71343 -12109258.85742  21681346.1194   21681348.3584   21681345.8804
      2269.1184       1768.1414         48.0004         43.0004
  -7876628.54143  -6088357.27942  22333813.7744   22333816.3854   22333813.3714
     -2454.8414      -1912.8584         46.0004         41.0004
  -7234147.51643  -5601849.47742  22824291.2634   22824294.4804   22824290.6734
      1775.4384       1383.4594         44.0004         40.0004
 04 12 27  1 17 30.0000000  0  8G15G19G 3G 1G22G11G14G20
   4717439.71443   3718343.42542  24552877.2184   24552882.4034   24552876.3114
     -2388.1804      -1860.9224         39.0004         34.0004
 -16808476.99443 -13061462.41242  21214048.5154   21214050.1564   21214047.7334
     -1975.2214      -1539.1224         50.0004         45.0004
  -8473439.33643  -6557479.73242  22766041.1594   22766045.7844   22766040.8814
     -3284.8994      -2559.6584         44.0004         39.0004
 -20445445.55043 -15880595.43042  20436555.8514   20436559.6544   20436555.5744
       615.4534        479.5764         51.0004         47.0004
                    654689.12142  25000076.719    25000080.2724
                     -2214.8124                         32.0004
 -15653559.30543 -12162221.38642  21668412.1224   21668414.3834   21668411.9294
      2263.3264       1763.6404         48.0004         43.0004
  -7802771.08943  -6030806.02942  22347868.3814   22347871.0164   22347867.9824
     -2468.0734      -1923.1754         46.0004         41.0004
  -7287307.34243  -5643272.70642  22814175.2134   22814178.4864   22814174.6274
      1770.2014       1379.3724         44.0004         40.0004
 04 12 27  1 18  0.0000000  0  8G15G19G 3G 1G22G11G14G20
   4789206.43543   3774265.43542  24566533.7334   24566539.4474   24566533.0784
     -2395.5334      -1866.6524         39.0004         34.0004
 -16748944.83343 -13015073.74442  21225377.1124   21225378.7694   21225376.3424
     -1993.2964      -1553.2224         50.0004         45.0004
  -8374749.87943  -6480578.90642  22784821.1324   22784825.7934   22784820.9274
     -3293.9094      -2566.6834         44.0004         39.0004
 -20463572.62043 -15894720.41242  20433106.3874   20433110.2024   20433106.0904
       593.3574        462.3514         51.0004         47.0004
                                  25016301.721

 -15721326.89243 -12215027.29042  21655516.4014   21655518.6434   21655516.2064
      2254.9324       1757.0654         48.0004         43.0004
  -7728505.59543  -5972936.83942  22362000.6234   22362003.3074   22362000.2584
     -2483.0874      -1934.8684         46.0004         41.0004
  -7340275.38843  -5684546.48742  22804095.6744   22804098.9204   22804095.0554
      1761.7194       1372.7634         44.0004         40.0004
 04 12 27  1 18 30.0000000  0  8G15G19G 3G 1G22G11G14G20
   4861136.88243   3830315.03742  24580221.7104   24580227.4204   24580221.1374
     -2400.6264      -1870.6134         39.0004         35.0004
 -16688922.33943 -12968302.98442  21236799.0024   21236800.7074   21236798.2704
     -2008.6544      -1565.1834         50.0004         45.0004
  -8275852.79043  -6403516.28642  22803640.6834   22803645.3134   22803640.3944
     -3299.8364      -2571.3024         43.0004         39.0004
 -20481086.32643 -15908367.46042  20429773.5964   20429777.4364   20429773.3204
       573.6864        447.0284         51.0004         47.0004
                                  25032516.085

 -15788891.66143 -12267675.15542  21642659.1954   21642661.5104   21642659.0144
      2248.8854       1752.4014         48.0004         44.0004
  -7653834.44443  -5914751.54142  22376210.1204   22376212.7524   22376209.8204
     -2495.5054      -1944.5474         46.0004         41.0004
  -7393051.86543  -5725670.98942  22794052.6324   22794055.8664   22794052.0714
      1755.9604       1368.2794         44.0004         40.0004
 04 12 27  1 19  0.0000000  0  7G15G19G 3G 1G11G14G20
   4933230.23043   3886491.60342  24593940.4704   24593946.2764   24593939.7834
     -2406.5794      -1875.2534         39.0004         34.0004
 -16628412.59943 -12921152.55842  21248313.6924   21248315.3684   21248312.9184
     -2025.6564      -1578.4284         50.0004         45.0004
  -8176751.98143  -6326294.93042  22822499.0464   22822503.5944   22822498.6364
     -3307.3804      -2577.1754         43.0004         39.0004
 -20497987.09643 -15921536.88342  20426557.5474   20426561.2704   20426557.2574
       552.4754        430.5154         51.0004         47.0004
 -15856252.49943 -12320164.11842  21629840.7984   21629843.1344   21629840.7034
      2241.3944       1746.5464         48.0004         44.0004
  -7578761.06443  -5856252.81442  22390496.0784   22390498.8314   22390495.8164
     -2509.6624      -1955.5724         46.0004         41.0004
  -7445637.88143  -5766647.08342  22784045.8124   22784049.1414   22784045.2734
      1749.1964       1363.0114         45.0004         40.0004
 04 12 27  1 19 30.0000000  0  7G15G19G 3G 1G11G14G20
   5005487.04643   3942795.54642  24607690.6254   24607696.1954   24607690.0654
     -2411.8084      -1879.3344         39.0004         34.0004
 -16567416.93943 -12873623.49242  21259920.7624   21259922.4694   21259920.0584
     -2041.4314      -1590.7244         50.0004         45.0004
  -8077449.22143  -6248916.22842  22841395.7194   22841400.4744   22841395.4444
     -3313.5884      -2582.0194         43.0004         39.0004
 -20514273.81243 -15934227.82642  20423458.3154   20423462.0184   20423458.0154
       532.6194        415.0254         51.0004         47.0004
 -15923406.73243 -12372492.08542  21617061.7844   21617064.1174   21617061.6494
      2234.8974       1741.4874         48.0004         44.0004
  -7503287.37643  -5797442.17342  22404858.2684   22404861.0244   22404857.9834
     -2522.5434      -1965.6254         46.0004         41.0004
  -7498033.18243  -5807474.57942  22774075.3474   22774078.6084   22774074.8664
      1743.2244       1358.3514         44.0004         40.0004
 04 12 27  1 20  0.0000000  0  7G15G19G 3G 1G11G14G20
   5077906.87743   3999226.46642  24621471.7264   24621477.4944   24621471.0204
     -2416.6674      -1883.1094         39.0004         34.0004
 -16505937.66543 -12825717.59042  21271619.8834   21271621.6214   21271619.1804
     -2057.6874      -1603.3934         50.0004         45.0004
  -7977947.72543  -6171382.66242  22860330.3904   22860335.0824   22860330.0784
     -3320.5074      -2587.4054         43.0004         39.0004
 -20529946.45543 -15946440.27642  20420475.9014   20420479.6204   20420475.6044
       511.9054        398.8684         51.0004         47.0004
 -15990352.75843 -12424657.81542  21604322.3574   21604324.6924   21604322.2244
      2227.6544       1735.8274         48.0004         44.0004
  -7427416.29643  -5738321.87342  22419296.1144   22419298.8514   22419295.7954
     -2535.8434      -1975.9824         46.0004         41.0004
  -7550238.26543  -5848153.83342  22764141.0714   22764144.3384   22764140.5144
      1736.7194       1353.2844         44.0004         40.0004
 04 12 27  1 20 30.0000000  0  7G15G19G 3G 1G11G14G20
   5150489.02243   4055783.88342  24635283.6874   24635289.5534   24635287.9404
     -2421.7884      -1887.1034         38.0004         33.0004
 -16443977.35743 -12777436.85342  21283410.6024   21283412.3244   21283409.8584
     -2073.4224      -1615.6544         50.0004         45.0004
  -7878250.68843  -6093696.71342  22879302.0544   22879306.9434   22879301.7964
     -3326.3704      -2591.9774         43.0004         39.0004
 -20545005.46043 -15958174.55442  20417610.3074   20417613.9924   20417609.9764
       491.6754        383.1364         51.0004         47.0004
 -16057088.67043 -12476659.82442  21591622.9594   21591625.2544   21591622.8144
      2220.8674       1730.5454         48.0004         43.0004
  -7351150.97943  -5678894.36942  22433808.9154   22433811.6394   22433808.5924
     -2548.7944      -1986.0754         46.0004         41.0004
  -7602253.88943  -5888685.46742  22754242.7874   22754246.0564   22754242.2114
      1730.6724       1348.5834         45.0004         40.0004
 04 12 27  1 21  0.0000000  0  7G15G19G 3G 1G11G14G20
   5223233.76343   4112468.02342  24649126.7594   24649132.3094   24649126.6594
     -2427.6494      -1891.6564         38.0004         34.0004
 -16381537.87443 -12728782.72342  21295292.4534   21295294.1734   21295291.7404
     -2089.2334      -1627.9564         50.0004         45.0004
  -7778360.90843  -6015860.57542  22898310.3614   22898315.3504   22898310.2024
     -3332.7014      -2596.9014         43.0004         39.0004
 -20559450.29343 -15969430.26542  20414861.5504   20414865.2194   20414861.2144
       471.3084        367.2494         51.0004         47.0004
 -16123612.40943 -12528496.49842  21578963.8824   21578966.2224   21578963.7344
      2213.9504       1725.1374         48.0004         44.0004
  -7274493.80543  -5619161.53742  22448396.3114   22448399.0714   22448396.0004
     -2561.6614      -1996.0984         46.0004         41.0004
  -7654080.35943  -5929069.71642  22744380.5504   22744383.7754   22744380.0064
      1724.4614       1343.7324         45.0004         40.0004
 04 12 27  1 21 30.0000000  0  8G15G19G 3G 1G25G11G14G20
   5296141.33343   4169279.02342  24663000.8604   24663006.3054   24663000.0454
     -2433.1274      -1895.9244         38.0004         34.0004
 -16318621.27843 -12679756.83442  21307265.0804   21307266.8074   21307264.3724
     -2104.6064      -1639.9464         50.0004         45.0004
  -7678280.82643  -5937876.16442  22917354.7734   22917360.1134   22917354.8204
     -3338.6344      -2601.5304         43.0004         39.0004
 -20573280.29943 -15980206.89042  20412229.7914   20412233.4334   20412229.4674
       451.2534        351.6394         51.0004         47.0004
                                  23826487.169

 -16189921.54843 -12580165.96842  21566345.6374   21566348.0064   21566345.5104
      2207.1754       1719.8914         48.0004         44.0004
  -7197447.09443  -5559125.14842  22463057.9334   22463060.6124   22463057.5294
     -2574.2384      -2005.8954         46.0004         41.0004
  -7705717.75343  -5969306.61642  22734554.3294   22734557.4744   22734553.7094
      1718.6954       1339.2484         45.0004         40.0004
 04 12 27  1 22  0.0000000  0  8G15G19G 3G 1G25G11G14G20
   5369212.29043   4226217.34642  24676905.8424   24676911.5394   24676905.0684
     -2438.9294      -1900.4854         38.0004         34.0004
 -16255228.71743 -12630360.06242  21319328.3354   21319330.0614   21319327.6134
     -2121.4874      -1653.1184         50.0004         45.0004
  -7578012.78143  -5859745.27442  22936435.2114   22936440.4924   22936435.3014
     -3345.8494      -2607.1614         43.0004         38.0004
 -20586494.88943 -15990503.96842  20409715.1084   20409718.7414   20409714.7804
       429.7854        334.8984         51.0004         47.0004
   -169157.08843    -92666.46342  23811523.9734   23811528.3334   23811523.7924
      2618.1944       2040.1524         51.0004         37.0004
 -16256013.76443 -12631666.39442  21553768.6504   21553771.0484   21553768.5694
      2199.0204       1713.5174         48.0004         44.0004
  -7120012.77443  -5498786.74442  22477793.1804   22477795.8894   22477792.8154
     -2587.9634      -2016.5914         46.0004         41.0004
  -7757165.76243  -6009395.94842  22724764.0774   22724767.2284   22724763.4954
      1711.1804       1333.3814         45.0004         40.0004
 04 12 27  1 22 30.0000000  0  8G15G19G 3G 1G25G11G14G20
   5442445.09743   4283281.77342  24690841.8384   24690847.3214   24690840.8574
     -2443.0494      -1903.6824         39.0004         34.0004
 -16191364.31743 -12580595.62442  21331481.3884   21331483.0804   21331480.6034
     -2136.3854      -1664.7204         50.0004         45.0004
  -7477561.44143  -5781471.55942  22955550.5924   22955555.8624   22955550.5284
     -3351.2024      -2611.3214         43.0004         39.0004
 -20599095.57043 -16000322.67942  20407317.2724   20407320.9384   20407316.9394
       409.9784        319.4614         51.0004         47.0004
   -247633.55643   -153816.93042  23796590.2254   23796595.1334   23796590.3334
      2613.5614       2036.5404         46.0004         37.0004
 -16321888.60643 -12682997.44442  21541233.0434   21541235.4734   21541232.9684
      2192.4084       1708.3774         48.0004         44.0004
  -7042195.22043  -5438149.71242  22492601.4274   22492604.1384   22492601.0484
     -2599.9704      -2025.9434         46.0004         41.0004
  -7808426.36043  -6049339.25642  22715009.3574   22715012.6254   22715008.8204
      1705.6794       1329.0994         45.0004         40.0004
 04 12 27  1 23  0.0000000  0  8G15G19G 3G 1G25G11G14G20
   5515840.98943   4340473.31042  24704808.6144   24704814.1634   24704807.6324
     -2448.7004      -1908.0804         39.0004         34.0004
 -16127028.65643 -12530463.96142  21343724.0684   21343725.7924   21343723.3154
     -2152.1344      -1676.9924         50.0004         45.0004
  -7376928.03043  -5703055.98542  22974700.6704   22974705.8154   22974700.4244
     -3357.3864      -2616.1384         43.0004         38.0004
 -20611080.61143 -16009661.66842  20405036.5394   20405040.3054   20405036.2324
       389.5054        303.5194         51.0004         46.0004
   -325947.80043   -214840.99342  23781687.4724   23781692.5104   23781687.4864
      2608.1194       2032.3094         43.0004         37.0004
 -16387542.41643 -12734156.24842  21528739.4564   21528742.0244   21528739.4234
      2184.9584       1702.5714         48.0004         44.0004
  -6963995.45343  -5377214.85242  22507482.3494   22507485.1224   22507481.9614
     -2612.7814      -2035.9364         45.0004         41.0004
  -7859498.49743  -6089135.70842  22705290.6064   22705293.8984   22705290.1114
      1699.5374       1324.3164         45.0004         40.0004
 04 12 27  1 23 30.0000000  0  8G15G19G 3G 1G25G11G14G20
   5589398.60543   4397790.87142  24718806.1904   24718811.9944   24718805.2844
     -2454.7094      -1912.7524         39.0004         35.0004
 -16062224.83943 -12479967.51542  21356055.8674   21356057.5394   21356055.0634
     -2168.4424      -1689.7014         50.0004         45.0004
  -7276116.23143  -5624501.38442  22993884.5384   22993889.6754   22993884.3234
     -3364.2294      -2621.4834         43.0004         38.0004
 -20622450.87943 -16018521.61442  20402872.8644   20402876.5854   20402872.5644
       368.0374        286.7724         51.0004         47.0004
   -404097.51543   -275736.82442  23766816.0434   23766821.1384   23766816.1984
      2601.5534       2027.1764         42.0004         37.0004
 -16452974.26243 -12785142.10142  21516288.1814   21516290.7714   21516288.1544
      2176.5904       1696.0444         48.0004         44.0004
  -6885417.21443  -5315985.08042  22522435.2214   22522438.1224   22522434.9124
     -2626.3974      -2046.5364         45.0004         41.0004
  -7910383.44343  -6128786.28842  22695607.5284   22695610.8734   22695606.9954
      1692.3424       1318.7064         45.0004         40.0004
 04 12 27  1 24  0.0000000  0  8G15G19G 3G 1G25G11G14G20
   5663117.43043   4455233.97642  24732834.6564   24732839.9664   24732833.5364
     -2460.5704      -1917.3114         39.0004         34.0004
 -15996955.52343 -12429108.34042  21368476.1724   21368477.9094   21368475.4224
     -2183.8054      -1701.6614         50.0004         45.0004
  -7175129.47743  -5545810.47642  23013101.7024   23013106.7864   23013101.4694
     -3369.5784      -2625.6494         43.0004         38.0004
 -20633206.77243 -16026902.82542  20400826.1534   20400829.7474   20400825.8094
       347.6934        270.9254         51.0004         46.0004
   -482079.74243   -336502.16042  23751976.4614   23751981.5694   23751976.6654
      2596.0404       2022.8864         42.0004         37.0004
 -16518182.60143 -12835953.79942  21503879.4874   21503882.0184   21503879.4644
      2169.3514       1690.4094         48.0004         44.0004
  -6806463.70743  -5254462.89042  22537459.6774   22537462.4714   22537459.3344
     -2638.4354      -2055.9224         45.0004         41.0004
  -7961082.15443  -6168291.76342  22685959.8094   22685963.2124   22685959.3054
      1686.5034       1314.1584         45.0004         40.0004
 04 12 27  1 24 30.0000000  0  8G15G19G 3G 1G25G11G14G20
   5736998.31543   4512803.44742  24746893.4544   24746899.1124   24746892.7534
     -2464.9604      -1920.7404         39.0004         34.0004
 -15931221.93343 -12377887.39042  21380984.9084   21380986.6274   21380984.1744
     -2198.5514      -1713.1664         50.0004         45.0004
  -7073969.35143  -5466984.47842  23032351.8394   23032357.0694   23032351.5964
     -3374.6114      -2629.5634         43.0004         38.0004
 -20643347.24443 -16034804.48942  20398896.4694   20398900.0654   20398896.1084
       328.0184        255.5994         51.0004         46.0004
   -559890.18043   -397133.64342  23737169.7224   23737174.7084   23737169.7454
      2591.0464       2018.9984         42.0004         38.0004
 -16583164.31943 -12886588.89642  21491513.9594   21491516.4034   21491513.8724
      2162.4734       1685.0214         49.0004         44.0004
  -6727136.37143  -5192649.40042  22552555.1704   22552557.9804   22552554.8334
     -2650.0074      -2064.9444         45.0004         41.0004
  -8011593.70843  -6207651.38042  22676347.7714   22676351.1094   22676347.2624
      1680.8684       1309.7664         45.0004         40.0004
 04 12 27  1 25  0.0000000  0  8G15G19G 3G 1G25G11G14G20
   5811040.48743   4570498.56642  24760983.1054   24760988.8734   24760982.5894
     -2471.2604      -1925.6834         39.0004         34.0004
 -15865026.92043 -12326306.89342  21393581.4424   21393583.1394   21393580.6774
     -2214.7014      -1725.7384         50.0004         45.0004
  -6972639.65743  -5388026.36542  23051634.2284   23051639.4384   23051634.0284
     -3381.1094      -2634.6264         43.0004         38.0004
 -20652873.04443 -16042227.18442  20397083.7084   20397087.3974   20397083.3974
       306.6754        238.9554         51.0004         47.0004
   -637526.40343   -457629.39142  23722396.1164   23722401.0604   23722396.0144
      2584.3704       2013.7854         42.0004         38.0004
 -16647918.10643 -12937046.38642  21479191.7784   21479194.1514   21479191.6564
      2154.0144       1678.4454         49.0004         44.0004
  -6647438.63743  -5130547.30142  22567721.1394   22567724.0364   22567720.7914
     -2663.4304      -2075.4044         45.0004         40.0004
  -8061919.31443  -6246866.13042  22666771.0914   22666774.4334   22666770.6084
      1673.8924       1304.3214         45.0004         40.0004
 04 12 27  1 25 30.0000000  0  8G15G19G 3G 1G25G11G14G20
   5885243.87643   4628319.29542  24775103.3554   24775109.4874   24775103.1454
     -2476.2884      -1929.5694         39.0004         34.0004
 -15798372.59443 -12274368.47942  21406265.3864   21406267.0764   21406264.5874
     -2229.1454      -1736.9904         50.0004         45.0004
  -6871143.09543  -5308938.20442  23070948.4304   23070953.6324   23070948.3214
     -3385.5964      -2638.1204         43.0004         38.0004
 -20661784.16943 -16049170.91742  20395387.9734   20395391.6944   20395387.6694
       287.3924        223.9534         51.0004         47.0004
   -714985.16343   -517986.83242  23707656.1854   23707661.0754   23707656.2114
      2579.5244       2010.0164         43.0004         38.0004
 -16712441.98243 -12987324.72642  21466913.3284   21466915.6704   21466913.1664
      2147.4624       1673.3464         49.0004         44.0004
  -6567373.11243  -5068158.60942  22582956.9944   22582960.0064   22582956.7034
     -2674.5224      -2084.0404         45.0004         40.0004
  -8112059.46943  -6285936.34242  22657229.8474   22657233.0344   22657229.3004
      1668.9174       1300.4584         45.0004         40.0004
 04 12 27  1 26  0.0000000  0  8G15G19G 3G 1G25G11G14G20
   5959607.96843   4686265.26642  24789254.6294   24789260.7244   24789254.3534
     -2481.4904      -1933.6134         38.0004         34.0004
 -15731261.67443 -12222074.27942  21419036.1324   21419037.8734   21419035.3494
     -2245.3474      -1749.6294         49.0004         45.0004
  -6769482.63643  -5229722.33542  23090293.8744   23090299.0794   23090293.6934
     -3392.2104      -2643.2834         43.0004         38.0004
 -20670080.75743 -16055635.79442  20393809.1484   20393812.8754   20393808.8574
       265.6164        206.9724         51.0004         46.0004
   -792262.94443   -578203.24942  23692950.7854   23692955.5444   23692950.7004
      2572.1454       2004.2634         43.0004         38.0004
 -16776733.67243 -13037422.14342  21454679.0524   21454681.3604   21454678.9094
      2138.4974       1666.3444         49.0004         44.0004
  -6486942.53843  -5005485.46642  22598262.4044   22598265.5624   22598262.0844
     -2687.7824      -2094.3754         45.0004         40.0004
  -8162014.56943  -6324862.38542  22647723.7254   22647726.8364   22647723.2244
      1661.5824       1294.7374         45.0004         40.0004
 04 12 27  1 26 30.0000000  0  8G15G19G 3G 1G25G11G14G20
   6034132.58043   4744336.26442  24803435.7844   24803442.3104   24803436.4004
     -2486.9574      -1937.8814         38.0004         34.0004
 -15663696.27743 -12169425.94742  21431893.4144   21431895.1714   21431892.6444
     -2259.7734      -1760.8574         49.0004         45.0004
  -6667661.28043  -5150381.09442  23109669.8974   23109675.1214   23109669.6994
     -3396.6614      -2646.7444         43.0004         38.0004
 -20677762.90643 -16061621.87842  20392347.3134   20392351.0014   20392347.0184
       245.7844        191.5304         51.0004         47.0004
   -869356.96943   -638276.50642  23678280.3424   23678284.9904   23678280.2824
      2566.4554       1999.8324         43.0004         38.0004
 -16840791.40543 -13087337.24542  21442489.3324   21442491.6004   21442489.1214
      2131.2724       1660.7294         49.0004         44.0004
  -6406149.75943  -4942530.08342  22613636.7254   22613639.8844   22613636.4024
     -2699.1344      -2103.2184         45.0004         40.0004
  -8211784.90843  -6363644.44042  22638252.8244   22638255.8234   22638252.2404
      1655.9954       1290.3874         45.0004         40.0004
 04 12 27  1 27  0.0000000  0  8G15G19G 3G 1G25G11G14G20
   6108817.46843   4802532.21242  24817648.0404   24817654.5794   24817648.2914
     -2492.4594      -1942.1714         38.0004         33.0004
 -15595678.76443 -12116425.31142  21444836.7814   21444838.4874   21444835.9774
     -2275.1584      -1772.8594         49.0004         45.0004
  -6565681.73143  -5070916.56742  23129075.9944   23129081.1494   23129075.7724
     -3402.2804      -2651.1224         43.0004         38.0004
 -20684830.74343 -16067129.28142  20391002.3374   20391006.0244   20391002.0174
       225.0794        175.3844         51.0004         47.0004
   -946264.39043   -698204.34242  23663645.1834   23663649.9574   23663645.1484
      2560.1854       1994.9494         43.0004         38.0004
 -16904612.95843 -13137068.32542  21430344.4424   21430346.7464   21430344.2574
      2123.0654       1654.3474         49.0004         44.0004
  -6324997.56943  -4879294.63842  22629079.5374   22629082.6684   22629079.1874
     -2711.3614      -2112.7504         45.0004         40.0004
  -8261371.14743  -6402283.05442  22628816.8584   22628819.8924   22628816.2514
      1649.5964       1285.3994         45.0004         40.0004
 04 12 27  1 27 30.0000000  0  8G15G19G 3G 1G25G11G14G20
   6183663.16443   4860853.39142  24831890.8024   24831897.0574   24831890.9234
     -2498.2084      -1946.6684         38.0004         33.0004
 -15527210.77843 -12063073.66442  21457865.8814   21457867.5064   21457865.0084
     -2290.0224      -1784.4254         49.0004         45.0004
  -6463546.54443  -4991330.77742  23148511.8364   23148516.8334   23148511.5604
     -3407.2584      -2655.0024         43.0004         38.0004
 -20691283.96143 -16072157.76342  20389774.2924   20389778.0194   20389773.9894
       204.4514        159.3084         51.0004         46.0004
  -1022981.03143   -757983.52042  23649046.5924   23649051.2184   23649046.4654
      2553.7314       1989.9204         43.0004         38.0004
 -16968195.91943 -13186613.48442  21418245.0464   21418247.3214   21418244.8724
      2115.0844       1648.0954         49.0004         44.0004
  -6243487.91243  -4815780.65342  22644590.4514   22644593.4764   22644590.1214
     -2723.2364      -2122.0034         45.0004         40.0004
  -8310773.04243  -6440778.03342  22619415.9414   22619418.9504   22619415.3364
      1643.2974       1280.4834         45.0004         40.0004
 04 12 27  1 28  0.0000000  0  8G15G19G 3G 1G25G11G14G20
   6258668.75543   4919299.22342  24846163.8264   24846170.2734   24846164.4064
     -2502.8144      -1950.2454         38.0004         33.0004
 -15458295.73043 -12009373.65942  21470979.9244   21470981.6714   21470979.1054
     -2304.3414      -1795.5844         49.0004         45.0004
  -6361259.20443  -4911626.41542  23167976.6304   23167981.5564   23167976.2754
     -3411.9184      -2658.6394         42.0004         38.0004
 -20697123.49343 -16076708.04342  20388663.0744   20388666.8014   20388662.7764
       184.6084        143.8434         51.0004         47.0004
  -1099504.32343   -817612.02642  23634484.5654   23634489.2624   23634484.4994
      2547.8964       1985.3724         43.0004         38.0004
 -17031539.21943 -13235971.88942  21406191.2914   21406193.4814   21406191.0754
      2107.7154       1642.3574         49.0004         44.0004
  -6161624.21443  -4751990.80442  22660168.4684   22660171.5904   22660168.2074
     -2734.3254      -2130.6384         45.0004         40.0004
  -8359991.96443  -6479130.42042  22610049.8164   22610052.9554   22610049.2194
      1637.7904       1276.1974         45.0004         40.0004
 04 12 27  1 28 30.0000000  0  8G15G19G 3G 1G25G11G14G20
                   4977869.92342  24860467.629    24860474.1224
                     -1954.3414                         33.0004
 -15388935.35243 -11955326.64442  21484178.7954   21484180.5134   21484177.9334
     -2319.0304      -1807.0334         49.0004         45.0004
  -6258822.04043  -4831805.32342  23187469.8274   23187474.7814   23187469.4444
     -3416.8424      -2662.4674         42.0004         38.0004
 -20702348.97143 -16080779.83742  20387668.6854   20387672.4234   20387668.3964
       164.1844        127.9464         51.0004         47.0004
  -1175830.55143   -877086.97542  23619960.1004   23619964.8024   23619960.1324
      2541.2684       1980.2074         43.0004         38.0004
 -17094640.27343 -13285141.53442  21394183.5474   21394185.7154   21394183.3394
      2099.6634       1636.1064         49.0004         44.0004
  -6079408.95343  -4687926.98742  22675813.5714   22675816.7374   22675813.2664
     -2746.1964      -2139.8914         45.0004         40.0004
  -8409027.47743  -6517339.90542  22600718.6014   22600721.7894   22600718.0034
      1631.9124       1271.6164         45.0004         41.0004
 04 12 27  1 29  0.0000000  0  8G15G19G 3G 1G25G11G14G20
   6409159.98643   5036564.96742  24874801.7934   24874808.4734   24874801.9384
     -2512.9384      -1958.1544         38.0004         34.0004
 -15319131.88743 -11900934.35542  21497461.8924   21497463.6804   21497461.0854
     -2333.9464      -1818.6664         49.0004         44.0004
  -6156237.84843  -4751869.65642  23206991.0704   23206995.8744   23206990.7624
     -3421.6204      -2666.1934         42.0004         38.0004
 -20706960.61443 -16084373.32642  20386791.1144   20386794.8684   20386790.8234
       143.5814        111.8884         51.0004         47.0004
  -1251956.85943   -936406.13842  23605473.7524   23605478.3284   23605473.8344
      2534.4814       1974.9204         43.0004         38.0004
 -17157496.84943 -13334120.67642  21382222.2904   21382224.5124   21382222.0884
      2091.1574       1629.4694         49.0004         44.0004
  -5996844.64543  -4623591.20542  22691525.0084   22691528.2074   22691524.8114
     -2757.7924      -2148.9224         44.0004         40.0004
  -8457880.10743  -6555406.86742  22591422.2954   22591425.4324   22591421.6534
      1625.2214       1266.4094         45.0004         40.0004
 04 12 27  1 29 30.0000000  0  8G15G19G 3G 1G25G11G14G20
   6484644.56843   5095384.03342  24889166.2234   24889172.7724   24889166.3584
     -2518.2654      -1962.2924         38.0004         34.0004
 -15248888.28643 -11846199.10542  21510828.8144   21510830.6374   21510828.0174
     -2348.6174      -1830.0894         49.0004         44.0004
  -6053509.94543  -4671822.01642  23226539.7024   23226544.4504   23226539.2284
     -3426.3394      -2669.8744         42.0004         38.0004
 -20710958.97243 -16087488.92342  20386030.2694   20386034.0164   20386029.9594
       123.3164         96.0974         51.0004         47.0004
  -1327880.18443   -995567.14842  23591025.8464   23591030.5414   23591025.9074
      2527.6574       1969.6034         43.0004         38.0004
 -17220107.26543 -13382908.00742  21370307.9294   21370310.1374   21370307.7564
      2083.1274       1623.2294         49.0004         44.0004
  -5913934.53743  -4558985.96542  22707302.2914   22707305.5674   22707302.1054
     -2769.3054      -2157.8984         44.0004         40.0004
  -8506550.70043  -6593331.98942  22582160.5254   22582163.7314   22582159.9684
      1619.4514       1261.9094         45.0004         41.0004
                            4  1
RINEX FILE SPLICE; other post-header comments skipped       COMMENT
 04 12 27  1 30  0.0000000  0  8G15G19G 3G 1G25G11G14G20
   6560288.56543   5154327.29942  24903561.1094   24903567.3514   24903561.1614
     -2524.4404      -1967.0854         38.0004         33.0004
 -15178206.62443 -11791122.51642  21524279.1044   21524280.9134   21524278.2794
     -2363.3844      -1841.5904         49.0004         44.0004
  -5950641.00743  -4591664.48442  23246115.1364   23246120.0164   23246114.5934
     -3431.4104      -2673.8234         42.0004         38.0004
 -20714344.03843 -16090126.62942  20385386.1114   20385389.8254   20385385.8014
       102.6274         79.9624         51.0004         47.0004
  -1403597.05643  -1054567.28142  23576617.4774   23576622.1414   23576617.3874
      2520.4614       1963.9934         43.0004         38.0004
 -17282469.14043 -13431501.67242  21358440.9244   21358443.0694   21358440.6994
      2074.4984       1616.4934         49.0004         45.0004
  -5830680.85743  -4494112.99942  22723144.9904   22723148.2804   22723144.7654
     -2780.8054      -2166.8554         44.0004         40.0004
  -8555039.25043  -6631115.26342  22572933.4684   22572936.7014   22572932.8554
      1613.1244       1256.9774         45.0004         41.0004
 04 12 27  1 30 30.0000000  0  8G15G19G 3G 1G25G11G14G20
   6636090.80443   5213393.90542  24917985.9454   24917992.2494   24917985.6484
     -2527.2534      -1970.4054         37.0004         33.0004
 -15107089.88743 -11735706.90042  21537812.1374   21537814.0144   21537811.3524
     -2377.3024      -1852.4424         49.0004         44.0004
  -5847634.71943  -4511399.92242  23265716.5984   23265721.5004   23265716.1244
     -3435.1834      -2676.7544         42.0004         38.0004
 -20717116.70943 -16092287.14842  20384858.4634   20384862.2074   20384858.1794
        82.8224         64.5494         51.0004         47.0004
  -1479104.69043  -1113404.35242  23562248.7674   23562253.3654   23562248.6974
      2513.7824       1958.7934         42.0004         38.0004
 -17344581.12143 -13479900.60942  21346621.4104   21346623.5204   21346621.1634
      2066.7514       1610.4634         49.0004         45.0004
  -5747086.94443  -4428974.92942  22739052.4024   22739055.7134   22739052.1394
     -2791.6704      -2175.3244         44.0004         39.0004
  -8603346.83143  -6668757.52342  22563740.7784   22563744.0714   22563740.1934
      1607.8074       1252.8444         45.0004         41.0004
 04 12 27  1 31  0.0000000  0  8G15G19G 3G 1G25G11G14G20
   6712051.66343   5272584.06742  24932441.0984   24932447.3614   24932440.1254
     -2534.4204      -1974.8754         37.0004         33.0004
 -15035539.94843 -11679953.72342  21551427.7254   21551429.5514   21551426.9034
     -2392.2104      -1864.0474         49.0004         44.0004
  -5744493.03943  -4431029.84842  23285343.7854   23285348.8404   23285343.5184
     -3440.3204      -2680.7594         42.0004         38.0004
 -20719277.15943 -16093970.61442  20384447.3694   20384451.1074   20384447.1074
        61.7384         48.1044         51.0004         47.0004
  -1554399.36443  -1172075.47342  23547920.6734   23547925.3324   23547920.5774
      2506.5934       1953.1874         42.0004         37.0004
 -17406440.97643 -13528103.08942  21334849.7944   21334851.9814   21334849.6134
      2057.9534       1603.6014         49.0004         45.0004
  -5663155.21643  -4363573.60742  22755024.0614   22755027.3344   22755023.7084
     -2803.2814      -2184.3744         44.0004         39.0004
  -8651473.58743  -6706258.87942  22554582.5554   22554585.8794   22554581.9344
      1601.1914       1247.6754         45.0004         41.0004
 04 12 27  1 31 30.0000000  0  8G15G19G 3G 1G25G11G14G20
   6788170.09143   5331897.07742  24946925.9544   24946932.8324   24946925.0274
     -2539.2674      -1978.6434         37.0004         32.0004
 -14963559.73843 -11623865.28142  21565125.0864   21565126.9424   21565124.2884
     -2406.1794      -1874.9504         49.0004         44.0004
  -5641219.50543  -4350557.04042  23304995.9194   23305001.2224   23304995.9084
     -3444.3724      -2683.9264         42.0004         37.0004
 -20720826.07943 -16095177.55942  20384152.6664   20384156.3764   20384152.3894
        41.7464         32.5354         51.0004         47.0004
  -1629478.57343  -1230578.72342  23533633.4654   23533638.1594   23533633.5344
      2499.4144       1947.5944         42.0004         38.0004
 -17468046.72943 -13576107.56642  21323126.5794   21323128.8304   21323126.4274
      2049.6404       1597.1234         49.0004         45.0004
  -5578888.83143  -4297911.53942  22771059.2624   22771062.6954   22771059.0094
     -2814.1124      -2192.8084         44.0004         39.0004
  -8699420.39743  -6743620.01642  22545458.6044   22545461.8894   22545457.9554
      1595.6804       1243.3924         45.0004         41.0004
 04 12 27  1 32  0.0000000  0  8G15G19G 3G 1G25G11G14G20
                   5391333.59742  24961440.959    24961447.4394
                     -1983.1914                         32.0004
 -14891150.79043 -11567442.75242  21578903.9844   21578905.9184   21578903.2764
     -2420.3314      -1885.9704         49.0004         44.0004
  -5537815.91243  -4269982.88242  23324672.8714   23324678.4144   23324672.8324
     -3448.1814      -2686.8884         42.0004         37.0004
 -20721762.80343 -16095907.46842  20383974.4254   20383978.1454   20383974.1274
        21.4134         16.6844         51.0004         47.0004
  -1704337.95243  -1288910.66842  23519388.1514   23519392.9434   23519388.1984
      2491.9874       1941.8134         42.0004         38.0004
 -17529395.25443 -13623911.60342  21311452.3114   21311454.5964   21311452.1674
      2041.0374       1590.4244         49.0004         45.0004
  -5494289.37143  -4231989.93242  22787157.9254   22787161.5534   22787157.7644
     -2824.8354      -2201.1714         44.0004         39.0004
  -8747186.51643  -6780840.35742  22536368.9034   22536372.2554   22536368.3094
      1589.6214       1238.6754         45.0004         41.0004
 04 12 27  1 32 30.0000000  0  8G15G19G 3G 1G25G11G14G20
                   5450892.69442  24975986.089    24975992.5104
                     -1987.4474                         33.0004
 -14818316.47043 -11510688.77142  21592763.9044   21592765.8424   21592763.1744
     -2435.1124      -1897.4924         49.0004         44.0004
  -5434285.93743  -4189310.25842  23344373.8594   23344379.5034   23344373.9644
     -3453.5294      -2691.0614         42.0004         37.0004
 -20722088.74843 -16096161.44942  20383912.4094   20383916.0794   20383912.1074
          .2764           .2104         51.0004         47.0004
  -1778975.15643  -1347069.50142  23505185.2564   23505189.8614   23505185.1104
      2484.0354       1935.6204         42.0004         38.0004
 -17590485.86243 -13671514.67242  21299827.1304   21299829.4394   21299826.9814
      2031.6044       1583.0444         49.0004         45.0004
  -5409360.72243  -4165811.79342  22803319.3334   22803322.9934   22803319.1004
     -2836.8754      -2210.5534         44.0004         39.0004
  -8794773.28043  -6817920.92942  22527313.5034   22527316.7794   22527312.8774
      1582.8784       1233.4134         45.0004         41.0004
 04 12 27  1 33  0.0000000  0  8G15G19G 3G 1G25G11G14G20
                   5510574.93142  24990561.258    24990567.6074
                     -1991.7054                         32.0004
 -14745058.26443 -11453604.48642  21606704.6294   21606706.4834   21606703.8264
     -2449.0794      -1908.3704         49.0004         44.0004
  -5330631.80543  -4108540.87742  23364098.7394   23364104.2904   23364098.5804
     -3457.3484      -2694.0294         41.0004         37.0004
 -20721803.53743 -16095939.20142  20383966.6524   20383970.3474   20383966.3554
       -19.6794        -15.3224         51.0004         47.0004
  -1853386.35043  -1405052.22842  23491025.2374   23491029.8654   23491025.0294
      2476.6304       1929.8454         42.0004         38.0004
 -17651315.27543 -13718914.20942  21288251.6594   21288253.9834   21288251.5084
      2023.2884       1576.5854         49.0004         45.0004
  -5324104.39543  -4099378.34042  22819542.9704   22819546.8374   22819542.8404
     -2847.1924      -2218.5884         44.0004         39.0004
  -8842180.44143  -6854861.56042  22518292.1994   22518295.5414   22518291.6274
      1577.4504       1229.1754         45.0004         41.0004
 04 12 27  1 33 30.0000000  0  8G15G19G 3G 1G25G11G14G20
   7094222.17743   5570378.84542  25005165.9314   25005172.3844   25005165.1754
     -2560.9914      -1995.5764         37.0004         33.0004
 -14671380.51643 -11396193.28442  21620725.1444   21620726.9614   21620724.2974
     -2462.5014      -1918.8274         49.0004         44.0004
  -5226857.76043  -4027678.06642  23383846.2514   23383852.0474   23383846.2054
     -3460.7894      -2696.7174         41.0004         37.0004
 -20720909.07643 -16095242.21442  20384136.8424   20384140.5334   20384136.5704
       -39.6104        -30.8694         51.0004         47.0004
  -1927569.85943  -1462857.52942  23476908.6274   23476913.0664   23476908.4354
      2469.0124       1923.9074         43.0004         38.0004
 -17711882.79543 -13766109.68142  21276726.0354   21276728.3584   21276725.8934
      2014.9484       1570.0894         49.0004         45.0004
  -5238525.18943  -4032693.27442  22835828.1384   22835831.9814   22835827.9344
     -2857.4874      -2226.6084         44.0004         39.0004
  -8889409.78143  -6891663.63942  22509304.7284   22509308.1174   22509304.2074
      1572.0464       1224.9704         46.0004         41.0004
 04 12 27  1 34  0.0000000  0  8G15G19G 3G 1G25G11G14G20
   7171127.38543   5630304.83942  25019800.6934   25019807.1134   25019800.3444
     -2566.1114      -1999.5614         38.0004         33.0004
 -14597284.30043 -11338455.99942  21634825.2094   21634827.0174   21634824.4004
     -2476.9054      -1930.0524         49.0004         44.0004
  -5122965.49543  -3946723.13042  23403616.6144   23403622.0404   23403616.2864
     -3464.9854      -2699.9824         42.0004         37.0004
 -20719404.69943 -16094069.96742  20384423.1594   20384426.8324   20384422.8644
       -60.4104        -47.0664         51.0004         47.0004
  -2001521.21043  -1520481.93842  23462836.0524   23462840.4714   23462835.9724
      2460.8164       1917.5154         43.0004         38.0004
 -17772185.59643 -13813098.86642  21265250.7414   21265253.1324   21265250.6304
      2005.6124       1562.8014         49.0004         45.0004
  -5152624.34843  -3965757.59942  22852174.6524   22852178.3574   22852174.3194
     -2868.6704      -2235.3224         44.0004         39.0004
  -8936460.80743  -6928326.76142  22500351.1784   22500354.6204   22500350.7054
      1565.2914       1219.7074         46.0004         41.0004
 04 12 27  1 34 30.0000000  0  8G15G19G 3G 1G25G11G14G20
   7248189.34343   5690352.98442  25034465.1394   25034471.4924   25034465.4304
     -2571.1684      -2003.5254         38.0004         33.0004
 -14522772.16843 -11280394.63442  21649004.4154   21649006.2584   21649003.6084
     -2490.3934      -1940.5684         49.0004         44.0004
  -5018957.78343  -3865678.25042  23423408.7264   23423414.1354   23423408.4704
     -3468.4924      -2702.7274         42.0004         37.0004
 -20717290.90843 -16092422.85142  20384825.3574   20384829.0954   20384825.0774
       -80.4554        -62.6914         51.0004         47.0004
  -2075237.07843  -1577922.85642  23448808.3954   23448812.7794   23448808.3324
      2453.3454       1911.6954         43.0004         38.0004
 -17832221.34343 -13859879.96942  21253826.3374   21253828.7014   21253826.1994
      1996.9034       1556.0184         49.0004         45.0004
  -5066404.55943  -3898573.39042  22868581.7574   22868585.3454   22868581.4894
     -2879.0474      -2243.4184         43.0004         39.0004
  -8983333.74143  -6964851.09742  22491431.6674   22491434.9494   22491431.1424
      1559.6554       1215.3184         46.0004         41.0004
 04 12 27  1 35  0.0000000  0  8G15G19G 3G 1G25G11G14G20
   7325406.47243   5750522.06542  25049159.1054   25049165.1704   25049158.3824
     -2575.1984      -2006.6364         38.0004         33.0004
 -14447848.02143 -11222012.21442  21663262.0854   21663263.8684   21663261.2734
     -2503.4124      -1950.7104         49.0004         44.0004
  -4914838.67043  -3784546.55742  23443222.0674   23443227.5544   23443221.8244
     -3471.3644      -2704.9534         42.0004         37.0004
 -20714569.49943 -16090302.26742  20385343.2074   20385346.9764   20385342.9574
       -99.9464        -77.8744         51.0004         47.0004
  -2148715.33443  -1635178.60342  23434825.8874   23434830.3794   23434825.8314
      2446.0794       1906.0274         43.0004         38.0004
 -17891989.10643 -13906452.24942  21242452.9724   21242455.2634   21242452.7854
      1988.6914       1549.6314         49.0004         45.0004
  -4979869.79943  -3831143.73542  22885048.9994   22885052.4464   22885048.5774
     -2888.9914      -2251.1524         43.0004         39.0004
  -9030030.22343  -7001237.94742  22482545.6324   22482548.8234   22482545.0654
      1554.4364       1211.2574         46.0004         41.0004
 04 12 27  1 35 30.0000000  0  8G15G19G 3G 1G25G11G14G20
   7402779.68443   5810812.81742  25063882.6924   25063889.1054   25063881.9894
     -2581.6384      -2011.6734         38.0004         34.0004
 -14372512.88143 -11163309.54342  21677597.9764   21677599.6964   21677597.1304
     -2517.9864      -1962.0744         49.0004         44.0004
  -4810609.67743  -3703329.24842  23463056.2814   23463061.7124   23463056.0484
     -3476.1234      -2708.6644         42.0004         37.0004
 -20711239.59543 -16087707.53242  20385976.8824   20385980.6374   20385976.5924
      -121.0114        -94.2914         51.0004         47.0004
  -2221951.79343  -1692245.94942  23420889.3984   23420893.9124   23420889.2874
      2437.1554       1899.0824         43.0004         38.0004
 -17951485.60743 -13952813.15542  21231131.0914   21231133.4254   21231130.9584
      1978.5824       1541.7414         49.0004         45.0004
  -4893021.37843  -3763469.67742  22901575.7904   22901579.1924   22901575.3404
     -2900.2384      -2259.9264         43.0004         39.0004
  -9076549.30843  -7037486.56942  22473693.3284   22473696.5614   22473692.7524
      1547.6474       1205.9514         46.0004         41.0004
 04 12 27  1 36  0.0000000  0  8G15G19G 3G 1G25G11G14G20
   7480308.12143   5871224.51942  25078635.9814   25078642.6534   25078635.2744
     -2587.1374      -2015.9714         38.0004         34.0004
 -14296769.77943 -11104288.97742  21692011.4354   21692013.2084   21692010.5784
     -2531.6224      -1972.6904         49.0004         44.0004
  -4706274.17143  -3622028.92242  23482910.7534   23482915.9524   23482910.5354
     -3480.3554      -2711.9684         41.0004         37.0004
 -20707302.48243 -16084639.64942  20386726.0354   20386729.8494   20386725.7514
      -141.6554       -110.3814         51.0004         47.0004
  -2294943.38843  -1749122.50742  23406999.6014   23407003.9904   23406999.4624
      2428.7144       1892.5064         43.0004         39.0004
 -18010709.45743 -13998961.60742  21219861.1594   21219863.4754   21219861.0274
      1969.4434       1534.6394         49.0004         45.0004
  -4805862.76543  -3695553.91842  22918161.5244   22918165.0284   22918161.0984
     -2910.7004      -2268.0744         43.0004         39.0004
  -9122892.09243  -7073597.81742  22464874.5024   22464877.8334   22464873.9924
      1541.5504       1201.2074         46.0004         41.0004
 04 12 27  1 36 30.0000000  0  8G15G19G 3G 1G25G11G14G20
   7557991.50843   5931756.92142  25093418.5494   25093425.5154   25093418.3214
     -2591.2194      -2019.1244         38.0004         33.0004
 -14220621.49443 -11044952.67942  21706502.0404   21706503.7854   21706501.1694
     -2544.7754      -1982.9494         49.0004         44.0004
  -4601835.01743  -3540647.84842  23502784.8594   23502790.1884   23502784.6654
     -3482.8954      -2713.9434         41.0004         37.0004
 -20702758.69843 -16081099.03142  20387590.6644   20387594.4994   20387590.3904
      -161.5054       -125.8554         51.0004         47.0004
  -2367687.08143  -1805805.88142  23393156.9154   23393161.3824   23393156.8124
      2420.7084       1886.2654         43.0004         39.0004
 -18069658.28843 -14044895.75942  21208643.5354   21208645.8914   21208643.3864
      1960.4624       1527.6294         49.0004         45.0004
  -4718396.63743  -3627398.54542  22934805.8164   22934809.4364   22934805.3034
     -2920.6314      -2275.8204         43.0004         39.0004
  -9169059.08243  -7109572.07142  22456089.2464   22456092.5404   22456088.6674
      1536.1244       1196.9724         46.0004         41.0004
 04 12 27  1 37  0.0000000  0  8G15G19G 3G 1G25G11G14G20
   7635828.40643   5992408.94142  25108230.3334   25108237.2964   25108230.1744
     -2597.9234      -2024.3694         37.0004         33.0004
 -14144071.20343 -10985303.13242  21721069.1104   21721070.8464   21721068.2384
     -2559.1444      -1994.1494         49.0004         44.0004
  -4497295.84643  -3459188.86242  23522677.9874   23522683.6204   23522677.8374
     -3487.4514      -2717.4914         41.0004         37.0004
 -20697609.52243 -16077086.68342  20388570.5434   20388574.3694   20388570.2544
      -182.6634       -142.3424         51.0004         47.0004
  -2440180.40743  -1862294.16242  23379361.8674   23379366.2314   23379361.7614
      2411.5394       1879.1234         43.0004         39.0004
 -18128330.94743 -14090614.71542  21197478.5294   21197480.8884   21197478.3954
      1950.2654       1519.6984         49.0004         45.0004
  -4630626.43643  -3559006.22242  22951508.0704   22951511.5324   22951507.4494
     -2931.5184      -2284.2974         43.0004         39.0004
  -9215051.04443  -7145409.95542  22447337.2554   22447340.5454   22447336.6624
      1529.3504       1191.6964         46.0004         41.0004
 04 12 27  1 37 30.0000000  0  9G15G23G19G 3G 1G25G11G14G20
   7713819.37643   6053180.98742  25123071.7314   25123078.4954   25123071.6654
     -2601.4804      -2027.1194         38.0004         33.0004
   -334451.05743   -211040.54342  24126789.7784   24126792.7224   24126790.1894
      3587.7974       2795.6934         46.0004         37.0004
 -14067120.79743 -10925341.80342  21735712.3314   21735714.0554   21735711.4484
     -2571.7674      -2003.9714         49.0004         44.0004
  -4392658.82943  -3377653.60342  23542589.7894   23542595.5004   23542589.5414
     -3489.3994      -2719.0064         41.0004         37.0004
 -20691855.11843 -16072602.72942  20389665.5564   20389669.3694   20389665.2634
      -202.0274       -157.4294         51.0004         47.0004
  -2512419.66743  -1918584.48742  23365615.2094   23365619.5634   23365615.2034
      2403.7234       1873.0364         43.0004         39.0004
 -18186724.52143 -14136116.19742  21186366.6294   21186368.9824   21186366.4784
      1941.7944       1513.0824         50.0004         45.0004
  -4542554.26243  -3490378.60242  22968267.5924   22968271.1694   22968267.1644
     -2940.5664      -2291.3464         43.0004         39.0004
  -9260868.15343  -7181111.58542  22438618.6484   22438621.8574   22438618.0224
      1524.1724       1187.6574         46.0004         41.0004
 04 12 27  1 38  0.0000000  0  9G15G23G19G 3G 1G25G11G14G20
   7791963.81643   6114072.61042  25137942.1994   25137947.7334   25137942.0684
     -2607.4764      -2031.7964         38.0004         33.0004
   -442015.68543   -294857.06042  24106321.2694   24106323.5614   24106321.0294
      3583.1524       2792.0694         43.0004         36.0004
 -13989773.30343 -10865071.06942  21750431.1094   21750432.7734   21750430.2064
     -2584.5684      -2013.9424         49.0004         44.0004
  -4287927.02943  -3296044.50042  23562519.5184   23562525.4004   23562519.3884
     -3492.1334      -2721.1374         41.0004         37.0004
 -20685496.49343 -16067647.95342  20390875.5664   20390879.3694   20390875.2894
      -221.7504       -172.7744         51.0004         47.0004
  -2584402.09443  -1974674.65742  23351917.4464   23351921.6674   23351917.3414
      2395.3084       1866.4744         44.0004         39.0004
 -18244837.39543 -14181398.95342  21175308.1114   21175310.4504   21175307.9684
      1932.6244       1505.9364         49.0004         45.0004
  -4454183.07143  -3421517.96342  22985084.0914   22985087.5364   22985083.6734
     -2950.5024      -2299.0894         43.0004         39.0004
  -9306511.03543  -7216677.44942  22429933.0824   22429936.2554   22429932.4744
      1518.7184       1183.4114         46.0004         41.0004
 04 12 27  1 38 30.0000000  0  9G15G23G19G 3G 1G25G11G14G20
   7870261.88943   6175083.98742  25152842.0124   25152848.5294   25152841.5824
     -2612.8184      -2035.9524         38.0004         34.0004
   -549422.39443   -378550.50642  24085882.4484   24085884.4844   24085882.0934
      3577.3844       2787.5694         41.0004         35.0004
 -13912030.62943 -10804492.39942  21765224.9884   21765226.7814   21765224.1654
     -2598.4314      -2024.7574         49.0004         44.0004
  -4183102.48543  -3214363.14142  23582467.0504   23582472.8974   23582466.8374
     -3496.0964      -2724.2374         41.0004         36.0004
 -20678533.80343 -16062222.47942  20392200.5144   20392204.3124   20392200.2414
      -242.4064       -188.9014         51.0004         47.0004
  -2656123.49843  -2030561.45842  23338269.3444   23338273.5334   23338269.2144
      2386.2154       1859.3894         44.0004         39.0004
 -18302666.63843 -14226460.69942  21164303.5554   21164305.9014   21164303.4064
      1922.5784       1498.1054         50.0004         45.0004
  -4365515.06843  -3352426.06442  23001956.9924   23001960.5544   23001956.6404
     -2960.5394      -2306.9194         43.0004         39.0004
  -9351979.36343  -7252107.30742  22421280.6784   22421283.8694   22421280.1034
      1512.4434       1178.5244         46.0004         42.0004
 04 12 27  1 39  0.0000000  0  9G15G23G19G 3G 1G25G11G14G20
   7948713.13743   6236214.69842  25167770.9114   25167777.9044   25167770.4844
     -2617.1704      -2039.3424         38.0004         33.0004
   -656669.16043   -462119.32942  24065473.9644   24065476.1944   24065473.5234
      3572.9874       2784.1454         41.0004         36.0004
 -13833895.83243 -10743608.16942  21780093.5764   21780095.3624   21780092.7244
     -2610.6634      -2034.2974         49.0004         44.0004
  -4078188.48743  -3132612.05642  23602431.5134   23602437.4584   23602431.4474
     -3498.3834      -2726.0124         41.0004         36.0004
 -20670968.12743 -16056327.14142  20393640.2324   20393644.0234   20393639.9354
      -261.8694       -204.0604         51.0004         47.0004
  -2727581.05743  -2086242.65742  23324671.3864   23324675.6574   23324671.2624
      2377.7104       1852.7614         44.0004         39.0004
 -18360210.46843 -14271300.04342  21153353.3774   21153355.6714   21153353.1834
      1913.5644       1491.0834         50.0004         45.0004
  -4276553.26743  -3283105.23542  23018885.8494   23018889.5054   23018885.5054
     -2970.0794      -2314.3544         43.0004         38.0004
  -9397273.84543  -7287401.69442  22412661.3664   22412664.6174   22412660.8224
      1506.9864       1174.2694         46.0004         41.0004
 04 12 27  1 39 30.0000000  0  9G15G23G19G 3G 1G25G11G14G20
   8027316.52953   6297464.02952  25182728.7574   25182737.4424   25182727.7824
     -2624.0084      -2044.6664         37.0004         33.0004
   -763754.12543   -545562.06542  24045096.1674   24045098.7664   24045095.7984
      3567.1854       2779.6314         41.0004         36.0004
 -13755371.96843 -10682420.77842  21795036.2034   21795038.0144   21795035.3054
     -2623.1554      -2044.0064         49.0004         44.0004
  -3973188.33743  -3050793.88042  23622412.1724   23622418.4764   23622412.3454
     -3500.8454      -2727.9324         41.0004         36.0004
 -20662800.60143 -16049962.83342  20395194.4714   20395198.2444   20395194.1854
      -281.7074       -219.5004         51.0004         47.0004
  -2798772.07143  -2141716.14942  23311124.1794   23311128.4584   23311123.9504
      2368.9974       1845.9754         44.0004         39.0004
 -18417467.44843 -14315915.86642  21142457.7874   21142460.0274   21142457.5424
      1904.3314       1483.9034         50.0004         45.0004
  -4187300.71743  -3213557.83042  23035870.1604   23035873.7474   23035869.7194
     -2979.2534      -2321.4934         43.0004         38.0004
  -9442395.73943  -7322561.59842  22404074.9424   22404078.1294   22404074.4134
      1501.4634       1169.9654         46.0004         41.0004
 04 12 27  1 40  0.0000000  0  8G23G19G 3G 1G25G11G14G20
   -870674.91443   -628876.90242  24024749.8794   24024752.2894   24024749.4244
      3562.3374       2775.8444         41.0004         36.0004
 -13676461.40943 -10620932.07342  21810052.3834   21810054.2364   21810051.5084
     -2635.5294      -2053.6554         49.0004         44.0004
  -3868104.61243  -2968910.53942  23642409.1584   23642415.1904   23642409.3664
     -3502.5264      -2729.2404         41.0004         36.0004
 -20654031.82943 -16043130.01742  20396863.0864   20396866.8744   20396862.8354
      -301.0624       -234.5854         51.0004         47.0004
  -2869693.17343  -2196979.31942  23297628.4084   23297632.5594   23297628.1704
      2360.5564       1839.3974         44.0004         39.0004
 -18474435.27643 -14360306.37742  21131617.1134   21131619.3934   21131616.9124
      1895.3354       1476.8954         50.0004         45.0004
  -4097760.24043  -3143786.08042  23052909.2184   23052912.8454   23052908.8234
     -2988.2024      -2328.4594         43.0004         38.0004
  -9487345.14343  -7357587.08442  22395521.2744   22395524.5114   22395520.7204
      1496.6324       1166.2144         46.0004         41.0004
 04 12 27  1 40 30.0000000  0  9G15G23G19G 3G 1G25G11G14G20
   8184978.07143   6420316.91842  25212730.6664   25212736.1164   25212728.5514
     -2633.3624      -2051.9624         37.0004         33.0004
   -977429.62843   -712062.30542  24004434.8734   24004437.5544   24004434.5564
      3555.6064       2770.5994         41.0004         36.0004
 -13597167.10743 -10559144.33842  21825141.5774   21825143.4754   21825140.7254
     -2649.7974      -2064.7724         48.0004         44.0004
  -3762940.32743  -2886964.44142  23662421.2514   23662427.4954   23662421.4794
     -3506.9334      -2732.6714         41.0004         37.0004
 -20644663.05143 -16035829.66642  20398645.8744   20398649.6534   20398645.6284
      -322.5314       -251.3264         51.0004         47.0004
  -2940341.50243  -2252029.93742  23284184.2954   23284188.5464   23284184.2894
      2350.0754       1831.2304         43.0004         39.0004
 -18531112.24643 -14404470.24642  21120831.8434   21120834.1284   21120831.6374
      1884.4224       1468.3834         50.0004         45.0004
  -4007934.86143  -3073792.33742  23070002.5214   23070006.0764   23070002.2544
     -2998.7664      -2336.7054         43.0004         39.0004
  -9532122.70543  -7392478.68342  22387000.3144   22387003.5924   22386999.7694
      1489.5224       1160.6734         46.0004         41.0004
 04 12 27  1 41  0.0000000  0  9G15G23G19G 3G 1G25G11G14G20
   8264035.53643   6481919.98442  25227774.8324   25227781.4074   25227777.0724
     -2638.3744      -2055.8564         38.0004         33.0004
  -1084015.63543   -795116.29042  23984151.9724   23984154.6644   23984151.6824
      3550.2344       2766.4054         41.0004         36.0004
 -13517491.37843 -10497059.39842  21840303.3984   21840305.3254   21840302.5344
     -2661.8994      -2074.2054         48.0004         44.0004
  -3657697.98443  -2804957.51242  23682448.2024   23682454.4044   23682448.6214
     -3509.5084      -2734.6784         41.0004         37.0004
 -20634694.67643 -16028062.10342  20400542.8124   20400546.5614   20400542.5364
      -341.9604       -266.4564         51.0004         47.0004
  -3010713.24243  -2306865.04742  23270792.9854   23270797.2054   23270793.0574
      2341.4484       1824.5044         43.0004         39.0004
 -18587495.54843 -14448405.27942  21110102.4704   21110104.7344   21110102.2574
      1874.7304       1460.8424         50.0004         45.0004
  -3917826.79743  -3003578.30042  23087149.6264   23087153.0044   23087149.3354
     -3008.1044      -2343.9704         43.0004         39.0004
  -9576728.52343  -7427236.44442  22378512.0974   22378515.4784   22378511.5474
      1484.3284       1156.6264         46.0004         42.0004
 04 12 27  1 41 30.0000000  0  9G15G23G19G 3G 1G25G11G14G20
   8343243.73653   6543640.51652  25242847.7964   25242857.8064   25242848.8904
     -2642.4964      -2058.6484         38.0004         33.0004
  -1190430.74943   -878037.05442  23963901.7374   23963904.2834   23963901.4444
      3543.9444       2761.5114         41.0004         36.0004
 -13437436.80343 -10434679.24842  21855537.2884   21855539.2624   21855536.4454
     -2674.8274      -2084.2744         48.0004         44.0004
  -3552380.42043  -2722891.97142  23702489.8294   23702495.5924   23702490.0234
     -3511.8944      -2736.5414         41.0004         37.0004
 -20624127.61243 -16019828.02542  20402553.6564   20402557.4024   20402553.3994
      -362.2124       -282.2614         51.0004         47.0004
  -3080805.54443  -2361482.40142  23257454.9554   23257459.0184   23257454.9654
      2331.5204       1816.7744         44.0004         39.0004
 -18643583.28543 -14492110.00242  21099429.3454   21099431.6224   21099429.0764
      1864.6214       1452.9334         50.0004         45.0004
  -3827438.95043  -2933146.25842  23104349.7864   23104353.3194   23104349.5824
     -3017.6744      -2351.4354         43.0004         39.0004
  -9621162.98243  -7461860.69242  22370056.5024   22370059.8654   22370055.9784
      1478.1744       1151.8234         46.0004         41.0004
 04 12 27  1 42  0.0000000  0  9G15G23G19G 3G 1G25G11G14G20
   8422601.90543   6605477.88642  25257949.1624   25257959.4424   25257947.7994
     -2647.7304      -2063.1354         37.0004         32.0004
  -1296673.03343   -960823.17542  23943684.5484   23943686.9214   23943684.1054
      3538.3654       2757.1644         41.0004         37.0004
 -13357006.71143 -10372006.49042  21870842.5374   21870844.6104   21870841.7774
     -2687.3404      -2094.0304         48.0004         44.0004
  -3446990.93643  -2640770.39342  23722544.9814   23722550.7494   23722544.9714
     -3514.1164      -2738.2664         41.0004         36.0004
 -20612963.33643 -16011128.58842  20404678.1704   20404681.9224   20404677.9034
      -382.1744       -297.8004         51.0004         47.0004
  -3150615.71743  -2415879.92842  23244170.4064   23244174.6164   23244170.5484
      2322.1854       1809.4934         44.0004         39.0004
 -18699373.93443 -14535583.22342  21088812.7104   21088814.9934   21088812.4634
      1854.7284       1445.2364         50.0004         45.0004
  -3736774.43843  -2862498.63742  23121602.7264   23121606.3834   23121602.4504
     -3026.6824      -2358.4514         43.0004         38.0004
  -9665427.13343  -7496352.21742  22361633.3264   22361636.6444   22361632.7784
      1472.5384       1147.4284         46.0004         42.0004
 04 12 27  1 42 30.0000000  0  9G15G23G19G 3G 1G25G11G14G20
   8502110.45543   6667432.51342  25273079.1424   25273085.6894   25273079.6194
     -2653.8464      -2067.9214         37.0004         33.0004
  -1402739.31043  -1043472.15942  23923500.9454   23923503.0834   23923500.3374
      3531.8454       2752.0764         41.0004         37.0004
 -13276202.97743 -10309042.58042  21886218.9464   21886221.0444   21886218.2174
     -2700.5564      -2104.3294         48.0004         43.0004
  -3341531.23243  -2558594.09642  23742613.4794   23742619.0504   23742613.5244
     -3517.4094      -2740.8384         41.0004         36.0004
 -20601201.63043 -16001963.62542  20406916.3424   20406920.0784   20406916.0804
      -402.7314       -313.8104         51.0004         47.0004
  -3220139.51643  -2470054.28242  23230940.4164   23230944.7404   23230940.4514
      2311.7724       1801.3764         43.0004         39.0004
 -18754864.20843 -14578822.39342  21078253.2164   21078255.5494   21078253.0054
      1843.9544       1436.8384         50.0004         45.0004
  -3645834.93043  -2791636.73442  23138908.0724   23138911.7094   23138907.7694
     -3036.3524      -2365.9864         43.0004         39.0004
  -9709520.44643  -7530710.64142  22353242.7144   22353245.9174   22353242.1424
      1466.2374       1142.5174         46.0004         41.0004
 04 12 27  1 43  0.0000000  0  9G15G23G19G 3G 1G25G11G14G20
   8581767.31743   6729502.72742  25288237.4814   25288245.1654   25288236.2864
     -2657.6094      -2070.8724         38.0004         33.0004
  -1508628.79143  -1125983.38042  23903350.9844   23903352.8684   23903350.2554
      3526.5614       2747.9734         41.0004         37.0004
 -13195029.42943 -10245790.49542  21901665.7614   21901667.8454   21901665.0514
     -2712.0484      -2113.2834         48.0004         43.0004
  -3236005.56143  -2476366.42542  23762694.6024   23762700.0334   23762694.3814
     -3518.9394      -2742.0124         40.0004         36.0004
 -20588844.97043 -15992335.05842  20409267.7294   20409271.4694   20409267.4814
      -421.9584       -328.7894         51.0004         47.0004
  -3289375.42743  -2524004.31342  23217765.2784   23217769.6314   23217765.3074
      2302.8044       1794.3884         44.0004         39.0004
 -18810053.66543 -14621827.15942  21067751.0014   21067753.2974   21067750.7914
      1834.5314       1429.5184         50.0004         45.0004
  -3554624.78643  -2720563.94942  23156264.9164   23156268.3784   23156264.5574
     -3045.1634      -2372.8594         43.0004         39.0004
  -9753444.76643  -7564937.37442  22344884.2764   22344887.3844   22344883.6914
      1461.0934       1138.5134         46.0004         42.0004
 04 12 27  1 43 30.0000000  0  9G15G23G19G 3G 1G25G11G14G20
   8661573.16943   6791688.98942  25303424.1304   25303431.4784   25303423.6114
     -2662.8944      -2074.9664         38.0004         33.0004
  -1614338.33843  -1208354.35942  23883235.0574   23883237.0794   23883234.3744
      3520.2394       2743.0534         41.0004         36.0004
 -13113487.88643 -10182251.67142  21917182.6344   21917184.7044   21917181.8904
     -2724.4744      -2122.9644         48.0004         43.0004
  -3130415.86043  -2394088.84742  23782787.7934   23782793.2694   23782787.3474
     -3521.1874      -2743.7714         40.0004         36.0004
 -20575893.44143 -15982242.95442  20411732.3404   20411736.0614   20411732.0684
      -441.9064       -344.3584         51.0004         47.0004
  -3358319.19943  -2577726.68842  23204645.6004   23204650.1444   23204645.7054
      2292.7784       1786.5764         44.0004         39.0004
 -18864939.41243 -14664595.26942  21057306.6234   21057308.9164   21057306.3734
      1824.0544       1421.3324         50.0004         45.0004
  -3463145.69343  -2649281.59542  23173672.8324   23173676.2234   23173672.5644
     -3054.0604      -2379.7804         43.0004         38.0004
  -9797199.58543  -7599032.02042  22336558.0004   22336561.1284   22336557.4264
      1455.2404       1133.9564         46.0004         42.0004
 04 12 27  1 44  0.0000000  0  9G15G23G19G 3G 1G25G11G14G20
   8741527.89243   6853991.26642  25318639.2014   25318646.0714   25318638.4894
     -2667.3914      -2078.4964         38.0004         33.0004
  -1719865.58743  -1290583.29642  23863153.9854   23863155.7594   23863153.1614
      3514.5764       2738.6284         41.0004         37.0004
 -13031580.84543 -10118428.03742  21932769.1084   21932771.0914   21932768.3144
     -2736.2754      -2132.1624         48.0004         43.0004
  -3024764.92143  -2311763.53342  23802892.6014   23802898.0014   23802892.1674
     -3522.9204      -2745.1294         41.0004         36.0004
 -20562347.93143 -15971688.01842  20414309.9724   20414313.6664   20414309.6724
      -461.1974       -359.3734         51.0004         47.0004
  -3426967.58843  -2631218.89842  23191582.1764   23191586.8274   23191582.2204
      2283.5024       1779.3504         44.0004         39.0004
 -18919519.06243 -14707124.86242  21046920.4444   21046922.7494   21046920.1894
      1814.3254       1413.7634         50.0004         45.0004
  -3371400.16543  -2577791.60742  23191131.4344   23191134.8284   23191131.2884
     -3062.6514      -2386.4824         43.0004         38.0004
  -9840785.10043  -7632994.74642  22328263.8214   22328267.1154   22328263.2804
      1450.1534       1129.9934         46.0004         42.0004
 04 12 27  1 44 30.0000000  0  9G15G23G19G 3G 1G25G11G14G20
   8821630.62643   6916408.91242  25333882.3224   25333889.6804   25333881.9624
     -2673.2324      -2083.0334         38.0004         33.0004
  -1825208.77043  -1372668.81642  23843107.5834   23843109.6624   23843106.9774
      3507.4294       2733.0594         42.0004         37.0004
 -12949311.73643 -10054322.27542  21948424.3694   21948426.4364   21948423.6284
     -2749.1544      -2142.2074         48.0004         43.0004
  -2919055.93143  -2229393.01542  23823008.4424   23823013.8254   23823007.8894
     -3525.2554      -2746.9524         41.0004         36.0004
 -20548209.92143 -15960671.38242  20417000.3394   20417004.0124   20417000.0394
      -481.9424       -375.5514         51.0004         47.0004
  -3495317.85643  -2684478.82642  23178575.5034   23178580.0764   23178575.5284
      2272.6594       1770.9044         43.0004         39.0004
 -18973790.91643 -14749414.62142  21036592.8304   21036595.1294   21036592.5924
      1803.2964       1405.1564         50.0004         45.0004
  -3279391.67043  -2506096.72342  23208640.0394   23208643.3794   23208639.8724
     -3071.8684      -2393.6604         43.0004         38.0004
  -9884202.39043  -7666826.37442  22320001.8504   22320005.0754   22320001.2354
      1443.7814       1125.0154         46.0004         42.0004
                            4  1
RINEX FILE SPLICE; other post-header comments skipped       COMMENT
 04 12 27  1 45  0.0000000  0  9G15G23G19G 3G 1G25G11G14G20
   8901880.64143   6978941.22842  25349153.4974   25349160.3594   25349152.8454
     -2676.5254      -2085.5744         38.0004         33.0004
  -1930365.56543  -1454609.09642  23823096.7144   23823098.9854   23823096.1784
      3502.5804       2729.2814         42.0004         37.0004
 -12866683.18843  -9989936.43642  21964148.1584   21964150.1604   21964147.3614
     -2759.3104      -2150.1084         48.0004         43.0004
  -2813291.42243  -2146979.23242  23843135.1164   23843140.3114   23843134.5264
     -3525.4524      -2747.0984         41.0004         36.0004
 -20533480.37143 -15949193.81342  20419803.2794   20419806.9814   20419802.9754
      -500.0094       -389.6084         51.0004         47.0004
  -3563366.98843  -2737504.08442  23165626.1374   23165630.7744   23165626.1654
      2264.2254       1764.3304         44.0004         39.0004
 -19027752.69043 -14791462.74942  21026324.1694   21026326.5594   21026324.0094
      1794.3804       1398.2324         50.0004         45.0004
  -3187122.65643  -2434198.82542  23226198.3334   23226201.6064   23226198.2094
     -3079.3084      -2399.4504         43.0004         38.0004
  -9927451.81343  -7700527.20642  22311771.7544   22311774.9894   22311771.1054
      1439.6284       1121.7904         46.0004         42.0004
 04 12 27  1 45 30.0000000  0  9G15G23G19G 3G 1G25G11G14G20
                   7041588.35042  25364452.846    25364459.6614
                     -2090.2844                         32.0004
  -2035333.39943  -1536402.11442  23803121.8264   23803124.1464   23803121.2184
      3495.0034       2723.3864         41.0004         36.0004
 -12783697.34943  -9925272.17842  21979939.8094   21979941.9074   21979939.0764
     -2772.4914      -2160.3864         48.0004         43.0004
  -2707473.60243  -2064523.89642  23863271.7994   23863276.9494   23863271.1084
     -3528.4644      -2749.4534         41.0004         36.0004
 -20518159.75343 -15937255.67642  20422718.6814   20422722.4114   20422718.4034
      -520.9334       -405.9204         51.0004         47.0004
  -3631111.08443  -2790291.65742  23152734.8084   23152739.3854   23152734.8644
      2252.5684       1755.2414         43.0004         39.0004
 -19081401.92743 -14833267.34442  21016115.0894   21016117.5054   21016114.8984
      1782.6854       1389.1014         50.0004         46.0004
  -3094595.36743  -2362099.70242  23243805.7974   23243808.9544   23243805.4684
     -3088.6184      -2406.7234         43.0004         38.0004
  -9970533.26943  -7734097.16242  22303573.5554   22303576.8314   22303572.9114
      1433.0034       1116.6264         46.0004         42.0004
 04 12 27  1 46  0.0000000  0  9G15G23G19G 3G 1G25G11G14G20
   9062820.87143   7104348.97242  25379779.6474   25379786.4394   25379778.9784
     -2689.7704      -2094.1464         37.0004         32.0004
  -2140111.21443  -1618047.08842  23783183.0494   23783185.3724   23783182.3424
      3489.1504       2718.8074         41.0004         36.0004
 -12700358.27843  -9860332.68642  21995798.7314   21995800.8224   21995798.0434
     -2784.1794      -2169.4954         48.0004         43.0004
  -2601606.45443  -1982030.13242  23883417.6844   23883422.9424   23883417.1844
     -3530.3654      -2750.9224         40.0004         36.0004
 -20502250.46143 -15924858.82542  20425746.1214   20425749.8424   20425745.8194
      -540.5734       -421.2404         51.0004         47.0004
  -3698548.08343  -2842839.94942  23139901.7924   23139906.5404   23139901.9264
      2242.6274       1747.4984         43.0004         39.0004
 -19134737.78143 -14874827.75042  21005965.6094   21005968.0084   21005965.4324
      1772.2664       1380.9814         50.0004         46.0004
  -3001813.58143  -2289802.25142  23261461.6854   23261464.7694   23261461.2804
     -3097.3794      -2413.5384         43.0004         38.0004
 -10013448.47143  -7767537.55442  22295407.0784   22295410.2764   22295406.4764
      1427.5774       1112.3864         46.0004         42.0004
 04 12 27  1 46 30.0000000  0  9G15G23G19G 3G 1G25G11G14G20
                                  25395134.460

  -2244695.89243  -1699541.53242  23763280.8844   23763283.3954   23763280.2744
      3483.4264       2714.3604         41.0004         36.0004
 -12616667.98043  -9795119.50342  22011724.5444   22011726.5614   22011723.8134
     -2795.1064      -2177.9984         48.0004         43.0004
  -2495691.86643  -1899499.37842  23903572.5554   23903577.7054   23903572.0694
     -3531.2474      -2751.6184         40.0004         35.0004
 -20485752.68643 -15912003.41242  20428885.5804   20428889.2644   20428885.2304
      -559.5284       -435.9944         51.0004         47.0004
  -3765674.32743  -2895146.05742  23127127.9864   23127132.7624   23127128.1484
      2232.5494       1739.6464         43.0004         39.0004
 -19187757.23343 -14916141.59942  20995876.3364   20995878.7604   20995876.1734
      1762.2724       1373.2234         50.0004         45.0004
  -2908779.38743  -2217308.12642  23279165.5124   23279168.7704   23279165.1544
     -3105.3104      -2419.7224         43.0004         38.0004
 -10056196.85343  -7800847.97042  22287272.2124   22287275.5414   22287271.6694
      1422.4364       1108.3924         46.0004         42.0004
 04 12 27  1 47  0.0000000  0  9G15G23G19G 3G 1G25G11G14G20
                                  25410516.803

  -2349085.78443  -1780884.21942  23743415.9494   23743418.4144   23743415.3974
      3477.0334       2709.3704         41.0004         37.0004
 -12532629.74043  -9729635.19142  22027716.4834   22027718.5374   22027715.8054
     -2806.7484      -2187.0774         48.0004         43.0004
  -2389733.54543  -1816934.54642  23923735.5764   23923740.9694   23923735.1814
     -3532.3314      -2752.4724         40.0004         35.0004
 -20468668.32643 -15898690.92942  20432136.5694   20432140.3004   20432136.2624
      -578.8994       -451.0874         51.0004         47.0004
  -3832487.46243  -2947208.21642  23114413.8694   23114418.6004   23114413.9914
      2222.1884       1731.5744         43.0004         39.0004
 -19240458.71143 -14957207.68642  20985847.5264   20985850.0054   20985847.4024
      1751.7244       1364.9764         50.0004         46.0004
  -2815495.99243  -2144619.82142  23296916.9214   23296920.1704   23296916.5124
     -3113.3594      -2425.9934         43.0004         38.0004
 -10098779.58043  -7834029.30342  22279168.9724   22279172.3264   22279168.4144
      1416.9654       1104.1294         46.0004         42.0004
 04 12 27  1 47 30.0000000  0  9G15G23G19G 3G 1G25G11G14G20
                                  25425926.825

  -2453277.73243  -1862072.67542  23723588.8024   23723591.2254   23723588.1864
      3470.0374       2703.9234         42.0004         37.0004
 -12448245.12243  -9663880.97842  22043774.4174   22043776.4364   22043773.7004
     -2818.3924      -2196.1494         48.0004         43.0004
  -2283732.97743  -1734336.81242  23943907.0404   23943912.1594   23943906.5424
     -3533.6454      -2753.4734         40.0004         35.0004
 -20450997.42543 -15884921.40142  20435499.2614   20435503.0064   20435498.9674
      -598.5794       -466.4134         51.0004         47.0004
  -3898983.30143  -2999023.12242  23101760.2764   23101764.8734   23101760.2164
      2211.3374       1723.1114         44.0004         39.0004
 -19292839.43243 -14998023.83242  20975879.8694   20975882.2874   20975879.6584
      1740.7834       1356.4474         50.0004         46.0004
  -2721965.07743  -2071738.66242  23314715.2454   23314718.6134   23314714.9694
     -3121.5304      -2432.3574         43.0004         38.0004
 -10141196.08643  -7867081.10342  22271097.3864   22271100.6374   22271096.8154
      1411.2194       1099.6544         46.0004         42.0004
 04 12 27  1 48  0.0000000  0  9G15G23G19G 3G 1G25G11G14G20
                                  25441364.284

  -2557271.12343  -1943106.38642  23703799.5204   23703801.9014   23703798.9854
      3463.5644       2698.8844         42.0004         37.0004
 -12363518.56943  -9597860.32742  22059897.4104   22059899.4074   22059896.6904
     -2829.4764      -2204.7694         48.0004         43.0004
  -2177694.30143  -1651709.35742  23964085.7774   23964090.7644   23964085.1804
     -3534.9394      -2754.4984         40.0004         35.0004
 -20432742.78143 -15870697.00042  20438973.0234   20438976.7344   20438972.7144
      -617.7504       -481.3534         51.0004         47.0004
  -3965159.97043  -3050589.32442  23089167.3164   23089171.7594   23089167.1834
      2200.9234       1714.9964         44.0004         39.0004
 -19344898.62343 -15038589.42942  20965973.2694   20965975.7584   20965973.0984
      1730.4454       1348.4034         50.0004         46.0004
  -2628190.99143  -1998667.99942  23332559.9594   23332563.3904   23332559.4994
     -3129.4114      -2438.4974         43.0004         38.0004
 -10183448.19143  -7900004.80742  22263057.0894   22263060.3114   22263056.4724
      1406.2634       1095.7974         46.0004         42.0004
 04 12 27  1 48 30.0000000  0  9G15G23G19G 3G 1G25G11G14G20
                                  25456828.978

  -2661062.59343  -2023982.77842  23684048.6004   23684051.1024   23684048.0904
      3455.0264       2692.2224         42.0004         37.0004
 -12278451.83843  -9531574.59142  22076085.0954   22076087.0964   22076084.3734
     -2842.4744      -2214.9144         48.0004         43.0004
  -2071619.34743  -1569053.67942  23984270.9504   23984276.3184   23984270.6624
     -3537.6074      -2756.5654         40.0004         35.0004
 -20413904.39243 -15856017.73842  20442557.8404   20442561.5884   20442557.5434
      -638.9114       -497.8464         51.0004         47.0004
  -4031013.20543  -3101903.48042  23076635.8124   23076640.0304   23076635.6594
      2188.6204       1705.4154         44.0004         39.0004
 -19396633.11543 -15078902.01942  20956128.5154   20956131.0064   20956128.3454
      1717.8214       1338.5534         50.0004         46.0004
  -2534175.32043  -1925409.10542  23350450.5544   23350454.1054   23350450.2094
     -3138.8994      -2445.8984         43.0004         38.0004
 -10225535.34843  -7932799.97442  22255048.2054   22255051.3704   22255047.5484
      1398.7874       1089.9684         46.0004         42.0004
 04 12 27  1 49  0.0000000  0  9G15G23G19G 3G 1G25G11G14G20
                                  25472320.845

  -2764650.96743  -2104700.90742  23664336.0584   23664338.8564   23664335.6714
      3449.2974       2687.7644         41.0004         36.0004
 -12193048.55043  -9465026.61142  22092336.8664   22092338.8184   22092336.1024
     -2852.1274      -2222.4344         48.0004         43.0004
  -1965511.63943  -1486372.48842  24004462.6284   24004468.1144   24004462.2354
     -3537.3324      -2756.3574         40.0004         35.0004
 -20394484.47443 -15840885.34042  20446253.3414   20446257.0774   20446253.0194
      -656.8904       -511.8554         51.0004         47.0004
  -4096540.72143  -3152963.84442  23064166.3064   23064170.6654   23064166.1964
      2178.9594       1697.8864         44.0004         39.0004
 -19448041.71543 -15118960.65842  20946345.7204   20946348.2754   20946345.5734
      1708.3524       1331.1934         50.0004         46.0004
  -2439921.49243  -1851964.61742  23368386.5144   23368389.9914   23368386.2834
     -3145.4804      -2451.0024         42.0004         38.0004
 -10267458.59743  -7965467.43742  22247070.5454   22247073.5694   22247069.8854
      1394.7544       1086.8184         46.0004         42.0004
 04 12 27  1 49 30.0000000  0  8G23G19G 3G 1G25G11G14G20
  -2868033.26243  -2185258.44442  23644663.0404   23644665.7114   23644662.5424
      3442.9474       2682.8144         41.0004         37.0004
 -12107310.90043  -9398218.08842  22108652.3044   22108654.1964   22108651.5294
     -2863.2374      -2231.0964         48.0004         43.0004
  -1859373.30543  -1403667.38742  24024660.0664   24024665.6184   24024659.7314
     -3537.9304      -2756.8224         40.0004         35.0004
 -20374483.53943 -15825300.19842  20450059.3724   20450063.1144   20450059.0854
      -676.1284       -526.8454         51.0004         47.0004
  -4161739.03343  -3203767.69842  23051759.4934   23051763.8084   23051759.2784
      2168.0494       1689.3884         44.0004         39.0004
 -19499121.44243 -15158763.03842  20936625.5864   20936628.0974   20936625.4494
      1697.3724       1322.6354         50.0004         46.0004
  -2345431.61043  -1778336.18942  23386367.2604   23386370.7904   23386367.0514
     -3153.4144      -2457.2024         42.0004         37.0004
 -10309218.03143  -7998007.22442  22239123.8984   22239127.0534   22239123.3444
      1389.6394       1082.8394         46.0004         42.0004
 04 12 27  1 50  0.0000000  0  8G23G19G 3G 1G25G11G14G20
  -2971207.51243  -2265653.90542  23625029.4014   23625032.1624   23625029.0294
      3435.7914       2677.2324         42.0004         37.0004
 -12021242.17543  -9331151.58342  22125030.6294   22125032.5824   22125029.8704
     -2874.4824      -2239.8644         47.0004         43.0004
  -1753207.62743  -1320940.99942  24044862.8774   24044868.6444   24044862.5044
     -3539.0094      -2757.6604         40.0004         36.0004
 -20353903.35943 -15809263.69642  20453975.6754   20453979.3604   20453975.3824
      -695.5304       -541.9714         51.0004         47.0004
  -4226605.48343  -3254312.96142  23039415.7074   23039420.0704   23039415.6104
      2156.8684       1680.6744         44.0004         39.0004
 -19549870.98243 -15198308.13142  20926968.2634   20926970.7524   20926968.1374
      1686.2394       1313.9524         50.0004         46.0004
  -2250708.85043  -1704526.32042  23404392.4134   23404395.8634   23404392.2164
     -3161.2574      -2463.3164         42.0004         38.0004
 -10350814.37443  -8030419.94242  22231208.3504   22231211.5434   22231207.7704
      1383.8174       1078.3064         46.0004         42.0004
 04 12 27  1 50 30.0000000  0  8G23G19G 3G 1G25G11G14G20
  -3074171.55043  -2345885.54542  23605435.7824   23605438.5724   23605435.6234
      3428.6964       2671.7094         42.0004         37.0004
 -11934844.58443  -9263828.82442  22141471.5924   22141473.5164   22141470.8064
     -2885.2244      -2248.2304         47.0004         43.0004
  -1647016.62043  -1238194.88142  24065070.7714   24065076.2604   24065070.1864
     -3540.5574      -2758.8894         40.0004         36.0004
 -20332744.78043 -15792776.49842  20458002.0104   20458005.7374   20458001.7384
      -714.7754       -556.9754         51.0004         47.0004
  -4291136.42243  -3304596.75542  23027135.8464   23027140.1754   23027135.7704
      2145.4874       1671.8044         44.0004         39.0004
 -19600287.58843 -15237593.79742  20917374.3694   20917376.7984   20917374.2104
      1675.0374       1305.2194         50.0004         46.0004
  -2155755.54643  -1630536.80042  23422461.5074   23422464.9594   23422461.2854
     -3169.1094      -2469.4374         42.0004         38.0004
 -10392247.66443  -8062705.61942  22223323.7364   22223327.0604   22223323.2114
      1378.4234       1074.0954         46.0004         42.0004
 04 12 27  1 51  0.0000000  0  8G23G19G 3G 1G25G11G14G20
  -3176923.66343  -2425952.03042  23585882.7484   23585885.5234   23585882.5784
      3421.2734       2665.9284         42.0004         37.0004
 -11848121.70343  -9196252.58842  22157974.3444   22157976.2994   22157973.6314
     -2896.2644      -2256.8324         47.0004         43.0004
  -1540803.73943  -1155431.70242  24085282.3354   24085288.0414   24085281.8714
     -3541.0804      -2759.2774         40.0004         35.0004
 -20311009.84643 -15775840.19542  20462138.0504   20462141.7614   20462137.7524
      -734.2064       -572.1114         51.0004         47.0004
  -4355329.55643  -3354617.35942  23014920.3694   23014924.4904   23014920.1864
      2134.1264       1662.9554         44.0004         39.0004
 -19650369.86743 -15276618.95042  20907844.0314   20907846.4674   20907843.8784
      1663.6434       1296.3454         50.0004         46.0004
  -2060575.03743  -1556370.23342  23440573.8374   23440577.3004   23440573.5514
     -3176.9494      -2475.5424         42.0004         38.0004
 -10433518.98743  -8094865.07142  22215470.1424   22215473.3884   22215469.5854
      1372.8024       1069.7184         47.0004         42.0004
 04 12 27  1 51 30.0000000  0  8G23G19G 3G 1G25G11G14G20
  -3279461.28143  -2505851.40042  23566370.7494   23566373.2324   23566370.4864
      3413.7054       2660.0154         42.0004         37.0004
 -11761075.89243  -9128424.72142  22174538.6884   22174540.6244   22174537.9264
     -2907.5434      -2265.6174         47.0004         43.0004
  -1434571.18643  -1072653.21442  24105497.7464   24105503.3844   24105497.1714
     -3541.8044      -2759.8394         40.0004         35.0004
 -20288699.30143 -15758455.35342  20466383.6204   20466387.2664   20466383.3204
      -753.7004       -587.3054         51.0004         47.0004
  -4419181.35443  -3404371.96542  23002769.7914   23002773.8714   23002769.6324
      2122.0894       1653.5734         44.0004         40.0004
 -19700115.34343 -15315381.66042  20898377.7834   20898380.2244   20898377.6534
      1652.0574       1287.3224         50.0004         46.0004
  -1965169.38443  -1482028.23342  23458728.9894   23458732.3594   23458728.6124
     -3184.4774      -2481.4094         42.0004         38.0004
 -10474628.47543  -8126898.43642  22207647.2334   22207650.4594   22207646.7644
      1367.0264       1065.2164         47.0004         42.0004
 04 12 27  1 52  0.0000000  0  8G23G19G 3G 1G25G11G14G20
  -3381782.96743  -2585582.51242  23546899.6974   23546901.9724   23546899.2884
      3406.5954       2654.4874         42.0004         37.0004
 -11673710.64543  -9060347.94542  22191163.7784   22191165.7604   22191163.0364
     -2917.9074      -2273.6954         47.0004         43.0004
  -1328322.24943   -989861.94742  24125716.4794   24125721.9344   24125715.7444
     -3542.2654      -2760.2064         40.0004         35.0004
 -20265815.24043 -15740623.62742  20470738.3314   20470741.9564   20470737.9914
      -772.8284       -602.2224         51.0004         47.0004
  -4482689.46043  -3453858.77942  22990684.5624   22990688.5624   22990684.4924
      2110.9064       1644.8614         44.0004         40.0004
 -19749522.67843 -15353880.88242  20888975.9204   20888978.2894   20888975.7494
      1640.7284       1278.4844         50.0004         46.0004
  -1869541.95943  -1407513.40842  23476926.2444   23476929.6954   23476925.8974
     -3191.9414      -2487.2274         42.0004         38.0004
 -10515577.09243  -8158806.43742  22199854.9454   22199858.1524   22199854.5034
      1361.7144       1061.0794         47.0004         42.0004
 04 12 27  1 52 30.0000000  0  8G23G19G 3G 1G25G11G14G20
  -3483886.11243  -2665143.31942  23527469.9444   23527472.3584   23527469.6294
      3400.5554       2649.7744         42.0004         37.0004
 -11586028.43943  -8992024.18942  22207849.2034   22207851.1804   22207848.4134
     -2927.2564      -2280.9784         47.0004         43.0004
  -1222059.39143   -907059.83342  24145937.6494   24145943.4594   24145937.0584
     -3541.6404      -2759.7204         40.0004         35.0004
 -20242358.68743 -15722345.79942  20475201.9714   20475205.5964   20475201.6514
      -790.6644       -616.0864         51.0004         47.0004
  -4545850.31043  -3503075.00842  22978665.4744   22978669.5584   22978665.4004
      2100.1374       1636.4694         44.0004         39.0004
 -19798589.31843 -15392114.63242  20879638.8954   20879641.2054   20879638.7054
      1630.6034       1270.6184         50.0004         46.0004
  -1773695.16343  -1332827.66342  23495165.2744   23495168.8584   23495164.7824
     -3197.7814      -2491.7684         42.0004         37.0004
 -10556364.75843  -8190589.01142  22192093.3584   22192096.4394   22192092.8834
      1357.6794       1057.9304         47.0004         42.0004
 04 12 27  1 53  0.0000000  0  8G23G19G 3G 1G25G11G14G20
  -3585768.41543  -2744532.08142  23508082.2304   23508084.6544   23508082.1174
      3392.7234       2643.6734         42.0004         37.0004
 -11498032.22743  -8923455.74942  22224594.3144   22224596.3774   22224593.6084
     -2938.3494      -2289.6234         47.0004         43.0004
  -1115785.30243   -824248.98742  24166161.0664   24166166.9544   24166160.4154
     -3542.2654      -2760.2114         40.0004         35.0004
 -20218331.08543 -15703622.99542  20479774.2414   20479777.8814   20479773.9214
      -810.1964       -631.3184         51.0004         47.0004
  -4608661.02543  -3552018.39642  22966712.9774   22966717.0284   22966712.9104
      2087.7244       1626.8004         44.0004         40.0004
 -19847313.22543 -15430081.31142  20870367.0824   20870369.3254   20870366.8614
      1618.4954       1261.1694         50.0004         46.0004
  -1677631.62943  -1257973.02042  23513445.5724   23513449.2344   23513445.1434
     -3205.5214      -2497.8104         42.0004         37.0004
 -10596991.95043  -8222246.57142  22184362.2454   22184365.3464   22184361.7354
      1351.6714       1053.2434         47.0004         42.0004
 04 12 27  1 53 30.0000000  0  8G23G19G 3G 1G25G11G14G20
  -3687428.22743  -2823747.39642  23488736.8344   23488739.5174   23488736.7284
      3384.9914       2637.6494         42.0004         37.0004
 -11409725.01543  -8854644.97242  22241398.6014   22241400.6454   22241397.9214
     -2948.6064      -2297.6144         47.0004         43.0004
  -1009503.01843   -741431.73142  24186385.7354   24186391.8304   24186385.3364
     -3542.5344      -2760.4114         40.0004         35.0004
 -20193734.17243 -15684456.57442  20484454.8594   20484458.5244   20484454.5744
      -829.2314       -646.1664         51.0004         47.0004
  -4671118.56043  -3600686.58742  22954827.7174   22954831.7664   22954827.5844
      2076.1744       1617.7934         44.0004         40.0004
 -19895692.71843 -15467779.61542  20861160.7434   20861163.0054   20861160.5614
      1607.0084       1252.2054         50.0004         46.0004
  -1581354.28343  -1182951.78842  23531766.4574   23531770.2874   23531766.1864
     -3213.0074      -2503.6334         42.0004         37.0004
 -10637459.51243  -8253779.72142  22176661.5004   22176664.5944   22176660.9804
      1346.5304       1049.2454         47.0004         42.0004
 04 12 27  1 54  0.0000000  0  8G23G19G 3G 1G25G11G14G20
  -3788863.10443  -2902787.51542  23469434.4124   23469436.8124   23469434.2214
      3377.3614       2631.7054         42.0004         37.0004
 -11321109.34243  -8785593.84442  22258261.5814   22258263.6464   22258260.9344
     -2958.9574      -2305.6804         47.0004         42.0004
   -903214.61843   -658609.74342  24206611.8054   24206617.7454   24206611.3224
     -3542.9364      -2760.7374         39.0004         35.0004
 -20168568.89043 -15664847.26842  20489243.6264   20489247.3524   20489243.3394
      -848.1174       -660.8604         51.0004         47.0004
  -4733219.89643  -3649077.21942  22943010.1634   22943014.2624   22943010.0834
      2064.1094       1608.3954         44.0004         40.0004
 -19943725.09043 -15505207.43442  20852020.4854   20852022.7414   20852020.3164
      1595.4354       1243.1974         50.0004         46.0004
  -1484865.43043  -1107765.72542  23550127.7104   23550131.5164   23550127.4704
     -3219.6514      -2508.8124         42.0004         37.0004
 -10677767.28643  -8285188.36342  22168991.2224   22168994.2524   22168990.7184
      1340.9574       1044.8994         47.0004         42.0004
 04 12 27  1 54 30.0000000  0  8G23G19G 3G 1G25G11G14G20
  -3890070.37643  -2981650.26342  23450175.2374   23450177.4994   23450175.0024
      3369.9644       2625.9424         42.0004         37.0004
 -11232188.01343  -8716304.53542  22275182.7414   22275184.8304   22275182.0994
     -2968.9274      -2313.4464         47.0004         43.0004
   -796922.81143   -575785.06942  24226838.3904   24226844.4034   24226837.9144
     -3542.7394      -2760.5584         39.0004         34.0004
 -20142836.65743 -15644796.18442  20494140.3344   20494144.0334   20494140.0384
      -866.9834       -675.5764         51.0004         47.0004
  -4794961.92543  -3697187.86442  22931261.1244   22931265.2034   22931260.9714
      2052.0644       1599.0104         44.0004         40.0004
 -19991408.23343 -15542363.13442  20842946.6604   20842948.9584   20842946.5244
      1583.7594       1234.1014         51.0004         46.0004
  -1388167.59643  -1032416.85242  23568528.7674   23568532.6194   23568528.5174
     -3226.6984      -2514.3014         42.0004         37.0004
 -10717915.59743  -8316472.75342  22161351.2774   22161354.3064   22161350.7354
      1335.9274       1040.9924         47.0004         42.0004
 04 12 27  1 55  0.0000000  0  8G23G19G 3G 1G25G11G14G20
  -3991048.61643  -3060334.52642  23430959.7624   23430961.7654   23430959.4244
      3362.2894       2619.9574         42.0004         37.0004
 -11142964.11743  -8646779.46542  22292161.4694   22292163.6434   22292160.8074
     -2979.2814      -2321.5234         47.0004         42.0004
   -690630.50043   -492960.04742  24247065.0954   24247071.3004   24247064.8674
     -3543.0454      -2760.7864         39.0004         34.0004
 -20116539.21543 -15624304.67242  20499144.5304   20499148.2664   20499144.2344
      -886.0374       -690.4204         51.0004         47.0004
  -4856341.72143  -3745016.24942  22919580.9364   22919585.0234   22919580.8244
      2039.8814       1589.5194         45.0004         40.0004
 -20038740.37643 -15579245.32742  20833939.6474   20833941.9544   20833939.5264
      1571.8564       1224.8364         51.0004         46.0004
  -1291263.64843   -956907.33442  23586969.1434   23586972.7954   23586968.8524
     -3233.5224      -2519.6264         42.0004         37.0004
 -10757905.30543  -8347633.56042  22153741.4974   22153744.5144   22153740.9534
      1330.3654       1036.6474         47.0004         42.0004
 04 12 27  1 55 30.0000000  0  8G23G19G 3G 1G25G11G14G20
  -4091796.40843  -3138839.23842  23411788.2664   23411790.0184   23411787.7184
      3354.1444       2613.6104         42.0004         38.0004
 -11053441.37143  -8577021.51742  22309197.1894   22309199.3544   22309196.4604
     -2989.2894      -2329.3164         47.0004         43.0004
   -584341.07443   -410137.20042  24267291.4604   24267297.4064   24267291.1304
     -3543.2314      -2760.9524         39.0004         34.0004
 -20089679.00443 -15603374.64242  20504255.8364   20504259.5974   20504255.5584
      -905.0074       -705.2024         51.0004         47.0004
  -4917356.75543  -3792560.42942  22907970.1674   22907974.1324   22907970.0424
      2027.3924       1579.7834         44.0004         40.0004
 -20085720.54143 -15615853.25942  20824999.6644   20825001.9264   20824999.5414
      1559.8294       1215.4574         51.0004         46.0004
  -1194157.18143   -881240.01542  23605448.0084   23605451.6154   23605447.5054
     -3240.4914      -2525.0554         42.0004         37.0004
 -10797737.61143  -8378671.71742  22146161.7454   22146164.6624   22146161.1104
      1324.8044       1032.3134         47.0004         42.0004
 04 12 27  1 56  0.0000000  0  8G23G19G 3G 1G25G11G14G20
  -4192311.04443  -3217162.26842  23392660.9704   23392662.6554   23392660.3864
      3346.9034       2607.9824         42.0004         38.0004
 -10963621.94943  -8507032.40542  22326289.2944   22326291.4444   22326288.6084
     -2998.5624      -2336.5414         47.0004         42.0004
   -478056.74943   -327318.39242  24287516.8564   24287522.6834   24287516.4534
     -3542.6544      -2760.5274         39.0004         34.0004
 -20062257.03843 -15582006.88142  20509474.0744   20509477.8224   20509473.7874
      -923.1224       -719.3154         51.0004         46.0004
  -4978003.55743  -3839817.65942  22896429.5074   22896433.3854   22896429.3004
      2015.6944       1570.6684         44.0004         40.0004
 -20132345.90743 -15652184.71442  20816127.2144   20816129.4404   20816127.0174
      1548.6014       1206.6814         51.0004         46.0004
  -1096850.21843   -805416.45742  23623964.9324   23623968.6684   23623964.5924
     -3246.2744      -2529.5754         41.0004         37.0004
 -10837412.32243  -8409587.06242  22138611.7384   22138614.8214   22138611.1984
      1320.1814       1028.7164         47.0004         42.0004
 04 12 27  1 56 30.0000000  0  8G23G19G 3G 1G25G11G14G20
  -4292590.14843  -3295301.77342  23373578.4654   23373580.3484   23373577.9124
      3338.4454       2601.3764         43.0004         38.0004
 -10873508.58943  -8436814.23842  22343437.3254   22343439.4834   22343436.6324
     -3009.1544      -2344.8004         47.0004         42.0004
   -371779.86943   -244505.36042  24307740.8134   24307746.6934   24307740.0094
     -3543.0664      -2760.8234         39.0004         34.0004
 -20034274.48343 -15560202.29142  20514798.9854   20514802.7444   20514798.6694
      -942.7564       -734.6324         51.0004         47.0004
  -5038279.26443  -3886785.73642  22884959.3114   22884963.2554   22884959.1744
      2002.4634       1560.3654         44.0004         40.0004
 -20178614.22543 -15688237.95642  20807322.6114   20807324.8294   20807322.4514
      1535.7004       1196.6414         51.0004         46.0004
   -999345.25543   -729438.64442  23642519.6474   23642523.3004   23642519.2064
     -3254.1744      -2535.7184         41.0004         37.0004
 -10876929.59143  -8440379.72442  22131091.8754   22131094.9624   22131091.3294
      1313.9874       1023.8914         47.0004         42.0004
 04 12 27  1 57  0.0000000  0  8G23G19G 3G 1G25G11G14G20
  -4392631.95843  -3373256.37742  23354541.2904   23354543.0254   23354540.6964
      3330.7154       2595.3644         43.0004         38.0004
 -10783104.50143  -8366369.53542  22360640.6684   22360642.8224   22360640.0114
     -3018.4214      -2352.0144         47.0004         42.0004
   -265513.34443   -161700.39742  24327962.6614   24327968.6974   24327962.2974
     -3541.8674      -2759.8914         39.0004         34.0004
 -20005733.09443 -15537962.24842  20520230.1944   20520233.9924   20520229.9064
      -960.8024       -748.6534         51.0004         46.0004
  -5098180.95343  -3933462.35542  22873560.4604   22873564.3614   22873560.2664
      1990.3794       1550.9424         44.0004         40.0004
 -20224523.47143 -15724011.39242  20798586.3894   20798588.6164   20798586.2354
      1524.0274       1187.5544         51.0004         46.0004
   -901644.95643   -653308.60342  23661111.5454   23661115.0084   23661111.0314
     -3260.2804      -2540.4684         41.0004         37.0004
 -10916290.00243  -8471050.15742  22123601.8324   22123604.8884   22123601.2774
      1309.2204       1020.1854         47.0004         42.0004
 04 12 27  1 57 30.0000000  0  8G23G19G 3G 1G25G11G14G20
  -4492434.82543  -3451024.80142  23335549.4234   23335551.1724   23335548.8184
      3323.4904       2589.7354         43.0004         38.0004
 -10692412.96143  -8295700.85342  22377898.7914   22377900.9104   22377898.0244
     -3027.3324      -2358.9544         47.0004         42.0004
   -159260.24743    -78905.90742  24348182.2614   24348188.2254   24348181.9714
     -3541.0544      -2759.2584         39.0004         34.0004
 -19976635.08643 -15515288.47742  20525767.3554   20525771.1764   20525767.0754
      -978.5494       -762.4994         51.0004         46.0004
  -5157706.26143  -3979845.69942  22862233.0734   22862237.1454   22862233.0194
      1978.5714       1541.7494         44.0004         40.0004
 -20270071.87543 -15759503.65442  20789918.8524   20789921.0384   20789918.6694
      1512.8774       1178.8804         51.0004         46.0004
   -803752.16443   -577028.56542  23679739.9054   23679743.5664   23679739.5814
     -3265.7624      -2544.7424         41.0004         37.0004
 -10955494.40543  -8501599.02942  22116141.4104   22116144.5094   22116140.8814
      1304.9064       1016.8134         47.0004         42.0004
 04 12 27  1 58  0.0000000  0  8G23G19G 3G 1G25G11G14G20
  -4591996.32343  -3528605.13742  23316603.3944   23316605.1764   23316602.9704
      3315.8104       2583.7484         43.0004         38.0004
 -10601436.77443  -8224810.34842  22395210.9114   22395213.1224   22395210.2274
     -3036.2484      -2365.9074         47.0004         42.0004
    -53023.05843      3876.12042  24368398.7584   24368404.5534   24368397.8334
     -3540.4014      -2758.7334         39.0004         34.0004
 -19946981.78443 -15492182.00842  20531410.1604   20531414.0184   20531409.9024
      -996.7224       -776.6594         51.0004         46.0004
  -5216851.95243  -4025933.24142  22850977.9534   22850982.0724   22850977.9024
      1966.1774       1532.0864         45.0004         40.0004
 -20315257.50043 -15794713.23442  20781320.3154   20781322.5024   20781320.1184
      1501.1364       1169.7194         51.0004         46.0004
   -705669.67543   -500600.73942  23698404.4874   23698408.1654   23698404.1874
     -3271.8134      -2549.4754         41.0004         36.0004
 -10994542.84743  -8532026.37242  22108710.7474   22108713.7884   22108710.2104
      1299.9614       1012.9544         47.0004         42.0004
 04 12 27  1 58 30.0000000  0  8G23G19G 3G 1G25G11G14G20
  -4691314.33543  -3605995.75442  23297703.8644   23297705.5644   23297703.4144
      3306.3604       2576.3794         43.0004         38.0004
 -10510178.54143  -8153700.08442  22412576.8414   22412579.0074   22412576.1164
     -3046.7524      -2374.0814         47.0004         42.0004
     53195.92943     86644.04642  24388611.2924   24388617.7954   24388610.4064
     -3539.7824      -2758.2644         38.0004         34.0004
 -19916774.70943 -15468644.03042  20537158.3904   20537162.2284   20537158.1544
     -1016.1154       -791.7584         51.0004         46.0004
  -5275614.75843  -4071722.43042  22839795.8014   22839799.8234   22839795.7084
      1952.2914       1521.2674         45.0004         40.0004
 -20360078.23843 -15829638.49142  20772791.2134   20772793.4164   20772791.0024
      1487.8934       1159.4024         51.0004         46.0004
   -607399.74543   -424026.81942  23717104.4714   23717108.2494   23717104.3134
     -3279.0074      -2555.0644         41.0004         36.0004
 -11033435.82943  -8562332.58042  22101309.6414   22101312.6804   22101309.1134
      1293.7044       1008.0914         47.0004         42.0004
 04 12 27  1 59  0.0000000  0  8G23G19G 3G 1G25G11G14G20
  -4790386.32643  -3683194.66342  23278850.9794   23278852.6904   23278850.6024
      3297.8504       2569.7524         43.0004         38.0004
 -10418640.62243  -8082371.87442  22429995.8334   22429998.1594   22429995.1854
     -3056.3084      -2381.5364         47.0004         42.0004
    159394.69743    169396.16342  24408820.3854   24408826.8294   24408819.6824
     -3539.9464      -2758.4134         38.0004         34.0004
 -19886014.83343 -15444675.29642  20543011.8494   20543015.6454   20543011.5754
     -1034.9444       -806.4614         51.0004         46.0004
  -5333991.31343  -4117210.64642  22828687.0744   22828691.1164   22828687.0424
      1938.3654       1510.4194         45.0004         40.0004
 -20404531.51443 -15864277.40642  20764332.0304   20764334.2564   20764331.8244
      1475.0274       1149.3644         51.0004         46.0004
   -508944.67943   -347308.64642  23735839.7544   23735843.7074   23735839.6274
     -3285.1854      -2559.8804         41.0004         36.0004
 -11072173.27043  -8592517.59342  22093938.0804   22093941.1614   22093937.5844
      1288.1104       1003.7084         47.0004         42.0004
 04 12 27  1 59 30.0000000  0  8G23G19G 3G 1G25G11G14G20
  -4889210.90343  -3760200.76842  23260045.2744   23260046.9114   23260044.8884
      3290.1724       2563.7754         43.0004         39.0004
 -10326826.94943  -8010828.79742  22447467.4304   22447469.7414   22447466.7384
     -3064.4754      -2387.9074         47.0004         42.0004
    265569.66243    252129.76942  24429024.8334   24429031.4264   24429024.4344
     -3538.9974      -2757.6534         38.0004         34.0004
 -19854704.79943 -15420277.86442  20548969.9834   20548973.7514   20548969.6954
     -1052.4804       -820.1124         51.0004         46.0004
  -5391979.72543  -4162396.41842  22817652.2024   22817656.2744   22817652.2194
      1926.8984       1501.4784         45.0004         40.0004
 -20448616.08643 -15898629.02342  20755942.9824   20755945.2434   20755942.7984
      1463.6064       1140.4614         51.0004         46.0004
   -410307.97743   -270448.95942  23754609.7514   23754613.6504   23754609.4634
     -3290.5064      -2564.0224         40.0004         36.0004
 -11110756.32143  -8622582.29742  22086595.8764   22086599.0094   22086595.3974
      1283.7234       1000.3044         47.0004         42.0004
                            4  1
RINEX FILE SPLICE; other post-header comments skipped       COMMENT
 04 12 27  2  0  0.0000000  0  8G23G19G 3G 1G25G11G14G20
  -4987786.61743  -3837012.96542  23241286.8354   23241288.5624   23241286.5824
      3281.6304       2557.1074         43.0004         39.0004
 -10234740.72843  -7939073.35242  22464990.9334   22464993.2754   22464990.1914
     -3074.4624      -2395.6804         47.0004         42.0004
    371717.72343    334842.43442  24449224.3164   24449230.6924   24449223.9214
     -3538.0044      -2756.8904         39.0004         34.0004
 -19822846.78243 -15395453.43942  20555032.3894   20555036.1404   20555032.0764
     -1071.4114       -834.8634         51.0004         47.0004
  -5449577.36743  -4207277.68142  22806691.7844   22806695.7894   22806691.7104
      1912.9544       1490.6154         45.0004         40.0004
 -20492330.56943 -15932692.25742  20747624.3454   20747626.6604   20747624.1824
      1450.6384       1130.3654         51.0004         46.0004
   -311492.51643   -193449.96742  23773413.8904   23773417.5724   23773413.5494
     -3296.9794      -2569.0804         40.0004         36.0004
 -11149185.85743  -8652527.38042  22079282.9854   22079286.1054   22079282.4914
      1278.1834        995.9944         47.0004         42.0004
 04 12 27  2  0 30.0000000  0  8G23G19G 3G 1G25G11G14G20
  -5086110.19543  -3913628.68842  23222576.3544   23222578.1354   23222576.1574
      3273.1504       2550.5064         43.0004         39.0004
 -10142383.96843  -7867107.08542  22482566.0254   22482568.2414   22482565.1644
     -3082.9754      -2402.3124         47.0004         42.0004
    477837.10943    417532.72242  24469418.0014   24469424.6004   24469417.9364
     -3537.1524      -2756.2234         39.0004         34.0004
 -19790441.38343 -15370202.48242  20561198.9334   20561202.6514   20561198.6304
     -1089.3384       -848.8344         51.0004         46.0004
  -5506780.68943  -4251851.69242  22795806.3374   22795810.3454   22795806.2564
      1900.0594       1480.5624         45.0004         40.0004
 -20535671.63243 -15966464.52442  20739376.8814   20739379.1024   20739376.6644
      1438.4184       1120.8424         51.0004         46.0004
   -212499.94943   -116312.96042  23792251.7334   23792255.2914   23792251.3424
     -3302.5974      -2573.4444         41.0004         36.0004
 -11187461.28143  -8682352.36742  22071999.5204   22072002.5304   22071998.9534
      1273.1934        992.1014         47.0004         42.0004
 04 12 27  2  1  0.0000000  0  8G23G19G 3G 1G25G11G14G20
  -5184180.77143  -3990047.25842  23203914.0344   23203915.8694   23203913.8544
      3264.5744       2543.8254         44.0004         39.0004
 -10049760.61543  -7794933.07642  22500191.6914   22500193.8894   22500190.8894
     -3092.0224      -2409.3654         46.0004         42.0004
    583924.61643    500198.19442  24489605.9824   24489612.3934   24489605.8824
     -3536.2684      -2755.5284         39.0004         34.0004
 -19757491.43543 -15344527.19942  20567469.1084   20567472.8274   20567468.7954
     -1107.5054       -862.9914         51.0004         46.0004
  -5563587.22143  -4296116.51342  22784996.4934   22785000.3824   22784996.3614
      1887.3924       1470.6894         45.0004         40.0004
 -20578638.31943 -15999945.06242  20731200.5764   20731202.8114   20731200.3654
      1425.8334       1111.0104         51.0004         46.0004
   -113333.86643    -39040.75042  23811122.4464   23811126.0954   23811122.0054
     -3308.6094      -2578.1394         41.0004         36.0004
 -11225584.02943  -8712058.39942  22064745.0094   22064748.0004   22064744.4784
      1268.0894        988.1164         47.0004         42.0004
 04 12 27  2  1 30.0000000  0  8G23G19G 3G 1G25G11G14G20
  -5281996.18643  -4066266.99642  23185300.4564   23185302.2954   23185300.1514
      3256.0684       2537.1964         44.0004         39.0004
  -9956873.24543  -7722553.35642  22517867.6284   22517869.8564   22517866.7624
     -3101.0194      -2416.3764         46.0004         42.0004
    689977.67443    582836.80242  24509787.3704   24509793.6944   24509787.1974
     -3535.1594      -2754.6594         39.0004         34.0004
 -19723998.51843 -15318428.81942  20573842.5724   20573846.3294   20573842.3064
     -1125.6484       -877.1294         51.0004         46.0004
  -5619993.81743  -4340069.68842  22774262.6454   22774266.5764   22774262.5254
      1873.3984       1459.7804         45.0004         40.0004
 -20621228.60343 -16033132.29842  20723095.8914   20723098.1624   20723095.7154
      1413.1694       1101.1654         51.0004         46.0004
    -13996.64643     38364.81042  23830025.7464   23830029.3774   23830025.1694
     -3314.1714      -2582.4604         41.0004         36.0004
 -11263554.15843  -8741645.52042  22057519.4754   22057522.5194   22057518.9144
      1262.9394        984.1184         47.0004         42.0004
