     2.10           OBSERVATION DATA    G (GPS)             RINEX VERSION / TYPE
teqc  2002Mar14     gpsodc(auto)        20040826 01:11:42UTCPGM / RUN BY / DATE
OBSERVATION MODE: IGS-Net                                   COMMENT
ULAB Ulaanbataar (ULAB)                                     MARKER NAME
24201M001                                                   MARKER NUMBER
287-U               AOA SNR-8000 ACT     3.30               REC # / TYPE / VERS
340-U               AOAD/M_T        NONE                    ANT # / TYPE
        0.0460        0.0000        0.0000                  ANTENNA: DELTA H/E/N
  -1257408.5410  4099404.3504  4707992.6294                 APPROX POSITION XYZ
  107.05232529  47.86506788  1575.5341  LonLatAlt  S/W      COMMENT
unknown             IVTAN                                   OBSERVER / AGENCY
     1     1                                                WAVELENGTH FACT L1/2
     7    L1    L2    C1    P1    P2    S1    S2            # / TYPES OF OBSERV
    30.0000                                                 INTERVAL
Linux 2.0.36|Pentium II|gcc -static|Linux|486/DX+           COMMENT
bx2rxo      unknown * Thu Aug 26 02:18:43 2004              COMMENT
  2004     8    26     0     0    0.0000000     GPS         TIME OF FIRST OBS
  2004     8    26    23    59   30.0000000     GPS         TIME OF LAST OBS
                                                            END OF HEADER
 04  8 26  0  0  0.0000000  0 12G18G17G 6G15G29G 9G10G26G22G 8G21G 3
 -13491249.18908 -10512660.97207  22109016.41500  22109016.11400  22109015.29300
       145.00000        56.00000
  -5593658.85706  -4358701.81906  23544340.17100  23544340.12400  23544342.22500
        13.00000        11.00000
  -9014044.94406  -7023939.83905  23662050.23100  23662050.41400  23662051.94800
        12.00000         9.00000
  -6368995.80906  -4962855.49006  23827471.00300  23827470.73600  23827472.23400
        13.00000        11.00000
 -17811056.20908 -13878743.66808  20900274.65600  20900274.61600  20900274.55500
       234.00000       168.00000
  -2577431.99806  -2008386.15506  24211039.08000  24211038.30000  24211039.73900
        21.00000        12.00000
  -5479112.60907  -4269443.13806  23212203.04400  23212202.26900  23212203.87400
        41.00000        26.00000
 -22464957.87609 -17505161.87108  19995496.07500  19995496.07500  19995495.66400
       346.00000       239.00000
  -1253137.87205   -976471.29505  24840240.04300  24840239.53500  24840237.75600
         7.00000         9.00000
  -6315383.03305  -4921074.67006  24285301.41600  24285301.14500  24285303.28400
         8.00000        12.00000
 -25896476.00708 -20179073.09808  20572966.79000  20572966.28000  20572964.58500
       278.00000       173.00000
  -1353838.80305  -1054939.44405  24983599.99300  24983600.43600  24983601.16200
         9.00000         4.00000
 04  8 26  0  0 30.0000000  0 12G18G17G 6G15G29G 9G10G26G22G 8G21G 3
 -13564132.19208 -10569452.89407  22095147.19700  22095146.92400  22095145.83300
       144.00000        52.00000
  -5485708.70806  -4274584.89006  23564883.02100  23564882.12300  23564885.52200
        13.00000        13.00000
  -8920585.12406  -6951114.06805  23679835.91400  23679835.41200  23679836.52000
        15.00000         8.00000
  -6477455.33606  -5047369.40905  23806831.55700  23806831.55000  23806832.09600
        14.00000         9.00000
 -17761743.20608 -13840317.96208  20909659.07200  20909658.97300  20909658.50300
       242.00000       166.00000
  -2696141.11606  -2100886.64505  24188448.22100  24188448.29800  24188450.00300
        22.00000        10.00000
  -5391877.16607  -4201467.52406  23228803.19400  23228802.86200  23228804.04300
        45.00000        25.00000
 -22434676.92609 -17481566.32508  20001258.35900  20001258.44200  20001257.98000
       351.00000       239.00000
  -1344501.33304  -1047663.59805  24822851.41900  24822852.82600  24822851.66300
         3.00000        10.00000
  -6254334.72805  -4873504.60706  24296918.60600  24296918.81800  24296921.07000
        10.00000        13.00000
 -25938547.26608 -20211855.88508  20564960.42500  20564960.23400  20564958.54900
       277.00000       173.00000
  -1409206.97705  -1098083.52704  24973064.64200  24973064.09300  24973065.18400
         8.00000         2.00000
 04  8 26  0  1  0.0000000  0 12G18G17G 6G15G29G 9G10G26G22G 8G21G 3
 -13636834.37908 -10626103.94207  22081312.30800  22081311.98100  22081310.93000
       149.00000        51.00000
  -5377545.94106  -4190302.31506  23585465.92100  23585465.45200  23585469.11800
        14.00000        20.00000
  -8826978.11106  -6878173.60005  23697648.14500  23697647.36000  23697649.27400
        13.00000         8.00000
  -6585787.92906  -5131784.40106  23786217.24000  23786216.94800  23786217.38600
        17.00000        11.00000
 -17712030.90508 -13801581.11908  20919119.09400  20919118.88200  20919118.27100
       243.00000       163.00000
  -2814812.76606  -2193357.98105  24165865.44200  24165866.00600  24165867.04600
        25.00000        10.00000
  -5304532.27407  -4133406.64206  23245423.88400  23245423.34200  23245426.35900
        39.00000        28.00000
 -22403822.24409 -17457523.71208  20007129.78900  20007129.86700  20007129.53500
       348.00000       239.00000
  -1435826.47304  -1118826.05406  24805474.44200  24805474.10900  24805474.25900
         3.00000        12.00000
  -6192799.03006  -4825554.77006  24308628.55600  24308628.75700  24308630.44200
        11.00000        13.00000
 -25980122.67908 -20244252.30108  20557049.05700  20557048.64800  20557047.28300
       278.00000       180.00000
  -1464118.62405  -1140871.83804  24962614.24500  24962614.13700  24962615.23800
         7.00000         3.00000
 04  8 26  0  1 30.0000000  0 12G18G17G 6G15G29G 9G10G26G22G 8G21G 3
 -13709388.33408 -10682639.47507  22067505.32500  22067505.18900  22067504.00100
       141.00000        47.00000
  -5269205.69706  -4105881.48906  23606082.48100  23606082.35000  23606085.78100
        11.00000        19.00000
  -8733260.05005  -6805146.58805  23715481.90200  23715481.91000  23715482.96300
         9.00000         7.00000
  -6694024.61406  -5216124.67005  23765620.92900  23765620.06600  23765620.27800
        13.00000        10.00000
 -17661954.68208 -13762560.69408  20928647.85800  20928647.87800  20928647.57000
       242.00000       163.00000
  -2933476.83406  -2285823.42106  24143285.06600  24143284.94900  24143286.95000
        23.00000        15.00000
  -5217111.65507  -4065286.74206  23262059.43200  23262059.18100  23262061.75500
        39.00000        28.00000
 -22372428.76009 -17433061.25808  20013103.51700  20013103.62200  20013103.33700
       337.00000       235.00000
  -1527145.80104  -1189983.98006  24788095.22300  24788095.16800  24788095.70900
         3.00000        11.00000
  -6130810.82906  -4777252.28806  24320424.82800  24320425.58100  24320426.35400
        11.00000        11.00000
 -26021233.42508 -20276286.65308  20549226.04800  20549225.73100  20549224.07100
       296.00000       183.00000
  -1518605.35404  -1183329.06304  24952246.79200  24952246.83900  24952247.30800
         3.00000         3.00000
 04  8 26  0  2  0.0000000  0 12G18G17G 6G15G29G 9G10G26G22G 8G21G 3
 -13781715.00708 -10738997.89607  22053741.93800  22053741.83900  22053740.62500
       135.00000        48.00000
  -5160611.57006  -4021262.80406  23626749.07500  23626747.88800  23626749.89800
        15.00000        14.00000
  -8639355.66905  -6731974.42505  23733351.95000  23733351.06700  23733353.71900
         5.00000         6.00000
  -6802084.83206  -5300327.41606  23745057.89600  23745056.59900  23745057.51900
        13.00000        13.00000
 -17611437.92908 -13723196.99008  20938260.97700  20938260.77400  20938260.71300
       236.00000       162.00000
  -3052051.97806  -2378219.51806  24120720.41900  24120719.87600  24120723.22800
        17.00000        19.00000
  -5129537.83007  -3997047.48006  23278725.06300  23278724.74900  23278726.86300
        46.00000        29.00000
 -22340419.96509 -17408119.33908  20019194.43200  20019194.51700  20019194.41300
       333.00000       235.00000
  -1618380.69105  -1261076.11306  24770733.85900  24770733.99300  24770735.48100
         5.00000        11.00000
  -6068293.84805  -4728537.79506  24332321.91000  24332321.41700  24332322.81500
        10.00000        11.00000
 -26061799.48108 -20307896.56608  20541506.48100  20541506.18100  20541504.68900
       288.00000       186.00000
  -1572587.10904  -1225392.84704  24941974.86800  24941974.66300  24941976.02300
         3.00000         2.00000
 04  8 26  0  2 30.0000000  0 12G18G17G 6G15G29G 9G10G26G22G 8G21G 3
 -13853854.95608 -10795210.81907  22040014.92800  22040014.24500  22040013.19000
       133.00000        50.00000
  -5051807.16205  -3936480.21906  23647451.35000  23647451.29200  23647455.29800
        10.00000        15.00000
  -8545309.60805  -6658691.82105  23751246.65800  23751248.06200  23751248.29100
         7.00000         7.00000
  -6910007.71606  -5384423.13406  23724520.29400  23724519.53600  23724520.47200
        17.00000        12.00000
 -17560524.29608 -13683524.03508  20947949.14100  20947949.26800  20947949.27000
       232.00000       163.00000
  -3170576.66006  -2470576.28706  24098164.80600  24098164.99900  24098167.68000
        15.00000        15.00000
  -5041853.16607  -3928721.81106  23295409.90100  23295409.80900  23295412.43300
        39.00000        28.00000
 -22307839.46509 -17382731.93608  20025394.27500  20025394.49000  20025394.41100
       338.00000       233.00000
  -1709572.06605  -1332134.35405  24753383.00600  24753382.29900  24753381.47300
         8.00000         9.00000
  -6005291.88905  -4679445.40806  24344310.84800  24344310.38900  24344312.36500
         7.00000        12.00000
 -26101860.27808 -20339112.77008  20533883.23000  20533882.80500  20533881.36100
       277.00000       187.00000
  -1626103.64104  -1267094.15504  24931788.44800  24931791.13300  24931788.25300
         1.00000         2.00000
 04  8 26  0  3  0.0000000  0 12G18G17G 6G15G29G 9G10G26G22G 8G21G 3
 -13925812.94308 -10851281.95607  22026320.77700  22026320.65500  22026320.18400
       134.00000        51.00000
  -4942799.68506  -3851539.46306  23668196.00900  23668195.02700  23668198.82200
        12.00000        16.00000
  -8451130.28705  -6585305.40305  23769170.92300  23769170.13700  23769171.57000
         5.00000         7.00000
  -7017796.33606  -5468414.27006  23704007.78300  23704007.58900  23704009.17400
        13.00000        14.00000
 -17509221.31308 -13643547.69908  20957712.09900  20957712.03100  20957711.99800
       232.00000       162.00000
  -3289053.28506  -2562895.67406  24075619.98200  24075620.52100  24075621.60900
        22.00000        11.00000
  -4954063.93207  -3860314.68806  23312115.84700  23312115.86500  23312119.35700
        45.00000        31.00000
 -22274694.74409 -17356904.88808  20031701.51700  20031701.80300  20031701.60100
       340.00000       231.00000
  -1800725.08006  -1403162.69005  24736036.59700  24736037.03900  24736035.71000
        11.00000         9.00000
  -5941812.16705  -4629980.71005  24356390.20400  24356390.18400  24356390.55400
         9.00000        10.00000
 -26141419.65908 -20369938.26308  20526355.29700  20526355.01500  20526353.43300
       284.00000       188.00000
  -1679158.99900  -1308435.94304  24921695.27900  24921694.43800  24921693.82600
          .00000         3.00000
 04  8 26  0  3 30.0000000  0 11G18G17G 6G15G29G 9G10G26G22G 8G21
 -13997590.06608 -10907212.17207  22012662.17800  22012661.96000  22012661.55100
       136.00000        52.00000
  -4833593.17706  -3766443.58006  23688976.16900  23688976.47400  23688980.31000
        14.00000        15.00000
  -8356822.48005  -6511818.86205  23787116.52400  23787117.14100  23787117.76900
         5.00000         7.00000
  -7125450.25606  -5552300.42506  23683523.05800  23683522.22900  23683523.45700
        17.00000        14.00000
 -17457532.83908 -13603270.97808  20967548.39600  20967548.17900  20967547.84500
       236.00000       161.00000
  -3407480.60906  -2655176.66506  24053083.30000  24053083.89900  24053086.92800
        13.00000        13.00000
  -4866172.56707  -3791827.95606  23328842.04800  23328841.26200  23328843.09600
        41.00000        24.00000
 -22240989.27609 -17330640.89208  20038115.36400  20038115.69600  20038115.44100
       337.00000       229.00000
  -1891841.03706  -1474162.11805  24718699.55900  24718699.33500  24718697.83800
        16.00000        10.00000
  -5877859.15305  -4580147.24106  24368559.60700  24368558.81200  24368561.41500
        10.00000        12.00000
 -26180477.50008 -20400372.95608  20518922.69800  20518922.47600  20518920.98300
       278.00000       190.00000
 04  8 26  0  4  0.0000000  0 12G18G17G 6G15G29G 9G10G26G22G 8G21G 3
 -14069175.04308 -10962992.66107  21999039.49200  21999039.78800  21999039.79600
       141.00000        58.00000
  -4724178.69506  -3681185.67406  23709799.64200  23709798.97200  23709801.37700
        12.00000        15.00000
  -8262378.44004  -6438226.20105  23805087.01200  23805087.34300  23805090.54900
         3.00000         8.00000
  -7232956.27506  -5636071.34606  23663064.69600  23663064.47100  23663066.31600
        18.00000        17.00000
 -17405450.26408 -13562687.15808  20977458.96000  20977459.00100  20977458.93200
       234.00000       159.00000
  -3525844.96505  -2747408.52106  24030559.50700  24030558.52900  24030562.80300
         6.00000        17.00000
  -4778169.07707  -3723253.84606  23345588.36500  23345587.80500  23345590.37400
        40.00000        28.00000
 -22206714.60709 -17303933.35808  20044638.07900  20044637.99000  20044637.65500
       337.00000       228.00000
  -1982908.67806  -1545123.91505  24701369.48900  24701369.20200  24701367.27400
        16.00000        10.00000
  -5813423.85406  -4529937.96006  24380821.33900  24380821.08500  24380823.87200
        12.00000        13.00000
 -26219021.53808 -20430407.27808  20511587.68600  20511587.41400  20511586.49900
       260.00000       193.00000
    -17322.90005    -13498.07904  24901768.41900  24901767.79500  24901768.57600
         5.00000         2.00000
 04  8 26  0  4 30.0000000  0 12G18G17G 6G15G29G 9G10G26G22G 8G21G 3
 -14140533.53508 -11018596.66407  21985461.59100  21985461.01100  21985460.37600
       155.00000        59.00000
  -4614524.80506  -3595741.20206  23730663.85000  23730664.21900  23730667.65300
        12.00000        14.00000
  -8167767.74905  -6364503.65405  23823091.98700  23823091.50000  23823094.20800
         7.00000         6.00000
  -7340278.78906  -5719699.25706  23642642.16300  23642641.67200  23642642.88800
        18.00000        18.00000
 -17352941.78108 -13521771.46308  20987451.26100  20987451.12800  20987450.94100
       228.00000       156.00000
  -3644109.65706  -2839562.69306  24008055.81700  24008055.71400  24008057.46100
        17.00000        18.00000
  -4690020.82107  -3654566.96006  23362363.91100  23362362.80200  23362364.16800
        43.00000        25.00000
 -22171838.89509 -17276757.47408  20051274.54800  20051274.74300  20051274.39300
       339.00000       231.00000
  -2073893.85606  -1616021.49805  24684053.02800  24684053.56900  24684053.18200
        14.00000         9.00000
  -5748475.40906  -4479328.80206  24393180.42400  24393179.86000  24393182.30500
        14.00000        13.00000
 -26257016.20408 -20460013.51408  20504358.04200  20504357.60100  20504356.14500
       265.00000       189.00000
    -68935.14905    -53715.45404  24891946.77700  24891945.84600  24891947.08100
         7.00000         2.00000
 04  8 26  0  5  0.0000000  0 12G18G17G 6G15G29G 9G10G26G22G 8G21G 3
 -14211747.69508 -11074088.20407  21971909.54500  21971909.62900  21971908.86500
       168.00000        61.00000
  -4504716.47806  -3510176.38206  23751562.52500  23751561.33500  23751563.42600
        14.00000        14.00000
  -8073076.50005  -6290718.27705  23841111.47500  23841111.04300  23841113.74900
         7.00000         8.00000
  -7447498.53506  -5803247.09306  23622239.69800  23622238.74000  23622239.54100
        19.00000        15.00000
 -17300092.83708 -13480590.47508  20997508.07300  20997508.02600  20997507.57100
       228.00000       154.00000
  -3762354.52006  -2931701.48606  23985553.79500  23985553.79600  23985555.93300
        21.00000        16.00000
  -4601811.78307  -3585832.68606  23379148.43000  23379147.34900  23379150.26300
        39.00000        27.00000
 -22136447.38309 -17249179.67108  20058009.53600  20058009.49000  20058009.30400
       332.00000       235.00000
  -2164879.48106  -1686919.42605  24666738.92000  24666739.73800  24666739.78600
        12.00000        10.00000
  -5683099.15706  -4428386.29806  24405621.41500  24405620.39700  24405622.21000
        12.00000        11.00000
 -26294542.61308 -20489254.87908  20497216.91400  20497216.59600  20497215.08200
       270.00000       190.00000
   -120120.41205    -93600.11204  24882205.47200  24882205.26000  24882205.66800
         6.00000         3.00000
 04  8 26  0  5 30.0000000  0 12G18G17G 6G15G29G 9G10G26G22G 8G21G 3
 -14282755.54908 -11129418.97207  21958397.55800  21958397.36900  21958396.45800
       172.00000        60.00000
  -4394694.73006  -3424445.28006  23772498.07100  23772498.05300  23772500.31900
        15.00000        15.00000
  -7978246.53505  -6216824.88805  23859156.56500  23859157.14300  23859159.77300
         8.00000         8.00000
  -7554551.99706  -5886665.39706  23601866.96400  23601866.56300  23601868.32400
        18.00000        18.00000
 -17246844.03608 -13439097.90908  21007640.92400  21007640.88200  21007640.44100
       227.00000       151.00000
  -3880515.52706  -3023774.93306  23963069.01700  23963069.05200  23963070.05600
        19.00000        13.00000
  -4513481.38007  -3517003.83906  23395957.20900  23395956.52500  23395958.69800
        43.00000        23.00000
 -22100481.09209 -17221154.00108  20064853.52000  20064853.54700  20064853.57800
       330.00000       237.00000
  -2255803.81006  -1757769.54205  24649437.97500  24649437.82200  24649437.12600
        11.00000        10.00000
  -5617236.29306  -4377064.62506  24418155.34200  24418154.57700  24418156.24900
        12.00000        14.00000
 -26331538.53208 -20518082.87208  20490176.69200  20490176.19100  20490174.96800
       259.00000       190.00000
   -170816.16005   -133103.32304  24872557.83200  24872558.95500  24872558.82300
         4.00000         2.00000
 04  8 26  0  6  0.0000000  0 12G18G17G 6G15G29G 9G10G26G22G 8G21G 3
 -14353533.58108 -11184570.66507  21944928.96800  21944928.85400  21944927.61700
       175.00000        60.00000
  -4284438.40006  -3338531.38406  23793478.66900  23793478.48000  23793480.99800
        13.00000        12.00000
  -7883257.91905  -6142807.85305  23877232.20600  23877232.18400  23877234.18900
         7.00000         8.00000
  -7661413.65606  -5969934.21006  23581531.78000  23581530.97300  23581533.23400
        15.00000        19.00000
 -17193174.66708 -13397277.63208  21017854.30000  21017853.94100  21017853.42100
       231.00000       151.00000
  -3998566.67306  -3115762.77906  23940603.09400  23940603.44100  23940605.61000
        18.00000        14.00000
  -4425007.56307  -3448063.23506  23412792.63700  23412792.11300  23412794.17300
        38.00000        22.00000
 -22063918.79309 -17192663.90808  20071810.98200  20071811.11800  20071811.10200
       333.00000       234.00000
  -2346643.31606  -1828553.53305  24632151.31800  24632151.44900  24632149.95700
        15.00000        10.00000
  -5550865.42106  -4325347.11706  24430781.71600  24430783.26100  24430786.43500
        11.00000        13.00000
 -26367978.72108 -20546477.83008  20483242.62100  20483242.15400  20483240.72000
       270.00000       195.00000
   -220997.95304   -172206.04904  24863009.65500  24863009.65800  24863010.06400
         3.00000         2.00000
 04  8 26  0  6 30.0000000  0 12G18G17G 6G15G29G 9G10G26G22G 8G21G 3
 -14424142.38208 -11239590.48607  21931492.21600  21931492.13000  21931491.09000
       168.00000        62.00000
  -4174010.79705  -3252484.03006  23814492.88400  23814492.25800  23814495.21100
        10.00000        14.00000
  -7788174.67904  -6068717.05105  23895326.45800  23895325.61800  23895328.03500
         2.00000         7.00000
  -7768142.42106  -6053099.45806  23561219.99000  23561220.40300  23561223.11300
        12.00000        17.00000
 -17139148.01508 -13355178.94808  21028134.78800  21028134.84100  21028134.68500
       230.00000       153.00000
  -4116565.83806  -3207710.12706  23918150.70400  23918150.46900  23918151.45000
        31.00000        19.00000
  -4336452.02007  -3379058.96506  23429644.03300  23429643.90600  23429646.51100
        39.00000        23.00000
 -22026823.87309 -17163758.78108  20078869.91800  20078870.10100  20078869.88200
       337.00000       230.00000
  -2437458.76806  -1899318.80505  24614870.60300  24614870.31100  24614868.71800
        21.00000         9.00000
  -5484050.54506  -4273283.60606  24443498.67200  24443497.89700  24443499.59200
        13.00000        11.00000
 -26403922.59008 -20574486.04508  20476402.90200  20476402.51100  20476400.83300
       281.00000       196.00000
   -270725.21105   -210954.51604  24853546.69900  24853547.09900  24853547.05400
         4.00000         3.00000
 04  8 26  0  7  0.0000000  0 12G18G17G 6G15G29G 9G10G26G22G 8G21G 3
 -14494561.34408 -11294462.37307  21918091.87600  21918091.60200  21918091.10900
       153.00000        64.00000
  -4063394.03806  -3166289.30106  23835541.65400  23835541.98100  23835545.27200
        14.00000        12.00000
  -7692980.23005  -5994539.70005  23913441.80600  23913441.87100  23913443.34200
         4.00000         7.00000
  -7874716.24306  -6136143.98106  23540941.02900  23540940.94800  23540942.59500
        12.00000        18.00000
 -17084746.27608 -13312787.98808  21038486.84900  21038486.95300  21038486.86900
       222.00000       151.00000
  -4234490.27706  -3299599.25006  23895709.91100  23895709.82300  23895711.34400
        29.00000        20.00000
  -4247795.88807  -3309976.32106  23446514.75200  23446514.30400  23446516.80400
        35.00000        22.00000
 -21989178.65009 -17134424.84208  20086033.69100  20086033.88900  20086033.39900
       341.00000       228.00000
  -2528229.78606  -1970049.49505  24597598.62400  24597598.07700  24597596.24200
        26.00000         9.00000
  -5416774.42506  -4220860.67406  24456300.09000  24456299.67500  24456301.73900
        13.00000        11.00000
 -26439348.89608 -20602090.96108  20469661.11200  20469660.86000  20469659.60800
       273.00000       201.00000
   -319976.74005   -249332.35505  24844174.58500  24844174.46000  24844176.30000
         5.00000         6.00000
 04  8 26  0  7 30.0000000  0 12G18G17G 6G15G29G 9G10G26G22G 8G21G 3
 -14564790.34208 -11349186.23107  21904727.48100  21904727.27800  21904726.67900
       152.00000        62.00000
  -3952591.22706  -3079949.53305  23856628.43100  23856627.42400  23856629.42200
        16.00000         9.00000
  -7597678.39305  -5920278.60205  23931577.47700  23931577.47000  23931578.56300
         8.00000         7.00000
  -7981133.35706  -6219066.38506  23520691.38600  23520690.93900  23520692.67800
        12.00000        21.00000
 -17029972.38808 -13270107.04308  21048909.81100  21048909.90500  21048910.01300
       221.00000       150.00000
  -4352337.75306  -3391428.35906  23873282.31100  23873282.85700  23873284.69100
        16.00000        15.00000
  -4159040.77207  -3240816.53306  23463404.91300  23463403.92100  23463406.44600
        34.00000        23.00000
 -21950985.99709 -17104664.34808  20093301.24400  20093301.58100  20093301.46000
       337.00000       229.00000
  -2618956.82206  -2040745.89305  24580333.28000  24580333.22300  24580330.84700
        25.00000         9.00000
  -5349039.56306  -4168080.31106  24469190.55600  24469189.99600  24469192.31300
        15.00000        12.00000
 -26474256.86508 -20629291.97108  20463018.53100  20463018.11100  20463016.82100
       274.00000       204.00000
   -368751.96804   -287339.00905  24834892.06900  24834892.13600  24834892.99400
         3.00000         6.00000
 04  8 26  0  8  0.0000000  0 12G18G17G 6G15G29G 9G10G26G22G 8G21G 3
 -14634786.61608 -11403728.74907  21891407.17200  21891407.53800  21891406.83500
       162.00000        63.00000
  -3841561.79105  -2993433.21906  23877756.54600  23877755.43300  23877759.23400
        10.00000        14.00000
  -7502229.97505  -5845903.21205  23949739.55600  23949739.31900  23949741.51200
         7.00000         8.00000
  -8087349.18406  -6301831.94806  23500480.33200  23500478.88900  23500479.76300
        11.00000        18.00000
 -16974786.12408 -13227104.76308  21059411.29000  21059411.57500  21059411.62000
       219.00000       149.00000
  -4470062.81006  -3483162.12006  23850879.70000  23850880.28800  23850882.51300
        19.00000        13.00000
  -4070145.05507  -3171547.20006  23480321.62500  23480320.89900  23480322.25200
        35.00000        22.00000
 -21912205.56209 -17074445.84008  20100681.05900  20100681.22200  20100681.26200
       338.00000       233.00000
  -2709597.09306  -2111374.62705  24563085.14800  24563084.54300  24563082.47200
        17.00000         8.00000
  -5280806.19706  -4114911.46906  24482175.07400  24482175.00100  24482175.59800
        19.00000        11.00000
 -26508602.12608 -20656054.50608  20456483.03200  20456482.57500  20456481.08800
       280.00000       205.00000
   -417006.96605   -324940.30405  24825711.17600  24825710.34500  24825712.53400
         7.00000         7.00000
 04  8 26  0  8 30.0000000  0 12G18G17G 6G15G29G 9G10G26G22G 8G21G 3
 -14704601.32508 -11458129.80807  21878122.77100  21878122.50900  21878121.75200
       173.00000        63.00000
  -3730359.79905  -2906782.45506  23898916.02100  23898916.11800  23898919.04700
        10.00000        12.00000
  -7406689.64905  -5771456.26905  23967919.76500  23967919.87100  23967922.04800
         6.00000         8.00000
  -8193413.14405  -6384479.14606  23480296.11600  23480295.29800  23480296.94700
        10.00000        21.00000
 -16919241.32908 -13183823.11708  21069981.73300  21069981.66400  21069981.42100
       222.00000       146.00000
  -4587714.00206  -3574838.32706  23828492.15900  23828492.60900  23828494.56300
        28.00000        15.00000
  -3981161.38806  -3102209.33106  23497254.28200  23497253.34200  23497255.94800
        30.00000        24.00000
 -21872891.60109 -17043811.59608  20108162.70900  20108162.60900  20108162.43200
       340.00000       229.00000
  -2800201.78206  -2181975.66205  24545841.72400  24545842.11900  24545842.45600
        12.00000         9.00000
  -5212128.46106  -4061396.37706  24495243.65700  24495243.85800  24495245.06400
        16.00000        12.00000
 -26542434.91908 -20682417.72008  20450044.50200  20450044.18600  20450042.84700
       270.00000       202.00000
   -464792.14205   -362175.48205  24816618.54700  24816617.26200  24816617.16700
         4.00000         6.00000
 04  8 26  0  9  0.0000000  0 12G18G17G 6G15G29G 9G10G26G22G 8G21G 3
 -14774215.31208 -11512374.45007  21864875.55300  21864875.35100  21864874.84300
       186.00000        65.00000
  -3618969.26306  -2819984.79206  23920113.98400  23920113.37400  23920116.10000
        14.00000        14.00000
  -7311042.56705  -5696926.14305  23986123.54000  23986122.38600  23986123.80400
         8.00000         8.00000
  -8299305.15806  -6466992.36606  23460146.28600  23460145.69700  23460146.37600
        15.00000        18.00000
 -16863322.35008 -13140249.89308  21080623.32500  21080622.96500  21080622.50300
       227.00000       144.00000
  -4705270.37006  -3666440.66706  23806123.90400  23806123.30700  23806125.40500
        30.00000        17.00000
  -3892072.69107  -3032789.63206  23514207.75700  23514206.74100  23514209.48400
        35.00000        22.00000
 -21833028.22809 -17012749.23508  20115748.16600  20115748.32800  20115748.04000
       337.00000       223.00000
  -2890752.83506  -2252534.88605  24528609.72100  24528609.67300  24528610.62900
        13.00000        10.00000
  -5142991.38606  -4007523.36406  24508400.42600  24508400.56200  24508401.83700
        18.00000        14.00000
 -26575736.13708 -20708366.72008  20443707.85100  20443707.34200  20443705.75700
       268.00000       202.00000
   -512088.55204   -399029.77305  24807616.20500  24807614.43000  24807618.34500
         2.00000         7.00000
 04  8 26  0  9 30.0000000  0 12G18G17G 6G15G29G 9G10G26G22G 8G21G 3
 -14843595.42908 -11566436.86007  21851673.03900  21851672.89000  21851671.57100
       198.00000        63.00000
  -3507359.80606  -2733016.47306  23941352.03400  23941352.08200  23941355.48500
        13.00000        13.00000
  -7215259.25405  -5622289.85805  24004347.89700  24004348.39400  24004350.47700
         8.00000         6.00000
  -8404990.01406  -6549344.17506  23440033.87800  23440033.60900  23440035.81400
        16.00000        22.00000
 -16806998.54708 -13096361.21708  21091340.88500  21091340.96700  21091340.50500
       233.00000       144.00000
  -4822696.36506  -3757941.37506  23783776.47700  23783776.72900  23783779.53900
        16.00000        19.00000
  -3802847.15607  -2963263.29406  23531186.62600  23531186.01200  23531188.30400
        34.00000        24.00000
 -21792584.96909 -16981235.00808  20123444.21700  20123444.29600  20123443.93900
       324.00000       218.00000
  -2981216.97506  -2323026.40105  24511395.36700  24511395.71500  24511395.59200
        19.00000        10.00000
  -5073363.94906  -3953268.26206  24521650.50900  24521650.06400  24521651.17800
        16.00000        12.00000
 -26608471.06808 -20733874.46008  20437478.48600  20437478.15800  20437476.46000
       274.00000       202.00000
   -558861.90304   -435476.51605  24798715.76200  24798715.78100  24798717.78300
         3.00000         7.00000
 04  8 26  0 10  0.0000000  0 12G18G17G 6G15G29G 9G10G26G22G 8G21G 3
 -14912815.08908 -11620374.23207  21838501.25300  21838500.91100  21838499.71400
       193.00000        62.00000
  -3395607.16006  -2645936.63106  23962619.04700  23962618.17100  23962621.31200
        13.00000        12.00000
  -7119416.52905  -5547607.25505  24022585.47700  24022586.58500  24022589.27000
         8.00000         7.00000
  -8510539.33906  -6631590.37506  23419948.11700  23419948.56600  23419950.08400
        24.00000        17.00000
 -16750345.95908 -13052216.34808  21102121.15400  21102121.39100  21102121.17500
       227.00000       145.00000
  -4940062.71106  -3849395.55906  23761443.48000  23761442.97300  23761445.48200
        20.00000        16.00000
  -3713559.58707  -2893688.63206  23548178.00000  23548176.77100  23548179.17100
        34.00000        25.00000
 -21751637.91009 -16949328.21508  20131236.28600  20131236.31000  20131236.05600
       322.00000       218.00000
  -3071667.73106  -2393507.50305  24494184.55700  24494184.63500  24494182.55800
        19.00000         9.00000
  -5003322.78706  -3898690.74705  24534977.18400  24534978.08000  24534979.09100
        16.00000        10.00000
 -26640712.31208 -20758997.51108  20431343.09800  20431342.66400  20431341.17800
       263.00000       203.00000
   -605184.93905   -471572.32205  24789901.37000  24789900.74200  24789902.67100
         5.00000         7.00000
 04  8 26  0 10 30.0000000  0 12G18G17G 6G15G29G 9G10G26G22G 8G21G 3
 -14981826.20208 -11674149.10407  21825368.56700  21825368.32400  21825367.26800
       180.00000        65.00000
  -3283666.42206  -2558710.20406  23983920.57300  23983919.68000  23983922.30000
        12.00000        12.00000
  -7023470.42905  -5472844.10005  24040844.85900  24040844.76900  24040846.71100
        10.00000         6.00000
  -8615903.64806  -6713692.40606  23399898.00800  23399897.63000  23399898.87000
        22.00000        15.00000
 -16693319.77808 -13007780.37108  21112973.30100  21112973.18600  21112972.94700
       223.00000       145.00000
  -5057318.99907  -3940764.11005  23739130.02400  23739130.28300  23739130.12900
        34.00000        10.00000
  -3624163.40807  -2824029.35306  23565189.59000  23565188.94900  23565191.23500
        37.00000        25.00000
 -21710142.28609 -16916993.97808  20139132.50400  20139132.59100  20139132.41200
       330.00000       219.00000
  -3162057.45706  -2463941.03505  24476983.76000  24476983.56500  24476980.91700
        16.00000         6.00000
  -4932823.13406  -3843755.97706  24548395.04400  24548393.88600  24548395.56900
        15.00000        11.00000
 -26672411.23908 -20783697.97608  20425310.73900  20425310.33500  20425309.17700
       257.00000       209.00000
   -651009.04904   -507279.39305  24781182.00200  24781181.15900  24781182.05000
         3.00000         9.00000
 04  8 26  0 11  0.0000000  0 12G18G17G 6G15G29G 9G10G26G22G 8G21G 3
 -15050614.29408 -11727750.19207  21812278.59100  21812278.40000  21812277.30800
       179.00000        66.00000
  -3171525.92406  -2471328.12206  24005261.04900  24005260.52300  24005262.80200
        11.00000        11.00000
  -6927410.07505  -5397991.93205  24059124.99800  24059124.91000  24059126.66100
         7.00000         7.00000
  -8721066.61106  -6795637.53506  23379887.03200  23379886.29300  23379888.36100
        26.00000        18.00000
 -16635908.08708 -12963043.99508  21123898.09500  21123898.10100  21123897.96900
       214.00000       144.00000
  -5174448.66506  -4032033.99506  23716841.36600  23716841.21700  23716842.06300
        24.00000        16.00000
  -3534645.66707  -2754275.31506  23582223.54400  23582222.77100  23582225.35000
        32.00000        21.00000
 -21668086.35809 -16884223.13008  20147135.68000  20147135.71400  20147135.45300
       333.00000       217.00000
  -3252372.04306  -2534316.01205  24459798.71100  24459798.36600  24459794.51500
        13.00000         7.00000
  -4861854.10406  -3788455.45006  24561899.31000  24561899.25000  24561900.84500
        18.00000        11.00000
 -26703552.26508 -20807963.71508  20419385.11700  20419384.70800  20419383.16000
       265.00000       211.00000
   -696319.18104   -542585.95105  24772558.07700  24772558.27300  24772561.02900
         2.00000        10.00000
 04  8 26  0 11 30.0000000  0 12G18G17G 6G15G29G 9G10G26G22G 8G21G 3
 -15119211.56408 -11781202.59207  21799224.86100  21799224.60700  21799223.57700
       178.00000        66.00000
  -3059220.50705  -2383817.50906  24026630.52900  24026630.09400  24026633.99700
         9.00000        11.00000
  -6831271.26905  -5323078.63605  24077419.43300  24077418.37100  24077420.66800
         5.00000         4.00000
  -8826058.81306  -6877449.62106  23359907.56600  23359906.80500  23359907.88800
        30.00000        13.00000
 -16578145.98708 -12918034.57408  21134889.83100  21134889.80900  21134889.72200
       212.00000       143.00000
  -5291481.24406  -4123228.11906  23694570.45500  23694570.43000  23694572.06200
        20.00000        23.00000
  -3445039.92807  -2684452.72106  23599274.67700  23599274.84200  23599277.32200
        36.00000        23.00000
 -21625505.29509 -16851043.09208  20155238.27600  20155238.62900  20155238.35400
       332.00000       213.00000
  -3342643.59006  -2604657.44005  24442618.74500  24442619.07900  24442617.68100
        14.00000         8.00000
  -4790450.33506  -3732816.17106  24575487.46600  24575486.98700  24575488.41300
        18.00000        11.00000
 -26734166.61508 -20831819.05308  20413559.22000  20413558.89000  20413557.68600
       264.00000       218.00000
   -741146.76400   -577516.48005  24764026.14300  24764028.73300  24764029.69000
          .00000         7.00000
 04  8 26  0 12  0.0000000  0 12G18G17G 6G15G29G 9G10G26G22G 8G21G 3
 -15187604.96008 -11834496.12207  21786209.67900  21786209.58600  21786209.12200
       178.00000        71.00000
  -2946740.10905  -2296170.55806  24048033.69200  24048033.88700  24048038.73400
         9.00000        12.00000
  -6735044.90204  -5248097.09405  24095730.17500  24095730.52700  24095732.44700
         3.00000         6.00000
  -8930865.69806  -6959117.33906  23339963.18700  23339962.25200  23339964.22100
        30.00000        14.00000
 -16520023.24908 -12872744.13908  21145950.25000  21145950.39600  21145950.09500
       216.00000       142.00000
  -5408401.22307  -4214334.54006  23672321.80800  23672322.02200  23672323.15700
        36.00000        24.00000
  -3355334.88607  -2614552.78906  23616345.35400  23616345.14000  23616347.82100
        35.00000        23.00000
 -21582388.98609 -16817445.97408  20163443.03900  20163443.15500  20163443.06800
       322.00000       212.00000
  -3432859.51906  -2674955.55005  24425452.58300  24425452.28100  24425449.57400
        14.00000         8.00000
  -4718602.27706  -3676830.69006  24589159.45700  24589159.41900  24589161.27300
        19.00000        11.00000
 -26764240.79208 -20855253.48008  20407836.28700  20407835.91800  20407834.70300
       262.00000       219.00000
   -785478.50904   -612060.71305  24755592.60000  24755592.02400  24755593.97400
         2.00000         5.00000
 04  8 26  0 12 30.0000000  0 12G18G17G 6G15G29G 9G10G26G22G 8G21G 3
 -15255828.14208 -11887657.02707  21773227.44600  21773227.13700  21773226.66000
       185.00000        73.00000
  -2834121.17005  -2208415.65505  24069466.98900  24069465.96800  24069469.61100
        10.00000        10.00000
  -6638768.47904  -5173076.55105  24114050.56800  24114050.55800  24114053.46100
         3.00000         5.00000
  -9035519.23206  -7040665.51206  23320048.40600  23320048.15000  23320049.65000
        30.00000        15.00000
 -16461576.55708 -12827201.27108  21157072.23600  21157072.38400  21157072.12200
       214.00000       137.00000
  -5525240.19106  -4305377.87106  23650087.12700  23650087.23800  23650089.48200
        25.00000        16.00000
  -3265565.65407  -2544602.79506  23633427.72700  23633427.20700  23633430.27700
        33.00000        22.00000
 -21538774.16309 -16783460.39708  20171742.97800  20171742.94400  20171742.75500
       327.00000       214.00000
  -3523053.87506  -2745236.84206  24408287.53900  24408287.99900  24408287.38200
        16.00000        11.00000
  -4646346.88006  -3620527.78306  24602908.84800  24602909.11900  24602910.28500
        18.00000        11.00000
 -26793807.56708 -20878292.53208  20402209.92300  20402209.66900  20402208.40200
       270.00000       222.00000
   -829347.41005   -646244.30705  24747244.64500  24747245.11500  24747245.84000
         7.00000         5.00000
 04  8 26  0 13  0.0000000  0 12G18G17G 6G15G29G 9G10G26G22G 8G21G 3
 -15323800.68508 -11940622.63007  21760292.39400  21760292.42200  21760291.63600
       189.00000        72.00000
  -2721286.05506  -2120492.28106  24090938.54700  24090938.35500  24090941.08200
        12.00000        12.00000
  -6542365.23604  -5097957.21205  24132397.19900  24132396.52700  24132397.70100
         2.00000         4.00000
  -9139937.03406  -7122030.00706  23300178.19100  23300178.05800  23300179.15800
        31.00000        15.00000
 -16402728.19808 -12781345.41508  21168270.98200  21168270.86500  21168270.50300
       211.00000       135.00000
  -5641915.20806  -4396293.48806  23627883.78100  23627884.16400  23627886.98200
        23.00000        15.00000
  -3175653.22706  -2474541.23306  23650537.57700  23650537.00700  23650539.89200
        31.00000        22.00000
 -21494583.30309 -16749025.96108  20180152.03900  20180152.30200  20180152.11700
       337.00000       216.00000
  -3613146.20306  -2815438.64106  24391143.98900  24391144.13200  24391143.17000
        12.00000        12.00000
  -4573606.66906  -3563847.11705  24616751.22600  24616750.88600  24616752.56300
        15.00000         9.00000
 -26822785.62608 -20900872.84208  20396695.49400  20396695.33100  20396694.03300
       266.00000       221.00000
   -872672.67705   -680004.30005  24739001.17000  24739000.09300  24739002.10400
         7.00000         4.00000
 04  8 26  0 13 30.0000000  0 12G18G17G 6G15G29G 9G10G26G22G 8G21G 3
 -15391570.50308 -11993430.26307  21747396.54400  21747396.33400  21747395.55100
       194.00000        73.00000
  -2608285.64505  -2032440.12106  24112442.09800  24112441.17000  24112444.99200
         9.00000        13.00000
  -6445886.96104  -5022779.38405  24150755.60100  24150755.63400  24150757.80100
         1.00000         4.00000
  -9244165.50106  -7203246.97606  23280345.08800  23280344.19200  23280344.94900
        27.00000        17.00000
 -16343529.15608 -12735216.29208  21179536.13400  21179536.03600  21179535.91100
       211.00000       138.00000
  -5758471.82507  -4487116.81806  23605705.03400  23605704.84000  23605707.68700
        33.00000        23.00000
  -3085647.27306  -2404406.81506  23667664.78200  23667664.96600  23667667.74900
        29.00000        23.00000
 -21449867.64709 -16714182.60308  20188661.35700  20188661.40500  20188661.25100
       334.00000       217.00000
  -3703185.16305  -2885598.80606  24374009.54200  24374009.17000  24374009.44900
         6.00000        11.00000
  -4500433.27306  -3506828.88205  24630676.08700  24630675.35400  24630675.76600
        15.00000         9.00000
 -26851222.26808 -20923031.26608  20391284.23400  20391283.89300  20391282.66600
       259.00000       219.00000
   -915502.00605   -713377.84305  24730851.48400  24730850.56100  24730849.74200
         7.00000         4.00000
 04  8 26  0 14  0.0000000  0 12G18G17G 6G15G29G 9G10G26G22G 8G21G 3
 -15459144.58608 -12046085.37907  21734537.72400  21734537.48900  21734536.58600
       196.00000        72.00000
  -2495129.78005  -1944266.85106  24133974.48500  24133974.62000  24133977.92500
        10.00000        13.00000
  -6349344.38900  -4947551.47004  24169128.39800  24169127.71400  24169128.82100
          .00000         2.00000
  -9348209.96906  -7284320.53306  23260545.76200  23260545.05000  23260546.28400
        27.00000        21.00000
 -16283989.42608 -12688821.70908  21190865.85000  21190865.94600  21190865.98000
       206.00000       137.00000
  -5874914.85306  -4577851.62206  23583547.59800  23583546.93400  23583548.62200
        26.00000        24.00000
  -2995556.18106  -2334206.04506  23684809.41400  23684808.96700  23684811.37200
        30.00000        21.00000
 -21404637.06909 -16678938.00108  20197268.38300  20197268.38600  20197268.38200
       327.00000       215.00000
  -3793177.75705  -2955722.88006  24356884.96600  24356884.18900  24356884.03500
        10.00000        11.00000
  -4426836.68306  -3449480.90505  24644681.38500  24644680.60000  24644682.15800
        14.00000         9.00000
 -26879123.85408 -20944772.76808  20385974.87000  20385974.48000  20385973.02700
       263.00000       218.00000
   -957841.50705   -746369.68605  24722793.01900  24722793.62700  24722793.70600
         5.00000         4.00000
 04  8 26  0 14 30.0000000  0 12G18G17G 6G15G29G 9G10G26G22G 8G21G 3
 -15526486.48308 -12098559.56007  21721722.45400  21721722.42400  21721721.87400
       188.00000        73.00000
  -2381784.61805  -1855946.05005  24155541.76000  24155542.46300  24155546.75900
         9.00000        10.00000
  -6252704.50000  -4872247.72004  24187514.92000  24187514.81600  24187519.48300
          .00000         2.00000
  -9452032.08206  -7365220.85806  23240787.86600  23240787.78600  23240789.11300
        23.00000        20.00000
 -16224074.89008 -12642135.06808  21202267.51900  21202267.31000  21202267.28900
       202.00000       136.00000
  -5991205.18706  -4668467.45206  23561417.27800  23561416.69600  23561418.46400
        26.00000        19.00000
  -2905344.93506  -2263911.63506  23701976.11800  23701975.27000  23701978.53100
        27.00000        23.00000
 -21358857.90309 -16643265.92908  20205979.93600  20205979.92800  20205979.82900
       328.00000       213.00000
  -3883087.50806  -3025782.40705  24339778.04500  24339777.62500  24339774.16700
        16.00000         9.00000
  -4352783.33906  -3391777.01605  24658770.99300  24658771.63500  24658774.06500
        11.00000         9.00000
 -26906452.95808 -20966068.17908  20380774.10800  20380773.83500  20380772.42600
       261.00000       217.00000
   -999654.05805   -778950.92105  24714836.53900  24714837.08200  24714836.97200
         5.00000         4.00000
 04  8 26  0 15  0.0000000  0 11G29G18G17G15G 9G10G26G22G 8G21G 3
 -16163855.57408 -12595210.94308  21213726.63000  21213726.84600  21213726.75200
       208.00000       137.00000
 -15593662.94308 -12150904.84007  21708939.70400  21708939.39100  21708938.62300
       191.00000        71.00000
  -2268319.86205  -1767532.02205  24177134.71600  24177134.55600  24177137.47100
         8.00000         8.00000
  -9555697.12006  -7445998.76206  23221061.95700  23221061.50900  23221062.58600
        28.00000        22.00000
  -6107407.05006  -4759014.37406  23539301.69200  23539302.91500  23539307.10700
        18.00000        19.00000
  -2815081.67106  -2193576.72106  23719151.93100  23719151.54200  23719154.26100
        27.00000        19.00000
 -21312600.07709 -16607220.88208  20214782.31600  20214782.52300  20214782.39800
       335.00000       210.00000
  -3972981.77006  -3095829.86206  24322669.00900  24322670.22800  24322668.10500
        13.00000        11.00000
  -4278343.78506  -3333772.18305  24672939.03600  24672937.54100  24672939.87600
        14.00000         9.00000
 -26933275.95508 -20986969.21508  20375670.03900  20375669.61600  20375668.27000
       263.00000       220.00000
  -1041006.19904   -811173.40205  24706966.97700  24706966.90300  24706968.90700
         1.00000         4.00000
 04  8 26  0 15 30.0000000  0 11G29G18G17G15G 9G10G26G22G 8G21G 3
 -16103225.05208 -12547966.38608  21225264.27800  21225264.44300  21225264.46900
       203.00000       136.00000
 -15660564.65108 -12203036.04207  21696208.68000  21696208.49800  21696207.31800
       193.00000        72.00000
  -2154629.11805  -1678941.89705  24198770.19800  24198769.28400  24198772.94900
         9.00000        10.00000
  -9659094.05006  -7526567.76906  23201385.55300  23201384.75800  23201386.90800
        23.00000        24.00000
  -6223408.93106  -4849405.43506  23517229.50700  23517229.39100  23517232.07800
        27.00000        20.00000
  -2724658.62906  -2123117.30006  23736359.33400  23736359.25000  23736362.26100
        28.00000        21.00000
 -21265757.57609 -16570720.23408  20223696.36300  20223696.45400  20223696.23700
       335.00000       211.00000
  -4062751.48605  -3165780.22906  24305587.17900  24305587.16000  24305585.42200
         9.00000        13.00000
  -4203412.03206  -3275383.80205  24687195.70400  24687196.02800  24687198.77300
        12.00000         9.00000
 -26959482.53808 -21007389.93808  20370683.05500  20370682.79700  20370681.44300
       270.00000       225.00000
  -1081788.20704   -842951.63405  24699207.86900  24699205.73000  24699209.16300
         1.00000         5.00000
 04  8 26  0 16  0.0000000  0 11G29G18G17G15G 9G10G26G22G 8G21G 3
 -16042251.86408 -12500454.81908  21236867.13600  21236867.20500  21236867.31200
       198.00000       135.00000
 -15727257.22608 -12255004.28007  21683517.46700  21683517.19900  21683516.52500
       192.00000        75.00000
  -2040781.20405  -1590229.32805  24220434.71400  24220433.66700  24220437.07000
         8.00000        10.00000
  -9762287.19506  -7606977.97306  23181748.33400  23181748.18400  23181749.78700
        27.00000        24.00000
  -6339274.15207  -4939690.05806  23495182.25200  23495181.62900  23495184.02800
        33.00000        21.00000
  -2634143.33906  -2052586.00806  23753584.44500  23753583.64000  23753586.48800
        29.00000        19.00000
 -21218399.18909 -16533817.59208  20232708.27100  20232708.29900  20232708.18000
       329.00000       212.00000
  -4152462.74706  -3235685.05406  24288515.49300  24288515.80300  24288514.09100
        12.00000        11.00000
  -4128057.07206  -3216665.67505  24701535.74300  24701534.98900  24701538.06300
        12.00000         8.00000
 -26985138.34308 -21027381.48308  20365801.05400  20365800.73300  20365799.40000
       270.00000       228.00000
  -1122065.66200   -874336.69405  24691542.48100  24691539.95700  24691543.95100
          .00000         6.00000
 04  8 26  0 16 30.0000000  0 11G29G18G17G15G 9G10G26G22G 8G21G 3
 -15980943.07408 -12452681.74408  21248533.99800  21248534.01600  21248533.87900
       203.00000       129.00000
 -15793744.55108 -12306812.57807  21670865.02700  21670865.09500  21670864.62500
       198.00000        79.00000
  -1926782.90005  -1501399.55506  24242128.34600  24242127.75600  24242130.19100
         9.00000        11.00000
  -9865278.46406  -7687230.85906  23162149.63400  23162149.11400  23162151.08500
        24.00000        25.00000
  -6455004.22606  -5029869.32106  23473158.24800  23473157.69500  23473161.81400
        20.00000        25.00000
  -2543541.00206  -1981986.85106  23770824.95700  23770824.20400  23770826.74700
        25.00000        18.00000
 -21170531.94609 -16496518.44508  20241816.68000  20241816.93000  20241817.07100
       323.00000       211.00000
  -4242119.52406  -3305547.44306  24271454.79200  24271454.52700  24271452.49400
        12.00000        13.00000
  -4052285.82206  -3157623.15005  24715954.72100  24715954.46900  24715956.93800
        12.00000         8.00000
 -27010246.74108 -21046946.47808  20361023.26600  20361022.88900  20361021.36800
       271.00000       230.00000
  -1161842.37200   -905331.55105  24683972.25000  24683971.63000  24683975.32400
          .00000         8.00000
 04  8 26  0 17  0.0000000  0 11G29G18G17G15G 9G10G26G22G 8G21G 3
 -15919372.60108 -12404704.76308  21260250.48200  21260250.37800  21260250.03800
       200.00000       123.00000
 -15860098.04608 -12358516.59207  21658238.30400  21658238.43600  21658237.52400
       204.00000        77.00000
  -1812708.16205  -1412510.20406  24263833.79800  24263834.03100  24263838.64500
         7.00000        13.00000
  -9968137.28706  -7767380.54406  23142575.95200  23142575.60800  23142577.76200
        23.00000        27.00000
  -6570667.98606  -5119996.91006  23451148.49400  23451148.88200  23451150.78400
        27.00000        20.00000
  -2452924.35606  -1911376.56806  23788068.61100  23788068.48500  23788070.96600
        28.00000        18.00000
 -21122230.07309 -16458880.62708  20251008.67900  20251008.77800  20251008.56900
       327.00000       207.00000
  -4331793.39206  -3375423.14006  24254388.71100  24254388.81700  24254388.16300
        12.00000        12.00000
  -3976172.87805  -3098314.38705  24730438.90000  24730438.34300  24730440.23000
         9.00000         6.00000
 -27034877.44008 -21066139.23708  20356336.19400  20356335.70400  20356334.42800
       268.00000       234.00000
  -1201189.06804   -935991.26105  24676486.37000  24676486.71200  24676487.05100
         2.00000         7.00000
 04  8 26  0 17 30.0000000  0 11G29G18G17G15G 9G10G26G22G 8G21G 3
 -15857404.23908 -12356417.73508  21272042.79500  21272042.60200  21272042.26200
       197.00000       124.00000
 -15926178.52408 -12410007.87507  21645663.90900  21645663.69300  21645662.84300
       202.00000        78.00000
  -1698420.58505  -1323455.03106  24285583.72000  24285582.61200  24285587.53700
         6.00000        14.00000
 -10070722.71406  -7847317.22106  23123055.26200  23123055.02200  23123056.82400
        25.00000        28.00000
  -6686123.78506  -5209962.51706  23429177.98100  23429178.38900  23429179.59400
        31.00000        16.00000
  -2362155.68606  -1840647.82606  23805342.51100  23805341.50900  23805343.51200
        26.00000        19.00000
 -21073357.57809 -16420798.15908  20260309.26400  20260309.10100  20260308.63700
       329.00000       203.00000
  -4421345.70406  -3445204.13006  24237348.35300  24237348.46200  24237347.34000
        14.00000        13.00000
  -3899582.71505  -3038633.75105  24745012.27500  24745012.42600  24745015.47700
         8.00000         6.00000
 -27058891.04208 -21084851.14808  20351766.39200  20351765.93200  20351764.75900
       258.00000       235.00000
  -1239965.96605   -966207.03205  24669104.74900  24669105.94200  24669106.73700
         6.00000         7.00000
 04  8 26  0 18  0.0000000  0 11G29G18G17G15G 9G10G26G22G 8G21G 3
 -15795087.46608 -12307859.22008  21283901.30300  21283901.12600  21283900.98800
       197.00000       126.00000
 -15992032.32008 -12461322.51407  21633132.20000  21633132.05200  21633131.28100
       206.00000        82.00000
  -1583969.87005  -1234272.72506  24307364.52800  24307363.43000  24307366.28800
         6.00000        11.00000
 -10173079.70906  -7927075.87306  23103577.23900  23103576.80500  23103578.72100
        25.00000        28.00000
  -6801415.78506  -5299800.45206  23407237.94000  23407238.28800  23407241.06900
        29.00000        20.00000
  -2271283.18706  -1769838.15406  23822633.72300  23822633.47800  23822636.07200
        26.00000        16.00000
 -21023964.27509 -16382309.87008  20269708.31400  20269708.25300  20269707.88600
       332.00000       201.00000
  -4510822.84506  -3514926.57006  24220320.34700  24220321.08100  24220321.93100
        11.00000        16.00000
  -3822564.99605  -2978619.95505  24759668.36300  24759669.42900  24759671.28500
         9.00000         6.00000
 -27082333.69708 -21103118.16208  20347305.28300  20347304.87600  20347303.69200
       259.00000       234.00000
  -1278219.53506   -996015.01605  24661828.43200  24661827.31700  24661827.97000
        11.00000         7.00000
 04  8 26  0 18 30.0000000  0 11G29G18G17G15G 9G10G26G22G 8G21G 3
 -15732455.93108 -12259055.43208  21295819.34600  21295819.35100  21295819.41200
       190.00000       124.00000
 -16057690.34408 -12512484.59907  21620637.86300  21620637.79000  21620636.91500
       205.00000        82.00000
  -1469389.56405  -1144989.43206  24329166.86800  24329166.78400  24329170.05300
         7.00000        11.00000
 -10275237.44606  -8006679.28306  23084137.67500  23084136.83100  23084138.22500
        27.00000        22.00000
  -6916572.14907  -5389532.69506  23385324.60400  23385325.33700  23385327.99900
        34.00000        26.00000
  -2180339.35006  -1698972.91206  23839940.63200  23839939.85400  23839942.54900
        27.00000        18.00000
 -20974083.96609 -16343442.10608  20279199.81200  20279199.86400  20279199.89200
       323.00000       203.00000
  -4600256.01406  -3584614.72906  24203302.15600  24203302.45900  24203302.81600
        16.00000        19.00000
  -3745154.12305  -2918299.81905  24774400.58100  24774399.99800  24774401.44400
         7.00000         5.00000
 -27105235.65408 -21120963.85508  20342947.38500  20342946.94000  20342945.60500
       259.00000       234.00000
  -1315980.32106  -1025439.03905  24654642.16500  24654641.83200  24654641.54100
        15.00000         7.00000
 04  8 26  0 19  0.0000000  0 11G29G18G17G15G 9G10G26G22G 8G21G 3
 -15669497.06008 -12209996.57708  21307800.38600  21307800.06700  21307800.05100
       185.00000       123.00000
 -16123136.77608 -12563481.80807  21608184.43700  21608184.10500  21608182.91800
       208.00000        83.00000
  -1354667.06605  -1055595.33206  24350998.92100  24350997.81200  24351000.85200
         5.00000        11.00000
 -10377178.52406  -8086113.87106  23064738.97300  23064737.98200  23064739.77200
        27.00000        25.00000
  -7031575.00807  -5479145.30306  23363441.18700  23363441.21300  23363443.63800
        33.00000        23.00000
  -2089309.75906  -1628040.84806  23857263.02300  23857262.28300  23857265.21100
        24.00000        18.00000
 -20923704.17409 -16304185.13108  20288786.72800  20288786.94400  20288787.05100
       317.00000       208.00000
  -4689629.88306  -3654256.63806  24186294.79200  24186294.44100  24186294.51300
        16.00000        17.00000
  -3667337.42705  -2857663.45405  24789206.59900  24789207.04600  24789209.19600
         8.00000         6.00000
 -27127580.87708 -21138375.72908  20338695.25700  20338694.69300  20338693.49300
       255.00000       235.00000
  -1353232.42106  -1054466.67605  24647554.01600  24647553.19900  24647555.19600
        18.00000        10.00000
 04  8 26  0 19 30.0000000  0 11G29G18G17G15G 9G10G26G22G 8G21G 3
 -15606157.16708 -12160640.82308  21319853.21400  21319853.31100  21319853.17000
       190.00000       123.00000
 -16188315.34508 -12614270.29307  21595781.08600  21595780.93400  21595779.83200
       208.00000        84.00000
  -1239748.54805   -966048.51006  24372866.04500  24372865.96100  24372869.51500
         5.00000        12.00000
 -10478844.76906  -8165334.29606  23045391.39500  23045391.34700  23045392.83000
        28.00000        23.00000
  -7146365.37906  -5568592.36906  23341598.45400  23341597.85700  23341599.21200
        31.00000        20.00000
  -1998139.52006  -1556999.16406  23874612.80800  23874611.81100  23874614.04300
        25.00000        18.00000
 -20872771.67809 -16264497.46708  20298479.18800  20298479.15800  20298479.13800
       320.00000       206.00000
  -4778888.14006  -3723808.52006  24169310.08400  24169310.41100  24169309.28600
        21.00000        18.00000
  -3589062.09305  -2796669.70605  24804104.72500  24804103.32100  24804105.21200
         7.00000         5.00000
 -27149312.19608 -21155309.23308  20334559.90900  20334559.42300  20334558.10600
       259.00000       234.00000
  -1389918.99606  -1083053.64105  24640571.21400  24640571.37300  24640574.35100
        13.00000         8.00000
 04  8 26  0 20  0.0000000  0 11G29G18G17G15G 9G10G26G22G 8G21G 3
 -15542539.63608 -12111068.72908  21331959.21700  21331959.36200  21331959.23400
       190.00000       122.00000
 -16253326.61008 -12664928.40207  21583409.81600  21583409.58900  21583408.81100
       205.00000        85.00000
  -1124737.80705   -876429.80905  24394751.49300  24394750.59000  24394754.56300
         8.00000        10.00000
 -10580334.97207  -8244417.54906  23026079.23200  23026079.17300  23026079.76100
        32.00000        23.00000
  -7261041.64207  -5657950.48506  23319774.85900  23319774.86800  23319777.29600
        32.00000        25.00000
  -1906930.86906  -1485927.57806  23891967.68200  23891967.33200  23891970.74000
        22.00000        19.00000
 -20821390.20609 -16224459.95608  20308255.96500  20308256.52100  20308256.58600
       325.00000       199.00000
  -4868131.76806  -3793348.96306  24152326.65900  24152327.29000  24152327.68900
        21.00000        22.00000
  -3510431.82305  -2735399.38105  24819065.73900  24819065.64600  24819067.91700
         7.00000         5.00000
 -27170529.50908 -21171842.21908  20330522.20700  20330521.95800  20330520.61100
       263.00000       233.00000
  -1426140.54105  -1111278.26205  24633678.98000  24633678.52000  24633680.51300
         9.00000         7.00000
 04  8 26  0 20 30.0000000  0 11G29G18G17G15G 9G10G26G22G 8G21G 3
 -15478566.23408 -12061219.33108  21344133.15100  21344132.91600  21344132.88000
       181.00000       118.00000
 -16318089.04108 -12715392.62207  21571085.92400  21571085.62100  21571084.82300
       208.00000        84.00000
  -1009556.06105   -786677.84206  24416669.96200  24416669.32600  24416673.78800
         8.00000        11.00000
 -10681565.67006  -8323298.59806  23006815.11200  23006814.73600  23006816.58900
        29.00000        27.00000
  -7375519.92607  -5747154.35106  23297990.05400  23297990.13900  23297993.23000
        36.00000        27.00000
  -1815603.94306  -1414763.81906  23909347.86700  23909347.18600  23909350.40300
        26.00000        19.00000
 -20769481.55009 -16184011.65408  20318134.38900  20318134.60100  20318134.19900
       329.00000       189.00000
  -4957279.45706  -3862814.66906  24135363.24000  24135363.49000  24135362.79700
        26.00000        21.00000
  -3431369.00505  -2673792.01905  24834110.70600  24834110.70300  24834112.73000
         6.00000         5.00000
 -27191151.33508 -21187911.17808  20326598.25500  20326597.80800  20326596.36700
       263.00000       233.00000
  -1461815.61705  -1139077.07905  24626889.09100  24626889.75700  24626892.23800
         7.00000         6.00000
 04  8 26  0 21  0.0000000  0 11G29G18G17G15G 9G10G26G22G 8G21G 3
 -15414253.93908 -12011105.86108  21356371.31200  21356371.13500  21356371.14300
       178.00000       116.00000
 -16382616.81108 -12765674.00307  21558806.77700  21558806.59400  21558805.56900
       219.00000        82.00000
   -894220.75305   -696806.21705  24438617.56300  24438617.13000  24438621.00400
         8.00000         9.00000
 -10782549.60407  -8401987.34806  22987598.85100  22987598.68000  22987599.79000
        33.00000        26.00000
  -7489812.10607  -5836213.20906  23276241.77100  23276241.61900  23276243.87000
        38.00000        25.00000
  -1724174.28106  -1343520.00306  23926746.49800  23926746.16200  23926747.98700
        25.00000        17.00000
 -20717063.30609 -16143166.26508  20328109.63200  20328109.58200  20328108.96300
       325.00000       188.00000
  -5046345.78006  -3932216.96006  24118415.01700  24118414.80800  24118413.76700
        23.00000        19.00000
  -3351891.08405  -2611861.17205  24849235.97600  24849236.19900  24849238.03900
         5.00000         5.00000
 -27211191.54908 -21203526.94208  20322784.68500  20322784.26700  20322782.84300
       264.00000       233.00000
  -1496958.32705  -1166461.04705  24620202.17900  24620202.14800  24620204.57300
         4.00000         8.00000
 04  8 26  0 21 30.0000000  0 11G29G18G17G15G 9G10G26G22G 8G21G 3
 -15349659.26308 -11960772.35108  21368663.38300  21368663.18300  21368663.20600
       176.00000       116.00000
 -16446963.49808 -12815814.26807  21546561.91000  21546561.62100  21546560.96700
       219.00000        85.00000
   -778788.21505   -606858.80705  24460583.76500  24460583.12900  24460587.45200
         9.00000         8.00000
 -10883338.46507  -8480524.11306  22968419.26400  22968419.13600  22968420.26500
        33.00000        26.00000
  -7603968.99707  -5925166.59806  23254518.94000  23254518.19200  23254520.13000
        35.00000        25.00000
  -1632696.90606  -1272239.01006  23944153.97100  23944152.69100  23944155.93100
        20.00000        17.00000
 -20664192.14209 -16101967.95108  20338170.46000  20338170.51600  20338170.16300
       322.00000       190.00000
  -5135384.51606  -4001597.75806  24101470.62800  24101470.70600  24101469.53500
        19.00000        16.00000
  -3272055.18704  -2549651.41805  24864427.93800  24864427.44300  24864430.40100
         2.00000         5.00000
 -27230702.50908 -21218730.29708  20319071.84900  20319071.36100  20319070.06600
       262.00000       232.00000
  -1531621.84404  -1193471.61605  24613606.43900  24613606.13600  24613608.38800
         3.00000         8.00000
 04  8 26  0 22  0.0000000  0 11G29G18G17G15G 9G10G26G22G 8G21G 3
 -15284693.70908 -11910149.85208  21381025.58100  21381025.70600  21381025.63600
       175.00000       118.00000
 -16511037.59708 -12865742.12307  21534368.71500  21534368.54900  21534367.80200
       219.00000        85.00000
   -663169.94405   -516766.69405  24482585.80100  24482585.39600  24482589.42200
         8.00000         9.00000
 -10983839.23607  -8558836.38806  22949294.66300  22949294.47300  22949296.21500
        33.00000        30.00000
  -7717896.81107  -6013941.53806  23232838.86500  23232839.01200  23232839.95200
        40.00000        23.00000
  -1541081.99606  -1200850.86806  23961586.73500  23961586.30000  23961590.40500
        21.00000        20.00000
 -20610779.63809 -16060347.82008  20348334.12800  20348334.39400  20348334.39800
       320.00000       195.00000
  -5224304.50806  -4070886.01506  24084550.95800  24084550.85800  24084548.73900
        22.00000        16.00000
  -3191773.33500  -2487094.11505  24879703.48500  24879701.79200  24879707.27800
          .00000         4.00000
 -27249592.63408 -21233449.88308  20315476.92800  20315476.67500  20315475.39400
       260.00000       233.00000
  -1565714.73204  -1220037.51105  24607118.74800  24607117.38200  24607118.94800
         3.00000         6.00000
 04  8 26  0 22 30.0000000  0 11G29G18G17G15G 9G10G26G22G 8G21G 3
 -15219449.07608 -11859309.89008  21393441.76800  21393441.65200  21393441.41900
       181.00000       117.00000
 -16574927.93908 -12915526.79907  21522211.21900  21522210.88400  21522209.76900
       221.00000        84.00000
   -547457.64705   -426601.30405  24504605.36600  24504604.10400  24504607.99400
         7.00000         9.00000
 -11084138.95407  -8636991.97206  22930209.48400  22930208.74000  22930209.59400
        37.00000        29.00000
  -7831681.84806  -6102605.19106  23211183.78800  23211184.93100  23211188.61000
        28.00000        27.00000
  -1449419.87106  -1129425.90106  23979029.93100  23979029.65800  23979033.23600
        24.00000        18.00000
 -20556917.97408 -16018377.69508  20358583.97600  20358583.96200  20358584.11700
       316.00000       198.00000
  -5313194.64506  -4140151.02306  24067635.40200  24067634.88700  24067634.44500
        17.00000        20.00000
  -3111137.33500  -2424260.94705  24895050.55800  24895050.36700  24895049.92100
          .00000         4.00000
 -27267950.78508 -21247754.94708  20311983.51600  20311983.23700  20311982.00300
       259.00000       232.00000
  -1599325.56205  -1246227.77305  24600723.41300  24600723.00800  24600723.12700
         7.00000         7.00000
 04  8 26  0 23  0.0000000  0 11G29G18G17G15G 9G10G26G22G 8G21G 3
 -15153897.60408 -11808230.84008  21405915.94600  21405915.68300  21405915.28200
       184.00000       114.00000
 -16638603.81708 -12965144.35807  21510094.11300  21510093.77100  21510092.83500
       223.00000        88.00000
   -431623.76505   -336341.17305  24526646.09200  24526647.17800  24526650.66100
         8.00000        10.00000
 -11184205.18706  -8714965.63206  22911166.67400  22911166.08500  22911167.55200
        31.00000        27.00000
  -7945291.06807  -6191131.85506  23189566.86100  23189566.98700  23189569.17900
        41.00000        28.00000
  -1357681.32206  -1057941.41306  23996488.06400  23996486.99800  23996491.00400
        20.00000        19.00000
 -20502579.89809 -15976036.33708  20368924.39800  20368924.32800  20368924.24300
       318.00000       194.00000
  -5402024.73406  -4209369.21706  24050731.43200  24050731.00000  24050730.52900
        18.00000        18.00000
  -3030120.40804  -2361130.88504  24910466.00000  24910466.69400  24910467.42000
         2.00000         3.00000
 -27285745.62308 -21261621.06708  20308597.72500  20308597.15900  20308595.77400
       257.00000       234.00000
  -1632423.72105  -1272018.56705  24594425.92700  24594425.05400  24594425.62900
         9.00000         8.00000
 04  8 26  0 23 30.0000000  0 11G29G18G17G15G 9G10G26G22G 8G21G 3
 -15088021.47608 -11756898.80508  21418451.29300  21418451.41400  21418451.10800
       182.00000       112.00000
 -16702044.42008 -13014578.56707  21498021.36800  21498021.32600  21498020.54600
       223.00000        89.00000
   -315650.38905   -245972.34605  24548716.71800  24548716.20800  24548720.24800
         8.00000         9.00000
 -11284015.48807  -8792739.86906  22892172.62300  22892172.56800  22892174.34400
        32.00000        28.00000
  -8058701.39707  -6279503.51006  23167986.73300  23167986.18600  23167988.13800
        41.00000        29.00000
  -1265847.25706   -986382.48806  24013962.73000  24013962.50500  24013965.83400
        20.00000        16.00000
 -20447747.92408 -15933310.11908  20379358.33500  20379358.36200  20379358.29800
       313.00000       189.00000
  -5490774.17006  -4278524.59506  24033843.08800  24033842.84400  24033841.40800
        23.00000        16.00000
  -2948705.11004  -2297690.43705  24925960.11900  24925959.92200  24925961.95600
         3.00000         4.00000
 -27302956.19708 -21275031.91608  20305322.24800  20305321.97300  20305320.71800
       258.00000       233.00000
  -1664988.43905  -1297393.71205  24588228.25600  24588227.98600  24588229.26500
         9.00000         9.00000
 04  8 26  0 24  0.0000000  0 11G29G18G17G15G 9G10G26G22G 8G21G 3
 -15021822.64408 -11705315.31508  21431048.49100  21431048.48100  21431048.48900
       178.00000       112.00000
 -16765248.97108 -13063828.83407  21485994.02300  21485993.95500  21485992.99000
       230.00000        86.00000
   -199539.58005   -155496.43405  24570812.60600  24570811.95500  24570815.51800
         6.00000        10.00000
 -11383567.08706  -8870312.51906  22873229.15600  22873228.71200  22873230.09700
        31.00000        27.00000
  -8171909.42007  -6367717.54606  23146443.27400  23146443.29800  23146445.15600
        46.00000        29.00000
  -1173918.37306   -914749.68406  24031456.92400  24031456.09400  24031459.56400
        22.00000        18.00000
 -20392424.24608 -15890200.75508  20389886.30800  20389886.12300  20389885.94300
       311.00000       186.00000
  -5579442.46206  -4347616.74306  24016970.48200  24016969.56800  24016968.77200
        20.00000        17.00000
  -2866894.28905  -2233941.75504  24941528.06900  24941526.92700  24941528.45600
         4.00000         3.00000
 -27319581.33808 -21287986.58608  20302158.61600  20302158.30500  20302156.96200
       258.00000       231.00000
  -1697018.81505  -1322352.45805  24582132.10800  24582132.44700  24582134.40000
        10.00000         9.00000
 04  8 26  0 24 30.0000000  0 11G29G18G17G15G 9G10G26G22G 8G21G 3
 -14955313.54408 -11653490.05508  21443704.71700  21443704.87800  21443704.58500
       180.00000       110.00000
 -16828226.56108 -13112902.25307  21474010.11000  21474009.77600  21474008.56700
       235.00000        86.00000
    -83303.75805    -64923.11205  24592929.93600  24592930.00100  24592933.06900
         5.00000         9.00000
 -11482867.43207  -8947689.39006  22854332.64200  22854332.56200  22854333.71900
        36.00000        26.00000
  -8284922.19907  -6455779.42406  23124935.08900  23124936.58300  23124939.21500
        34.00000        28.00000
  -1081905.33806   -843051.30706  24048965.62800  24048965.71400  24048969.30000
        21.00000        19.00000
 -20336621.66208 -15846718.22308  20400505.02100  20400505.06900  20400504.75500
       311.00000       184.00000
  -5668038.84106  -4416652.86106  24000111.50400  24000110.86300  24000109.55000
        21.00000        18.00000
  -2784700.36805  -2169894.52005  24957169.70300  24957169.33200  24957170.39200
         6.00000         4.00000
 -27335629.74108 -21300491.85008  20299104.82300  20299104.40200  20299103.08100
       257.00000       234.00000
  -1728524.33805  -1346902.25705  24576137.75300  24576137.27700  24576139.70900
         9.00000         8.00000
 04  8 26  0 25  0.0000000  0 11G29G18G17G15G 9G10G26G22G 8G21G 3
 -14888453.55608 -11601391.37908  21456428.07800  21456427.97300  21456427.58600
       180.00000       108.00000
 -16890934.03808 -13161765.20807  21462077.49100  21462076.99700  21462075.94400
       242.00000        88.00000
     33097.76404     25779.35105  24615080.42700  24615079.55200  24615084.28200
         3.00000         7.00000
 -11581871.31207  -9024835.25606  22835492.50800  22835492.44900  22835493.53000
        39.00000        25.00000
  -8397693.89407  -6543653.45706  23103477.13700  23103477.19100  23103479.34200
        40.00000        25.00000
   -989766.44106   -771254.87406  24066499.64000  24066499.07300  24066501.93600
        20.00000        16.00000
 -20280299.78608 -15802831.04308  20411222.63400  20411222.68100  20411222.65500
       304.00000       187.00000
  -5756520.43206  -4485599.51306  23983272.43600  23983273.16500  23983271.70200
        23.00000        16.00000
  -2702083.47405  -2105517.74004  24972890.78900  24972889.96600  24972892.41700
         4.00000         3.00000
 -27351058.02708 -21312513.90308  20296168.84800  20296168.57900  20296167.34000
       260.00000       239.00000
  -1759461.36105  -1371009.05305  24570249.50000  24570249.94400  24570252.34300
        10.00000         8.00000
 04  8 26  0 25 30.0000000  0 11G29G18G17G15G 9G10G26G22G 8G21G 3
 -14821350.51808 -11549103.31208  21469197.36200  21469197.27500  21469197.17600
       176.00000       111.00000
 -16953476.13708 -13210499.29607  21450175.83900  21450175.57500  21450174.31600
       243.00000        88.00000
    149557.02705    116526.74305  24637242.90300  24637241.17800  24637245.98500
         4.00000         9.00000
 -11680682.14607  -9101830.70006  22816689.57900  22816689.50900  22816691.18300
        40.00000        28.00000
  -8510326.91107  -6631419.45106  23082044.93900  23082044.66100  23082046.30400
        46.00000        27.00000
   -897608.25406   -699443.36906  24084038.02900  24084037.07400  24084039.23700
        20.00000        14.00000
 -20223567.17208 -15758623.80408  20422018.56800  20422018.62300  20422018.52900
       304.00000       189.00000
  -5844992.38306  -4554538.65406  23966437.96500  23966437.83100  23966435.47100
        29.00000        15.00000
  -2619152.36204  -2040896.09704  24988671.46500  24988671.75200  24988672.59200
         2.00000         3.00000
 -27365970.74508 -21324134.21808  20293331.06200  20293330.73800  20293329.47200
       256.00000       238.00000
  -1789934.93406  -1394754.71305  24564451.87300  24564451.22800  24564453.35600
        12.00000         9.00000
 04  8 26  0 26  0.0000000  0 11G29G18G17G15G 9G10G26G22G 8G21G 3
 -14753896.83908 -11496542.01808  21482033.65700  21482033.36500  21482033.41200
       176.00000       114.00000
 -17015742.51508 -13259018.53907  21438326.49600  21438326.33600  21438325.42100
       233.00000        87.00000
    266181.59505    207402.96105  24659435.18200  24659435.53600  24659440.09200
         4.00000         8.00000
 -11779187.41107  -9178588.03106  22797944.86300  22797944.55200  22797946.12400
        43.00000        29.00000
  -8622708.24607  -6718989.28206  23060659.71300  23060659.14700  23060660.93300
        41.00000        29.00000
   -805321.27106   -627531.52806  24101597.97300  24101597.70200  24101600.89500
        16.00000        16.00000
 -20166316.36208 -15714012.78308  20432913.01400  20432913.15900  20432913.13100
       308.00000       190.00000
  -5933344.56606  -4623384.48806  23949624.85800  23949624.67900  23949623.13900
        27.00000        16.00000
  -2535799.79500  -1975946.06904  25004533.77400  25004531.80700  25004535.15000
          .00000         3.00000
 -27380257.12208 -21335266.47408  20290612.33000  20290611.97700  20290610.90100
       256.00000       241.00000
  -1819834.52506  -1418053.08205  24558762.34200  24558761.93700  24558763.02100
        14.00000         7.00000
 04  8 26  0 26 30.0000000  0 11G29G18G17G15G 9G10G26G22G 8G21G 3
 -14686155.66408 -11443756.70508  21494924.07100  21494923.96700  21494924.14000
       173.00000       113.00000
 -17077792.83708 -13307369.42107  21426518.67700  21426518.44100  21426517.76200
       227.00000        91.00000
    382908.44004    298358.87605  24681647.70300  24681647.59000  24681652.43600
         3.00000         7.00000
 -11877445.53807  -9255152.79106  22779246.78400  22779246.40000  22779247.87300
        39.00000        25.00000
  -8734895.47507  -6806407.85807  23039309.80600  23039309.70900  23039312.64200
        45.00000        33.00000
   -712967.14606   -555567.34106  24119172.94300  24119172.36000  24119175.15800
        21.00000        15.00000
 -20108610.71508 -15669047.33808  20443893.82700  20443893.97900  20443894.06600
       305.00000       187.00000
  -6021637.04306  -4692183.78706  23932824.19100  23932823.41300  23932822.07300
        22.00000        17.00000
  -2452089.18800  -1910717.04404  25020464.64700  25020463.15400  25020464.97200
          .00000         3.00000
 -27393977.20908 -21345957.46608  20288001.86300  20288001.38000  20288000.07400
       258.00000       243.00000
  -1849220.45006  -1440951.20305  24553171.32700  24553170.42700  24553169.67400
        13.00000         6.00000
 04  8 26  0 27  0.0000000  0 11G29G18G17G15G 9G10G26G22G 8G21G 3
 -14618131.97708 -11390751.25508  21507867.96100  21507868.06600  21507868.42000
       165.00000       108.00000
 -17139629.30608 -13355553.66407  21414751.68900  21414751.40300  21414750.68400
       224.00000        95.00000
    499732.30904    389390.41505  24703878.58300  24703879.29500  24703882.93400
         3.00000         6.00000
 -11975456.89607  -9331525.24806  22760595.96700  22760595.27300  22760596.88000
        32.00000        27.00000
  -8846888.61307  -6893675.23606  23017997.22400  23017997.59200  23018000.95000
        40.00000        29.00000
   -620549.83006   -483553.93406  24136759.12400  24136758.80600  24136761.97400
        17.00000        15.00000
 -20050455.96308 -15623731.93508  20454960.24500  20454960.40700  20454960.44200
       307.00000       182.00000
  -6109872.23806  -4760938.41006  23916033.08200  23916032.87200  23916031.47000
        22.00000        19.00000
  -2368026.78700  -1845213.91004  25036459.17200  25036459.06700  25036460.38400
        -1.00000         2.00000
 -27407132.81408 -21356208.60708  20285498.39500  20285497.98700  20285496.67100
       259.00000       246.00000
  -1878094.77605  -1463450.67905  24547674.74100  24547674.48700  24547675.55000
         8.00000         6.00000
 04  8 26  0 27 30.0000000  0 11G29G18G17G15G 9G10G26G22G 8G21G 3
 -14549790.37308 -11337498.07908  21520873.50200  21520873.38600  21520873.45000
       169.00000       106.00000
 -17201213.72308 -13403541.49707  21403032.46600  21403032.14600  21403031.61000
       217.00000        95.00000
    616688.64100    480525.14205  24726135.92200  24726136.14700  24726140.38700
          .00000         4.00000
 -12073181.20007  -9407674.03406  22741999.61500  22741999.21100  22742000.92800
        35.00000        29.00000
  -8958646.73607  -6980759.46506  22996732.58800  22996731.88200  22996733.24700
        49.00000        25.00000
   -528032.46506   -411462.57206  24154365.31500  24154364.53200  24154367.16200
        16.00000        16.00000
 -19991816.96108 -15578039.20608  20466118.97400  20466119.04500  20466118.91600
       301.00000       178.00000
  -6198012.04306  -4829618.73206  23899260.19800  23899259.96200  23899258.53200
        25.00000        14.00000
  -2283577.58400  -1779409.42604  25052527.69500  25052531.67200  25052530.17700
        -2.00000         2.00000
 -27419685.29008 -21365989.77408  20283109.40300  20283109.18700  20283108.17000
       255.00000       246.00000
  -1906419.50705  -1485521.90505  24542284.51600  24542283.97000  24542285.97500
         8.00000         5.00000
 04  8 26  0 28  0.0000000  0 11G29G18G17G15G 9G10G26G22G 8G21G 3
 -14481163.47708 -11284022.59408  21533932.73900  21533932.73400  21533932.54500
       172.00000       101.00000
 -17262575.40308 -13451355.77007  21391355.49200  21391355.40000  21391354.74300
       226.00000        95.00000
    733744.93700    571737.82104  24748410.37900  24748410.23700  24748412.49400
        -1.00000         3.00000
 -12170646.20107  -9483620.76806  22723453.02600  22723452.43200  22723452.68700
        35.00000        25.00000
  -9070197.02807  -7067681.75906  22975505.03300  22975504.67800  22975506.43100
        49.00000        30.00000
   -435446.16206   -339317.49906  24171983.23700  24171983.13200  24171986.13000
        21.00000        18.00000
 -19932726.73308 -15531994.87808  20477363.52900  20477363.64900  20477363.44800
       305.00000       177.00000
  -6286086.34406  -4898248.01306  23882499.43600  23882499.64800  23882498.22900
        19.00000        17.00000
  -2198774.44200  -1713329.06304  25068670.78900  25068669.86000  25068670.51600
        -2.00000         1.00000
 -27431664.06108 -21375323.89908  20280830.19700  20280829.82800  20280828.56800
       254.00000       243.00000
  -1934224.42605  -1507188.07205  24536994.26900  24536993.51700  24536995.83900
         4.00000         6.00000
 04  8 26  0 28 30.0000000  0 10G29G18G17G15G 9G10G26G22G21G 3
 -14412248.81608 -11230322.87607  21547046.85400  21547046.75000  21547046.45900
       168.00000        99.00000
 -17323709.27908 -13498992.54007  21379722.35600  21379722.02900  21379721.40300
       228.00000        98.00000
    850903.40500    663030.10404  24770703.55000  24770701.60400  24770703.83500
          .00000         3.00000
 -12267844.86107  -9559359.95806  22704956.32700  22704955.86600  22704957.39900
        39.00000        28.00000
  -9181531.55607  -7154435.89806  22954317.67000  22954317.47800  22954320.45200
        48.00000        30.00000
   -342787.08006   -267115.70506  24189615.89600  24189615.15500  24189618.82300
        18.00000        16.00000
 -19873183.18708 -15485597.31108  20488694.55100  20488694.54300  20488694.32000
       306.00000       177.00000
  -6374089.92406  -4966822.17306  23865752.74500  23865752.83600  23865750.92600
        21.00000        16.00000
 -27443063.66908 -21384206.72708  20278660.35200  20278660.24600  20278659.33100
       250.00000       245.00000
  -1961504.17705  -1528445.04405  24531803.29100  24531802.57500  24531805.01700
         6.00000         7.00000
 04  8 26  0 29  0.0000000  0 10G29G18G17G15G 9G10G26G22G21G 3
 -14343046.43808 -11176398.96607  21560215.17700  21560215.60200  21560215.35300
       166.00000        99.00000
 -17384612.33508 -13546449.45007  21368132.62400  21368132.46300  21368131.95500
       234.00000        96.00000
    968164.20300    754402.06804  24793019.05100  24793017.68600  24793022.38600
        -3.00000         1.00000
 -12364772.55707  -9634888.01806  22686511.90400  22686511.74700  22686512.75300
        44.00000        29.00000
  -9292645.02107  -7241017.79506  22933172.98400  22933173.69200  22933175.92200
        50.00000        30.00000
   -250053.69506   -194856.00106  24207262.29000  24207261.65300  24207265.30900
        18.00000        15.00000
 -19813186.69008 -15438846.79508  20500111.44100  20500111.54300  20500111.26200
       308.00000       174.00000
  -6462020.24406  -5035339.26406  23849020.36200  23849020.09900  23849018.60900
        21.00000        14.00000
 -27453881.25408 -21392636.02908  20276602.52600  20276602.06400  20276601.01500
       251.00000       245.00000
  -1988256.03705  -1549290.67705  24526713.03600  24526712.20200  24526714.04700
         8.00000         8.00000
 04  8 26  0 29 30.0000000  0 10G29G18G15G 9G10G26G22G21G 3G 8
 -14273527.80208 -11122228.62007  21573444.67600  21573444.61300  21573444.41300
       162.00000        99.00000
 -17445252.99408 -13593701.90107  21356593.21400  21356593.10900  21356592.31000
       241.00000        97.00000
 -12461396.18007  -9710179.13006  22668124.95700  22668124.47000  22668125.45100
        40.00000        28.00000
  -9403503.66507  -7327401.15406  22912078.41000  22912077.79700  22912079.79300
        49.00000        30.00000
   -157216.26606   -122515.22706  24224929.41200  24224928.55100  24224932.52900
        15.00000        17.00000
 -19752709.35008 -15391721.59808  20511619.76200  20511619.97500  20511619.75200
       302.00000       176.00000
  -6549845.96406  -5103774.84206  23832308.00100  23832307.65400  23832306.02000
        26.00000        15.00000
 -27464085.42608 -21400587.34908  20274660.33800  20274660.11600  20274659.04700
       247.00000       244.00000
  -2014449.05306  -1569700.83705  24521729.22900  24521728.37100  24521729.98300
        13.00000         9.00000
     28670.51600     22340.73604  25117490.38500  25117493.39800  25117492.72500
        -1.00000         1.00000
 04  8 26  0 30  0.0000000  0  9G15G29G18G 9G10G26G22G21G 3
 -12557744.33907  -9785255.59206  22649790.81100  22649789.96400  22649791.18300
        46.00000        27.00000
 -14203726.37008 -11067837.91008  21586727.30300  21586727.28100  21586727.29300
       158.00000       101.00000
 -17505661.73408 -13640773.62907  21345097.61100  21345097.63400  21345096.90300
       235.00000        98.00000
  -9514135.53707  -7413607.74107  22891025.80300  22891025.69800  22891027.68600
        51.00000        33.00000
    -64306.68706    -50118.26706  24242609.13600  24242609.23700  24242612.32800
        16.00000        19.00000
 -19691784.96708 -15344248.05808  20523212.96900  20523213.22100  20523213.28000
       291.00000       174.00000
  -6637598.03506  -5172153.03106  23815608.32400  23815608.42600  23815607.96700
        27.00000        19.00000
 -27473706.34408 -21408084.18208  20272829.80700  20272829.40800  20272828.33600
       249.00000       244.00000
  -2040113.81706  -1589699.38105  24516844.24500  24516844.14600  24516845.36100
        14.00000         6.00000
 04  8 26  0 30 30.0000000  0 10G15G29G18G 9G10G26G22G21G 3G 8
 -12653802.57107  -9860106.14706  22631511.20500  22631510.74000  22631511.36500
        46.00000        26.00000
 -14133632.71108 -11013219.49108  21600065.82000  21600065.78400  21600065.69200
       153.00000       101.00000
 -17565825.86508 -13687654.75808  21333649.04900  21333648.81600  21333648.09600
       240.00000       102.00000
  -9624525.62307  -7499625.94506  22870019.42100  22870019.07200  22870021.12700
        57.00000        30.00000
     28686.04706     22343.52106  24260304.11800  24260303.33000  24260307.90100
        14.00000        17.00000
 -19630404.28208 -15296418.95808  20534892.89300  20534893.32900  20534893.54200
       278.00000       172.00000
  -6725264.09207  -5240464.21106  23798927.69400  23798927.08200  23798925.80400
        37.00000        20.00000
 -27482731.41208 -21415116.72208  20271112.41100  20271112.06600  20271110.95600
       255.00000       244.00000
  -2065237.95805  -1609276.68205  24512061.83400  24512062.92000  24512063.85300
         9.00000         7.00000
     57775.99100     45020.97504  25150383.36900  25150384.97300  25150383.67500
          .00000         1.00000
 04  8 26  0 31  0.0000000  0  9G15G29G18G 9G10G26G22G21G 3
 -12749567.51007  -9934728.15406  22613287.50300  22613287.20800  22613288.15900
        48.00000        27.00000
 -14063247.91908 -10958374.22707  21613459.51000  21613459.47300  21613459.48800
       151.00000       100.00000
 -17625743.94108 -13734344.15608  21322246.68400  21322246.66000  21322245.99100
       239.00000       106.00000
  -9734669.72907  -7585452.50606  22849058.55800  22849058.68900  22849060.58400
        53.00000        29.00000
    121761.72206     94869.95906  24278017.91100  24278016.98600  24278019.95700
        18.00000        18.00000
 -19568569.20408 -15248235.79208  20546660.17100  20546660.32500  20546660.42900
       281.00000       169.00000
  -6812842.68907  -5308707.22706  23782261.28400  23782261.22900  23782260.30200
        39.00000        23.00000
 -27491159.14208 -21421683.79808  20269508.82200  20269508.28600  20269507.07800
       253.00000       244.00000
  -2089820.35305  -1628431.78405  24507384.80700  24507384.86700  24507386.62000
         6.00000         9.00000
 04  8 26  0 31 30.0000000  0  9G15G29G18G 9G10G26G22G21G 3
 -12845060.19407 -10009138.03006  22595115.85400  22595115.44900  22595116.59700
        49.00000        30.00000
 -13992597.64608 -10903322.07707  21626903.85100  21626903.87600  21626903.69900
       152.00000        98.00000
 -17685438.60908 -13780859.46508  21310887.51100  21310887.30100  21310886.65000
       239.00000       109.00000
  -9844588.33807  -7671103.34606  22828141.66500  22828141.72200  22828143.76200
        45.00000        28.00000
    214896.16806    167442.17306  24295739.50400  24295739.27200  24295743.29400
        16.00000        18.00000
 -19506305.92608 -15199718.96708  20558509.14400  20558509.10500  20558508.72500
       289.00000       168.00000
  -6900356.77407  -5376899.99306  23765608.34000  23765608.34000  23765606.41500
        41.00000        22.00000
 -27499012.30408 -21427803.15608  20268014.30600  20268014.00000  20268012.81300
       257.00000       248.00000
  -2113884.08404  -1647182.75105  24502806.07200  24502804.93200  24502806.33700
         3.00000         7.00000
 04  8 26  0 32  0.0000000  0  9G15G29G18G 9G10G26G22G21G 3
 -12940258.11807 -10083318.19407  22577000.18600  22576999.61800  22577001.36200
        47.00000        35.00000
 -13921664.70108 -10848049.66307  21640402.07400  21640401.84600  21640402.04300
       148.00000        99.00000
 -17744889.16208 -13827184.55608  21299574.65900  21299574.37500  21299573.36600
       245.00000       111.00000
  -9954258.63307  -7756560.65307  22807273.91900  22807273.57900  22807274.11000
        56.00000        32.00000
    308108.70606    240075.23406  24313476.62300  24313476.55800  24313480.94400
        12.00000        16.00000
 -19443597.25508 -15150855.08208  20570442.11600  20570442.11000  20570441.77800
       288.00000       166.00000
  -6987785.98507  -5445026.60106  23748971.22300  23748970.82900  23748969.36600
        39.00000        23.00000
 -27506270.23808 -21433458.70308  20266633.35500  20266632.92200  20266631.59600
       259.00000       246.00000
  -2137408.95605  -1665513.82605  24498329.55000  24498330.14400  24498330.63100
         4.00000         7.00000
 04  8 26  0 32 30.0000000  0  9G15G29G18G 9G10G26G22G21G 3
 -13035183.52907 -10157286.02007  22558937.22000  22558936.43500  22558937.32900
        50.00000        36.00000
 -13850475.83608 -10792577.83807  21653949.11400  21653948.86600  21653948.88900
       151.00000       100.00000
 -17804119.94208 -13873338.38608  21288303.06500  21288302.90000  21288302.24000
       248.00000       109.00000
 -10063702.15107  -7841841.25507  22786445.50500  22786445.65900  22786448.26500
        50.00000        35.00000
    401373.70006    312749.15906  24331226.06300  24331224.81400  24331228.40500
        12.00000        16.00000
 -19380470.67908 -15101665.54508  20582454.36700  20582454.40000  20582454.54100
       279.00000       166.00000
  -7075154.78807  -5513106.13506  23732344.55300  23732344.60900  23732343.80000
        34.00000        25.00000
 -27512957.16108 -21438669.30408  20265360.58500  20265360.30600  20265359.07600
       257.00000       245.00000
  -2160419.41605  -1683444.05905  24493952.76600  24493951.94700  24493952.25300
         7.00000         8.00000
 04  8 26  0 33  0.0000000  0  9G15G29G18G 9G10G26G22G21G 3
 -13129786.09007 -10231002.26807  22540934.34800  22540933.95700  22540935.25100
        51.00000        38.00000
 -13778985.17508 -10736870.84407  21667553.12900  21667553.15600  21667553.16100
       154.00000        98.00000
 -17863081.88608 -13919282.74608  21277083.03200  21277082.99600  21277081.92800
       257.00000       107.00000
 -10172867.76807  -7926905.31906  22765672.05000  22765672.13600  22765674.27900
        50.00000        30.00000
    494738.13306    385500.61206  24348992.13300  24348991.48600  24348995.04200
        14.00000        15.00000
 -19316880.94608 -15052115.11608  20594554.93300  20594555.13600  20594555.33600
       277.00000       166.00000
  -7162414.61407  -5581100.78406  23715739.60900  23715739.56100  23715737.91200
        36.00000        21.00000
 -27519024.64508 -21443397.22508  20264206.14400  20264205.86100  20264204.60000
       261.00000       250.00000
  -2182867.16805  -1700935.81005  24489679.11600  24489679.11600  24489680.73900
         9.00000         8.00000
 04  8 26  0 33 30.0000000  0  9G15G29G18G 9G10G26G22G21G 3
 -13224117.77807 -10304507.46007  22522983.56800  22522983.12500  22522984.16600
        50.00000        36.00000
 -13707249.57108 -10680972.98507  21681204.26700  21681204.12700  21681203.93000
       148.00000        96.00000
 -17921828.66408 -13965059.45008  21265904.14100  21265903.88400  21265902.80500
       260.00000       105.00000
 -10281806.74007  -8011792.79406  22744941.96300  22744941.73200  22744944.33900
        49.00000        31.00000
    588146.82206    458286.51706  24366767.91000  24366767.58600  24366770.50000
        14.00000        16.00000
 -19252885.25608 -15002248.35908  20606732.91900  20606733.02100  20606733.31700
       274.00000       167.00000
  -7249619.37907  -5649052.50606  23699144.76700  23699144.84000  23699143.73300
        32.00000        26.00000
 -27524526.29108 -21447684.23208  20263159.06400  20263158.78300  20263157.60100
       254.00000       248.00000
  -2204806.41206  -1718031.34405  24485503.98200  24485503.95900  24485506.30800
        11.00000         9.00000
 04  8 26  0 34  0.0000000  0  9G15G29G18G 9G10G26G22G21G 3
 -13318118.61407 -10377754.83207  22505095.90100  22505095.45400  22505096.26000
        53.00000        35.00000
 -13635213.80408 -10624841.23907  21694911.99700  21694911.94200  21694911.75700
       144.00000        96.00000
 -17980302.28108 -14010623.28708  21254776.85200  21254776.66000  21254775.58200
       256.00000       106.00000
 -10390458.62707  -8096456.55707  22724267.76900  22724267.23000  22724268.54600
        63.00000        35.00000
    681656.23106    531150.89106  24384562.11600  24384561.82700  24384564.74900
        14.00000        15.00000
 -19188428.73908 -14952022.51908  20618998.71500  20618998.78600  20618998.92400
       279.00000       164.00000
  -7336711.12307  -5716916.15406  23682572.10200  23682571.75600  23682570.84100
        33.00000        27.00000
 -27529404.16008 -21451485.18108  20262230.93800  20262230.60700  20262229.45300
       251.00000       249.00000
  -2226179.37805  -1734685.64005  24481435.59200  24481435.95300  24481438.73200
         6.00000         9.00000
 04  8 26  0 34 30.0000000  0  9G15G29G18G 9G10G26G22G21G 3
 -13411773.08907 -10450732.31107  22487274.36200  22487273.80200  22487274.73100
        53.00000        36.00000
 -13562867.00708 -10568467.12607  21708679.20800  21708679.22300  21708678.75200
       147.00000        91.00000
 -18038488.84608 -14055963.45108  21243704.19000  21243704.21000  21243703.14700
       261.00000       108.00000
 -10498807.05007  -8180883.85607  22703647.08600  22703647.52900  22703650.66100
        54.00000        39.00000
    775278.39406    604103.14506  24402377.17800  24402376.83800  24402380.05200
        15.00000        12.00000
 -19123501.08508 -14901429.55208  20631354.36400  20631354.29300  20631354.18200
       284.00000       161.00000
  -7423676.50107  -5784681.32706  23666022.86800  23666022.97300  23666021.73500
        33.00000        24.00000
 -27533644.61508 -21454789.44208  20261423.99400  20261423.77700  20261422.48300
       252.00000       248.00000
  -2246972.80105  -1750888.34105  24477480.75100  24477479.49000  24477481.80500
         4.00000        10.00000
 04  8 26  0 35  0.0000000  0  9G15G29G18G 9G10G26G22G21G 3
 -13505145.45407 -10523489.96807  22469505.42300  22469504.89600  22469506.36700
        51.00000        34.00000
 -13490278.20808 -10511904.44207  21722491.97700  21722492.14200  21722492.00400
       146.00000        90.00000
 -18096454.56008 -14101131.52008  21232673.69500  21232673.44800  21232672.63900
       257.00000       109.00000
 -10606915.48207  -8265124.16007  22683075.14400  22683075.51100  22683077.46000
        59.00000        36.00000
    868946.10006    677090.90406  24420202.29900  24420201.99700  24420203.79600
        14.00000        12.00000
 -19058171.83308 -14850523.65508  20643786.04900  20643786.13000  20643786.05600
       285.00000       162.00000
  -7510581.67606  -5852399.57806  23649484.62300  23649484.96100  23649483.77900
        26.00000        25.00000
 -27537314.10708 -21457648.79508  20260725.56500  20260725.42400  20260724.26700
       250.00000       249.00000
  -2267253.12405  -1766691.22206  24473621.24600  24473621.26600  24473622.16600
         8.00000        11.00000
 04  8 26  0 35 30.0000000  0  9G15G29G18G 9G10G26G22G21G 3
 -13598217.06807 -10596013.30106  22451795.05300  22451794.59500  22451795.42300
        56.00000        31.00000
 -13417433.57808 -10455142.40307  21736353.87700  21736353.80800  21736354.03900
       141.00000        88.00000
 -18154182.53408 -14146114.34208  21221688.75300  21221688.45500  21221687.33800
       259.00000       114.00000
 -10714765.00207  -8349162.71507  22662553.27900  22662553.25800  22662555.09800
        68.00000        39.00000
    962674.38306    750125.81906  24438038.99100  24438038.10700  24438040.81400
        14.00000        14.00000
 -18992427.70508 -14799294.48608  20656296.60600  20656296.97300  20656296.62000
       286.00000       159.00000
  -7597410.06607  -5920057.99706  23632961.93100  23632962.42700  23632961.15100
        34.00000        25.00000
 -27540395.87308 -21460050.17708  20260139.43400  20260138.97200  20260137.75500
       248.00000       247.00000
  -2287004.31305  -1782081.77605  24469861.42700  24469861.44500  24469863.04500
         7.00000        10.00000
 04  8 26  0 36  0.0000000  0  9G15G29G18G 9G10G26G22G21G 3
 -13691014.64907 -10668323.07106  22434136.16600  22434135.94700  22434136.69700
        55.00000        31.00000
 -13344364.41608 -10398205.40707  21750258.94600  21750258.70500  21750258.66300
       145.00000        88.00000
 -18211701.04608 -14190933.94508  21210742.95400  21210742.90900  21210742.12500
       260.00000       120.00000
 -10822381.65907  -8433019.80607  22642074.79700  22642074.36000  22642076.07600
        68.00000        37.00000
   1056433.46406    823184.74106  24455880.05700  24455879.27700  24455882.94800
        14.00000        13.00000
 -18926300.53508 -14747766.83608  20668880.30900  20668880.37800  20668880.17100
       280.00000       157.00000
  -7684190.45807  -5987679.02406  23616448.92300  23616448.71500  23616447.15700
        32.00000        25.00000
 -27542918.45208 -21462015.83408  20259659.25700  20259658.95200  20259657.86500
       248.00000       247.00000
  -2306255.08505  -1797082.43705  24466199.37300  24466199.09100  24466200.22200
        10.00000         9.00000
 04  8 26  0 36 30.0000000  0  9G15G29G18G 9G10G26G22G21G 3
 -13783466.91507 -10740363.78106  22416542.26000  22416541.99800  22416543.13300
        49.00000        28.00000
 -13271004.29408 -10341041.68207  21764218.32700  21764218.53700  21764218.54600
       143.00000        87.00000
 -18268940.66308 -14235536.23208  21199851.06000  21199850.66900  21199849.76700
       266.00000       121.00000
 -10929693.69807  -8516639.54307  22621652.78800  22621653.08000  22621655.14200
        69.00000        34.00000
   1150291.03206    896320.41306  24473740.55100  24473740.34200  24473743.94700
        15.00000        15.00000
 -18859724.40808 -14695889.34708  20681549.09300  20681549.19700  20681549.22700
       272.00000       154.00000
  -7770853.43807  -6055208.54806  23599957.97700  23599957.98300  23599956.15300
        36.00000        29.00000
 -27544812.78608 -21463491.94608  20259298.85800  20259298.41300  20259297.27000
       249.00000       246.00000
  -2324936.87606  -1811639.71105  24462644.13400  24462643.92400  24462644.93500
        11.00000         8.00000
 04  8 26  0 37  0.0000000  0  9G15G29G18G 9G10G26G22G21G 3
 -13875596.20807 -10812152.80707  22399011.01700  22399010.75900  22399011.89300
        52.00000        32.00000
 -13197380.12708 -10283672.21807  21778229.13500  21778228.87600  21778229.05900
       139.00000        87.00000
 -18325925.47408 -14279939.96508  21189006.72200  21189006.68400  21189005.93100
       267.00000       122.00000
 -11036722.71407  -8600038.77207  22601285.84400  22601286.16100  22601288.06400
        66.00000        38.00000
   1244221.48506    969512.86206  24491615.67200  24491615.09900  24491617.80500
        14.00000        14.00000
 -18792726.66208 -14643683.33008  20694298.51800  20694298.58400  20694298.53000
       272.00000       157.00000
  -7857423.47306  -6122665.64606  23583483.67500  23583483.58400  23583481.96800
        29.00000        25.00000
 -27546103.24408 -21464497.50808  20259052.93400  20259052.75000  20259051.77000
       250.00000       246.00000
  -2343074.30805  -1825772.81205  24459193.32800  24459193.40300  24459195.00400
         8.00000         9.00000
 04  8 26  0 37 30.0000000  0  9G15G29G18G 9G10G26G22G21G 3
 -13967395.34807 -10883684.57807  22381541.97200  22381541.83800  22381543.05500
        54.00000        33.00000
 -13123489.81108 -10226095.36607  21792289.99800  21792289.71000  21792289.62700
       135.00000        85.00000
 -18382650.31208 -14324141.11908  21178212.48900  21178212.26900  21178211.51700
       263.00000       120.00000
 -11143461.28207  -8683211.61707  22580975.56500  22580975.23600  22580976.63500
        69.00000        37.00000
   1338228.26506   1042764.79406  24509504.72000  24509504.19700  24509506.19000
        13.00000        11.00000
 -18725305.92308 -14591147.71108  20707128.47500  20707128.44600  20707128.28800
       272.00000       154.00000
  -7943895.61807  -6190046.47806  23567028.61400  23567028.38800  23567027.21700
        33.00000        25.00000
 -27546785.01908 -21465028.77208  20258923.51400  20258923.17500  20258921.99500
       248.00000       248.00000
  -2360662.75105  -1839478.09805  24455846.01600  24455846.23300  24455847.01300
         5.00000         7.00000
 04  8 26  0 38  0.0000000  0  9G15G29G18G 9G10G26G22G21G 3
 -14058862.80307 -10954957.90507  22364136.71700  22364136.24000  22364137.58200
        56.00000        36.00000
 -13049336.46108 -10168313.55707  21806400.65600  21806400.50900  21806400.46000
       131.00000        83.00000
 -18439115.37008 -14368139.84908  21167467.56300  21167467.43700  21167466.46600
       264.00000       118.00000
 -11249907.10907  -8766156.38907  22560719.06500  22560718.86900  22560720.23200
        76.00000        35.00000
   1432309.84706   1116075.06206  24527407.55300  24527407.32400  24527410.03800
        13.00000        12.00000
 -18657465.69208 -14538285.21108  20720038.23800  20720038.07000  20720037.78900
       268.00000       151.00000
  -8030270.06406  -6257351.21706  23550590.86300  23550590.86600  23550590.19900
        30.00000        25.00000
 -27546858.69808 -21465086.19708  20258909.47400  20258909.16500  20258908.09700
       251.00000       252.00000
  -2377702.88405  -1852756.17205  24452603.91300  24452603.63200  24452604.39400
        10.00000         7.00000
 04  8 26  0 38 30.0000000  0  9G15G29G18G 9G10G26G22G21G 3
 -14150021.40207 -11025990.54007  22346790.08000  22346789.43400  22346790.51200
        55.00000        35.00000
 -12974947.56208 -10110348.19907  21820556.30000  21820556.29400  21820556.29100
       134.00000        84.00000
 -18495344.93708 -14411955.08008  21156767.32900  21156767.14700  21156766.31300
       261.00000       119.00000
 -11356082.17107  -8848890.18207  22540513.52800  22540513.55700  22540516.22600
        71.00000        37.00000
   1526440.16806   1189423.27806  24545320.37400  24545319.27100  24545323.16200
        12.00000        14.00000
 -18589233.98708 -14485117.66208  20733022.18800  20733022.07600  20733021.91000
       270.00000       151.00000
  -8116571.66907  -6324599.16406  23534168.11700  23534168.55300  23534167.51600
        32.00000        23.00000
 -27546348.73508 -21464688.83408  20259006.16100  20259005.99600  20259005.20200
       246.00000       253.00000
  -2394220.14005  -1865626.82805  24449459.60200  24449459.24700  24449461.84000
         9.00000         8.00000
 04  8 26  0 39  0.0000000  0  9G15G29G18G 9G10G26G22G21G 3
 -14240861.49407 -11096774.99707  22329503.74100  22329503.41600  22329504.25100
        59.00000        35.00000
 -12900318.01408 -10052195.31907  21834757.68600  21834757.70600  21834757.77600
       133.00000        83.00000
 -18551330.95108 -14455580.52108  21146113.50800  21146113.34900  21146112.46900
       262.00000       119.00000
 -11461976.24407  -8931405.01807  22520363.10200  22520363.44600  22520365.08600
        74.00000        41.00000
   1620625.79306   1262814.56006  24563243.99900  24563243.15700  24563246.25500
        13.00000        16.00000
 -18520606.19308 -14431641.47908  20746081.22100  20746081.39400  20746081.40900
       263.00000       153.00000
  -8202792.68407  -6391784.32806  23517762.20600  23517762.05200  23517759.93400
        38.00000        22.00000
 -27545247.71008 -21463830.90608  20259216.03300  20259215.74700  20259214.59400
       246.00000       252.00000
  -2410206.93206  -1878084.12605  24446418.09600  24446418.39400  24446418.34500
        14.00000         8.00000
 04  8 26  0 39 30.0000000  0  9G15G29G18G 9G10G26G22G21G 3
 -14331352.94707 -11167287.80607  22312283.25800  22312282.84000  22312284.44400
        55.00000        35.00000
 -12825422.61408  -9993835.28707  21849009.98100  21849009.92900  21849009.73800
       127.00000        81.00000
 -18607045.49408 -14498994.43908  21135511.73300  21135511.27900  21135510.20300
       265.00000       120.00000
 -11567558.70007  -9013677.01007  22500272.57900  22500272.13100  22500272.93200
        74.00000        39.00000
   1714893.03806   1336269.41806  24581181.19500  24581180.72200  24581184.75300
        14.00000        13.00000
 -18451557.94208 -14377837.66308  20759220.47700  20759220.81200  20759221.00900
       260.00000       153.00000
  -8288905.15507  -6458884.90206  23501375.52600  23501375.82700  23501373.16600
        46.00000        20.00000
 -27543528.04908 -21462490.92008  20259543.22600  20259542.82700  20259541.96200
       242.00000       257.00000
  -2425636.28006  -1890107.04905  24443482.72900  24443482.43700  24443483.33600
        15.00000         9.00000
 04  8 26  0 40  0.0000000  0  9G15G29G18G 9G10G26G22G21G 3
 -14421491.16307 -11237525.34407  22295130.96400  22295130.25000  22295131.17500
        57.00000        33.00000
 -12750261.48708  -9935268.19607  21863312.50200  21863312.48200  21863312.86300
       123.00000        81.00000
 -18662485.26608 -14542194.24808  21124961.61700  21124961.41500  21124960.48300
       269.00000       124.00000
 -11672824.39707  -9095702.19307  22480240.46700  22480240.14100  22480241.40000
        82.00000        37.00000
   1809243.25006   1409788.97406  24599135.02800  24599134.86600  24599139.18700
        13.00000        13.00000
 -18382089.56908 -14323706.48008  20772440.45600  20772440.37300  20772440.32200
       264.00000       151.00000
  -8374906.42507  -6525898.81406  23485010.14000  23485010.12400  23485007.80400
        49.00000        23.00000
 -27541187.38308 -21460667.03608  20259988.55100  20259988.16200  20259987.39700
       236.00000       256.00000
  -2440505.89306  -1901693.77905  24440651.87800  24440651.79500  24440654.93700
        11.00000         8.00000
 04  8 26  0 40 30.0000000  0  9G15G29G18G 9G10G26G22G21G 3
 -14511287.45707 -11307496.45907  22278043.22600  22278042.98100  22278043.53700
        64.00000        34.00000
 -12674850.68408  -9876506.56207  21877663.01200  21877662.99800  21877662.98500
       123.00000        80.00000
 -18717663.76608 -14585190.46808  21114461.42700  21114461.34600  21114460.24400
       273.00000       126.00000
 -11777783.91907  -9177488.81307  22460266.98400  22460267.07800  22460268.93100
        83.00000        42.00000
   1903661.78006   1483361.76606  24617103.14200  24617103.39700  24617106.14400
        14.00000        12.00000
 -18312217.93408 -14269261.07008  20785736.68300  20785736.57200  20785736.57900
       260.00000       152.00000
  -8460809.97307  -6592836.60206  23468662.82500  23468662.78900  23468660.58000
        45.00000        20.00000
 -27538239.29608 -21458369.84008  20260549.96700  20260549.55000  20260548.28800
       244.00000       253.00000
  -2454829.70406  -1912855.19605  24437928.06500  24437927.09700  24437928.32400
        11.00000         9.00000
 04  8 26  0 41  0.0000000  0  9G15G29G18G 9G10G26G22G21G 3
 -14600735.95907 -11377196.55007  22261022.27400  22261021.69100  22261022.05900
        70.00000        38.00000
 -12599188.98308  -9817549.41207  21892060.61000  21892060.66900  21892060.91000
       123.00000        79.00000
 -18772576.70308 -14627979.76108  21104011.54300  21104011.54900  21104010.74900
       268.00000       129.00000
 -11882430.95007  -9259031.91007  22440353.61600  22440353.50800  22440355.17200
        81.00000        43.00000
   1998151.11905   1556989.71706  24635082.98200  24635083.04800  24635087.50600
         8.00000        13.00000
 -18241942.38708 -14214500.92008  20799109.42500  20799109.53500  20799109.56700
       260.00000       149.00000
  -8546611.60507  -6659694.99306  23452334.72000  23452334.66200  23452333.97500
        43.00000        27.00000
 -27534679.89108 -21455596.28808  20261226.83200  20261226.57700  20261225.71500
       241.00000       255.00000
  -2468604.38805  -1923588.75205  24435305.94600  24435304.70100  24435307.11500
         9.00000        10.00000
 04  8 26  0 41 30.0000000  0  9G15G29G18G 9G10G26G22G21G 3
 -14689863.31807 -11446646.42007  22244061.65000  22244060.92300  22244061.99600
        72.00000        40.00000
 -12523307.80508  -9758421.23907  21906500.33400  21906500.57700  21906500.64800
       124.00000        78.00000
 -18827252.62908 -14670584.36408  21093607.68400  21093607.14200  21093606.43500
       260.00000       134.00000
 -11986791.69507  -9340351.92707  22420494.51100  22420494.55100  22420495.13600
        86.00000        38.00000
   2092681.45305   1630649.55806  24653072.68200  24653071.44900  24653075.88000
         8.00000        13.00000
 -18171294.85108 -14159450.90908  20812553.26000  20812553.39800  20812553.34000
       261.00000       145.00000
  -8632340.17307  -6726496.42706  23436020.89400  23436020.92800  23436020.51700
        39.00000        27.00000
 -27530538.73408 -21452369.42108  20262015.20400  20262014.74700  20262013.80000
       245.00000       255.00000
  -2481859.22605  -1933917.22405  24432782.13400  24432782.19000  24432783.94300
         6.00000         8.00000
 04  8 26  0 42  0.0000000  0  9G15G29G18G 9G10G26G22G21G 3
 -14778652.92807 -11515833.09707  22227165.73100  22227165.08400  22227165.71400
        79.00000        43.00000
 -12447195.22408  -9699112.75607  21920984.80100  21920984.62000  21920984.33200
       127.00000        77.00000
 -18881676.45408 -14712992.52408  21083250.69500  21083250.47400  21083249.80500
       254.00000       136.00000
 -12090848.80307  -9421435.36407  22400692.07300  22400692.13300  22400693.51700
        80.00000        38.00000
   2187265.78106   1704351.55106  24671071.17400  24671070.39900  24671074.22300
        13.00000        11.00000
 -18100263.89108 -14104102.12308  20826069.95300  20826070.01900  20826069.93100
       256.00000       140.00000
  -8717981.03307  -6793229.53706  23419722.57900  23419723.30300  23419723.04100
        37.00000        23.00000
 -27525800.86308 -21448677.58708  20262916.77300  20262916.39500  20262915.27700
       254.00000       251.00000
  -2494580.11505  -1943829.62806  24430361.33100  24430361.39300  24430364.73500
         4.00000        11.00000
 04  8 26  0 42 30.0000000  0  9G15G29G18G 9G10G26G22G21G 3
 -14867087.61407 -11584743.21107  22210336.68300  22210336.16000  22210337.14700
        77.00000        43.00000
 -12370838.71408  -9639614.19907  21935514.66000  21935514.83200  21935514.60000
       125.00000        77.00000
 -18935832.74508 -14755192.21708  21072945.21100  21072944.81400  21072944.28700
       250.00000       139.00000
 -12194584.61607  -9502268.43807  22380952.64700  22380952.26700  22380954.24600
        82.00000        43.00000
   2281918.10705   1778106.50906  24689082.51600  24689081.60600  24689086.61500
         9.00000        11.00000
 -18028837.69508 -14048445.37308  20839662.00300  20839662.12800  20839662.03700
       257.00000       141.00000
  -8803518.91207  -6859882.39306  23403446.96800  23403447.18700  23403445.79900
        43.00000        25.00000
 -27520451.46408 -21444509.23408  20263934.49200  20263934.20900  20263933.31900
       257.00000       252.00000
  -2506752.45705  -1953314.54905  24428046.89800  24428046.13800  24428047.71000
         8.00000        10.00000
 04  8 26  0 43  0.0000000  0  9G15G29G18G 9G10G26G22G21G 3
 -14955141.73807 -11653356.77307  22193580.75100  22193580.00300  22193581.18900
        76.00000        44.00000
 -12294217.63008  -9579909.48607  21950095.56100  21950095.29200  21950095.15000
       120.00000        76.00000
 -18989697.82108 -14797164.99208  21062694.79000  21062694.68500  21062694.05800
       254.00000       138.00000
 -12297972.99207  -9582830.76007  22361278.70800  22361278.47200  22361279.43700
        84.00000        42.00000
   2376660.54905   1851931.68106  24707111.03200  24707109.52200  24707115.41000
         5.00000        11.00000
 -17956996.03908 -13992464.87708  20853333.21000  20853333.06000  20853333.21900
       255.00000       141.00000
  -8888930.37807  -6926436.72406  23387194.06900  23387193.76700  23387192.33700
        45.00000        23.00000
 -27514467.73308 -21439846.60108  20265073.70300  20265073.29100  20265072.02600
       266.00000       252.00000
  -2518353.44205  -1962354.32105  24425838.02200  24425838.38500  24425839.60300
         9.00000         8.00000
 04  8 26  0 43 30.0000000  0  9G15G29G18G 9G10G26G22G21G 3
 -15042874.50307 -11721719.93307  22176885.30100  22176884.82100  22176885.81700
        68.00000        43.00000
 -12217395.54908  -9520048.15007  21964714.31100  21964714.14500  21964713.82800
       119.00000        74.00000
 -19043332.60708 -14838958.32208  21052488.50300  21052488.23500  21052487.59000
       253.00000       138.00000
 -12401072.43807  -9663167.94107  22341658.81700  22341658.76400  22341660.31100
        84.00000        43.00000
   2471430.84805   1925778.53506  24725146.13000  24725146.28100  24725150.69000
         8.00000        14.00000
 -17884803.21908 -13936210.75308  20867070.63400  20867070.86300  20867070.94400
       247.00000       139.00000
  -8974276.45307  -6992940.10406  23370953.25300  23370953.04300  23370951.89400
        41.00000        27.00000
 -27507910.95108 -21434737.43408  20266321.27000  20266320.88500  20266319.71000
       267.00000       251.00000
  -2529445.00205  -1970997.09705  24423726.74800  24423727.13900  24423728.80700
         9.00000         8.00000
 04  8 26  0 44  0.0000000  0  9G15G29G18G 9G10G26G22G21G 3
 -15130261.48207 -11789813.65307  22160255.97100  22160255.46500  22160256.85500
        66.00000        44.00000
 -12140352.87208  -9460014.91707  21979375.02200  21979374.90500  21979374.58100
       119.00000        73.00000
 -19096714.12808 -14880554.30608  21042330.71800  21042330.26800  21042329.58900
       262.00000       139.00000
 -12503857.87107  -9743260.44607  22322099.00100  22322099.25300  22322100.71300
        91.00000        44.00000
   2566249.84706   1999663.38606  24743190.68000  24743188.80400  24743193.03600
        11.00000        12.00000
 -17812240.18208 -13879668.14408  20880878.72500  20880878.93800  20880879.20600
       234.00000       139.00000
  -9059534.45407  -7059374.86506  23354729.17600  23354728.82800  23354727.41300
        36.00000        26.00000
 -27500759.10508 -21429164.58008  20267682.26800  20267681.89700  20267680.70000
       269.00000       249.00000
  -2540005.29005  -1979225.91305  24421718.35600  24421718.03900  24421720.71900
         6.00000        10.00000
 04  8 26  0 44 30.0000000  0  9G15G29G18G 9G10G26G22G21G 3
 -15217254.88507 -11857600.68507  22143701.75600  22143701.45400  22143702.37600
        69.00000        44.00000
 -12063046.33908  -9399776.08007  21994085.71500  21994085.80000  21994085.67900
       121.00000        73.00000
 -19149796.19808 -14921916.96508  21032229.29500  21032229.11700  21032228.36500
       262.00000       137.00000
 -12606280.98607  -9823070.62607  22302609.64200  22302609.42100  22302610.07000
        97.00000        42.00000
   2661161.96906   2073620.76306  24761250.63000  24761250.63700  24761254.50200
        13.00000        14.00000
 -17739264.49008 -13822803.98908  20894765.70700  20894765.93300  20894766.01900
       242.00000       140.00000
  -9144658.61307  -7125705.33806  23338529.08500  23338529.36800  23338528.78400
        36.00000        28.00000
 -27492966.83008 -21423092.68808  20269164.89600  20269164.61600  20269163.64300
       264.00000       252.00000
  -2549989.43505  -1987005.79405  24419817.79800  24419818.27900  24419819.68100
         8.00000         9.00000
 04  8 26  0 45  0.0000000  0  9G18G15G29G 9G10G26G22G21G 3
 -19202622.97908 -14963080.68108  21022176.38100  21022176.32300  21022175.64200
       263.00000       138.00000
 -15303896.60207 -11925113.67207  22127214.29200  22127213.83100  22127214.77800
        68.00000        43.00000
 -11985522.79008  -9339368.13707  22008837.86200  22008837.94300  22008837.86200
       117.00000        71.00000
 -12708383.31607  -9902630.81207  22283179.56700  22283179.37800  22283181.34700
        87.00000        50.00000
   2756121.94106   2147615.48506  24779321.63100  24779321.49700  24779325.07800
        13.00000        13.00000
 -17665923.25108 -13765654.99208  20908722.28200  20908722.45700  20908722.41500
       242.00000       135.00000
  -9229692.89507  -7191965.76006  23322347.92900  23322347.93000  23322347.16700
        41.00000        28.00000
 -27484578.59408 -21416556.40208  20270761.14100  20270760.72600  20270759.71500
       262.00000       250.00000
  -2559442.14205  -1994371.55705  24418017.95300  24418019.19900  24418021.41400
         9.00000         9.00000
 04  8 26  0 45 30.0000000  0  9G18G15G29G 9G10G26G22G21G 3
 -19255182.64008 -15004036.26408  21012174.67400  21012174.57900  21012173.79700
       262.00000       140.00000
 -15390173.46407 -11992342.36807  22110796.25800  22110795.93700  22110796.88000
        74.00000        43.00000
 -11907773.50408  -9278784.29907  22023633.37700  22023633.04000  22023632.84700
       113.00000        69.00000
 -12810151.08607  -9981930.32607  22263812.49500  22263813.21000  22263815.08200
        91.00000        47.00000
   2851139.78406   2221655.20406  24797404.37100  24797403.18200  24797406.62700
        12.00000        12.00000
 -17592208.70508 -13708215.11608  20922749.40000  20922749.79900  20922749.69600
       235.00000       130.00000
  -9314626.27107  -7258147.57306  23306186.93400  23306186.80600  23306185.06900
        55.00000        29.00000
 -27475583.60708 -21409547.33508  20272472.78600  20272472.54600  20272471.51100
       266.00000       249.00000
  -2568353.07705  -2001315.10505  24416323.79800  24416324.01100  24416325.82100
         7.00000         9.00000
 04  8 26  0 46  0.0000000  0  9G18G15G29G 9G10G26G22G21G 3
 -19307435.30408 -15044752.61608  21002231.52200  21002231.08400  21002230.57600
       256.00000       143.00000
 -15476043.72407 -12059254.23907  22094455.84500  22094455.27700  22094456.28000
        75.00000        43.00000
 -11829761.47908  -9217995.72207  22038478.96200  22038478.47900  22038478.21100
       110.00000        70.00000
 -12911541.97807 -10060936.17107  22244519.75700  22244519.63400  22244520.93300
        96.00000        46.00000
   2946253.68606   2295769.85705  24815501.71400  24815502.03200  24815505.29000
        11.00000        10.00000
 -17518084.26008 -13650455.83208  20936854.96700  20936855.29800  20936855.23000
       234.00000       129.00000
  -9399418.74207  -7324219.57307  23290051.09500  23290050.83000  23290049.97400
        47.00000        32.00000
 -27465942.73308 -21402034.98108  20274307.35700  20274307.10500  20274306.09400
       262.00000       249.00000
  -2576683.11905  -2007806.10905  24414738.43500  24414739.28200  24414738.98600
         9.00000         9.00000
 04  8 26  0 46 30.0000000  0  9G18G15G29G 9G10G26G22G21G 3
 -19359422.71008 -15085262.27708  20992338.75900  20992338.35100  20992337.66200
       258.00000       144.00000
 -15561547.50007 -12125880.54607  22078184.90000  22078184.55600  22078185.29300
        78.00000        43.00000
 -11751531.74008  -9157037.50107  22053364.89500  22053364.77500  22053365.08800
       106.00000        71.00000
 -13012595.62107 -10139679.21807  22225290.06800  22225289.97800  22225291.06700
        96.00000        46.00000
   3041420.19905   2369925.48905  24833613.07800  24833612.67600  24833615.47900
         8.00000         8.00000
 -17443595.41408 -13592412.59808  20951030.02800  20951029.88600  20951029.93800
       225.00000       128.00000
  -9484112.49607  -7390214.64406  23273934.04200  23273934.13500  23273932.04000
        47.00000        29.00000
 -27455698.31208 -21394052.32208  20276256.98800  20276256.60800  20276255.48300
       266.00000       247.00000
  -2584475.29606  -2013877.93006  24413255.51200  24413255.40500  24413258.07700
        11.00000        11.00000
 04  8 26  0 47  0.0000000  0  9G18G15G29G 9G10G26G22G21G 3
 -19411132.01208 -15125555.23008  20982498.13400  20982498.27100  20982497.54700
       257.00000       141.00000
 -15646670.14407 -12192209.86107  22061986.95800  22061986.41300  22061987.25000
        79.00000        47.00000
 -11673074.14308  -9095901.73407  22068295.02200  22068295.08700  22068294.97400
       108.00000        70.00000
 -13113296.67507 -10218147.52607  22206126.35000  22206126.37000  22206128.29900
        91.00000        50.00000
   3136650.58406   2444130.85905  24851735.71100  24851734.74500  24851735.88000
        12.00000         9.00000
 -17368732.94808 -13534078.23308  20965275.47200  20965275.62500  20965276.06600
       220.00000       132.00000
  -9568694.86707  -7456122.93607  23257838.08400  23257837.96900  23257837.34200
        41.00000        32.00000
 -27444838.71308 -21385590.31408  20278323.53700  20278323.24800  20278322.01100
       273.00000       244.00000
  -2591717.70006  -2019521.39305  24411878.59200  24411877.98500  24411879.42200
        11.00000         9.00000
 04  8 26  0 47 30.0000000  0  9G18G15G29G 9G10G26G22G21G 3
 -19462580.20508 -15165644.72308  20972708.29100  20972708.18900  20972707.28200
       266.00000       140.00000
 -15731426.79707 -12258253.98907  22045857.77800  22045857.50100  22045858.69000
        79.00000        48.00000
 -11594408.36808  -9034603.75607  22083265.15300  22083264.94100  22083264.33500
       109.00000        69.00000
 -13213659.76507 -10296352.48307  22187027.86800  22187028.18300  22187029.93600
        93.00000        52.00000
   3231926.63906   2518371.85005  24869865.52700  24869865.03200  24869866.24300
        12.00000         8.00000
 -17293516.95108 -13475468.39308  20979588.77200  20979589.05900  20979589.17500
       230.00000       130.00000
  -9653182.58607  -7521957.49307  23241760.46800  23241760.68200  23241759.62300
        50.00000        33.00000
 -27433381.09608 -21376662.30708  20280503.69300  20280503.39100  20280502.34600
       271.00000       244.00000
  -2598428.32505  -2024750.48405  24410599.99200  24410600.17800  24410602.33800
         8.00000         8.00000
 04  8 26  0 48  0.0000000  0  9G18G15G29G 9G10G26G22G21G 3
 -19513766.06508 -15205529.80908  20962968.07100  20962967.92500  20962966.85000
       272.00000       139.00000
 -15815814.72307 -12324010.80207  22029799.87300  22029799.39600  22029800.59300
        81.00000        51.00000
 -11515536.32408  -8973145.04407  22098273.87200  22098273.62200  22098273.18200
       104.00000        68.00000
 -13313681.63607 -10374291.55407  22167995.58900  22167995.16300  22167996.48100
        92.00000        54.00000
   3327247.62605   2592647.86505  24888002.83200  24888001.91700  24888005.95500
         7.00000         8.00000
 -17217950.10208 -13416585.16508  20993969.12200  20993969.20800  20993969.17800
       235.00000       129.00000
  -9737574.96107  -7587717.74807  23225701.56700  23225701.34900  23225700.64100
        48.00000        35.00000
 -27421325.63908 -21367268.45908  20282798.06200  20282797.68300  20282796.26300
       276.00000       239.00000
  -2604607.31705  -2029565.33105  24409424.45500  24409425.01700  24409426.39800
         6.00000         7.00000
 04  8 26  0 48 30.0000000  0  9G18G15G29G 9G10G26G22G21G 3
 -19564700.42508 -15245218.91508  20953275.82000  20953275.52000  20953274.32000
       277.00000       141.00000
 -15899842.94707 -12389487.31807  22013809.80500  22013809.18200  22013810.08700
        80.00000        50.00000
 -11436471.73308  -8911536.29607  22113319.05800  22113318.86700  22113318.84900
       101.00000        67.00000
 -13413370.46808 -10451971.10407  22149025.04600  22149024.75800  22149025.75800
       102.00000        50.00000
   3422601.09505   2666949.17205  24906149.35400  24906148.34700  24906151.61700
         6.00000         8.00000
 -17142046.73308 -13357439.70408  21008412.79900  21008412.93300  21008413.02800
       230.00000       129.00000
  -9821882.86807  -7653412.16807  23209658.61500  23209658.52700  23209656.62700
        54.00000        32.00000
 -27408684.10208 -21357417.91808  20285203.53400  20285203.13800  20285202.02700
       272.00000       238.00000
  -2610266.70605  -2033975.24005  24408347.71400  24408347.79700  24408348.73500
         7.00000         8.00000
 04  8 26  0 49  0.0000000  0  9G18G15G29G 9G10G26G22G21G 3
 -19615340.61708 -15284678.80508  20943639.11100  20943639.03100  20943637.83000
       279.00000       144.00000
 -15983467.37907 -12454649.19007  21997896.07100  21997895.71500  21997897.01700
        79.00000        51.00000
 -11357175.00807  -8849746.66107  22128408.17000  22128408.35400  22128408.55800
        99.00000        66.00000
 -13512681.60808 -10529356.37307  22130126.09000  22130126.27000  22130127.48400
       103.00000        53.00000
   3518027.94805   2741307.66805  24924308.16800  24924307.77100  24924310.05100
         7.00000         8.00000
 -17065767.90108 -13298001.67908  21022927.93800  21022928.30900  21022928.56800
       231.00000       129.00000
  -9906064.26007  -7719008.02407  23193638.42700  23193638.47500  23193637.55200
        44.00000        32.00000
 -27395414.51808 -21347077.99108  20287728.66600  20287728.36800  20287727.21200
       276.00000       239.00000
  -2615365.30906  -2037948.20205  24407378.03900  24407377.72800  24407378.55100
        11.00000         7.00000
 04  8 26  0 49 30.0000000  0  9G18G15G29G 9G10G26G22G21G 3
 -19665689.38708 -15323911.60408  20934058.02600  20934057.85700  20934056.87800
       272.00000       148.00000
 -16066688.83307 -12519497.06507  21982059.50000  21982059.11300  21982060.18100
        79.00000        49.00000
 -11277651.85507  -8787780.58807  22143541.47200  22143541.43800  22143541.56500
        99.00000        64.00000
 -13611615.67208 -10606447.80107  22111300.27300  22111300.09000  22111301.45300
       105.00000        54.00000
   3613523.97405   2815720.07605  24942480.25500  24942479.72500  24942483.08600
         7.00000         9.00000
 -16989119.72708 -13238275.84608  21037513.70900  21037513.96800  21037514.06700
       229.00000       123.00000
  -9990121.89407  -7784507.42307  23177643.86600  23177643.58000  23177642.09200
        49.00000        32.00000
 -27381521.16408 -21336252.01108  20290372.38700  20290372.10000  20290371.00400
       272.00000       237.00000
  -2619906.96806  -2041487.17905  24406514.39700  24406513.70600  24406515.53500
        12.00000        10.00000
 04  8 26  0 50  0.0000000  0  9G18G15G29G 9G10G26G22G21G 3
 -19715782.73608 -15362945.37508  20924525.65200  20924525.41800  20924524.40600
       272.00000       150.00000
 -16149541.53707 -12584057.58507  21966292.89800  21966292.66600  21966293.39100
        78.00000        44.00000
 -11197940.85307  -8725668.14507  22158709.77600  22158709.78400  22158710.19600
        96.00000        63.00000
 -13710206.35608 -10683271.66307  22092539.45400  22092538.85900  22092539.86700
       106.00000        53.00000
   3709051.57205   2890157.05105  24960658.19400  24960656.36900  24960661.74300
         6.00000         8.00000
 -16912141.83608 -13178293.08108  21052162.31000  21052162.37100  21052162.39500
       227.00000       121.00000
 -10074091.79807  -7849938.46407  23161664.02500  23161664.04400  23161663.08000
        43.00000        32.00000
 -27367040.25008 -21324968.19208  20293128.03000  20293127.71300  20293126.53800
       272.00000       234.00000
  -2623928.98605  -2044621.25905  24405748.34700  24405748.28600  24405749.68300
         9.00000         8.00000
 04  8 26  0 50 30.0000000  0  9G18G15G29G 9G10G26G22G21G 3
 -19765606.00608 -15401768.68508  20915044.50200  20915044.30700  20915043.32500
       274.00000       154.00000
 -16232009.31207 -12648318.17707  21950599.95400  21950599.63600  21950600.74900
        83.00000        45.00000
 -11118030.60107  -8663400.43907  22173916.07200  22173916.10600  22173916.70700
        91.00000        63.00000
 -13808436.86508 -10759814.86007  22073845.50700  22073845.62600  22073846.72400
       106.00000        52.00000
   3804623.73905   2964628.79605  24978845.23100  24978844.30600  24978848.82100
         6.00000         8.00000
 -16834823.11508 -13118044.74808  21066875.43200  21066875.66400  21066875.82600
       228.00000       123.00000
 -10157959.81807  -7915290.12006  23145704.17700  23145704.29700  23145702.87500
        41.00000        27.00000
 -27351958.36708 -21313216.08408  20295998.16400  20295997.72400  20295996.67400
       268.00000       234.00000
  -2627417.94305  -2047339.90405  24405084.20500  24405084.59500  24405086.43800
         7.00000         9.00000
 04  8 26  0 51  0.0000000  0  9G18G15G29G 9G10G26G22G21G 3
 -19815155.36308 -15440378.56208  20905615.88600  20905615.55400  20905614.37300
       276.00000       156.00000
 -16314086.80307 -12712274.63507  21934981.49800  21934980.96700  21934981.76000
        88.00000        47.00000
 -11037920.21707  -8600976.79907  22189161.25500  22189160.92300  22189161.11500
        89.00000        62.00000
 -13906301.10808 -10836072.65507  22055222.91000  22055222.58800  22055224.09100
       106.00000        54.00000
   3900242.53305   3039136.85506  24997041.71800  24997041.42600  24997045.22200
         9.00000        11.00000
 -16757163.58708 -13057530.84908  21081653.61200  21081653.88600  21081654.11800
       228.00000       126.00000
 -10241722.09407  -7980559.38206  23129765.34600  23129765.34100  23129763.39900
        48.00000        30.00000
 -27336272.57308 -21300993.40008  20298982.98200  20298982.62400  20298981.41800
       264.00000       229.00000
  -2630371.57405  -2049641.40605  24404523.20300  24404522.86400  24404523.40000
         9.00000         8.00000
 04  8 26  0 51 30.0000000  0  9G18G15G29G 9G10G26G22G21G 3
 -19864388.59008 -15478742.10508  20896246.79400  20896246.68100  20896245.72800
       275.00000       160.00000
 -16395729.91907 -12775892.62807  21919444.74500  21919444.56700  21919445.66400
        92.00000        48.00000
 -10957570.20007  -8538366.41907  22204450.72700  22204450.76900  22204451.01300
        89.00000        60.00000
 -14003754.65708 -10912010.43707  22036677.73100  22036677.64100  22036679.35600
       101.00000        54.00000
   3995948.73905   3113712.99305  25015253.13900  25015252.24300  25015256.62100
         7.00000        10.00000
 -16679124.39608 -12996721.10408  21096503.99800  21096503.93600  21096504.49900
       216.00000       122.00000
 -10325336.64707  -8045713.53907  23113853.88800  23113854.16600  23113852.47100
        54.00000        32.00000
 -27319942.25808 -21288268.49008  20302090.51400  20302090.23600  20302089.14600
       269.00000       229.00000
  -2632748.82806  -2051493.88605  24404070.27300  24404070.58000  24404071.59100
        12.00000         9.00000
 04  8 26  0 52  0.0000000  0  9G18G15G29G 9G10G26G22G21G 3
 -19913314.72108 -15516866.35108  20886936.59700  20886936.23000  20886935.31300
       276.00000       158.00000
 -16476945.97607 -12839177.83907  21903990.53700  21903989.94300  21903990.74300
        90.00000        50.00000
 -10876992.57407  -8475578.68707  22219784.96200  22219784.53200  22219784.37800
        90.00000        58.00000
 -14100804.49108 -10987633.62507  22018208.87200  22018209.46300  22018211.05900
       106.00000        56.00000
   4091731.31605   3188348.68105  25033477.94900  25033478.52100  25033484.14800
         5.00000        10.00000
 -16600718.19008 -12935625.37908  21111423.68900  21111424.03900  21111424.59800
       211.00000       120.00000
 -10408812.76307  -8110759.80807  23097968.52500  23097968.93400  23097967.67000
        53.00000        34.00000
 -27302977.35908 -21275049.09808  20305318.59300  20305318.34400  20305317.29800
       262.00000       225.00000
  -2634560.19005  -2052905.36005  24403725.31900  24403724.88700  24403727.66300
        10.00000        10.00000
 04  8 26  0 52 30.0000000  0  9G18G15G29G 9G10G26G22G21G 3
 -19961989.61008 -15554794.82908  20877673.91200  20877673.82100  20877672.67300
       283.00000       156.00000
 -16557789.33207 -12902172.63207  21888606.31400  21888605.89300  21888607.03600
        88.00000        56.00000
 -10796246.39107  -8412659.61307  22235149.75300  22235149.77100  22235149.46600
        89.00000        56.00000
 -14197504.18408 -11062983.97007  21999808.24200  21999808.29200  21999810.12000
       101.00000        61.00000
   4187532.80505   3262999.08905  25051709.62400  25051709.86600  25051714.26400
         6.00000         9.00000
 -16522004.51708 -12874290.06108  21126403.10700  21126403.11400  21126403.16000
       216.00000       114.00000
 -10492206.69507  -8175742.05407  23082100.08300  23082099.96500  23082098.30600
        59.00000        32.00000
 -27285434.91808 -21261379.66908  20308657.11900  20308656.77900  20308655.66200
       266.00000       225.00000
  -2635862.87905  -2053920.44705  24403478.19700  24403476.92000  24403479.57700
         9.00000        10.00000
 04  8 26  0 53  0.0000000  0  9G18G15G29G 9G10G26G22G21G 3
 -20010416.15008 -15592529.78808  20868459.01700  20868458.56000  20868457.39200
       281.00000       157.00000
 -16638260.84907 -12964877.68207  21873293.13800  21873292.60600  21873293.35800
        91.00000        57.00000
 -10715336.90407  -8349613.27907  22250546.49100  22250546.45100  22250546.30500
        87.00000        55.00000
 -14293854.07207 -11138061.72507  21981473.78200  21981473.41800  21981475.28800
       100.00000        61.00000
   4283349.26505   3337661.15205  25069944.90200  25069944.46900  25069948.35900
         6.00000         8.00000
 -16442989.41408 -12812719.86308  21141439.05400  21141439.14800  21141439.05100
       217.00000       110.00000
 -10575521.18707  -8240662.40207  23066246.41200  23066246.15700  23066243.84000
        70.00000        32.00000
 -27267318.13608 -21247262.71308  20312104.88800  20312104.34800  20312103.11600
       265.00000       223.00000
  -2636660.82606  -2054542.24606  24403325.62300  24403325.41600  24403328.00000
        14.00000        11.00000
 04  8 26  0 53 30.0000000  0  9G18G15G29G 9G10G26G22G21G 3
 -20058527.48208 -15630019.13308  20859303.46200  20859303.22200  20859302.07000
       277.00000       156.00000
 -16718292.12507 -13027239.68407  21858063.74800  21858063.30200  21858064.25600
        98.00000        57.00000
 -10634200.38007  -8286390.03607  22265986.33400  22265986.41900  22265986.31500
        85.00000        58.00000
 -14389785.49908 -11212813.42607  21963218.10800  21963218.26900  21963219.95500
       114.00000        61.00000
   4379245.37405   3412385.27605  25088192.96500  25088192.85600  25088196.88100
         5.00000         8.00000
 -16363609.74208 -12750865.58408  21156544.23100  21156544.67000  21156544.60700
       215.00000       109.00000
 -10658689.70607  -8305469.01106  23050418.51100  23050418.86200  23050417.13800
        65.00000        30.00000
 -27248561.84908 -21232647.43308  20315673.64700  20315673.47200  20315672.25600
       269.00000       220.00000
  -2636888.98606  -2054720.09005  24403283.06400  24403282.38900  24403283.49200
        15.00000         9.00000
 04  8 26  0 54  0.0000000  0  9G18G15G29G 9G10G26G22G21G 3
 -20106356.04108 -15667288.11708  20850201.26000  20850201.46800  20850200.72400
       268.00000       161.00000
 -16797914.23108 -13089282.86907  21842912.24600  21842911.83900  21842912.45000
       102.00000        56.00000
 -10552872.39807  -8223017.60707  22281462.63200  22281462.61900  22281462.38100
        81.00000        56.00000
 -14485328.93808 -11287262.79707  21945037.52500  21945037.13600  21945038.40900
       109.00000        61.00000
   4475186.91705   3487144.80905  25106448.29200  25106447.35500  25106453.63600
         5.00000         7.00000
 -16283901.88908 -12688755.58508  21171712.61400  21171712.65500  21171712.55500
       209.00000       109.00000
 -10741744.81507  -8370187.24507  23034614.76300  23034614.50500  23034612.57300
        67.00000        35.00000
 -27229200.14008 -21217560.39808  20319358.21400  20319357.94600  20319356.87000
       270.00000       223.00000
  -2636581.65506  -2054480.64405  24403341.13600  24403340.50500  24403342.04200
        14.00000         8.00000
 04  8 26  0 54 30.0000000  0  9G18G15G29G 9G10G26G22G21G 3
 -20153878.30508 -15704318.44308  20841158.47000  20841158.45100  20841157.65400
       278.00000       166.00000
 -16877101.83608 -13150987.47507  21827843.18600  21827842.88400  21827843.30700
       103.00000        54.00000
 -10471332.17407  -8159479.81707  22296979.31700  22296978.90600  22296979.50800
        79.00000        59.00000
 -14580458.61808 -11361389.74607  21926934.78400  21926934.64600  21926936.00900
       110.00000        64.00000
   4571195.92905   3561956.94405  25124720.49500  25124719.37300  25124723.20100
         4.00000         7.00000
 -16203845.69108 -12626374.14608  21186946.38500  21186946.67700  21186946.77500
       205.00000       108.00000
 -10824663.20507  -8434798.92907  23018835.02500  23018835.04200  23018833.31100
        61.00000        34.00000
 -27209210.57508 -21201984.12208  20323162.11300  20323161.76100  20323160.70700
       271.00000       221.00000
  -2635716.48006  -2053806.50305  24403505.59300  24403505.33600  24403506.65100
        13.00000         9.00000
 04  8 26  0 55  0.0000000  0  9G18G15G29G 9G10G26G22G21G 3
 -20201100.78308 -15741115.16508  20832172.51500  20832172.38600  20832171.49800
       287.00000       170.00000
 -16955860.09807 -13212357.53907  21812856.15100  21812855.68000  21812856.30000
        98.00000        53.00000
 -10389589.51007  -8095784.26607  22312533.42800  22312533.82800  22312534.44900
        79.00000        60.00000
 -14675179.11708 -11435197.86107  21908909.49200  21908909.58800  21908911.18100
       117.00000        64.00000
   4667263.99405   3636815.02005  25143002.96100  25143001.10000  25143004.73800
         4.00000         8.00000
 -16123451.56608 -12563729.38908  21202245.13600  21202245.25000  21202245.32400
       198.00000       110.00000
 -10907451.79707  -8499309.49007  23003081.26000  23003081.24600  23003079.57700
        64.00000        36.00000
 -27188601.12708 -21185924.82408  20327083.93100  20327083.68200  20327082.52700
       269.00000       219.00000
  -2634302.02506  -2052704.38105  24403775.74000  24403774.76100  24403775.78500
        13.00000         9.00000
 04  8 26  0 55 30.0000000  0  9G18G15G29G 9G10G26G22G21G 3
 -20248071.76408 -15777715.91508  20823234.55000  20823234.20600  20823233.20300
       297.00000       172.00000
 -17034235.30207 -13273429.10907  21797941.51000  21797940.93300  21797941.79200
        89.00000        52.00000
 -10307695.02607  -8031970.41607  22328118.40300  22328118.38200  22328118.72400
        84.00000        62.00000
 -14769536.19208 -11508722.80007  21890954.75000  21890954.27300  21890955.17400
       119.00000        62.00000
   4763341.51105   3711680.46705  25161284.31900  25161284.80700  25161288.19800
         6.00000         9.00000
 -16042771.01408 -12500861.44608  21217598.28700  21217598.20400  21217598.51600
       191.00000       110.00000
 -10990158.88407  -8563756.49707  22987342.50100  22987342.59300  22987340.88700
        66.00000        37.00000
 -27167420.81608 -21169420.70508  20331114.38100  20331114.11500  20331113.07300
       269.00000       221.00000
  -2632387.48005  -2051212.54505  24404138.58200  24404138.62800  24404141.56900
        10.00000        10.00000
 04  8 26  0 56  0.0000000  0  9G18G15G29G 9G10G26G22G21G 3
 -20294726.18708 -15814070.00208  20814356.30500  20814356.21800  20814355.17300
       302.00000       178.00000
 -17112160.75707 -13334150.23007  21783112.38800  21783112.31500  21783113.07800
        91.00000        52.00000
 -10225586.71907  -7967989.94907  22343742.60700  22343742.77400  22343743.40300
        84.00000        63.00000
 -14863462.73908 -11581912.25007  21873080.76600  21873080.58900  21873082.04800
       119.00000        70.00000
   4859491.95105   3786602.71905  25179580.16900  25179578.84100  25179585.95800
         5.00000        10.00000
 -15961742.43308 -12437722.31508  21233017.04000  21233017.36100  21233017.72900
       190.00000       108.00000
 -11072719.34907  -8628089.29507  22971631.70900  22971631.77200  22971629.59100
        63.00000        34.00000
 -27145606.28708 -21152422.37908  20335265.51000  20335265.21500  20335264.21000
       269.00000       220.00000
  -2629909.42805  -2049281.61906  24404610.53200  24404610.48900  24404612.61700
        10.00000        11.00000
 04  8 26  0 56 30.0000000  0  9G18G15G29G 9G10G26G22G21G 3
 -20341095.62808 -15850202.02208  20805532.55600  20805532.39000  20805531.32000
       298.00000       180.00000
 -17189666.91707 -13394544.61907  21768363.90400  21768363.46500  21768364.19200
        98.00000        54.00000
 -10143299.34407  -7903869.95107  22359401.80500  22359401.75400  22359402.30200
        83.00000        62.00000
 -14956988.50508 -11654789.40507  21855283.08000  21855282.97300  21855284.25900
       121.00000        66.00000
   4955681.56105   3861555.53405  25197886.82300  25197886.29800  25197890.52500
         7.00000         9.00000
 -15880401.38408 -12374339.69608  21248495.95300  21248496.21300  21248496.36500
       193.00000       105.00000
 -11155165.21207  -8692332.77207  22955942.04900  22955942.38000  22955941.01400
        60.00000        36.00000
 -27123190.56608 -21134955.59708  20339531.24700  20339530.84900  20339529.86900
       268.00000       222.00000
  -2626901.49505  -2046937.83206  24405181.95500  24405180.89100  24405184.87600
         8.00000        11.00000
 04  8 26  0 57  0.0000000  0 10G18G15G29G 9G10G26G22G21G 3G28
 -20387164.25008 -15886099.63408  20796765.74400  20796765.64900  20796764.79000
       289.00000       183.00000
 -17266735.82908 -13454598.30407  21753698.62500  21753697.98400  21753698.50900
       107.00000        55.00000
 -10060819.40007  -7839599.91007  22375097.43000  22375097.11200  22375097.49600
        79.00000        58.00000
 -15050095.06508 -11727339.91307  21837565.44100  21837565.37300  21837566.70200
       124.00000        69.00000
   5051925.04805   3936550.28505  25216200.41700  25216199.40200  25216204.67200
         8.00000        10.00000
 -15798735.25508 -12310703.76208  21264036.44400  21264036.48600  21264036.93900
       190.00000       105.00000
 -11237480.69307  -8756474.65207  22940278.47200  22940278.20300  22940277.24100
        56.00000        41.00000
 -27100158.74808 -21117008.73908  20343914.10600  20343913.70200  20343912.85200
       267.00000       224.00000
  -2623349.06705  -2044169.72805  24405859.86800  24405858.82600  24405860.99900
         9.00000        10.00000
    -25619.89404    -19963.52205  25583656.14800  25583656.12200  25583655.50200
         2.00000         6.00000
 04  8 26  0 57 30.0000000  0 10G18G15G29G 9G10G26G22G21G 3G28
 -20432948.03308 -15921775.29508  20788053.82600  20788053.45100  20788052.42900
       288.00000       184.00000
 -17343381.69608 -13514322.34507  21739113.16000  21739112.69400  21739113.22300
       108.00000        55.00000
  -9978165.75607  -7775194.50707  22390825.01700  22390825.40300  22390825.61200
        76.00000        52.00000
 -15142796.22508 -11799574.52207  21819925.05600  21819925.25800  21819926.34200
       132.00000        72.00000
   5148204.69505   4011573.23005  25234521.27600  25234522.39900  25234526.35100
         9.00000         9.00000
 -15716763.32508 -12246829.54708  21279635.31900  21279635.45000  21279635.96400
       192.00000       107.00000
 -11319681.75407  -8820527.37407  22924635.66900  22924636.19400  22924634.57600
        60.00000        38.00000
 -27076527.91008 -21098595.11408  20348410.78000  20348410.46200  20348409.43000
       268.00000       218.00000
  -2619269.47406  -2040990.85305  24406634.94700  24406635.57000  24406637.55900
        11.00000        10.00000
    -63701.65804    -49637.46405  25576410.43600  25576410.64200  25576407.38700
         3.00000         6.00000
 04  8 26  0 58  0.0000000  0 10G18G15G29G 9G10G26G22G21G 3G28
 -20478435.20708 -15957219.83608  20779397.73300  20779397.37000  20779396.31000
       282.00000       181.00000
 -17419591.50208 -13573706.59307  21724611.24600  21724610.47200  21724610.79000
       109.00000        55.00000
  -9895329.95407  -7710647.15907  22406588.13600  22406588.41200  22406588.65100
        72.00000        49.00000
 -15235078.59208 -11871482.79607  21802364.41500  21802364.07300  21802365.33900
       127.00000        68.00000
   5244530.25605   4086631.98005  25252852.04200  25252851.42000  25252855.66100
         7.00000         9.00000
 -15634477.93608 -12182711.07208  21295293.64500  21295294.02400  21295294.31400
       193.00000       104.00000
 -11401757.04507  -8884482.09807  22909017.29800  22909017.58600  22909015.91300
        60.00000        39.00000
 -27052287.97508 -21079706.85808  20353023.37500  20353023.01200  20353022.44000
       262.00000       219.00000
  -2614653.18106  -2037393.73205  24407513.96300  24407514.06800  24407514.93000
        12.00000         9.00000
   -101361.24905    -78982.46605  25569243.07900  25569242.85500  25569241.94200
         5.00000         8.00000
 04  8 26  0 58 30.0000000  0 10G18G15G29G 9G10G26G22G21G 3G28
 -20523614.85308 -15992424.74708  20770800.13900  20770799.93100  20770798.86400
       276.00000       179.00000
 -17495352.55008 -13632741.15307  21710194.24800  21710193.55200  21710193.87400
       108.00000        56.00000
  -9812303.63807  -7645951.34707  22422387.74400  22422387.80400  22422388.28700
        72.00000        49.00000
 -15326929.11308 -11943054.58407  21784885.72500  21784885.74300  21784886.86900
       142.00000        70.00000
   5340911.41505   4161734.06805  25271192.80800  25271191.85300  25271197.98700
         7.00000         9.00000
 -15551871.40408 -12118342.37008  21311013.60300  21311013.58000  21311013.46200
       183.00000       101.00000
 -11483695.80907  -8948330.42807  22893424.98100  22893425.10300  22893423.25100
        62.00000        35.00000
 -27027429.52308 -21060336.64908  20357754.33000  20357753.74500  20357752.61400
       270.00000       215.00000
  -2609490.62606  -2033370.99306  24408496.11800  24408495.66000  24408498.29500
        11.00000        11.00000
   -138587.11505   -107989.51805  25562158.39000  25562158.36500  25562158.40700
         4.00000         6.00000
 04  8 26  0 59  0.0000000  0 10G18G15G29G 9G10G26G22G21G 3G28
 -20568528.95908 -16027422.74108  20762253.11800  20762252.91300  20762251.94900
       272.00000       180.00000
 -17570705.36708 -13691457.61507  21695854.43500  21695854.25400  21695854.53400
       110.00000        57.00000
  -9729131.45507  -7581141.88507  22438215.45100  22438215.27700  22438215.75600
        73.00000        49.00000
 -15418387.36308 -12014320.70107  21767481.97600  21767481.89700  21767483.08500
       143.00000        69.00000
   5437304.18405   4236845.12205  25289535.05600  25289535.32500  25289540.50800
         6.00000         7.00000
 -15468989.37808 -12053758.99507  21326785.77300  21326785.60400  21326785.46700
       182.00000        99.00000
 -11565540.05207  -9012105.12807  22877850.57900  22877850.68300  22877848.60600
        63.00000        35.00000
 -27001996.00208 -21040518.33008  20362593.72800  20362593.43300  20362592.33500
       271.00000       211.00000
  -2603825.61606  -2028956.71805  24409574.54900  24409574.89000  24409576.66600
        12.00000        10.00000
   -175420.38505   -136690.66505  25555149.90400  25555150.13600  25555148.66700
         6.00000         6.00000
 04  8 26  0 59 30.0000000  0 10G18G15G29G 9G10G26G22G21G 3G28
 -20613117.84608 -16062167.32308  20753768.17000  20753768.01800  20753766.90300
       275.00000       179.00000
 -17645588.37108 -13749807.98507  21681605.00400  21681604.49600  21681604.86800
       111.00000        58.00000
  -9645756.81707  -7516174.67207  22454081.77200  22454081.57200  22454081.74700
        78.00000        52.00000
 -15509391.50408 -12085232.97007  21750163.89300  21750163.84600  21750165.22200
       132.00000        68.00000
   5533766.98705   4312010.80605  25307891.51400  25307890.99300  25307896.37600
         4.00000         7.00000
 -15385775.57208 -11988917.08907  21342620.83700  21342620.76700  21342620.71400
       181.00000       100.00000
 -11647230.09207  -9075759.65307  22862305.97500  22862305.88100  22862303.60200
        65.00000        37.00000
 -26975929.08608 -21020206.45408  20367554.03500  20367553.73100  20367552.77900
       274.00000       210.00000
  -2597600.11505  -2024105.69005  24410758.74700  24410758.28800  24410761.12400
         8.00000         9.00000
   -211800.62905   -165038.77905  25548226.19300  25548225.14000  25548223.60000
         5.00000         5.00000
 04  8 26  1  0  0.0000000  0 10G15G28G29G18G 9G10G26G22G21G 3
 -17719998.20808 -13807789.66007  21667444.94400  21667444.46700  21667445.41700
       104.00000        60.00000
   -247725.22905   -193031.87805  25541390.05200  25541389.19400  25541388.61900
         5.00000         5.00000
  -9562180.49307  -7451050.29707  22469985.89100  22469985.77300  22469985.67300
        78.00000        51.00000
 -20657379.40408 -16096656.84708  20745345.57400  20745345.42100  20745344.37400
       278.00000       185.00000
 -15599937.70508 -12155788.42107  21732933.93400  21732933.71600  21732934.74000
       141.00000        69.00000
   5630300.01105   4387231.15005  25326262.48500  25326261.48800  25326264.68700
         7.00000         5.00000
 -15302231.63008 -11923817.92607  21358518.35100  21358518.35800  21358518.59700
       179.00000        98.00000
 -11728764.31607  -9139292.78207  22846789.73700  22846789.85200  22846787.73200
        64.00000        37.00000
 -26949228.59308 -20999400.88408  20372635.34600  20372634.90400  20372633.72200
       280.00000       211.00000
  -2590814.02006  -2018817.82005  24412051.31600  24412050.71300  24412051.91600
        12.00000         8.00000
 04  8 26  1  0 30.0000000  0 10G15G28G29G18G 9G10G26G22G21G 3
 -17793995.25408 -13865449.68207  21653363.77300  21653363.42300  21653364.43500
       104.00000        62.00000
   -283255.41505   -220717.66005  25534629.33200  25534628.36900  25534626.75300
         5.00000         5.00000
  -9478467.39407  -7385819.33907  22485916.40700  22485916.21000  22485915.58700
        76.00000        50.00000
 -20701375.62908 -16130939.61008  20736973.47200  20736973.26200  20736972.17300
       278.00000       185.00000
 -15690085.80808 -12226033.64507  21715779.24900  21715779.07600  21715780.46800
       139.00000        73.00000
   5726839.31405   4462456.47105  25344634.07400  25344633.06200  25344635.15600
         6.00000         4.00000
 -15218423.00608 -11858512.52007  21374466.61100  21374466.58400  21374466.81200
       178.00000        95.00000
 -11810204.88807  -9202752.92907  22831292.78500  22831292.64400  22831291.36100
        75.00000        47.00000
 -26921957.41908 -20978150.63008  20377824.52500  20377824.26100  20377823.37400
       282.00000       212.00000
  -2583531.18605  -2013142.93205  24413435.14700  24413434.81400  24413436.77200
         8.00000         8.00000
 04  8 26  1  1  0.0000000  0 10G15G28G29G18G 9G10G26G22G21G 3
 -17867549.64108 -13922764.76507  21639366.58000  21639366.29900  21639367.24100
       103.00000        64.00000
   -318362.31505   -248073.62105  25527946.51500  25527946.64300  25527946.90100
         5.00000         5.00000
  -9394591.95507  -7320461.88807  22501876.37400  22501876.40000  22501876.31400
        72.00000        48.00000
 -20745078.07508 -16164993.46308  20728657.15200  20728656.93100  20728655.71900
       275.00000       184.00000
 -15779805.60108 -12295945.13307  21698705.52800  21698705.48100  21698706.98300
       135.00000        73.00000
   5823411.71405   4537707.57205  25363009.86500  25363009.75000  25363014.45800
         6.00000         5.00000
 -15134324.84508 -11792981.49607  21390469.98200  21390470.05300  21390470.23300
       181.00000        95.00000
 -11891523.41907  -9266117.98207  22815817.99500  22815818.13300  22815816.40700
        77.00000        46.00000
 -26894089.09608 -20956435.07008  20383127.92200  20383127.68400  20383126.50600
       292.00000       211.00000
  -2575724.77605  -2007060.03205  24414921.06500  24414921.76900  24414922.87000
         7.00000         8.00000
 04  8 26  1  1 30.0000000  0 10G15G28G29G18G 9G10G26G22G21G 3
 -17940672.98108 -13979743.97007  21625451.73600  21625451.33800  21625452.83700
       103.00000        65.00000
   -353058.31905   -275109.40805  25521344.08000  25521343.49300  25521343.47200
         6.00000         5.00000
  -9310570.04407  -7254990.30607  22517865.32700  22517865.08600  22517865.24900
        67.00000        49.00000
 -20788500.17608 -16198828.86508  20720394.23400  20720394.00700  20720392.91800
       272.00000       188.00000
 -15869108.31008 -12365531.63507  21681712.07700  21681712.00900  21681713.34600
       140.00000        75.00000
   5920002.56505   4612973.07404  25381391.84200  25381391.07800  25381393.22200
         6.00000         3.00000
 -15049953.88308 -11727237.90807  21406525.27400  21406525.41100  21406525.49500
       179.00000        94.00000
 -11972733.24507  -9329398.33907  22800365.03300  22800364.76900  22800362.74400
        83.00000        47.00000
 -26865638.40108 -20934265.70808  20388541.78900  20388541.51300  20388540.69600
       294.00000       213.00000
  -2567409.90605  -2000580.91606  24416504.72400  24416504.07600  24416505.19200
        10.00000        11.00000
 04  8 26  1  2  0.0000000  0 10G15G28G29G18G 9G10G26G22G21G 3
 -18013304.01308 -14036339.57107  21611631.17300  21611630.52200  21611631.38500
       110.00000        63.00000
   -387283.17605   -301778.06305  25514830.75600  25514829.85100  25514829.80900
         6.00000         4.00000
  -9226345.03807  -7189360.46107  22533892.85200  22533892.60500  22533892.67200
        67.00000        46.00000
 -20831581.99608 -16232399.10608  20712195.96200  20712195.68700  20712194.65300
       270.00000       187.00000
 -15957932.22008 -12434745.03307  21664809.18200  21664809.41800  21664810.91800
       143.00000        78.00000
   6016670.01005   4688298.25405  25399786.35300  25399785.98200  25399791.85800
         4.00000         5.00000
 -14965254.04008 -11661238.04807  21422642.88900  21422643.08200  21422643.16800
       171.00000        91.00000
 -12053774.76007  -9392547.53407  22784942.48700  22784942.68000  22784940.54900
        83.00000        46.00000
 -26836547.35808 -20911597.38108  20394078.17300  20394077.75900  20394076.52800
       300.00000       213.00000
  -2558528.88806  -1993660.63906  24418194.26700  24418194.10100  24418195.69200
        13.00000        11.00000
 04  8 26  1  2 30.0000000  0 10G15G28G29G18G 9G10G26G22G21G 3
 -18085457.98308 -14092563.42707  21597900.56900  21597900.05400  21597900.75400
       114.00000        61.00000
   -421052.96205   -328092.10105  25508403.37000  25508404.34300  25508403.07800
         6.00000         5.00000
  -9141936.26507  -7123587.42207  22549955.11500  22549955.35100  22549955.77300
        72.00000        47.00000
 -20874340.48208 -16265717.39908  20704059.18700  20704059.05600  20704057.97300
       270.00000       189.00000
 -16046291.97608 -12503596.76107  21647995.06600  21647994.89700  21647996.35300
       140.00000        78.00000
   6113395.64904   4763668.75705  25418192.75900  25418192.89900  25418197.48000
         1.00000         5.00000
 -14880245.51108 -11594997.65007  21438819.57700  21438819.63100  21438819.76100
       169.00000        89.00000
 -12134664.65207  -9455578.58007  22769550.01800  22769550.10100  22769548.58700
        81.00000        48.00000
 -26806834.48908 -20888444.51408  20399732.07800  20399731.69900  20399730.63200
       296.00000       210.00000
  -2549100.24505  -1986313.68405  24419987.98000  24419986.79700  24419989.65300
         6.00000         9.00000
 04  8 26  1  3  0.0000000  0 10G15G28G29G18G 9G10G26G22G21G 3
 -18157175.00208 -14148446.81807  21584252.95100  21584252.39900  21584253.63600
       115.00000        63.00000
   -454409.02205   -354083.77805  25502056.70200  25502055.97700  25502057.26700
         6.00000         4.00000
  -9057388.33607  -7057705.94807  22566044.84000  22566044.77600  22566044.48600
        76.00000        46.00000
 -20916817.17008 -16298816.12108  20695976.25900  20695975.95500  20695974.91800
       267.00000       191.00000
 -16134227.17908 -12572117.67407  21631261.63700  21631261.47700  21631262.78400
       148.00000        79.00000
   6210135.98700   4839050.68905  25436603.50600  25436602.45800  25436606.86800
          .00000         5.00000
 -14794973.67108 -11528552.07207  21455046.44300  21455046.39200  21455046.46200
       167.00000        88.00000
 -12215444.99807  -9518524.27907  22754177.59500  22754177.26100  22754175.74900
        69.00000        44.00000
 -26776542.65808 -20864840.50208  20405496.39800  20405496.09900  20405494.99100
       295.00000       208.00000
  -2539167.67805  -1978574.04005  24421879.56900  24421879.27600  24421879.77000
        10.00000         7.00000
 04  8 26  1  3 30.0000000  0 10G15G28G29G18G 9G10G26G22G21G 3
 -18228443.37108 -14203980.60307  21570691.00600  21570690.62200  21570691.85600
       118.00000        67.00000
   -487340.11205   -379744.32904  25495789.96100  25495790.03400  25495792.03600
         8.00000         3.00000
  -8972693.65707  -6991710.14207  22582161.15700  22582161.42600  22582161.51500
        72.00000        46.00000
 -20959001.74408 -16331687.21408  20687948.70500  20687948.49100  20687947.43600
       263.00000       192.00000
 -16221725.54508 -12640298.19107  21614611.16000  21614611.20800  21614612.43400
       150.00000        79.00000
   6306899.61500   4914450.81304  25455016.62300  25455015.88800  25455017.02600
          .00000         3.00000
 -14709431.47208 -11461895.82307  21471324.26300  21471324.48700  21471324.61000
       167.00000        88.00000
 -12296105.35307  -9581376.46607  22738828.24100  22738828.22500  22738826.85800
        72.00000        45.00000
 -26745663.31508 -20840778.68908  20411372.58400  20411372.16000  20411371.10800
       293.00000       205.00000
  -2528722.49405  -1970434.95405  24423866.37100  24423866.02700  24423867.68000
        10.00000         8.00000
 04  8 26  1  4  0.0000000  0 10G15G28G29G18G 9G10G26G22G21G 3
 -18299227.23208 -14259136.84607  21557220.77900  21557220.69600  21557222.11200
       115.00000        67.00000
   -519811.53905   -405046.72605  25489611.86100  25489610.73400  25489612.87700
        10.00000         4.00000
  -8887820.89907  -6925575.55707  22598311.72100  22598311.61700  22598312.17800
        67.00000        47.00000
 -21000859.90408 -16364303.95308  20679983.15600  20679983.06300  20679982.20300
       262.00000       198.00000
 -16308750.75408 -12708110.01107  21598050.62400  21598050.59100  21598051.72800
       151.00000        79.00000
   6403719.00300   4989894.44204  25473440.57100  25473438.85700  25473443.18000
          .00000         3.00000
 -14623588.29808 -11395005.04907  21487659.70400  21487659.91500  21487660.14700
       159.00000        88.00000
 -12376611.84007  -9644108.74807  22723508.21100  22723508.37600  22723506.43400
        75.00000        42.00000
 -26714163.91308 -20816233.71708  20417366.76300  20417366.36500  20417365.21900
       295.00000       200.00000
  -2517732.66306  -1961871.49905  24425956.37800  24425956.47600  24425958.38200
        12.00000         7.00000
 04  8 26  1  4 30.0000000  0 10G15G28G29G18G 9G10G26G22G21G 3
 -18369512.90508 -14313904.89007  21543846.84000  21543846.36400  21543847.01500
       122.00000        67.00000
   -551810.84005   -429981.24605  25483519.61500  25483520.25900  25483521.19400
         8.00000         4.00000
  -8802760.75407  -6859294.96107  22614498.11600  22614497.92600  22614498.85500
        64.00000        47.00000
 -21042379.88608 -16396657.17808  20672082.24400  20672082.05400  20672081.23200
       260.00000       204.00000
 -16395289.13108 -12775542.50107  21581583.36300  21581583.12300  21581584.08500
       155.00000        81.00000
   6500604.20800   5065389.32704  25491878.13700  25491876.16100  25491879.51000
          .00000         2.00000
 -14537435.64708 -11327873.13007  21504054.01000  21504054.13500  21504054.49300
       152.00000        88.00000
 -12456952.45007  -9706711.77907  22708220.73500  22708220.49900  22708218.05700
        80.00000        40.00000
 -26682034.32508 -20791197.68508  20423480.88000  20423480.42600  20423479.22200
       298.00000       196.00000
  -2506188.21406  -1952875.87405  24428155.09700  24428154.53300  24428155.51700
        14.00000         7.00000
 04  8 26  1  5  0.0000000  0 10G15G28G29G18G 9G10G26G22G21G 3
 -18439359.29008 -14368330.64307  21530555.51300  21530555.06800  21530555.41600
       129.00000        66.00000
   -583397.93305   -454594.55904  25477511.66900  25477511.20700  25477511.47200
        10.00000         3.00000
  -8717576.38707  -6792917.57107  22630708.40200  22630708.19600  22630708.88000
        62.00000        47.00000
 -21083621.78608 -16428793.71808  20664234.23200  20664233.99000  20664233.14000
       259.00000       207.00000
 -16481398.94808 -12842641.02007  21565197.24000  21565197.06000  21565198.31100
       157.00000        85.00000
   6597493.64100   5140887.51004  25510313.14500  25510311.72300  25510318.27600
          .00000         2.00000
 -14451037.43608 -11260549.85607  21520494.78800  21520494.95300  21520495.77500
       150.00000        88.00000
 -12537187.65107  -9769232.68107  22692951.87500  22692951.87400  22692949.56100
        77.00000        40.00000
 -26649336.59508 -20765718.94608  20429702.86600  20429702.63800  20429701.32400
       301.00000       190.00000
  -2494151.36106  -1943496.54005  24430444.66600  24430444.78700  24430445.58000
        11.00000         8.00000
 04  8 26  1  5 30.0000000  0 10G15G28G29G18G 9G10G26G22G21G 3
 -18508713.61908 -14422372.97807  21517357.47000  21517357.07000  21517357.99300
       127.00000        68.00000
   -614520.71705   -478846.04305  25471588.28000  25471588.53500  25471589.85200
        10.00000         4.00000
  -8632219.11107  -6726405.44407  22646951.40800  22646951.14800  22646951.72200
        61.00000        47.00000
 -21124534.05708 -16460673.40708  20656448.63400  20656448.55200  20656447.95800
       259.00000       212.00000
 -16567026.70908 -12909363.92107  21548902.43300  21548902.25800  21548903.20900
       154.00000        79.00000
   6694436.91200   5216427.76804  25528763.43100  25528763.40800  25528763.62100
          .00000         3.00000
 -14364345.71308 -11192997.87607  21536992.10500  21536992.17300  21536992.72100
       156.00000        89.00000
 -12617266.13307  -9831631.45507  22677714.52500  22677714.06700  22677711.42500
        84.00000        40.00000
 -26616021.00208 -20739758.75608  20436042.63000  20436042.30500  20436041.24700
       301.00000       187.00000
  -2481572.45405  -1933694.85705  24432839.78000  24432838.77600  24432840.02300
        10.00000         8.00000
 04  8 26  1  6  0.0000000  0 10G15G28G29G18G 9G10G26G22G21G 3
 -18577616.73008 -14476063.69907  21504245.57700  21504245.13400  21504246.16500
       124.00000        70.00000
   -645221.06905   -502768.40005  25465746.45900  25465746.66800  25465750.69300
         8.00000         4.00000
  -8546734.12407  -6659793.81207  22663218.41900  22663218.65100  22663218.69200
        61.00000        45.00000
 -21165159.05308 -16492329.24208  20648718.35000  20648718.11500  20648717.20200
       266.00000       214.00000
 -16652212.77408 -12975742.64807  21532691.90700  21532691.98100  21532693.04800
       154.00000        79.00000
   6791390.21800   5291975.83304  25547211.20200  25547215.12900  25547217.50900
          .00000         3.00000
 -14277406.37508 -11125252.94107  21553536.70300  21553536.58200  21553536.65200
       162.00000        86.00000
 -12697230.19407  -9893941.08607  22662497.23000  22662497.06000  22662494.65400
        87.00000        41.00000
 -26582131.55908 -20713351.41508  20442491.64300  20442491.18600  20442489.92800
       294.00000       181.00000
  -2468496.17806  -1923505.53505  24435326.99000  24435326.56300  24435328.38700
        11.00000         8.00000
 04  8 26  1  6 30.0000000  0 10G15G28G29G18G 9G10G26G22G21G 3
 -18646076.76408 -14529409.17607  21491218.13900  21491217.58600  21491218.58900
       123.00000        70.00000
   -675508.37905   -526368.92805  25459982.96900  25459983.71800  25459987.88200
         7.00000         6.00000
  -8461133.92607  -6593092.40207  22679507.81700  22679507.89700  22679508.10500
        60.00000        44.00000
 -21205506.56108 -16523768.85708  20641040.54500  20641040.25700  20641039.30600
       268.00000       213.00000
 -16736965.40808 -13041783.63707  21516563.89400  21516563.71800  21516565.15500
       154.00000        79.00000
   6888342.17400   5367522.76104  25565664.40100  25565661.77500  25565663.06700
        -2.00000         2.00000
 -14190232.32608 -11057325.12507  21570125.22100  21570125.23700  21570125.20500
       159.00000        85.00000
 -12777089.98407  -9956169.46207  22647300.62100  22647300.38900  22647297.72600
        86.00000        39.00000
 -26547679.73908 -20686505.85908  20449047.55500  20449047.26000  20449046.09700
       295.00000       179.00000
  -2454934.13806  -1912937.74405  24437907.63500  24437907.61800  24437909.49100
        15.00000         9.00000
 04  8 26  1  7  0.0000000  0 10G15G28G29G18G 9G10G26G22G21G 3
 -18714013.72908 -14582347.06307  21478289.89000  21478289.57500  21478290.56000
       128.00000        71.00000
   -705303.66305   -549586.05405  25454315.21900  25454314.46800  25454316.78500
         8.00000         4.00000
  -8375342.58607  -6526242.04707  22695833.69300  22695833.30300  22695833.69600
        60.00000        43.00000
 -21245498.33508 -16554931.27108  20633430.25800  20633429.98500  20633429.01600
       267.00000       212.00000
 -16821204.04908 -13107424.10507  21500533.73800  21500533.91700  21500535.14900
       163.00000        82.00000
   6985369.45800   5443128.32704  25584122.98300  25584124.33400  25584128.57200
        -2.00000         3.00000
 -14102748.80108 -10989156.16607  21586772.81700  21586772.66200  21586772.58300
       155.00000        83.00000
 -12856766.75307 -10018255.24007  22632137.54600  22632137.80700  22632136.12600
        80.00000        42.00000
 -26512589.63008 -20659162.93108  20455724.89800  20455724.53900  20455723.60500
       292.00000       179.00000
  -2440809.84806  -1901931.84106  24440595.46400  24440595.54400  24440598.18600
        11.00000        12.00000
 04  8 26  1  7 30.0000000  0  9G15G28G29G18G 9G26G22G21G 3
 -18781437.57608 -14634885.11807  21465459.65200  21465459.43400  21465460.21100
       133.00000        71.00000
   -734617.74905   -572428.21405  25448736.52500  25448736.11300  25448737.96800
         5.00000         4.00000
  -8289374.50207  -6459253.97707  22712192.42900  22712192.40100  22712193.01000
        57.00000        41.00000
 -21285145.43708 -16585825.11308  20625885.77500  20625885.45400  20625884.40100
       267.00000       211.00000
 -16904938.17808 -13172671.45007  21484600.47400  21484600.21100  21484600.42300
       168.00000        79.00000
 -14014970.72008 -10920757.67507  21603476.25500  21603476.29800  21603476.31800
       151.00000        82.00000
 -12936272.00607 -10080207.36307  22617008.33600  22617008.43400  22617006.94500
        78.00000        43.00000
 -26476873.58108 -20631332.26208  20462521.45700  20462521.10600  20462520.21700
       293.00000       180.00000
  -2426137.10205  -1890498.55106  24443386.96400  24443387.56500  24443388.80700
         8.00000        11.00000
 04  8 26  1  8  0.0000000  0  9G15G28G29G18G 9G26G22G21G 3
 -18848410.93508 -14687072.13607  21452714.92800  21452714.81300  21452715.62400
       134.00000        72.00000
   -763514.48005   -594945.12505  25443239.12800  25443238.65600  25443237.89500
         7.00000         5.00000
  -8203296.33707  -6392180.11307  22728572.71000  22728572.47100  22728572.94500
        55.00000        40.00000
 -21324512.00508 -16616500.35708  20618394.42000  20618394.27500  20618393.03900
       272.00000       209.00000
 -16988229.82108 -13237574.00207  21468749.37900  21468749.66200  21468750.98400
       165.00000        86.00000
 -13926965.49908 -10852182.20007  21620222.72000  21620223.05400  21620223.16300
       147.00000        79.00000
 -13015669.98907 -10142075.90307  22601899.00500  22601899.10300  22601898.01900
        79.00000        48.00000
 -26440597.95308 -20603065.56108  20469424.67800  20469424.32700  20469423.06300
       298.00000       179.00000
  -2410981.74905  -1878689.26805  24446271.27200  24446271.14200  24446273.73600
         7.00000         9.00000
 04  8 26  1  8 30.0000000  0  9G15G28G29G18G 9G26G22G21G 3
 -18914859.14708 -14738849.95807  21440070.26600  21440070.01100  21440070.87500
       133.00000        71.00000
   -791920.42605   -617079.63705  25437833.35700  25437832.47600  25437834.77400
         4.00000         5.00000
  -8117037.83707  -6324965.73107  22744986.83000  22744986.74800  22744987.43400
        54.00000        40.00000
 -21363525.14308 -16646900.20808  20610970.45500  20610970.19400  20610969.16000
       270.00000       210.00000
 -17071004.09608 -13302073.39907  21452998.95700  21452998.89900  21452999.20500
       172.00000        84.00000
 -13838663.63008 -10783375.56207  21637025.66300  21637026.18900  21637026.09100
       143.00000        76.00000
 -13094887.57107 -10203803.85707  22586824.92600  22586824.98300  22586822.92800
        84.00000        46.00000
 -26403692.02708 -20574307.71408  20476447.30000  20476447.07400  20476446.23400
       293.00000       183.00000
  -2395273.15805  -1866448.81005  24449260.09200  24449259.81200  24449262.89900
         6.00000        10.00000
 04  8 26  1  9  0.0000000  0  9G15G28G29G18G 9G26G22G21G 3
 -18980790.81608 -14790225.27807  21427524.56400  21427523.78300  21427524.35700
       132.00000        71.00000
   -819844.61005   -638838.77105  25432518.50100  25432518.11800  25432520.94600
         4.00000         7.00000
  -8030611.54507  -6257620.60507  22761433.37500  22761433.69500  22761434.09700
        53.00000        38.00000
 -21402194.61408 -16677032.26808  20603611.80600  20603611.62300  20603610.60200
       267.00000       212.00000
 -17153268.84108 -13366175.76907  21437344.23500  21437344.05500  21437345.12800
       171.00000        89.00000
 -13750078.42508 -10714348.15407  21653883.97300  21653883.69100  21653883.89300
       143.00000        76.00000
 -13173934.80607 -10265399.07607  22571782.95600  22571782.85900  22571780.97300
        89.00000        48.00000
 -26366167.41008 -20545067.76608  20483588.03100  20483587.87700  20483586.79700
       288.00000       180.00000
  -2379023.27206  -1853786.59106  24452354.01500  24452353.02200  24452355.11200
        12.00000        11.00000
 04  8 26  1  9 30.0000000  0  9G15G28G29G18G 9G26G22G21G 3
 -19046293.57708 -14841266.38007  21415059.34700  21415058.99100  21415059.78500
       138.00000        73.00000
   -847376.14305   -660291.94805  25427278.59500  25427279.26400  25427280.25300
         5.00000         6.00000
  -7944109.32507  -6190216.30907  22777895.10700  22777894.50600  22777895.16800
        54.00000        39.00000
 -21440609.25008 -16706965.75008  20596301.92000  20596301.71900  20596300.68600
       269.00000       220.00000
 -17235111.45108 -13429949.19907  21421770.03600  21421769.83600  21421770.81400
       170.00000        87.00000
 -13661302.21708 -10645171.89807  21670777.08000  21670777.18100  21670777.48400
       142.00000        75.00000
 -13252900.49207 -10326930.74707  22556756.74000  22556756.30300  22556754.16500
        91.00000        48.00000
 -26328114.79808 -20515416.40008  20490829.55000  20490829.04400  20490828.24000
       288.00000       181.00000
  -2362323.28706  -1840773.63206  24455531.25400  24455530.90300  24455533.42100
        12.00000        12.00000
 04  8 26  1 10  0.0000000  0  9G15G28G29G18G 9G26G22G21G 3
 -19111268.84308 -14891896.45207  21402695.15600  21402694.57200  21402695.60900
       138.00000        76.00000
   -874417.28904   -681362.95905  25422132.82000  25422133.37000  25422132.77400
         1.00000         4.00000
  -7857436.38007  -6122678.99107  22794388.27700  22794388.08500  22794388.43800
        53.00000        36.00000
 -21478671.73208 -16736624.82108  20589059.17700  20589058.79400  20589057.74000
       269.00000       225.00000
 -17316432.83708 -13493316.48007  21406295.43000  21406295.09700  21406295.76700
       175.00000        87.00000
 -13572241.21908 -10575773.73507  21687724.91500  21687724.72100  21687725.10200
       135.00000        72.00000
 -13331687.72907 -10388323.36307  22541763.97800  22541763.78400  22541761.36700
        98.00000        49.00000
 -26289438.65408 -20485279.15808  20498189.06200  20498188.87800  20498188.04400
       287.00000       179.00000
  -2345078.10505  -1827335.85906  24458811.29700  24458811.79400  24458814.53800
        10.00000        11.00000
 04  8 26  1 10 30.0000000  0  9G15G28G29G18G 9G26G22G21G 3
 -19175737.51708 -14942131.77007  21390426.84800  21390426.58300  21390427.34500
       140.00000        78.00000
   -900990.06300   -702069.00705  25417070.25600  25417073.70800  25417075.15100
          .00000         4.00000
  -7770618.27007  -6055028.56007  22810909.37200  22810909.19100  22810909.24600
        57.00000        37.00000
 -21516405.04908 -16766027.40608  20581878.43100  20581878.27000  20581877.26600
       270.00000       227.00000
 -17397253.85808 -13556293.86107  21390915.03400  21390915.03200  21390915.99800
       176.00000        88.00000
 -13482921.59608 -10506174.04607  21704721.33300  21704721.65400  21704722.15800
       134.00000        72.00000
 -13410319.03707 -10449594.46907  22526800.70600  22526800.55800  22526798.42800
        99.00000        51.00000
 -26250163.92308 -20454675.49208  20505662.95700  20505662.58800  20505661.79000
       293.00000       178.00000
  -2327312.37505  -1813492.48106  24462194.05100  24462193.25800  24462196.05400
         8.00000        13.00000
 04  8 26  1 11  0.0000000  0  9G15G28G29G18G 9G26G22G21G 3
 -19239714.15308 -14991983.68807  21378252.72100  21378252.21300  21378253.15200
       140.00000        79.00000
   -927110.12600   -722422.32705  25412101.50400  25412103.86100  25412104.81200
          .00000         4.00000
  -7683673.32707  -5987279.28307  22827453.60500  22827453.83000  22827454.80600
        57.00000        37.00000
 -21553824.82608 -16795185.66908  20574757.95700  20574757.59900  20574756.50900
       270.00000       229.00000
 -17477588.48008 -13618892.23407  21375627.83500  21375627.77300  21375628.62900
       180.00000        88.00000
 -13393362.43708 -10436387.71407  21721764.46500  21721764.36200  21721764.73300
       135.00000        73.00000
 -13488810.35107 -10510756.49707  22511864.39500  22511864.26400  22511861.84900
        94.00000        50.00000
 -26210308.41008 -20423619.25708  20513247.21900  20513246.92100  20513245.75200
       296.00000       170.00000
  -2309044.46305  -1799257.75306  24465668.85600  24465668.53700  24465672.27600
         8.00000        12.00000
 04  8 26  1 11 30.0000000  0  9G15G28G29G18G 9G26G22G21G 3
 -19303211.73308 -15041462.31207  21366169.76900  21366169.06700  21366169.64900
       140.00000        76.00000
   -952791.62500   -742433.92505  25407214.53300  25407214.87300  25407217.66300
          .00000         6.00000
  -7596618.47207  -5919444.36207  22844020.10800  22844019.86800  22844020.61200
        53.00000        37.00000
 -21590945.14608 -16824110.59308  20567693.93600  20567693.75000  20567692.78800
       269.00000       232.00000
 -17557449.08508 -13681121.23107  21360431.23900  21360431.05500  21360431.65300
       186.00000        85.00000
 -13303581.47208 -10366428.54507  21738849.30200  21738849.11900  21738849.46800
       134.00000        72.00000
 -13567175.85607 -10571820.48707  22496951.47800  22496951.29300  22496949.47800
        97.00000        52.00000
 -26169888.83708 -20392123.50208  20520938.78700  20520938.55300  20520937.69700
       294.00000       174.00000
  -2290290.72206  -1784644.52306  24469240.02900  24469239.46800  24469240.27300
        13.00000        11.00000
 04  8 26  1 12  0.0000000  0  9G15G28G29G18G 9G26G22G21G 3
 -19366197.76108 -15090542.32907  21354183.80600  21354183.36500  21354183.81700
       145.00000        75.00000
   -978002.94204   -762079.10605  25402418.34500  25402419.68900  25402420.95600
         2.00000         5.00000
  -7509425.30507  -5851501.66407  22860612.58800  22860612.40100  22860612.65500
        53.00000        36.00000
 -21627734.73208 -16852777.79408  20560693.10800  20560692.88500  20560691.87400
       264.00000       232.00000
 -17636802.80508 -13742955.26407  21345330.72900  21345330.50300  21345331.13900
       186.00000        86.00000
 -13213550.82708 -10296274.81907  21755981.44800  21755981.57200  21755981.76800
       135.00000        73.00000
 -13645384.36307 -10632762.15107  22482068.48900  22482068.69200  22482066.59300
        99.00000        52.00000
 -26128875.69608 -20360165.23008  20528743.31800  20528743.05600  20528742.10200
       293.00000       169.00000
  -2271022.33806  -1769630.22705  24472905.11800  24472905.66000  24472906.23200
        14.00000         9.00000
 04  8 26  1 12 30.0000000  0  9G15G28G29G18G 9G26G22G21G 3
 -19428617.80808 -15139181.32607  21342305.44200  21342304.90400  21342305.77200
       142.00000        78.00000
  -1002690.71500   -781316.35605  25397721.26500  25397723.26600  25397722.75600
          .00000         5.00000
  -7422043.49607  -5783411.96907  22877239.68500  22877239.67200  22877241.15000
        46.00000        37.00000
 -21664140.89308 -16881146.22408  20553765.36500  20553765.09300  20553763.95000
       267.00000       233.00000
 -17715594.70508 -13804351.51607  21330336.93700  21330336.85900  21330337.91400
       189.00000        89.00000
 -13123221.04908 -10225888.00907  21773170.51500  21773170.72200  21773170.95600
       135.00000        71.00000
 -13723382.71708 -10693540.06707  22467226.51300  22467226.33400  22467224.53600
       102.00000        56.00000
 -26087218.26208 -20327704.90508  20536670.47600  20536670.07700  20536669.25200
       285.00000       166.00000
  -2251188.64006  -1754175.42905  24476678.96800  24476679.60400  24476681.34200
        16.00000        10.00000
 04  8 26  1 13  0.0000000  0  9G15G28G29G18G 9G26G22G21G 3
 -19490568.45508 -15187454.53907  21330516.41600  21330515.97000  21330517.06500
       142.00000        83.00000
  -1026952.77304   -800221.84205  25393107.13400  25393105.78500  25393102.95700
         2.00000         4.00000
  -7334573.72507  -5715253.72807  22893884.88800  22893885.06700  22893885.78800
        43.00000        35.00000
 -21700261.16308 -16909291.88208  20546891.81800  20546891.59500  20546890.45800
       262.00000       233.00000
 -17793921.02608 -13865384.97207  21315432.29100  21315431.99400  21315432.52500
       192.00000        88.00000
 -13032693.44808 -10155347.04507  21790397.69400  21790397.75900  21790397.53100
       135.00000        69.00000
 -13801269.20608 -10754230.81807  22452404.60300  22452404.68700  22452403.16800
       102.00000        55.00000
 -26045016.36608 -20294820.32908  20544701.35600  20544701.08500  20544700.14300
       288.00000       167.00000
  -2230889.71106  -1738358.11805  24480541.08500  24480541.76400  24480543.79400
        11.00000         9.00000
 04  8 26  1 13 30.0000000  0  9G15G28G29G18G 9G26G22G21G 3
 -19552022.05708 -15235340.45207  21318822.20900  21318821.89400  21318822.85400
       152.00000        82.00000
  -1050762.64304   -818774.96905  25388578.29500  25388577.57500  25388575.28100
         2.00000         5.00000
  -7246992.22507  -5647008.43307  22910551.03000  22910551.26600  22910552.25800
        43.00000        35.00000
 -21736069.50208 -16937194.47008  20540077.49800  20540077.32200  20540076.46500
       256.00000       237.00000
 -17871754.01808 -13926034.01507  21300621.22100  21300620.88600  21300621.25700
       192.00000        89.00000
 -12941945.16108 -10084634.12007  21807666.60500  21807666.66200  21807666.57200
       134.00000        67.00000
 -13879017.47708 -10814813.85007  22437609.59800  22437609.52400  22437607.93100
       103.00000        54.00000
 -26002245.38708 -20261492.32008  20552840.38700  20552840.01900  20552839.02300
       283.00000       161.00000
  -2210101.62705  -1722159.65905  24484497.28200  24484497.63100  24484499.49700
        10.00000         8.00000
 04  8 26  1 14  0.0000000  0  9G15G28G29G18G 9G26G22G21G 3
 -19612954.23208 -15282820.06307  21307227.59300  21307227.16400  21307227.60000
       161.00000        76.00000
  -1074096.85704   -836957.42505  25384137.37700  25384136.69500  25384133.30800
         1.00000         6.00000
  -7159278.50307  -5578660.11007  22927242.64000  22927242.65900  22927244.02800
        43.00000        36.00000
 -21771542.73608 -16964835.94208  20533327.47600  20533327.17300  20533326.09300
       257.00000       238.00000
 -17949068.51608 -13986279.04307  21285908.10600  21285907.93600  21285909.28100
       190.00000        94.00000
 -12850956.24708 -10013733.68807  21824980.90700  21824981.05600  21824981.34900
       125.00000        68.00000
 -13956604.24708 -10875271.04307  22422845.24700  22422845.46700  22422843.95100
       102.00000        56.00000
 -25958884.92208 -20227704.95508  20561091.48400  20561091.34200  20561090.23600
       291.00000       160.00000
  -2188803.35406  -1705563.61405  24488552.38700  24488551.90700  24488552.82300
        16.00000        10.00000
 04  8 26  1 14 30.0000000  0  9G15G28G29G18G 9G26G22G21G 3
 -19673345.69008 -15329878.34107  21295735.47200  21295734.96700  21295735.27000
       159.00000        74.00000
  -1096937.12200   -854755.00405  25379793.27000  25379792.82100  25379788.19000
          .00000         8.00000
  -7071417.34407  -5510196.89307  22943962.69800  22943962.43500  22943963.29100
        45.00000        36.00000
 -21806662.86108 -16992202.26808  20526644.17700  20526643.95600  20526643.06200
       257.00000       246.00000
 -18025844.87508 -14046104.74207  21271299.02100  21271298.67800  21271298.97900
       204.00000        97.00000
 -12759712.37408  -9942634.59807  21842344.57700  21842344.21700  21842344.51900
       117.00000        68.00000
 -14034011.57407 -10935588.42007  22408115.64500  22408115.21600  22408113.42700
        98.00000        55.00000
 -25914919.40408 -20193446.13008  20569458.23000  20569457.69900  20569456.81700
       290.00000       161.00000
  -2166979.59206  -1688558.11205  24492705.06800  24492703.70300  24492706.37700
        13.00000        10.00000
 04  8 26  1 15  0.0000000  0 10G15G28G29G18G 9G19G26G22G21G 3
 -19733221.74908 -15376535.00407  21284341.56700  21284341.02400  21284341.41300
       159.00000        78.00000
  -1119310.08200   -872188.44805  25375533.94800  25375533.37700  25375531.20700
          .00000         7.00000
  -6983438.05807  -5441641.62807  22960703.81900  22960703.88700  22960705.21300
        45.00000        35.00000
 -21841456.32308 -17019314.04708  20520023.05000  20520022.78500  20520022.08400
       250.00000       249.00000
 -18102108.20308 -14105530.66307  21256785.63200  21256785.50800  21256786.71400
       192.00000       100.00000
    -30688.27705    -23913.48505  25248588.25300  25248589.06600  25248588.28100
         8.00000         5.00000
 -12668243.55108  -9871360.22107  21859750.37100  21859750.15100  21859750.52900
       114.00000        68.00000
 -14111266.15608 -10995786.76407  22393413.81100  22393413.98800  22393412.35500
       101.00000        54.00000
 -25870377.35408 -20158738.05708  20577934.27100  20577933.96400  20577932.79200
       306.00000       160.00000
  -2144659.52706  -1671165.85405  24496951.88800  24496951.40500  24496953.86200
        13.00000        10.00000
 04  8 26  1 15 30.0000000  0 10G15G28G29G18G 9G19G26G22G21G 3
 -19792572.52108 -15422782.35407  21273047.07800  21273046.67100  21273047.48000
       157.00000        83.00000
  -1141207.33804   -889251.19905  25371366.24100  25371365.96400  25371364.12500
         1.00000         7.00000
  -6895334.73007  -5372989.69607  22977470.67400  22977470.18300  22977470.91000
        48.00000        35.00000
 -21875914.58108 -17046164.62608  20513465.58600  20513465.57900  20513464.82600
       245.00000       247.00000
 -18177848.33608 -14164548.91407  21242372.71700  21242372.78600  21242373.77100
       197.00000        99.00000
    -76311.50706    -59464.02805  25239906.69000  25239906.42000  25239905.47400
        11.00000         6.00000
 -12576544.54208  -9799906.48507  21877199.98500  21877199.94500  21877200.26100
       111.00000        67.00000
 -14188359.70108 -11055859.62107  22378743.98600  22378743.87900  22378742.28200
       104.00000        58.00000
 -25825252.55708 -20123575.89708  20586521.08000  20586520.72100  20586519.79300
       301.00000       158.00000
  -2121837.14005  -1653382.25205  24501294.49200  24501293.59600  24501296.49000
         9.00000         9.00000
 04  8 26  1 16  0.0000000  0 10G15G28G29G18G 9G19G26G22G21G 3
 -19851396.41408 -15468619.14307  21261853.40300  21261852.77500  21261853.87500
       155.00000        87.00000
  -1162628.17500   -905942.67505  25367290.43300  25367290.35200  25367288.23700
          .00000         8.00000
  -6807109.58907  -5304242.87507  22994258.43900  22994258.65800  22994259.41400
        50.00000        34.00000
 -21910037.66208 -17072754.02808  20506972.38200  20506972.20300  20506971.39200
       244.00000       247.00000
 -18253063.10608 -14223157.78108  21228060.06300  21228059.89900  21228060.88000
       198.00000       102.00000
   -121447.91305    -94635.24405  25231318.89900  25231316.70700  25231317.29000
         9.00000         9.00000
 -12484618.39208  -9728275.74407  21894692.14300  21894692.44600  21894693.21200
       106.00000        64.00000
 -14265291.48108 -11115806.45007  22364104.02000  22364104.02800  22364102.31300
       102.00000        57.00000
 -25779547.21808 -20087961.36608  20595218.90200  20595218.41200  20595217.19000
       311.00000       159.00000
  -2098514.36505  -1635208.68005  24505733.02400  24505732.23700  24505734.47800
         6.00000         9.00000
 04  8 26  1 16 30.0000000  0 10G15G28G29G18G 9G19G26G22G21G 3
 -19909724.26308 -15514069.40907  21250753.99400  21250753.55900  21250754.19000
       155.00000        88.00000
  -1183604.37800   -922287.72405  25363295.07600  25363293.98200  25363296.84300
          .00000         9.00000
  -6718797.57807  -5235428.33307  23011064.05400  23011063.95900  23011064.40800
        51.00000        33.00000
 -21943857.50708 -17099107.14308  20500536.79700  20500536.54400  20500535.64900
       243.00000       249.00000
 -18327783.10108 -14281381.11407  21213841.07000  21213841.04400  21213841.82200
       200.00000        99.00000
   -166129.13605   -129451.78305  25222815.05500  25222814.66600  25222814.68800
         8.00000         8.00000
 -12392500.54408  -9656495.63907  21912221.55000  21912221.96500  21912222.59500
       106.00000        63.00000
 -14342093.59808 -11175652.22307  22349489.95600  22349489.43600  22349487.18700
       106.00000        58.00000
 -25733295.60408 -20051921.17308  20604020.35900  20604019.94000  20604018.84700
       314.00000       160.00000
  -2074725.65805  -1616672.09506  24510259.03900  24510259.17400  24510261.42500
         9.00000        11.00000
 04  8 26  1 17  0.0000000  0 10G15G28G29G18G 9G19G26G22G21G 3
 -19967474.70108 -15559069.74107  21239764.51000  21239763.80800  21239764.72700
       152.00000        86.00000
  -1204056.15600   -938224.14005  25359401.02700  25359403.39900  25359406.93200
        -1.00000         6.00000
  -6630321.08907  -5166485.66407  23027901.47500  23027901.04100  23027901.39200
        50.00000        36.00000
 -21977294.08608 -17125161.62308  20494174.12600  20494173.79300  20494173.05100
       243.00000       254.00000
 -18401926.71108 -14339155.32008  21199732.21800  21199732.06800  21199733.10100
       207.00000       104.00000
   -210274.94205   -163851.13805  25214414.53100  25214412.92700  25214414.45200
         8.00000        10.00000
 -12300114.27808  -9584506.36607  21929802.17800  21929802.50000  21929803.22400
       103.00000        59.00000
 -14418686.30808 -11235334.82407  22334913.86400  22334914.10300  22334912.39900
       111.00000        60.00000
 -25686419.78308 -20015394.58108  20612940.18000  20612939.73800  20612938.91700
       302.00000       160.00000
  -2050393.59806  -1597712.08006  24514888.69000  24514888.58100  24514891.38600
        11.00000        13.00000
 04  8 26  1 17 30.0000000  0 10G15G28G29G18G 9G19G26G22G21G 3
 -20024720.06608 -15603676.51607  21228871.06000  21228870.48500  21228871.34400
       157.00000        89.00000
  -1224056.84000   -953809.10505  25355594.23500  25355600.69600  25355601.10900
          .00000         6.00000
  -6541756.20807  -5097474.08907  23044754.67700  23044754.29100  23044754.40300
        47.00000        34.00000
 -22010420.80808 -17150974.64808  20487870.15400  20487869.91300  20487869.22000
       241.00000       255.00000
 -18475566.08108 -14396536.60908  21185718.99200  21185718.87100  21185720.11600
       211.00000       106.00000
   -253958.77406   -197890.46505  25206101.70200  25206100.98500  25206101.41800
        13.00000        10.00000
 -12207536.54108  -9512367.90007  21947420.04800  21947419.70900  21947420.34900
       101.00000        58.00000
 -14495142.99408 -11294911.44007  22320365.09800  22320364.97900  22320363.07500
       115.00000        62.00000
 -25638995.66708 -19978440.74408  20621964.72300  20621964.52400  20621963.54700
       306.00000       158.00000
  -2025594.21005  -1578387.92606  24519607.08700  24519607.64900  24519610.97000
        10.00000        15.00000
 04  8 26  1 18  0.0000000  0 10G15G28G29G18G 9G19G26G22G21G 3
 -20081421.99808 -15647859.83107  21218080.70000  21218080.35200  21218081.31800
       157.00000        91.00000
  -1243568.88300   -969013.27305  25351885.46300  25351884.00700  25351886.72000
          .00000        10.00000
  -6453068.28407  -5028366.65007  23061630.86500  23061630.93500  23061631.68700
        43.00000        35.00000
 -22043200.21708 -17176517.03908  20481632.67700  20481632.33500  20481631.43200
       248.00000       252.00000
 -18548661.90008 -14453494.35308  21171809.59500  21171809.20100  21171810.04000
       206.00000       104.00000
   -297142.79706   -231540.34905  25197882.49000  25197883.99600  25197883.66400
        13.00000        10.00000
 -12114733.22907  -9440053.65407  21965079.38300  21965079.42300  21965079.93500
        98.00000        55.00000
 -14571426.10008 -11354352.79207  22305848.54400  22305848.54600  22305846.71500
       113.00000        61.00000
 -25590988.19208 -19941032.34608  20631099.82200  20631099.71000  20631098.92900
       293.00000       154.00000
  -2000292.66106  -1558672.47906  24524423.94400  24524423.86100  24524425.94700
        12.00000        13.00000
 04  8 26  1 18 30.0000000  0 10G15G28G29G18G 9G19G26G22G21G 3
 -20137593.08608 -15691629.49407  21207391.97000  21207391.45100  21207392.45500
       157.00000        92.00000
  -1262606.28500   -983847.58405  25348257.94100  25348258.73300  25348261.38200
        -1.00000         7.00000
  -6364273.87107  -4959176.23007  23078526.41700  23078526.73700  23078528.43800
        36.00000        34.00000
 -22075646.47808 -17201799.82808  20475458.23900  20475458.01200  20475457.13500
       248.00000       252.00000
 -18621226.60108 -14510038.24108  21158001.12600  21158000.75800  21158001.65100
       215.00000       109.00000
   -339840.63006   -264811.38305  25189759.35400  25189758.13100  25189758.75500
        15.00000         9.00000
 -12021721.59307  -9367577.07707  21982779.56700  21982779.14200  21982779.74000
        97.00000        57.00000
 -14647549.76808 -11413669.90107  22291362.65500  22291362.78500  22291360.78100
       116.00000        60.00000
 -25542413.84508 -19903182.22208  20640343.60100  20640343.31800  20640342.37200
       291.00000       155.00000
  -1974505.49306  -1538578.63205  24529331.33400  24529330.72300  24529333.06300
        11.00000        10.00000
 04  8 26  1 19  0.0000000  0 10G15G28G29G18G 9G19G26G22G21G 3
 -20193237.90608 -15734989.07407  21196802.57600  21196802.32100  21196803.58500
       154.00000        90.00000
  -1281174.72100   -998316.47505  25344733.06200  25344730.72500  25344729.23900
        -1.00000         9.00000
  -6275381.28407  -4889909.30006  23095441.72700  23095442.22200  23095443.59600
        33.00000        31.00000
 -22107765.14608 -17226827.34808  20469346.20200  20469346.00400  20469344.94600
       248.00000       250.00000
 -18693264.38408 -14566171.53708  21144292.10700  21144291.88100  21144293.49600
       206.00000       112.00000
   -382057.83506   -297707.89805  25181724.66600  25181724.72700  25181724.57200
        14.00000         8.00000
 -11928510.78108  -9294945.29307  22000516.70900  22000516.53800  22000516.76800
       102.00000        57.00000
 -14723519.44508 -11472867.03607  22276906.34200  22276906.36900  22276904.54900
       119.00000        62.00000
 -25493280.65208 -19864896.64608  20649693.45600  20649692.92800  20649692.26000
       279.00000       154.00000
  -1948240.76305  -1518112.65806  24534328.45900  24534328.29800  24534331.01300
        10.00000        11.00000
 04  8 26  1 19 30.0000000  0 10G15G28G29G18G 9G19G26G22G21G 3
 -20248303.35908 -15777897.21007  21186323.93000  21186323.60900  21186324.67700
       161.00000        84.00000
  -1299222.57204  -1012379.67505  25341295.39100  25341294.64600  25341296.37300
         1.00000        10.00000
  -6186341.27307  -4820527.50306  23112386.54100  23112386.44600  23112387.53900
        34.00000        30.00000
 -22139504.38708 -17251559.21508  20463306.29800  20463306.11500  20463305.17400
       245.00000       251.00000
 -18764721.80508 -14621852.60608  21130693.98700  21130694.03300  21130695.39500
       214.00000       112.00000
   -423742.07406   -330189.14605  25173792.75400  25173791.79300  25173792.28700
        14.00000         8.00000
 -11835052.15308  -9222120.41407  22018301.77600  22018301.49100  22018302.11200
       108.00000        61.00000
 -14799283.33008 -11531903.80307  22262488.59300  22262488.83200  22262486.76200
       118.00000        60.00000
 -25443539.56208 -19826137.37508  20659158.40400  20659158.14800  20659157.76400
       270.00000       151.00000
  -1921449.28306  -1497236.17405  24539426.69600  24539426.55400  24539428.78700
        11.00000        10.00000
 04  8 26  1 20  0.0000000  0 10G15G28G29G18G 9G19G26G22G21G 3
 -20302817.73608 -15820375.94407  21175950.40300  21175949.93800  21175950.95100
       162.00000        85.00000
  -1316779.13904  -1026060.05505  25337954.71800  25337956.94100  25337954.04000
         2.00000        10.00000
  -6097185.88707  -4751055.80506  23129353.21800  23129353.00500  23129352.78800
        38.00000        26.00000
 -22170893.70508 -17276018.42008  20457333.08700  20457332.95800  20457332.05700
       246.00000       253.00000
 -18835626.91408 -14677103.30308  21117201.62000  21117201.49800  21117202.27600
       222.00000       111.00000
   -464922.82006   -362278.02705  25165956.45600  25165955.42300  25165956.54500
        15.00000         8.00000
 -11741378.59208  -9149128.04307  22036127.09300  22036127.18700  22036127.79500
       114.00000        61.00000
 -14874870.87008 -11590803.15707  22248105.26200  22248104.98500  22248103.41700
       112.00000        64.00000
 -25393221.78708 -19786928.74508  20668733.53500  20668733.34800  20668732.79300
       269.00000       148.00000
  -1894163.13705  -1475974.28706  24544618.34000  24544618.24400  24544622.05200
        10.00000        12.00000
 04  8 26  1 20 30.0000000  0 10G15G28G29G18G 9G19G26G22G21G 3
 -20356828.46508 -15862462.22607  21165672.87000  21165672.41100  21165672.99100
       168.00000        87.00000
  -1333893.00404  -1039395.46106  25334697.27300  25334699.33900  25334698.53700
         1.00000        11.00000
  -6007966.04807  -4681533.89106  23146332.57500  23146332.18500  23146331.48900
        44.00000        27.00000
 -22201981.49208 -17300242.67108  20451417.31700  20451417.17900  20451416.26800
       240.00000       256.00000
 -18906026.67808 -14731960.22308  21103804.99500  21103804.76500  21103805.97100
       221.00000       115.00000
   -505648.32206   -394012.20205  25158206.68800  25158204.73700  25158206.69400
        14.00000         8.00000
 -11647541.88008  -9076008.55307  22053983.64700  22053983.80700  22053983.95300
       111.00000        58.00000
 -14950330.44108 -11649602.80107  22233745.56300  22233745.58700  22233743.73100
       116.00000        65.00000
 -25342378.15208 -19747310.35408  20678409.27400  20678408.89300  20678408.13800
       273.00000       149.00000
  -1866433.50706  -1454366.77505  24549896.91500  24549896.69100  24549898.79200
        19.00000        10.00000
 04  8 26  1 21  0.0000000  0 10G15G28G29G18G 9G19G26G22G21G 3
 -20410284.70408 -15904116.42707  21155500.52300  21155500.00500  21155500.79300
       170.00000        90.00000
  -1350514.45900  -1052347.22705  25331535.75800  25331536.74600  25331533.68800
          .00000         9.00000
  -5918634.78507  -4611925.15206  23163330.99800  23163330.89100  23163330.34400
        45.00000        25.00000
 -22232718.31308 -17324193.43508  20445568.54100  20445568.25500  20445567.31600
       242.00000       263.00000
 -18975869.78308 -14786383.38808  21090514.31600  21090514.26200  21090514.79200
       233.00000       110.00000
   -545868.59506   -425352.68405  25150554.00500  25150552.18400  25150553.04300
        16.00000         8.00000
 -11553495.42708  -9002725.63407  22071880.11900  22071879.99400  22071880.29500
       103.00000        56.00000
 -15025612.39708 -11708264.03107  22219419.79000  22219419.61100  22219417.90600
       115.00000        63.00000
 -25290962.14908 -19707245.95608  20688193.05600  20688192.77100  20688192.24300
       270.00000       144.00000
  -1838213.47806  -1432377.17406  24555265.45900  24555266.06900  24555268.92500
        16.00000        11.00000
 04  8 26  1 21 30.0000000  0 10G15G28G29G18G 9G19G26G22G21G 3
 -20463173.65808 -15945328.59207  21145436.35100  21145435.72600  21145436.19400
       178.00000        87.00000
  -1366631.79800  -1064906.19605  25328468.36900  25328467.37500  25328467.50100
          .00000         9.00000
  -5829182.86207  -4542222.38806  23180353.28400  23180352.68500  23180353.16600
        39.00000        27.00000
 -22263092.35308 -17347861.50908  20439788.63500  20439788.26300  20439787.34900
       242.00000       266.00000
 -19045143.19808 -14840362.64108  21077331.88300  21077331.80000  21077332.48500
       227.00000       110.00000
   -585571.79906   -456290.26505  25142997.96400  25142997.33500  25142997.41200
        12.00000         7.00000
 -11459231.09107  -8929272.93307  22089817.69300  22089817.69100  22089817.94800
        99.00000        54.00000
 -15100704.84408 -11766777.60407  22205130.06100  22205130.12000  22205128.21600
       121.00000        63.00000
 -25238963.99808 -19666727.94208  20698088.59100  20698088.10700  20698087.16500
       275.00000       142.00000
  -1809494.02006  -1409998.41406  24560731.32900  24560731.48300  24560734.33800
        12.00000        12.00000
 04  8 26  1 22  0.0000000  0 10G15G28G29G18G 9G19G26G22G21G 3
 -20515482.24208 -15986088.52807  21135482.13900  21135481.65100  21135482.17100
       177.00000        84.00000
  -1382233.52604  -1077063.34305  25325499.35600  25325498.73300  25325497.63900
         1.00000         9.00000
  -5739600.97307  -4472418.34806  23197398.57600  23197398.68200  23197399.81600
        36.00000        28.00000
 -22293091.61408 -17371237.54908  20434079.99000  20434079.70600  20434078.66400
       245.00000       268.00000
 -19113833.66008 -14893887.64308  21064260.84000  21064260.59100  21064261.15400
       237.00000       112.00000
   -624746.07305   -486815.70005  25135543.32000  25135542.87400  25135543.47900
        10.00000         7.00000
 -11364740.12507  -8855643.62907  22107798.45600  22107798.86000  22107799.03900
        98.00000        53.00000
 -15175595.98408 -11825134.31207  22190878.81200  22190878.83500  22190876.92000
       122.00000        64.00000
 -25186375.53308 -19625749.94008  20708095.41200  20708095.17000  20708094.49600
       273.00000       143.00000
  -1780265.79906  -1387223.23405  24566293.13900  24566293.00600  24566295.18800
        12.00000        10.00000
 04  8 26  1 22 30.0000000  0 10G15G28G29G18G 9G19G26G22G21G 3
 -20567285.53808 -16026454.72707  21125624.34000  21125623.60200  21125624.43900
       166.00000        88.00000
  -1397395.65100  -1088877.96205  25322611.29600  25322612.97500  25322612.64100
          .00000         9.00000
  -5649967.66607  -4402574.25106  23214454.54200  23214454.54500  23214456.66800
        32.00000        28.00000
 -22322792.26708 -17394380.89808  20428428.16200  20428427.68000  20428426.60200
       240.00000       261.00000
 -19182015.77408 -14947016.53108  21051285.81200  21051285.63800  21051286.60500
       230.00000       114.00000
   -663467.08505   -516987.92405  25128175.59800  25128174.21800  25128174.29100
         9.00000         6.00000
 -11270101.92807  -8781899.60407  22125807.82000  22125807.91300  22125808.27600
        98.00000        53.00000
 -15250361.76808 -11883393.33907  22176651.33800  22176651.27300  22176649.35100
       124.00000        64.00000
 -25133274.58008 -19584372.59808  20718200.33000  20718199.96400  20718199.44100
       271.00000       144.00000
  -1750607.67106  -1364113.08306  24571937.62600  24571937.41700  24571939.83200
        12.00000        11.00000
 04  8 26  1 23  0.0000000  0 10G15G28G29G18G 9G19G26G22G21G 3
 -20618489.42008 -16066353.84407  21115880.34300  21115879.79200  21115880.83900
       168.00000        91.00000
  -1412025.49300  -1100277.83305  25319826.36800  25319828.14100  25319830.38900
        -1.00000         8.00000
  -5560192.73206  -4332619.78006  23231539.32300  23231538.78500  23231540.01400
        30.00000        30.00000
 -22352101.60208 -17417219.32708  20422850.56600  20422850.23000  20422849.20200
       239.00000       258.00000
 -19249595.26108 -14999675.84008  21038425.93800  21038425.70100  21038426.67500
       232.00000       116.00000
   -701641.96005   -546734.64405  25120910.34200  25120909.45600  25120909.24900
         8.00000         5.00000
 -11175226.85807  -8707970.99307  22143862.35800  22143862.24500  22143862.74000
        97.00000        56.00000
 -15324909.26608 -11941482.26407  22162464.56800  22162465.05700  22162463.10300
       122.00000        65.00000
 -25079570.51508 -19542525.30008  20728420.10300  20728419.68600  20728418.85400
       273.00000       139.00000
  -1720429.28406  -1340597.49306  24577680.13300  24577679.92300  24577682.37800
        14.00000        11.00000
 04  8 26  1 23 30.0000000  0 10G15G28G29G18G 9G19G26G22G21G 3
 -20669150.31008 -16105829.85307  21106239.80200  21106239.44600  21106240.22200
       171.00000        92.00000
  -1426180.51400  -1111307.77405  25317133.74700  25317132.39600  25317137.28700
        -1.00000         8.00000
  -5470335.89606  -4262601.52606  23248637.96700  23248638.02600  23248639.45800
        29.00000        31.00000
 -22381076.61808 -17439797.26108  20417336.77000  20417336.57900  20417335.45100
       242.00000       256.00000
 -19316628.06008 -15051909.15808  21025669.60000  21025669.67200  21025670.38500
       233.00000       115.00000
   -739327.71405   -576100.17605  25113740.05800  25113738.41600  25113738.37300
         9.00000         5.00000
 -11080175.35607  -8633904.91207  22161949.37900  22161949.42800  22161950.70100
        94.00000        58.00000
 -15399295.45308 -11999445.50107  22148309.62800  22148310.02000  22148308.18200
       126.00000        66.00000
 -25025323.54908 -19500254.96308  20738742.57700  20738742.27600  20738741.89100
       264.00000       140.00000
  -1689790.51106  -1316723.16606  24583511.41400  24583511.24900  24583513.94200
        19.00000        11.00000
 04  8 26  1 24  0.0000000  0 10G15G28G29G18G 9G19G26G22G21G 3
 -20719254.84008 -16144872.33207  21096705.40100  21096704.85900  21096705.55700
       172.00000        91.00000
  -1439848.69800  -1121958.31105  25314533.00000  25314534.10100  25314534.66600
          .00000         8.00000
  -5380387.42907  -4192511.84006  23265755.73300  23265755.65900  23265755.85900
        33.00000        29.00000
 -22409705.11108 -17462105.17008  20411889.10400  20411888.71800  20411887.65300
       239.00000       263.00000
 -19383100.46508 -15103705.80008  21013020.23700  21013020.30500  21013021.59600
       227.00000       120.00000
   -776512.20305   -605075.12004  25106662.83400  25106662.26500  25106662.50500
        10.00000         3.00000
 -10984938.43407  -8559694.35307  22180072.50500  22180072.72600  22180073.62400
        91.00000        56.00000
 -15473508.14208 -12057273.54307  22134188.51100  22134188.17600  22134185.99100
       131.00000        66.00000
 -24970523.91908 -19457553.97308  20749170.70100  20749170.50500  20749169.58300
       264.00000       132.00000
  -1658681.88806  -1292482.69306  24589430.46500  24589430.22000  24589433.76000
        15.00000        12.00000
 04  8 26  1 24 30.0000000  0 10G15G28G29G18G 9G19G26G22G21G 3
 -20768803.37408 -16183481.57107  21087276.61500  21087276.11500  21087276.79900
       179.00000        92.00000
  -1453031.36404  -1132230.51805  25312026.12100  25312026.65100  25312025.37700
         3.00000         9.00000
  -5290351.05707  -4122353.67406  23282889.67300  23282889.38800  23282889.62400
        36.00000        30.00000
 -22437988.29708 -17484144.00608  20406507.17100  20406506.59700  20406505.72000
       237.00000       274.00000
 -19449012.39908 -15155065.70608  21000477.64100  21000477.47000  21000478.75800
       220.00000       118.00000
   -813196.57806   -633660.33805  25099682.26200  25099681.45900  25099682.13200
        14.00000         4.00000
 -10889520.60107  -8485342.82507  22198229.68400  22198230.16600  22198230.93400
        86.00000        56.00000
 -15547548.41208 -12114967.23207  22120099.03500  22120098.60300  22120096.39100
       131.00000        66.00000
 -24915175.51508 -19414425.37508  20759703.27600  20759702.74100  20759702.25300
       254.00000       132.00000
  -1627107.68506  -1267879.42705  24595439.19600  24595439.05500  24595440.89400
        13.00000         9.00000
 04  8 26  1 25  0.0000000  0 10G15G28G29G18G 9G19G26G22G21G 3
 -20817751.34708 -16221622.84507  21077962.17400  21077961.54200  21077962.47000
       185.00000        95.00000
  -1465685.37904  -1142090.81505  25309617.84600  25309617.56700  25309617.87100
         2.00000         9.00000
  -5200185.85707  -4052095.11706  23300047.32600  23300047.14800  23300047.60200
        39.00000        27.00000
 -22465882.89808 -17505880.04908  20401198.60000  20401198.30700  20401197.51300
       233.00000       275.00000
 -19514319.21308 -15205954.10208  20988050.06000  20988049.81600  20988050.99400
       222.00000       115.00000
   -849337.34106   -661821.97305  25092805.09200  25092804.12300  25092805.13200
        17.00000         4.00000
 -10793881.60807  -8410818.95807  22216428.57300  22216429.53500  22216429.80000
        81.00000        51.00000
 -15621372.90808 -12172492.78707  22106050.59300  22106050.30800  22106048.12500
       135.00000        67.00000
 -24859237.72908 -19370837.51208  20770348.26100  20770347.71800  20770346.87500
       261.00000       128.00000
  -1595027.35405  -1242881.78405  24601543.54100  24601542.31500  24601545.89900
         9.00000         9.00000
 04  8 26  1 25 30.0000000  0 10G15G28G29G18G 9G19G26G22G21G 3
 -20866143.27108 -16259330.82807  21068753.21600  21068752.72200  21068753.89100
       187.00000        99.00000
  -1477856.42104  -1151574.75705  25307305.76300  25307304.48400  25307301.58100
         2.00000         9.00000
  -5109939.84807  -3981773.59006  23317221.61200  23317220.87900  23317220.59900
        39.00000        26.00000
 -22493434.52608 -17527348.84408  20395955.96000  20395955.56700  20395954.63500
       231.00000       277.00000
 -19579064.92508 -15256405.27308  20975729.73600  20975729.37300  20975730.45800
       223.00000       119.00000
   -884979.82306   -689595.35805  25086023.86400  25086021.79400  25086022.20600
        20.00000         4.00000
 -10698070.31707  -8336160.83007  22234661.55200  22234661.73000  22234662.82700
        78.00000        52.00000
 -15695026.90208 -12229885.48407  22092034.15700  22092034.22600  22092032.35600
       138.00000        68.00000
 -24802758.52008 -19326827.76308  20781095.76000  20781095.21000  20781094.64700
       254.00000       127.00000
  -1562489.07605  -1217527.31005  24607735.72200  24607734.97500  24607737.62600
         9.00000        10.00000
 04  8 26  1 26  0.0000000  0 10G15G28G29G18G 9G19G26G22G21G 3
 -20913993.24208 -16296616.50807  21059647.72600  21059647.36500  21059648.18100
       190.00000        98.00000
  -1489559.73104  -1160694.26605  25305076.11800  25305074.83200  25305075.75000
         3.00000        10.00000
  -5019630.51707  -3911402.71206  23334406.17700  23334405.82300  23334406.32300
        38.00000        25.00000
 -22520657.86908 -17548561.83608  20390775.38600  20390775.01900  20390774.16800
       228.00000       279.00000
 -19643263.04708 -15306429.74708  20963512.82900  20963512.75600  20963513.84300
       222.00000       119.00000
   -920139.17406   -716992.22305  25079331.84600  25079331.41400  25079331.71600
        23.00000         4.00000
 -10602104.68207  -8261382.43207  22252923.43200  22252923.53400  22252924.32400
        79.00000        49.00000
 -15768525.23908 -12287156.88707  22078047.68700  22078047.95600  22078045.95500
       139.00000        67.00000
 -24745755.34908 -19282409.72408  20791942.85300  20791942.48600  20791941.71900
       259.00000       126.00000
  -1529510.42006  -1191829.70705  24614011.98800  24614011.69800  24614013.18700
        13.00000        10.00000
 04  8 26  1 26 30.0000000  0 10G15G28G29G18G 9G19G26G22G21G 3
 -20961219.83608 -16333416.44607  21050661.08200  21050660.52700  21050661.21400
       192.00000        96.00000
  -1500715.11505  -1169386.80305  25302954.56700  25302953.91700  25302952.24800
         4.00000         9.00000
  -4929179.66806  -3840921.55206  23351617.43800  23351616.81800  23351618.15400
        31.00000        22.00000
 -22547472.63208 -17569456.45608  20385672.51400  20385672.31400  20385671.47900
       226.00000       280.00000
 -19706832.09308 -15355964.03508  20951416.31800  20951416.21000  20951416.96400
       233.00000       120.00000
   -954734.84806   -743949.92305  25072748.35800  25072747.79800  25072747.91500
        21.00000         4.00000
 -10505907.44207  -8186423.56307  22271229.43800  22271229.30200  22271230.62100
        81.00000        52.00000
 -15841787.41208 -12344244.26707  22064106.94700  22064106.64300  22064104.77300
       137.00000        69.00000
 -24688150.70008 -19237523.01008  20802905.09100  20802904.63400  20802903.71700
       267.00000       126.00000
  -1496013.98006  -1165728.62605  24620384.64500  24620385.17000  24620387.15100
        13.00000         9.00000
 04  8 26  1 27  0.0000000  0 10G15G28G29G18G 9G19G26G22G21G 3
 -21007924.07408 -16369809.35407  21041773.70200  21041773.09700  21041773.61000
       195.00000        98.00000
  -1511424.97205  -1177732.20205  25300916.02800  25300915.26700  25300914.88000
         6.00000        10.00000
  -4838692.10706  -3770411.78306  23368835.77000  23368835.89900  23368837.32000
        30.00000        22.00000
 -22573980.79308 -17590112.16408  20380628.23600  20380628.03200  20380627.21600
       230.00000       282.00000
 -19769872.89608 -15405086.70108  20939419.73800  20939419.73000  20939420.62100
       234.00000       122.00000
   -988869.02406   -770547.96105  25066253.66700  25066252.62900  25066252.25800
        18.00000         4.00000
 -10409584.09607  -8111366.42807  22289558.89500  22289558.97200  22289560.33900
        82.00000        49.00000
 -15914915.23408 -12401226.96507  22050191.21900  22050190.98600  22050188.74700
       143.00000        69.00000
 -24630049.78108 -19192249.58508  20813961.02600  20813960.78700  20813960.21500
       269.00000       129.00000
  -1462104.64306  -1139305.81606  24626838.63100  24626838.73100  24626840.46100
        12.00000        11.00000
 04  8 26  1 27 30.0000000  0 10G15G28G29G18G 9G19G26G22G21G 3
 -21054067.77108 -16405765.47408  21032992.73200  21032992.11200  21032992.99500
       186.00000       101.00000
  -1521652.14605  -1185701.44205  25298968.94000  25298968.55300  25298968.51000
         5.00000        10.00000
  -4748132.87206  -3699846.16106  23386067.83400  23386068.40000  23386070.14700
        25.00000        23.00000
 -22600145.00808 -17610499.86108  20375649.53800  20375649.18600  20375648.19600
       233.00000       279.00000
 -19832346.66508 -15453767.52408  20927531.97200  20927531.71200  20927532.33100
       243.00000       123.00000
  -1022504.17406   -796757.18204  25059853.30600  25059851.71400  25059852.59900
        16.00000         3.00000
 -10313100.26407  -8036184.23007  22307918.83100  22307919.10700  22307919.97300
        80.00000        46.00000
 -15987871.30208 -12458075.82207  22036307.79400  22036307.80800  22036305.60100
       145.00000        71.00000
 -24571417.78708 -19146562.34108  20825118.49400  20825118.15200  20825117.47400
       269.00000       127.00000
  -1427747.76705  -1112534.26105  24633376.10800  24633375.69000  24633378.95800
         7.00000         9.00000
 04  8 26  1 28  0.0000000  0 10G15G28G29G18G 9G19G26G22G21G 3
 -21099552.76208 -16441208.32107  21024337.23300  21024336.47200  21024337.42000
       181.00000        99.00000
  -1531299.67305  -1193219.05005  25297131.05500  25297131.38400  25297133.99700
         4.00000        10.00000
  -4657407.03606  -3629150.72206  23403333.46100  23403333.42500  23403334.63300
        27.00000        23.00000
 -22625868.09408 -17630543.81808  20370754.57400  20370754.30900  20370753.18900
       235.00000       279.00000
 -19894154.96108 -15501929.79908  20915770.44400  20915770.07900  20915770.64400
       248.00000       125.00000
  -1055543.14906   -822501.84204  25053565.91500  25053564.14000  25053565.39000
        13.00000         3.00000
 -10216361.80607  -7960803.62607  22326327.70500  22326327.92600  22326328.76900
        78.00000        47.00000
 -16060558.02008 -12514714.79807  22022476.37900  22022476.17300  22022474.09200
       147.00000        75.00000
 -24512159.92508 -19100387.40708  20836394.98900  20836394.59800  20836393.75900
       268.00000       125.00000
  -1392848.88805  -1085340.36905  24640017.31900  24640016.67300  24640019.25100
         5.00000         9.00000
 04  8 26  1 28 30.0000000  0 10G15G28G29G18G 9G19G26G22G21G 3
 -21144519.18108 -16476247.09007  21015779.84300  21015779.53900  21015780.42900
       182.00000        97.00000
  -1540509.09504  -1200395.28306  25295378.85200  25295379.00400  25295381.26700
         3.00000        11.00000
  -4566658.26206  -3558437.43506  23420603.11300  23420603.08900  23420603.64800
        28.00000        24.00000
 -22651291.16008 -17650353.99608  20365916.71700  20365916.38300  20365915.39200
       228.00000       283.00000
 -19955438.05208 -15549682.82308  20904108.12500  20904108.06300  20904108.59100
       251.00000       123.00000
  -1088127.21306   -847891.99504  25047365.45700  25047364.16100  25047364.88200
        11.00000         3.00000
 -10119513.19207  -7885337.19507  22344757.66300  22344757.90800  22344758.59300
        78.00000        47.00000
 -16133116.66708 -12571253.97307  22008668.60100  22008668.67600  22008666.72100
       155.00000        77.00000
 -24452420.35908 -19053837.12408  20847763.03500  20847762.80200  20847761.98200
       271.00000       126.00000
  -1357552.16905  -1057836.46105  24646734.35700  24646734.82200  24646736.95500
         4.00000         8.00000
 04  8 26  1 29  0.0000000  0 10G15G28G29G18G 9G19G26G22G21G 3
 -21188896.61808 -16510826.90807  21007335.55100  21007334.80300  21007335.56600
       175.00000        97.00000
  -1549211.28305  -1207176.24606  25293723.63100  25293722.01500  25293725.40400
         6.00000        11.00000
  -4475819.32106  -3487653.89906  23437888.88600  23437889.10000  23437890.12300
        27.00000        24.00000
 -22676344.67408 -17669876.20908  20361149.31800  20361148.88700  20361148.00100
       225.00000       291.00000
 -20016125.07408 -15596971.37008  20892559.78900  20892559.75000  20892560.35200
       256.00000       123.00000
  -1120187.04105   -872873.69604  25041263.86500  25041262.95400  25041263.36600
         9.00000         3.00000
 -10022487.85907  -7809733.06007  22363221.05800  22363221.10100  22363221.67500
        79.00000        47.00000
 -16205477.55108 -12627639.05307  21994898.74000  21994898.71100  21994896.63700
       156.00000        74.00000
 -24392132.47808 -19006859.58008  20859235.11100  20859234.88400  20859234.58000
       260.00000       125.00000
  -1321791.08504  -1029970.75605  24653538.90700  24653538.79700  24653541.00400
         3.00000         8.00000
 04  8 26  1 29 30.0000000  0 10G15G28G29G18G 9G19G26G22G21G 3
 -21232694.16408 -16544954.85608  20999000.68400  20999000.32000  20999001.43200
       173.00000       103.00000
  -1557416.65705  -1213570.07606  25292161.27400  25292161.20500  25292163.93700
         5.00000        11.00000
  -4384902.72206  -3416809.83006  23455190.04700  23455190.48600  23455191.20400
        28.00000        25.00000
 -22701038.80108 -17689118.36808  20356449.92800  20356449.62200  20356448.95600
       223.00000       297.00000
 -20076224.81608 -15643802.30208  20881122.85400  20881122.83600  20881123.78400
       251.00000       126.00000
  -1151732.80205   -897454.83504  25035259.46400  25035259.69000  25035260.72900
         8.00000         3.00000
  -9925298.99907  -7734001.50707  22381715.60200  22381715.80100  22381716.29900
        84.00000        48.00000
 -16277650.51908 -12683877.70407  21981164.96000  21981164.79700  21981162.66400
       160.00000        75.00000
 -24331308.57308 -18959464.35508  20870809.97300  20870809.59100  20870808.54700
       268.00000       119.00000
  -1285578.37105  -1001753.10205  24660432.11000  24660431.68200  24660432.11900
         5.00000         7.00000
 04  8 26  1 30  0.0000000  0 10G15G26G29G22G28G18G 9G19G21G 3
 -21275883.15908 -16578608.61308  20990782.82000  20990782.09800  20990783.05700
       180.00000       105.00000
  -9827921.93107  -7658123.29507  22400246.10200  22400246.08700  22400247.02000
        81.00000        47.00000
  -4293883.04806  -3345885.46706  23472510.44000  23472510.37100  23472511.82500
        26.00000        26.00000
 -16349607.26908 -12739947.88207  21967471.73300  21967471.81200  21967469.79600
       157.00000        78.00000
  -1565097.67605  -1219555.29205  25290701.45200  25290701.27900  25290701.71300
         4.00000         9.00000
 -22725345.57208 -17708058.70408  20351824.66800  20351824.28800  20351823.39800
       224.00000       294.00000
 -20135708.13708 -15690152.90908  20869803.99100  20869803.90100  20869804.25000
       263.00000       125.00000
  -1182736.77705   -921613.71004  25029361.32000  25029359.28600  25029361.79200
         4.00000         3.00000
 -24269923.79208 -18911632.07908  20882491.02600  20882490.44200  20882490.04500
       255.00000       119.00000
  -1248889.07105   -973164.10905  24667411.74300  24667411.61300  24667414.13400
         6.00000         7.00000
 04  8 26  1 30 30.0000000  0 10G15G26G29G22G28G18G 9G19G21G 3
 -21318467.46308 -16611791.18108  20982679.00900  20982678.45900  20982679.42500
       181.00000       108.00000
  -9730364.28907  -7582104.37607  22418810.75600  22418810.71700  22418811.56300
        80.00000        48.00000
  -4202767.46306  -3274886.34906  23489848.59400  23489848.20300  23489850.48000
        22.00000        25.00000
 -16421352.40508 -12795853.15807  21953818.53500  21953818.84200  21953817.23500
       154.00000        80.00000
  -1572259.47504  -1225135.91605  25289336.08900  25289336.40800  25289338.86100
         2.00000         9.00000
 -22749269.50908 -17726700.73308  20347271.90500  20347271.62000  20347270.81300
       222.00000       291.00000
 -20194578.60508 -15736025.97108  20858600.95800  20858600.95000  20858601.51500
       258.00000       124.00000
  -1213203.53805   -945354.05605  25023563.23600  25023563.36800  25023563.70900
         5.00000         5.00000
 -24207985.76508 -18863368.70608  20894277.22700  20894276.98500  20894276.36800
       267.00000       116.00000
  -1211731.00705   -944209.81205  24674482.48900  24674482.09700  24674485.25200
         4.00000         8.00000
 04  8 26  1 31  0.0000000  0 10G15G26G29G22G28G18G 9G19G21G 3
 -21360465.76608 -16644517.12508  20974686.55300  20974686.15700  20974687.24000
       176.00000       104.00000
  -9632648.97707  -7505962.59607  22437405.39400  22437405.16000  22437406.22200
        76.00000        46.00000
  -4111577.79306  -3203829.49206  23507202.53000  23507201.74000  23507203.17800
        23.00000        24.00000
 -16492905.36208 -12851608.69007  21940203.18600  21940203.09000  21940200.83800
       161.00000        75.00000
  -1578922.12305  -1230327.58205  25288072.06500  25288070.42500  25288070.96300
         5.00000         8.00000
 -22772830.55308 -17745059.98008  20342788.49400  20342788.14100  20342787.27500
       223.00000       292.00000
 -20252854.90808 -15781436.04808  20847511.88300  20847511.69100  20847512.23100
       262.00000       129.00000
  -1243153.01804   -968691.33005  25017864.66200  25017863.57100  25017862.63500
         3.00000         5.00000
 -24145516.91208 -18814691.70208  20906164.77900  20906164.34800  20906163.47800
       262.00000       110.00000
  -1174126.85405   -914907.91805  24681638.79200  24681638.36000  24681639.90000
        10.00000         7.00000
 04  8 26  1 31 30.0000000  0 10G15G26G29G22G28G18G 9G19G21G 3
 -21401876.60008 -16676785.29908  20966806.42700  20966805.97500  20966807.20800
       183.00000       106.00000
  -9534778.24007  -7429699.69907  22456029.42600  22456029.13000  22456030.24500
        71.00000        44.00000
  -4020315.77106  -3132716.26606  23524568.03400  23524567.68200  23524569.63900
        22.00000        25.00000
 -16564265.25108 -12907213.77807  21926623.11400  21926623.42500  21926621.64000
       161.00000        77.00000
  -1585085.37505  -1235130.08905  25286898.47500  25286897.64200  25286898.00000
         6.00000         8.00000
 -22796027.96908 -17763135.87908  20338374.13000  20338373.75300  20338372.83600
       221.00000       289.00000
 -20310534.99008 -15826381.53008  20836535.68100  20836535.33800  20836535.85300
       260.00000       126.00000
  -1272584.77904   -991625.19305  25012264.08100  25012264.88400  25012263.28400
         2.00000         4.00000
 -24082519.25608 -18765602.64308  20918152.40000  20918152.19100  20918151.97200
       260.00000       113.00000
  -1136078.77505   -885260.04805  24688878.59100  24688878.28500  24688881.81800
         7.00000         7.00000
 04  8 26  1 32  0.0000000  0 10G15G26G29G22G28G18G 9G19G21G 3
 -21442716.41408 -16708608.53208  20959035.04300  20959034.51500  20959035.43900
       188.00000       104.00000
  -9436772.44807  -7353331.57007  22474678.43100  22474678.81200  22474679.79800
        68.00000        40.00000
  -3929001.07406  -3061561.99606  23541945.59700  23541945.10000  23541946.51000
        25.00000        23.00000
 -16635449.28608 -12962681.83707  21913077.32100  21913077.41500  21913075.57500
       157.00000        79.00000
  -1590766.81905  -1239557.15605  25285816.84900  25285816.87300  25285817.62300
         5.00000         9.00000
 -22818878.80608 -17780941.71708  20334025.77000  20334025.48900  20334024.54300
       220.00000       288.00000
 -20367635.11408 -15870875.10008  20825669.38300  20825669.33200  20825669.96400
       259.00000       129.00000
  -1301516.12204  -1014169.11005  25006757.79900  25006755.90900  25006758.10900
         2.00000         4.00000
 -24019013.33708 -18716117.53608  20930237.83500  20930237.44300  20930236.72100
       264.00000       110.00000
  -1097606.84206   -855281.96105  24696201.84500  24696201.26500  24696202.72600
        14.00000         7.00000
 04  8 26  1 32 30.0000000  0 10G15G26G29G22G28G18G 9G19G21G 3
 -21482968.00808 -16739973.41007  20951375.47600  20951374.85400  20951375.41800
       190.00000       100.00000
  -9338618.24807  -7276847.81307  22493357.17000  22493357.10300  22493358.10000
        67.00000        39.00000
  -3837619.47606  -2990355.59806  23559335.40700  23559335.01400  23559335.20900
        28.00000        20.00000
 -16706440.66308 -13017999.76807  21899568.68200  21899568.40100  21899566.53500
       163.00000        83.00000
  -1595950.42504  -1243596.29705  25284829.80600  25284829.37800  25284830.32500
         3.00000         8.00000
 -22841366.42708 -17798464.53508  20329746.26900  20329746.13100  20329745.17000
       216.00000       284.00000
 -20424137.92908 -15914903.23008  20814917.51700  20814917.19500  20814918.11900
       260.00000       133.00000
  -1329930.90505  -1036310.49405  25001351.18700  25001351.17200  25001350.49700
         7.00000         4.00000
 -23954985.29308 -18666225.58208  20942421.88600  20942421.49100  20942420.66900
       258.00000       109.00000
  -1058697.82205   -824963.32405  24703604.01800  24703604.36200  24703606.96300
         9.00000        10.00000
 04  8 26  1 33  0.0000000  0 10G15G26G29G22G28G18G 9G19G21G 3
 -21522620.52408 -16770871.47207  20943830.28600  20943829.58000  20943829.90500
       205.00000        98.00000
  -9240308.27107  -7200242.65707  22512064.76000  22512065.36000  22512065.26700
        74.00000        35.00000
  -3746162.97206  -2919090.83706  23576739.02400  23576738.73700  23576739.43900
        28.00000        21.00000
 -16777228.80708 -13073159.33807  21886098.52200  21886098.05200  21886095.74500
       160.00000        81.00000
  -1600626.67104  -1247240.11105  25283940.83300  25283939.13300  25283940.44700
         1.00000         7.00000
 -22863480.76308 -17815696.48208  20325538.51500  20325538.03200  20325536.82200
       215.00000       283.00000
 -20480032.14908 -15958457.13608  20804280.92000  20804280.68300  20804281.59500
       253.00000       133.00000
  -1357819.12005  -1058041.56205  24996043.83100  24996043.52200  24996042.50000
         8.00000         5.00000
 -23890428.10808 -18615921.30908  20954706.62100  20954706.34000  20954705.83000
       254.00000       111.00000
  -1019344.39604   -794298.37405  24711092.85400  24711092.35500  24711095.88700
         3.00000         9.00000
 04  8 26  1 33 30.0000000  0 10G15G26G29G22G28G18G 9G19G21G 3
 -21561661.17108 -16801292.75608  20936401.08400  20936400.44400  20936401.00100
       211.00000       102.00000
  -9141833.86807  -7123509.38907  22530804.40700  22530804.49100  22530805.10200
        74.00000        37.00000
  -3654622.08806  -2847760.32206  23594158.14600  23594158.00600  23594158.57900
        25.00000        19.00000
 -16847801.74508 -13128151.20907  21872668.32800  21872668.24000  21872666.20000
       163.00000        82.00000
  -1604783.98304  -1250479.53005  25283148.09000  25283146.56800  25283148.63100
         2.00000         6.00000
 -22885210.07108 -17832628.40008  20321403.51500  20321403.04200  20321401.94200
       216.00000       287.00000
 -20535304.63808 -16001526.57708  20793762.77500  20793762.64100  20793763.59200
       250.00000       134.00000
  -1385168.99405  -1079353.19205  24990840.71700  24990839.20200  24990839.27000
         9.00000         6.00000
 -23825332.49108 -18565197.48208  20967094.25300  20967093.77100  20967092.95400
       253.00000       108.00000
   -979537.49900   -763280.10005  24718666.92300  24718667.16700  24718671.42500
          .00000         8.00000
 04  8 26  1 34  0.0000000  0 10G15G26G29G22G28G18G 9G19G21G 3
 -21600112.11908 -16831254.52108  20929083.58400  20929083.09500  20929084.03100
       199.00000       102.00000
  -9043220.45607  -7046667.78907  22549570.31700  22549570.11900  22549570.61500
        73.00000        38.00000
  -3563021.83906  -2776383.55306  23611589.54400  23611589.01500  23611589.73300
        25.00000        19.00000
 -16918181.72608 -13182992.72907  21859275.64600  21859275.48400  21859273.23200
       164.00000        82.00000
  -1608445.73804  -1253332.78305  25282448.40600  25282450.59900  25282452.28600
         3.00000         6.00000
 -22906577.02608 -17849277.97208  20317337.53700  20317337.03600  20317336.03600
       217.00000       293.00000
 -20589977.04008 -16044128.41408  20783359.09600  20783358.88900  20783359.72700
       257.00000       134.00000
  -1412003.54405  -1100263.24805  24985733.08900  24985732.17400  24985732.45600
         9.00000         8.00000
 -23759724.22008 -18514074.18508  20979578.54800  20979578.48800  20979577.87100
       252.00000       112.00000
   -939302.83800   -731928.42805  24726321.30300  24726320.94200  24726325.42300
        -1.00000         6.00000
 04  8 26  1 34 30.0000000  0 10G15G26G29G22G28G18G 9G19G21G 3
 -21637963.77008 -16860749.30408  20921880.55200  20921880.18600  20921880.93200
       203.00000       101.00000
  -8944462.29107  -6969713.41107  22568363.24500  22568363.07800  22568364.12500
        68.00000        39.00000
  -3471355.75006  -2704955.45206  23629031.78600  23629031.41100  23629032.39500
        21.00000        17.00000
 -16988359.93408 -13237677.01707  21845920.57200  21845920.70900  21845918.58400
       162.00000        80.00000
  -1611603.51905  -1255793.34005  25281848.25300  25281849.24100  25281851.49200
         4.00000         6.00000
 -22927572.62408 -17865638.16808  20313342.07300  20313341.66100  20313340.81300
       217.00000       302.00000
 -20644039.70908 -16086255.13208  20773070.72600  20773070.80300  20773071.80700
       253.00000       134.00000
  -1438314.37605  -1120765.20305  24980726.12500  24980725.48700  24980726.04800
        10.00000        10.00000
 -23693597.40708 -18462546.82508  20992162.32900  20992162.07700  20992161.51100
       250.00000       112.00000
   -898634.69904   -700239.03405  24734061.13500  24734062.70200  24734065.65100
         3.00000         6.00000
 04  8 26  1 35  0.0000000  0 10G15G26G29G22G28G18G 9G19G21G 3
 -21675182.75708 -16889751.10707  20914798.04900  20914797.63600  20914798.34500
       202.00000        99.00000
  -8845530.05407  -6892623.38207  22587188.58800  22587188.64400  22587190.00100
        63.00000        39.00000
  -3379593.53506  -2633452.47906  23646494.71300  23646494.18900  23646495.02100
        24.00000        19.00000
 -17058303.48108 -13292178.46707  21832611.22300  21832611.22100  21832608.91000
       167.00000        80.00000
  -1614225.55604  -1257836.46805  25281351.29400  25281350.55000  25281352.67600
         2.00000         8.00000
 -22948164.51508 -17881683.79508  20309423.24900  20309423.16400  20309422.26600
       216.00000       303.00000
 -20697459.18708 -16127880.66808  20762906.30800  20762905.89000  20762906.35600
       264.00000       134.00000
  -1464069.04305  -1140833.82705  24975826.28400  24975825.07800  24975825.82400
        10.00000        10.00000
 -23626922.39208 -18410592.30708  21004850.52300  21004850.02900  21004849.39000
       244.00000       111.00000
   -857503.59805   -668188.86405  24741891.06100  24741891.19300  24741893.20500
         7.00000         6.00000
 04  8 26  1 35 30.0000000  0 10G15G26G29G22G28G18G 9G19G21G 3
 -21711800.85508 -16918284.68208  20907829.63000  20907829.12200  20907830.30200
       194.00000       102.00000
  -8746459.04007  -6815425.21007  22606040.67900  22606041.18300  22606042.25600
        59.00000        39.00000
  -3287770.00906  -2561901.72506  23663967.18600  23663967.48700  23663968.07200
        23.00000        18.00000
 -17128044.49308 -13346522.09207  21819339.87700  21819339.93900  21819337.59400
       165.00000        80.00000
  -1616344.68904  -1259487.74105  25280947.64900  25280948.27400  25280948.41100
         2.00000         7.00000
 -22968385.13008 -17897440.12508  20305575.76200  20305575.35600  20305574.46200
       214.00000       305.00000
 -20750267.10408 -16169029.65008  20752856.68700  20752856.44700  20752857.19100
       258.00000       133.00000
  -1489300.60705  -1160494.82405  24971023.06600  24971022.64000  24971023.28300
         7.00000        10.00000
 -23559734.69608 -18358238.28908  21017636.13800  21017635.48200  21017634.83600
       250.00000       111.00000
   -815945.07406   -635805.62805  24749800.15800  24749799.72500  24749800.91000
        15.00000         6.00000
 04  8 26  1 36  0.0000000  0 10G15G26G29G22G28G18G 9G19G21G 3
 -21747851.60408 -16946376.16308  20900970.01600  20900969.32300  20900969.92400
       203.00000       105.00000
  -8647286.04007  -6738147.57307  22624913.49800  22624913.60800  22624914.05000
        57.00000        37.00000
  -3195921.27606  -2490331.33606  23681446.29400  23681446.18900  23681447.39600
        24.00000        21.00000
 -17197616.51508 -13400734.03507  21806100.35000  21806100.55300  21806098.39200
       166.00000        82.00000
  -1617995.53305  -1260774.09205  25280636.31700  25280635.57900  25280635.41300
         5.00000         8.00000
 -22988268.32308 -17912933.52708  20301791.81800  20301791.60300  20301790.81600
       210.00000       306.00000
 -20802496.35008 -16209727.73608  20742917.79300  20742917.54200  20742918.35800
       263.00000       134.00000
  -1514043.13805  -1179774.74305  24966315.63700  24966315.12000  24966315.09000
         6.00000         9.00000
 -23492071.29408 -18305513.59208  21030511.44800  21030511.06400  21030510.62900
       239.00000       107.00000
   -773996.23905   -603118.24105  24757782.49200  24757782.25100  24757782.94800
         9.00000         6.00000
 04  8 26  1 36 30.0000000  0 10G15G26G29G22G28G18G 9G19G21G 3
 -21783248.11508 -16973957.86408  20894234.32900  20894233.85900  20894234.38100
       217.00000       108.00000
  -8547928.07307  -6660725.82107  22643820.89400  22643820.90400  22643821.13600
        55.00000        38.00000
  -3103963.62006  -2418676.08006  23698945.47100  23698945.23500  23698945.93900
        24.00000        20.00000
 -17266933.50908 -13454747.26107  21792910.29400  21792910.14900  21792907.87000
       171.00000        85.00000
  -1619092.86605  -1261629.10205  25280426.93600  25280425.92100  25280426.53100
         6.00000         6.00000
 -23007728.31108 -17928097.15208  20298088.83600  20298088.57100  20298087.69800
       205.00000       307.00000
 -20854059.91008 -16249907.09208  20733105.69700  20733105.56200  20733106.06600
       272.00000       136.00000
  -1538210.82705  -1198606.73705  24961716.76600  24961715.73500  24961716.73000
         5.00000         9.00000
 -23423849.23008 -18252353.57008  21043493.90500  21043493.45700  21043492.91000
       240.00000       102.00000
   -731574.21305   -570062.14705  24765853.06800  24765851.99300  24765856.75000
         4.00000         6.00000
 04  8 26  1 37  0.0000000  0 10G15G26G29G22G28G18G 9G19G21G 3
 -21818043.63908 -17001071.26008  20887612.79100  20887612.22400  20887612.99300
       207.00000       111.00000
  -8448441.91407  -6583204.17307  22662752.98800  22662752.77300  22662753.03700
        54.00000        38.00000
  -3011953.08806  -2346979.61906  23716453.36500  23716453.69900  23716455.38500
        20.00000        19.00000
 -17336048.93908 -13508603.41407  21779758.24600  21779757.98200  21779755.77800
       177.00000        88.00000
  -1619690.89805  -1262095.03705  25280312.08600  25280311.99500  25280312.07300
         5.00000         6.00000
 -23026818.68808 -17942972.76908  20294455.96000  20294455.63700  20294454.80800
       206.00000       304.00000
 -20905010.70908 -16289608.98108  20723409.83100  20723409.63100  20723410.33500
       269.00000       135.00000
  -1561858.12905  -1217033.25906  24957216.41400  24957216.23500  24957216.79800
         5.00000        11.00000
 -23355125.31508 -18198802.49608  21056571.51200  21056571.07500  21056570.76400
       235.00000       103.00000
   -688735.89404   -536681.64504  24774004.35100  24774003.25100  24774005.69300
         2.00000         3.00000
 04  8 26  1 37 30.0000000  0 10G15G26G29G22G28G18G 9G19G21G 3
 -21852229.70508 -17027709.75208  20881106.96800  20881106.58300  20881107.73000
       204.00000       117.00000
  -8348822.55207  -6505578.74007  22681709.67000  22681709.76900  22681709.89100
        54.00000        36.00000
  -2919883.98706  -2275237.50306  23733972.46500  23733973.41600  23733975.70100
        19.00000        21.00000
 -17404954.39808 -13562295.95307  21766645.86400  21766645.67600  21766643.33900
       183.00000        91.00000
  -1619782.53004  -1262166.39305  25280295.10900  25280294.56900  25280295.28100
         3.00000         7.00000
 -23045531.45908 -17957554.15308  20290895.08600  20290894.69000  20290893.77700
       205.00000       299.00000
 -20955340.11708 -16328826.66708  20713832.89400  20713832.65200  20713833.02600
       272.00000       137.00000
  -1584977.52005  -1235048.34306  24952817.36900  24952816.73700  24952816.94200
         8.00000        12.00000
 -23285894.72608 -18144856.61107  21069745.63800  21069745.50200  21069744.93400
       237.00000       100.00000
   -645476.37104   -502972.94405  24782238.06200  24782236.72900  24782239.15600
         1.00000         4.00000
 04  8 26  1 38  0.0000000  0 10G15G26G29G22G28G18G 9G19G21G 3
 -21885813.57908 -17053879.00508  20874716.55500  20874716.09300  20874717.11000
       210.00000       121.00000
  -8249080.88407  -6427857.99607  22700689.00700  22700689.24900  22700690.49900
        52.00000        36.00000
  -2827766.55406  -2203457.73206  23751502.61600  23751502.87300  23751505.01700
        18.00000        19.00000
 -17473657.84908 -13615831.08407  21753571.86900  21753571.86400  21753569.46000
       187.00000        92.00000
  -1619376.35504  -1261849.88505  25280372.11900  25280370.09800  25280372.99100
         3.00000         6.00000
 -23063874.44208 -17971847.38608  20287404.70700  20287404.24700  20287403.28400
       204.00000       302.00000
 -21005055.30508 -16367565.73408  20704371.81800  20704371.69400  20704372.37300
       265.00000       138.00000
  -1607577.17205  -1252658.45305  24948516.28100  24948515.96500  24948516.83000
         6.00000        10.00000
 -23216168.36708 -18090524.41608  21083014.18600  21083013.87500  21083013.45300
       229.00000       101.00000
   -601806.45205   -468944.50505  24790549.08100  24790549.12800  24790550.56400
         9.00000         6.00000
 04  8 26  1 38 30.0000000  0 10G15G26G29G22G28G18G 9G19G21G 3
 -21918769.76608 -17079559.14808  20868445.04700  20868444.44300  20868445.71900
       197.00000       121.00000
  -8149194.97507  -6350024.84107  22719696.96100  22719696.95100  22719697.86100
        56.00000        34.00000
  -2735578.10706  -2131622.61206  23769045.60400  23769045.93800  23769047.45600
        18.00000        19.00000
 -17542133.84908 -13669188.98807  21740540.89700  21740541.10800  21740538.95700
       187.00000        91.00000
  -1618448.04804  -1261126.53705  25280545.81000  25280546.20000  25280549.99800
         2.00000         8.00000
 -23081822.90808 -17985833.20408  20283988.93000  20283988.74600  20283987.88400
       204.00000       308.00000
 -21054130.41908 -16405806.05108  20695033.39100  20695033.14300  20695033.78800
       271.00000       138.00000
  -1629632.55605  -1269844.47706  24944319.28500  24944319.58200  24944320.62100
         6.00000        13.00000
 -23145924.03608 -18035788.60508  21096381.00500  21096380.74000  21096380.62400
       224.00000       101.00000
   -557704.69306   -434579.54205  24798941.70200  24798941.63500  24798942.30100
        11.00000         6.00000
 04  8 26  1 39  0.0000000  0 10G15G26G29G22G28G18G 9G19G21G 3
 -21951116.25008 -17104764.19108  20862290.04500  20862289.40900  20862290.25800
       198.00000       121.00000
  -8049186.08807  -6272095.87107  22738728.76000  22738728.32800  22738729.35800
        56.00000        35.00000
  -2643339.26106  -2059748.25806  23786599.31900  23786599.23600  23786599.84100
        23.00000        18.00000
 -17610400.77508 -13722383.96807  21727550.49300  21727550.41500  21727548.32100
       187.00000        94.00000
  -1617016.79105  -1260011.25605  25280821.90600  25280820.85600  25280822.22300
         4.00000         6.00000
 -23099395.42808 -17999526.06808  20280645.15000  20280644.77300  20280644.06200
       203.00000       316.00000
 -21102583.20508 -16443561.43508  20685812.89900  20685813.01400  20685813.24800
       278.00000       138.00000
  -1651162.88204  -1286621.34205  24940220.94700  24940222.04200  24940222.38800
         3.00000         9.00000
 -23075184.24208 -17980666.72307  21109842.62200  21109842.29500  21109841.94900
       226.00000       100.00000
   -513192.86806   -399895.08005  24807412.57000  24807412.17600  24807414.02900
        16.00000         6.00000
 04  8 26  1 39 30.0000000  0 11G15G26G29G22G28G18G 9G19G21G 3G14
 -21982815.76108 -17129465.10708  20856257.61300  20856257.13700  20856257.98800
       206.00000       116.00000
  -7949020.60507  -6194044.87807  22757788.44000  22757789.10800  22757790.21500
        61.00000        36.00000
  -2551015.83206  -1987807.96806  23804168.35500  23804168.48200  23804168.35900
        21.00000        17.00000
 -17678421.39808 -13775387.03507  21714606.67100  21714606.52000  21714604.45900
       189.00000        93.00000
  -1615046.91704  -1258476.23305  25281195.57300  25281195.65200  25281196.26600
         3.00000         6.00000
 -23116555.48008 -18012897.54109  20277379.48200  20277379.35600  20277378.61500
       206.00000       318.00000
 -21150376.20708 -16480802.70108  20676718.18600  20676718.22200  20676718.64700
       279.00000       142.00000
  -1672131.84105  -1302960.74905  24936231.09600  24936232.29300  24936232.22800
         4.00000         8.00000
 -23003915.01808 -17925132.29807  21123404.57200  21123404.13600  21123404.17100
       222.00000       100.00000
   -468237.39205   -364864.88405  24815964.72800  24815964.29100  24815967.67900
         6.00000         6.00000
    -32170.43504    -25067.60704  24134662.37900  24134661.10100  24134661.63000
         1.00000         3.00000
 04  8 26  1 40  0.0000000  0 10G15G26G29G22G28G18G 9G19G21G 3
 -22013950.22708 -17153725.72808  20850332.54300  20850332.15000  20850333.17700
       202.00000       114.00000
  -7848783.55207  -6115938.10107  22776864.49000  22776864.09900  22776864.56800
        60.00000        35.00000
  -2458691.94406  -1915867.33706  23821737.69500  23821737.48500  23821736.63000
        23.00000        16.00000
 -17746277.86308 -13828262.18007  21701693.70300  21701693.78000  21701691.53800
       187.00000        89.00000
  -1612621.37004  -1256586.20605  25281657.01200  25281656.56200  25281658.52100
         3.00000         6.00000
 -23133385.08308 -18026011.52609  20274177.06700  20274176.85200  20274176.03700
       204.00000       320.00000
 -21197591.09208 -16517593.48908  20667733.68300  20667733.54600  20667734.01300
       283.00000       144.00000
  -1692622.26005  -1318927.31705  24932333.38300  24932332.28700  24932332.86900
         4.00000         6.00000
 -22932201.62008 -17869251.75707  21137050.83500  21137050.56600  21137050.79900
       214.00000        98.00000
   -422923.51705   -329555.40605  24824587.54900  24824587.27700  24824589.99400
         9.00000         7.00000
 04  8 26  1 40 30.0000000  0 10G15G26G29G22G28G18G 9G19G21G 3
 -22044438.10708 -17177482.51708  20844531.19200  20844530.71800  20844531.38400
       219.00000       112.00000
  -7748396.63907  -6037714.57707  22795966.46400  22795966.87400  22795967.98000
        62.00000        37.00000
  -2366288.94706  -1843865.06606  23839320.32100  23839320.15000  23839321.11100
        20.00000        16.00000
 -17813888.77408 -13880945.98607  21688827.78800  21688827.81800  21688825.52100
       188.00000        89.00000
  -1609659.88204  -1254278.52505  25282219.41100  25282219.75000  25282221.87600
         3.00000         5.00000
 -23149803.39108 -18038805.01709  20271052.56600  20271052.54500  20271051.70900
       202.00000       319.00000
 -21244145.96908 -16553869.98308  20658874.39400  20658874.40300  20658874.88500
       276.00000       146.00000
  -1712553.54905  -1334458.21905  24928540.51600  24928540.48700  24928539.53000
         7.00000         4.00000
 -22859966.16808 -17812964.42107  21150797.48100  21150797.13500  21150796.64600
       224.00000        96.00000
   -377173.49605   -293906.06105  24833293.03400  24833292.34700  24833297.27900
         6.00000         9.00000
 04  8 26  1 41  0.0000000  0 10G15G26G29G22G28G18G 9G19G21G 3
 -22074307.41508 -17200757.30808  20838847.69500  20838847.07400  20838847.50800
       233.00000       113.00000
  -7647891.21807  -5959398.69107  22815092.36200  22815091.99300  22815093.28200
        55.00000        35.00000
  -2273837.21606  -1771824.81306  23856913.35400  23856913.35700  23856913.83400
        18.00000        15.00000
 -17881282.00408 -13933460.17107  21676003.67000  21676003.37400  21676000.94000
       186.00000        88.00000
  -1606191.31205  -1251575.76105  25282881.01000  25282880.80500  25282882.46000
         4.00000         7.00000
 -23165838.34108 -18051299.78209  20268001.65600  20268001.31300  20268000.32300
       202.00000       321.00000
 -21290068.54408 -16589653.78608  20650135.81600  20650135.58700  20650136.17800
       274.00000       150.00000
  -1731954.63605  -1349575.97905  24924849.91300  24924848.73300  24924847.19300
         8.00000         4.00000
 -22787240.06208 -17756294.76507  21164637.13200  21164636.50100  21164635.74800
       219.00000        91.00000
   -331018.72405   -257941.34405  24842076.54900  24842076.22000  24842079.54300
        10.00000         8.00000
 04  8 26  1 41 30.0000000  0 10G15G26G29G22G28G18G 9G19G21G 3
 -22103541.36908 -17223537.00908  20833284.23300  20833283.86900  20833284.49700
       228.00000       115.00000
  -7547253.76307  -5880979.91807  22834242.15100  22834242.49700  22834243.88100
        53.00000        35.00000
  -2181322.66906  -1699735.60506  23874517.51800  23874517.84100  23874519.24400
        17.00000        16.00000
 -17948441.00108 -13985791.83907  21663223.70200  21663223.42500  21663221.10600
       189.00000        87.00000
  -1602200.46405  -1248466.02105  25283639.85800  25283638.93500  25283640.31600
         6.00000         5.00000
 -23181474.07908 -18063483.47509  20265026.24400  20265025.90500  20265024.93400
       202.00000       319.00000
 -21335341.66508 -16624931.51208  20641520.61100  20641520.41400  20641520.96600
       270.00000       149.00000
  -1750809.61905  -1364268.23904  24921262.39000  24921260.80900  24921258.46400
         6.00000         3.00000
 -22714010.15808 -17699232.52807  21178571.69700  21178571.34800  21178571.33600
       214.00000        95.00000
   -284446.23606   -221651.14305  24850940.84200  24850940.31100  24850942.71800
        12.00000         9.00000
 04  8 26  1 42  0.0000000  0 11G15G26G29G22G28G18G 9G19G21G 3G14
 -22132144.16608 -17245824.89708  20827841.44600  20827841.10400  20827841.56400
       234.00000       117.00000
  -7446491.97207  -5802464.28007  22853416.49100  22853417.00400  22853418.12000
        51.00000        32.00000
  -2088752.28606  -1627602.90806  23892134.27100  23892133.40600  23892134.89900
        17.00000        17.00000
 -18015370.46908 -14037944.65507  21650487.03500  21650487.00400  21650484.78500
       187.00000        87.00000
  -1597692.93605  -1244953.68205  25284496.41500  25284497.87400  25284499.32300
         7.00000         6.00000
 -23196715.31508 -18075359.75208  20262126.00600  20262125.56000  20262124.48500
       204.00000       314.00000
 -21379969.71308 -16659706.58908  20633027.39900  20633027.60100  20633028.42700
       267.00000       150.00000
  -1769124.23200  -1378539.34305  24917774.25900  24917775.81600  24917774.99000
          .00000         6.00000
 -22640284.83908 -17641784.26007  21192601.13600  21192600.93600  21192600.55000
       224.00000        90.00000
   -237463.95406   -185041.62805  24859881.48400  24859881.52000  24859882.95500
        11.00000         8.00000
    -31943.04304    -24890.01204  24043174.27100  24043175.43300  24043173.40300
         1.00000         2.00000
 04  8 26  1 42 30.0000000  0 11G15G26G29G22G28G18G 9G19G21G 3G14
 -22160133.82708 -17267635.02508  20822515.25000  20822514.62600  20822515.34300
       225.00000       114.00000
  -7345626.87807  -5723868.14506  22872610.90000  22872611.49800  22872611.85500
        52.00000        29.00000
  -1996146.49106  -1555442.59406  23909755.73200  23909755.78400  23909757.95500
        19.00000        18.00000
 -18082088.03508 -14089932.35707  21637791.29400  21637791.15700  21637788.76200
       186.00000        88.00000
  -1592687.78205  -1241053.58305  25285450.18700  25285449.44800  25285450.71900
         5.00000         5.00000
 -23211580.35108 -18086942.89708  20259297.18700  20259296.87100  20259295.74800
       204.00000       314.00000
 -21423970.23708 -16693992.68608  20624655.11300  20624654.90100  20624655.51500
       274.00000       152.00000
  -1786917.13204  -1392403.90505  24914389.64400  24914389.85100  24914389.94300
         1.00000         9.00000
 -22566085.49708 -17583966.61407  21206721.30300  21206720.75300  21206720.32100
       217.00000        90.00000
   -190093.62305   -148129.75005  24868895.44200  24868894.87200  24868897.21300
         8.00000         8.00000
   -127659.03100    -99473.85804  24024960.47100  24024959.83900  24024961.17000
          .00000         2.00000
 04  8 26  1 43  0.0000000  0 11G15G26G29G22G28G18G 9G19G21G 3G14
 -22187507.39808 -17288965.07508  20817305.87600  20817305.43400  20817306.25400
       209.00000       113.00000
  -7244658.73807  -5645191.70706  22891824.52500  22891824.70000  22891825.65200
        49.00000        28.00000
  -1903504.95806  -1483254.44206  23927385.52000  23927385.24400  23927387.25800
        19.00000        18.00000
 -18148590.70808 -14141752.60407  21625135.65500  21625135.89100  21625133.50400
       191.00000        89.00000
  -1587183.23305  -1236764.36405  25286497.10200  25286496.19400  25286496.51200
         4.00000         4.00000
 -23226066.67808 -18098230.93809  20256540.45000  20256540.16400  20256539.18500
       204.00000       317.00000
 -21467340.26208 -16727787.48108  20616402.14200  20616401.85300  20616402.38000
       283.00000       152.00000
  -1804186.29104  -1405860.44606  24911104.46200  24911103.82000  24911103.44300
         2.00000        11.00000
 -22491412.42008 -17525779.83207  21220930.78400  21220930.46100  21220930.41400
       217.00000        90.00000
   -142335.78705   -110915.89305  24877981.97400  24877982.33500  24877985.00200
         6.00000         9.00000
   -223239.46000   -173952.01404  24006768.61600  24006768.62400  24006771.24500
        -1.00000         2.00000
 04  8 26  1 43 30.0000000  0 11G15G26G29G22G28G18G 9G19G21G 3G14
 -22214229.04808 -17309787.13908  20812221.12700  20812220.74100  20812221.25000
       216.00000       113.00000
  -7143554.98607  -5566409.60806  22911064.59300  22911064.33800  22911064.92100
        51.00000        26.00000
  -1810794.27606  -1411012.39806  23945026.59100  23945026.38800  23945028.94100
        16.00000        17.00000
 -18214842.71608 -14193377.52807  21612529.08500  21612528.73100  21612526.22800
       191.00000        90.00000
  -1581144.83604  -1232059.13204  25287644.15000  25287645.49100  25287648.06600
         2.00000         3.00000
 -23240138.79908 -18109196.23009  20253862.40200  20253862.30400  20253861.33400
       204.00000       320.00000
 -21510043.57508 -16761062.77508  20608275.73000  20608275.62600  20608276.13700
       290.00000       153.00000
  -1820896.99604  -1418881.79306  24907923.80100  24907923.22500  24907923.81500
         3.00000        11.00000
 -22416233.72808 -17467199.06407  21235237.02600  21235236.65600  21235235.97800
       215.00000        84.00000
    -94158.19705    -73374.92905  24887150.03100  24887149.24600  24887153.52100
         4.00000        10.00000
   -318649.00600   -248297.14004  23988618.70700  23988617.31800  23988618.31100
          .00000         3.00000
 04  8 26  1 44  0.0000000  0 11G15G26G29G22G28G18G 9G19G21G 3G14
 -22240305.79308 -17330106.68608  20807259.15900  20807258.60900  20807258.82800
       217.00000       111.00000
  -7042325.67007  -5487529.65206  22930328.30000  22930327.86000  22930328.23400
        50.00000        25.00000
  -1718023.86106  -1338723.81606  23962680.74700  23962680.82700  23962682.79900
        18.00000        16.00000
 -18280851.35808 -14244812.81507  21599967.67600  21599967.73600  21599965.24300
       196.00000        90.00000
  -1574580.76605  -1226944.30504  25288896.94800  25288896.39200  25288895.31800
         5.00000         3.00000
 -23253804.25708 -18119844.64409  20251262.22900  20251261.89600  20251260.83700
       200.00000       318.00000
 -21552087.19908 -16793824.00908  20600275.55300  20600275.25700  20600275.57500
       296.00000       152.00000
  -1837057.32304  -1431474.25006  24904848.73400  24904846.28900  24904848.28000
         3.00000        12.00000
 -22340559.56208 -17408232.20907  21249637.28200  21249636.90100  21249636.31300
       212.00000        83.00000
    -45571.46405    -35515.15805  24896396.73600  24896396.76000  24896399.27300
         5.00000         8.00000
   -413895.34700   -322515.00504  23970494.72700  23970494.00700  23970491.58700
        -1.00000         2.00000
 04  8 26  1 44 30.0000000  0 11G15G26G29G22G28G18G 9G19G21G 3G14
 -22265753.66008 -17349936.19508  20802416.17500  20802415.77900  20802416.30400
       207.00000       113.00000
  -6940989.82407  -5408566.68406  22949611.10700  22949611.33500  22949611.32700
        52.00000        24.00000
  -1625212.10006  -1266403.01206  23980341.52300  23980342.88500  23980343.77800
        18.00000        15.00000
 -18346632.23108 -14296070.62407  21587449.97700  21587449.93600  21587447.56700
       197.00000        94.00000
  -1567508.28605  -1221433.27805  25290242.42900  25290241.66000  25290242.10000
         4.00000         4.00000
 -23267079.15008 -18130188.71709  20248735.71700  20248735.60200  20248734.67300
       198.00000       318.00000
 -21593486.64408 -16826083.29608  20592397.11300  20592396.82000  20592397.32700
       289.00000       151.00000
  -1852683.94404  -1443650.81306  24901874.64200  24901873.90200  24901874.05000
         3.00000        11.00000
 -22264410.07108 -17348894.96807  21264128.20500  21264127.79300  21264127.23800
       210.00000        81.00000
      3405.10905      2648.32905  24905716.11200  24905716.45600  24905718.66800
         7.00000         6.00000
   -508994.30600   -396617.97604  23952395.06600  23952392.98100  23952395.76300
        -1.00000         3.00000
 04  8 26  1 45  0.0000000  0 11G22G21G26G28G14G15G29G18G 9G19G 3
 -18412201.46408 -14347163.51007  21574972.26000  21574972.47500  21574970.13900
       198.00000        94.00000
 -22187804.56608 -17289202.39807  21278705.76500  21278705.32800  21278704.62900
       205.00000        78.00000
  -6839566.71607  -5329535.71706  22968911.13000  22968911.65100  22968911.52800
        51.00000        25.00000
  -1559944.79105  -1215539.68705  25291681.59900  25291681.80500  25291679.86900
         4.00000         4.00000
   -603962.54800   -470619.13605  23934320.28500  23934322.43100  23934327.32700
        -1.00000         4.00000
 -22290588.87808 -17369288.31508  20797690.39900  20797689.78500  20797690.58600
       209.00000       118.00000
  -1532377.66606  -1194064.56106  23998009.41900  23998009.33800  23998009.74300
        22.00000        15.00000
 -23279980.01608 -18140241.33209  20246280.88300  20246280.70600  20246279.81500
       195.00000       322.00000
 -21634257.87208 -16857853.05908  20584638.77600  20584638.59700  20584638.86300
       295.00000       154.00000
  -1867794.31705  -1455425.11306  24898999.87900  24898998.65900  24898998.31700
        10.00000        11.00000
     52751.44505     41099.98605  24915107.73000  24915107.34100  24915110.26300
        10.00000         7.00000
 04  8 26  1 45 30.0000000  0 11G22G21G26G28G14G15G29G18G 9G19G 3
 -18477501.47408 -14398046.62707  21562546.70500  21562546.41800  21562543.96800
       200.00000        93.00000
 -22110689.07408 -17229112.43507  21293380.24800  21293379.79300  21293379.72600
       203.00000        83.00000
  -6738001.81307  -5250394.26506  22988237.82100  22988238.61200  22988238.75500
        47.00000        24.00000
  -1551833.90804  -1209219.53305  25293223.46800  25293223.00100  25293224.27800
         1.00000         4.00000
   -698743.17300   -544474.11804  23916287.61000  23916287.56800  23916287.91700
          .00000         3.00000
 -22314753.90608 -17388118.20508  20793091.60600  20793091.22400  20793092.27500
       212.00000       123.00000
  -1439465.29806  -1121665.37106  24015689.75500  24015690.16500  24015690.08100
        23.00000        14.00000
 -23292449.68408 -18149957.95909  20243908.15400  20243907.79900  20243906.96500
       197.00000       328.00000
 -21674343.29208 -16889088.43208  20577010.23800  20577010.20500  20577010.96400
       289.00000       154.00000
  -1882331.64705  -1466752.89205  24896231.77200  24896232.55200  24896232.63600
         8.00000        10.00000
    102521.49405     79881.76405  24924577.74200  24924577.50600  24924580.47700
         8.00000         5.00000
 04  8 26  1 46  0.0000000  0 11G22G21G26G28G14G15G29G18G 9G19G 3
 -18542643.81308 -14448806.88007  21550150.13600  21550150.00400  21550147.63200
       196.00000        94.00000
 -22033178.84708 -17168714.87507  21308129.79200  21308129.48300  21308129.10500
       189.00000        78.00000
  -6636409.91707  -5171231.79406  23007571.27500  23007570.98700  23007571.08200
        47.00000        24.00000
  -1543288.57504  -1202560.89304  25294852.87800  25294851.75300  25294852.54800
         2.00000         3.00000
   -793447.94800   -618269.98805  23898264.78500  23898265.11300  23898265.87600
          .00000         4.00000
 -22338360.38808 -17406512.86308  20788599.53000  20788599.05800  20788600.22400
       209.00000       129.00000
  -1346589.02806  -1049294.31806  24033363.26400  24033363.69100  24033364.24200
        24.00000        15.00000
 -23304600.11008 -18159425.82809  20241595.94500  20241595.70700  20241594.87100
       198.00000       331.00000
 -21713854.37708 -16919876.27008  20569492.15500  20569491.73700  20569491.96300
       292.00000       153.00000
  -1896408.96906  -1477722.25405  24893554.48500  24893553.64000  24893554.11200
        12.00000         9.00000
    152599.88405    118903.81005  24934107.39100  24934106.89500  24934108.32900
        10.00000         4.00000
 04  8 26  1 46 30.0000000  0 11G22G21G26G28G14G15G29G18G 9G19G 3
 -18607506.99808 -14499349.61007  21537807.28700  21537807.15900  21537804.73100
       201.00000        96.00000
 -21955156.35908 -17107918.17307  21322977.22400  21322976.96400  21322976.45300
       194.00000        78.00000
  -6534672.62807  -5091956.02306  23026930.89800  23026930.62900  23026932.02100
        40.00000        27.00000
  -1534189.01204  -1195470.32704  25296580.34300  25296580.84200  25296580.93900
         2.00000         3.00000
   -887956.10300   -691912.58205  23880277.69800  23880279.71600  23880280.92800
          .00000         5.00000
 -22361287.14908 -17424377.87408  20784237.24400  20784236.71800  20784237.16000
       229.00000       125.00000
  -1253630.11806   -976858.85506  24051052.54900  24051052.81700  24051053.26700
        20.00000        14.00000
 -23316310.22008 -18168550.59209  20239367.78500  20239367.38000  20239366.41300
       195.00000       326.00000
 -21752669.64808 -16950121.91308  20562105.85600  20562105.50200  20562105.56400
       294.00000       154.00000
  -1909905.84406  -1488239.31505  24890986.48300  24890985.07100  24890985.47100
        14.00000         8.00000
    203104.51706    158258.06105  24943718.31500  24943718.29800  24943722.12400
        12.00000         6.00000
 04  8 26  1 47  0.0000000  0 11G22G21G26G28G14G15G29G18G 9G19G 3
 -18672126.86808 -14549702.74307  21525509.85300  21525510.26200  21525507.87300
       203.00000        94.00000
 -21876660.98708 -17046752.98107  21337914.25800  21337913.81800  21337913.90500
       183.00000        79.00000
  -6432828.86807  -5012597.29306  23046311.72100  23046311.68500  23046312.08300
        39.00000        27.00000
  -1524572.19804  -1187976.76604  25298413.81300  25298412.39400  25298412.35900
         3.00000         3.00000
   -982303.83600   -765430.27405  23862326.34700  23862323.35700  23862329.07200
          .00000         5.00000
 -22383570.12208 -17441741.24308  20779996.80600  20779996.29600  20779996.99900
       231.00000       130.00000
  -1160626.61406   -904388.63906  24068752.21500  24068751.39700  24068751.20700
        19.00000        13.00000
 -23327616.53708 -18177360.71109  20237216.22100  20237215.83700  20237214.79300
       194.00000       322.00000
 -21790824.95608 -16979853.30508  20554844.67100  20554844.47400  20554845.03300
       291.00000       157.00000
  -1922859.26506  -1498332.92505  24888522.07400  24888520.88100  24888521.33600
        12.00000         9.00000
    253995.96506    197913.62005  24953403.57800  24953403.01300  24953405.21700
        12.00000         6.00000
 04  8 26  1 47 30.0000000  0 11G22G21G26G28G14G15G29G18G 9G19G 3
 -18736482.34208 -14599849.86107  21513263.99300  21513264.01500  21513261.59500
       206.00000        96.00000
 -21797675.28708 -16985205.72107  21352944.96900  21352944.60400  21352944.18900
       191.00000        78.00000
  -6330860.79907  -4933141.69506  23065714.06600  23065714.79600  23065716.59100
        40.00000        30.00000
  -1514418.71304  -1180064.94504  25300345.21800  25300344.64500  25300343.74100
         2.00000         2.00000
  -1076470.88204   -838807.06805  23844406.81500  23844408.01300  23844407.24600
         1.00000         5.00000
 -22405188.63608 -17458586.83808  20775882.53500  20775882.16700  20775883.19600
       229.00000       130.00000
  -1067560.13206   -831869.36206  24086460.47200  24086460.76800  24086461.59600
        19.00000        15.00000
 -23338498.36808 -18185840.06109  20235145.26500  20235145.06500  20235144.17000
       194.00000       327.00000
 -21828299.19808 -17009053.99908  20547713.87000  20547713.58400  20547713.76600
       298.00000       155.00000
  -1935249.59606  -1507987.77106  24886162.59600  24886162.62500  24886163.74400
        12.00000        12.00000
    305291.36405    237884.03905  24963164.13100  24963163.78100  24963165.59300
         6.00000         6.00000
 04  8 26  1 48  0.0000000  0 11G22G21G26G28G14G15G29G18G 9G19G 3
 -18800600.30308 -14649811.89807  21501062.46600  21501062.64900  21501060.18800
       206.00000        98.00000
 -21718230.26008 -16923300.54507  21368062.51300  21368062.23100  21368062.13300
       183.00000        76.00000
  -6228798.35007  -4853612.55506  23085136.39900  23085136.28400  23085138.76100
        36.00000        30.00000
  -1503756.86204  -1171756.99104  25302374.63000  25302373.77800  25302372.87800
         2.00000         3.00000
  -1170484.29500   -912064.20905  23826518.45700  23826517.72000  23826516.93100
          .00000         5.00000
 -22426169.67108 -17474935.69608  20771890.17900  20771889.68000  20771890.55400
       239.00000       124.00000
   -974459.80906   -759323.73506  24104177.40100  24104177.38600  24104178.19000
        17.00000        14.00000
 -23348982.84008 -18194009.78309  20233150.37300  20233149.93100  20233149.15200
       194.00000       336.00000
 -21865119.44308 -17037745.07908  20540706.88100  20540706.87200  20540707.28900
       299.00000       157.00000
  -1947104.66905  -1517225.50505  24883907.25100  24883906.22400  24883906.94600
        10.00000        10.00000
    356960.30705    278145.48005  24972996.01900  24972995.63800  24972998.61600
         7.00000         6.00000
 04  8 26  1 48 30.0000000  0 11G22G21G26G28G14G15G29G18G 9G19G 3
 -18864519.73208 -14699619.23707  21488899.72200  21488899.29900  21488896.73300
       203.00000        97.00000
 -21638368.48108 -16861070.62307  21383260.34000  21383259.86100  21383259.37700
       184.00000        75.00000
  -6126683.56307  -4774042.62106  23104568.75300  23104568.73200  23104570.67500
        40.00000        30.00000
  -1492626.90304  -1163084.32705  25304490.01800  25304490.23400  25304489.76500
         1.00000         4.00000
  -1264383.51504   -985232.36905  23808646.16800  23808646.99900  23808646.17400
         2.00000         5.00000
 -22446552.38408 -17490818.33508  20768011.12600  20768010.73800  20768011.63600
       230.00000       121.00000
   -881366.82506   -686783.81106  24121892.09300  24121892.21900  24121893.94500
        17.00000        14.00000
 -23359109.51608 -18201900.70609  20231223.21000  20231222.87100  20231222.07800
       191.00000       337.00000
 -21901324.71408 -17065956.96408  20533817.58900  20533817.22400  20533817.71800
       295.00000       159.00000
  -1958464.53505  -1526077.37905  24881744.78900  24881742.12400  24881744.58900
         5.00000         7.00000
    408959.93906    318664.65505  24982891.86000  24982891.48900  24982892.99900
        12.00000         5.00000
 04  8 26  1 49  0.0000000  0 11G22G21G26G28G14G15G29G18G 9G19G 3
 -18928179.98408 -14749224.61907  21476785.19200  21476785.15800  21476782.71100
       207.00000       100.00000
 -21558032.75408 -16798471.39507  21398547.13000  21398547.15000  21398547.05400
       188.00000        74.00000
  -6024458.72807  -4694386.94006  23124021.34700  23124021.54900  23124023.19700
        40.00000        27.00000
  -1480969.78100  -1154000.88305  25306709.02900  25306709.70500  25306708.39500
          .00000         4.00000
  -1358108.79205  -1058264.98705  23790811.66800  23790811.51700  23790814.52100
         5.00000         6.00000
 -22466276.72108 -17506187.94408  20764258.17100  20764257.65700  20764258.43200
       234.00000       125.00000
   -788223.44906   -614204.62306  24139615.35500  24139615.80600  24139618.31800
        13.00000        17.00000
 -23368818.25708 -18209465.96609  20229375.86700  20229375.39400  20229374.54700
       190.00000       334.00000
 -21936854.48108 -17093642.47908  20527056.41500  20527056.21900  20527056.35400
       300.00000       160.00000
  -1969270.13905  -1534497.34005  24879688.96300  24879686.65300  24879687.35000
         4.00000         7.00000
    461347.26305    359485.90805  24992859.59700  24992859.65100  24992863.86900
         8.00000         7.00000
 04  8 26  1 49 30.0000000  0 11G22G21G26G28G14G15G29G18G 9G19G 3
 -18991573.20408 -14798621.92108  21464721.59300  21464721.64900  21464719.38800
       211.00000       104.00000
 -21477219.48508 -16735500.04607  21413925.72800  21413925.40700  21413925.01300
       185.00000        70.00000
  -5922119.62907  -4614642.22906  23143496.72800  23143496.72600  23143497.78000
        47.00000        27.00000
  -1468779.68304  -1144502.11504  25309030.15000  25309028.72100  25309029.27900
         2.00000         3.00000
  -1451652.81105  -1131156.35005  23773014.17600  23773012.46500  23773012.50300
         4.00000         7.00000
 -22485335.42508 -17521038.88408  20760631.48000  20760630.94600  20760631.59000
       239.00000       123.00000
   -695024.41206   -541582.06306  24157350.78900  24157351.41500  24157353.43000
        12.00000        16.00000
 -23378102.17008 -18216700.18609  20227609.25400  20227608.81900  20227607.82000
       190.00000       331.00000
 -21971701.28608 -17120795.81008  20520424.56100  20520424.74200  20520425.45400
       292.00000       165.00000
  -1979515.06705  -1542480.44105  24877739.58200  24877740.28300  24877738.27200
         8.00000         8.00000
    514125.91204    400612.09905  25002903.60700  25002903.66600  25002907.53300
         3.00000         5.00000
 04  8 26  1 50  0.0000000  0 11G22G21G26G28G14G15G29G18G 9G19G 3
 -19054715.00708 -14847823.32008  21452706.54700  21452706.39500  21452704.04000
       214.00000       107.00000
 -21395948.20508 -16672171.81407  21429390.69600  21429390.61600  21429390.55900
       183.00000        70.00000
  -5819684.53707  -4534822.71306  23162988.83800  23162989.14400  23162989.80700
        42.00000        24.00000
  -1456073.16404  -1134600.92804  25311448.88700  25311448.22200  25311447.19300
         3.00000         3.00000
  -1545031.47804  -1203918.89005  23755241.77000  23755241.33400  23755243.83400
         3.00000         6.00000
 -22503744.19008 -17535383.39208  20757128.25900  20757127.78300  20757128.47000
       228.00000       122.00000
   -601787.43705   -468929.93606  24175091.68600  24175093.36500  24175096.24700
        10.00000        16.00000
 -23386976.84508 -18223615.52509  20225920.12900  20225919.85200  20225919.07800
       190.00000       333.00000
 -22005880.53008 -17147428.97408  20513921.08800  20513920.80100  20513921.33400
       296.00000       166.00000
  -1989216.07505  -1550039.67205  24875892.57200  24875893.13900  24875893.04200
         8.00000         9.00000
    567276.73105    442028.26905  25013018.37100  25013017.81800  25013021.23300
         7.00000         4.00000
 04  8 26  1 50 30.0000000  0 11G22G21G26G28G14G15G29G18G 9G19G 3
 -19117615.42608 -14896836.61508  21440736.45400  21440736.55500  21440734.60900
       214.00000       111.00000
 -21314231.92008 -16608496.82807  21444941.63900  21444941.11000  21444940.91600
       186.00000        70.00000
  -5717166.43907  -4454938.50706  23182497.70800  23182497.51600  23182498.52400
        37.00000        24.00000
  -1442862.07805  -1124306.53204  25313961.07400  25313961.79000  25313961.13800
         4.00000         2.00000
  -1638255.06805  -1276560.60105  23737500.00500  23737501.15700  23737503.90600
         4.00000         6.00000
 -22521513.37508 -17549229.51708  20753746.59500  20753746.20300  20753747.23000
       222.00000       123.00000
   -508524.98106   -396257.96306  24192842.26000  24192842.01100  24192841.92500
        13.00000        14.00000
 -23395452.72008 -18230220.11009  20224307.10900  20224306.93500  20224306.11800
       187.00000       333.00000
 -22039402.46508 -17173549.94308  20507541.85600  20507541.73300  20507542.27600
       296.00000       166.00000
  -1998384.59605  -1557183.99606  24874148.28700  24874148.21000  24874149.51300
         8.00000        12.00000
    620786.17605    483723.93205  25023201.93100  25023201.26500  25023203.45600
         9.00000         4.00000
 04  8 26  1 51  0.0000000  0 11G22G21G26G28G14G15G29G18G 9G19G 3
 -19180272.26708 -14945660.11508  21428813.34800  21428813.40700  21428811.36300
       218.00000       111.00000
 -21232073.26808 -16544477.12707  21460575.44100  21460575.35800  21460574.79100
       187.00000        67.00000
  -5614566.67007  -4374990.67206  23202020.86300  23202021.17800  23202021.81400
        35.00000        21.00000
  -1429145.98300  -1113618.65804  25316572.83500  25316571.85400  25316571.47100
          .00000         2.00000
  -1731322.61005  -1349080.71705  23719793.02700  23719792.25100  23719793.75000
         6.00000         9.00000
 -22538641.51208 -17562576.12008  20750487.57600  20750486.93900  20750487.86800
       224.00000       123.00000
   -415237.60106   -323566.57306  24210594.84200  24210594.09300  24210594.91300
        13.00000        15.00000
 -23403528.58908 -18236512.99809  20222770.42400  20222770.08200  20222769.37500
       184.00000       333.00000
 -22072265.58508 -17199157.54708  20501288.13200  20501288.01400  20501288.66700
       291.00000       167.00000
  -2007019.86805  -1563912.80206  24872506.22000  24872504.61400  24872505.81000
         9.00000        12.00000
    674651.90805    525697.18105  25033453.07300  25033452.51300  25033452.68900
        10.00000         6.00000
 04  8 26  1 51 30.0000000  0 11G22G21G26G28G14G15G29G18G 9G19G 3
 -19242681.58408 -14994290.74408  21416937.52800  21416937.46200  21416935.16100
       225.00000       112.00000
 -21149472.02908 -16480112.55507  21476294.21100  21476293.86100  21476293.56400
       181.00000        71.00000
  -5511884.06107  -4294978.28806  23221560.90000  23221560.79000  23221562.49300
        34.00000        24.00000
  -1414922.52300  -1102535.42404  25319278.13100  25319277.56100  25319278.02400
        -1.00000         3.00000
  -1824230.17005  -1421476.15205  23702113.00000  23702112.47300  23702112.14200
         9.00000         7.00000
 -22555124.86508 -17575420.28808  20747350.47300  20747350.01100  20747350.96400
       219.00000       117.00000
   -321923.37206   -250854.28806  24228350.77300  24228350.86600  24228352.25600
        13.00000        16.00000
 -23411200.82808 -18242491.37309  20221310.73300  20221310.36500  20221309.32600
       188.00000       327.00000
 -22104465.99508 -17224248.76208  20495161.01600  20495160.63600  20495161.12400
       292.00000       168.00000
  -2015119.32805  -1570224.11006  24870964.39500  24870963.21000  24870965.31300
        10.00000        14.00000
    728874.25704    567948.29405  25043768.99000  25043767.25500  25043770.81800
         3.00000         5.00000
 04  8 26  1 52  0.0000000  0 11G22G21G26G28G14G15G29G18G 9G19G 3
 -19304861.53408 -15042742.64608  21405104.91900  21405104.97900  21405102.59100
       226.00000       112.00000
 -21066449.65008 -16415419.82307  21492092.84000  21492092.39200  21492092.11900
       177.00000        65.00000
  -5409139.79007  -4214917.85806  23241112.58200  23241112.56100  23241113.38500
        35.00000        21.00000
  -1400211.48100  -1091072.27404  25322080.79800  25322078.72100  25322079.43100
          .00000         3.00000
  -1916996.67805  -1493761.66605  23684459.20700  23684458.60800  23684460.94800
         7.00000         7.00000
 -22570982.04508 -17587776.54208  20744333.86200  20744333.04700  20744333.42400
       229.00000       116.00000
   -228603.12006   -178137.28306  24246109.48000  24246109.46700  24246110.77500
        13.00000        16.00000
 -23418488.21708 -18248169.85909  20219923.80700  20219923.53400  20219922.50200
       190.00000       324.00000
 -22136022.08708 -17248837.91108  20489155.46800  20489155.45600  20489156.15900
       292.00000       170.00000
  -2022702.54805  -1576133.16106  24869521.66700  24869521.55000  24869521.53300
         7.00000        11.00000
    783431.33000    610460.23405  25054150.69200  25054151.80100  25054153.15600
          .00000         5.00000
 04  8 26  1 52 30.0000000  0 11G22G21G26G28G14G15G29G18G 9G19G 3
 -19366768.33308 -15090981.69608  21393324.61400  21393324.44600  21393322.22000
       225.00000       113.00000
 -20982966.72108 -16350368.21607  21507979.10000  21507978.74600  21507978.14900
       174.00000        66.00000
  -5306293.31707  -4134777.78406  23260683.81300  23260683.83100  23260685.24800
        38.00000        25.00000
  -1384970.65704  -1079196.28104  25324978.80700  25324977.55700  25324977.40800
         3.00000         3.00000
  -2009578.83905  -1565903.55205  23666842.09800  23666841.42300  23666842.97000
         9.00000         7.00000
 -22586169.81408 -17599611.18108  20741443.66200  20741442.97300  20741443.43700
       237.00000       119.00000
   -135235.55006   -105383.42306  24263877.00100  24263876.63400  24263879.06200
        14.00000        16.00000
 -23425347.25808 -18253514.57309  20218618.64100  20218618.38700  20218617.31700
       189.00000       328.00000
 -22166890.63008 -17272891.30808  20483281.75700  20483281.57800  20483282.07600
       297.00000       172.00000
  -2029727.29905  -1581607.02705  24868185.85900  24868183.17300  24868184.00500
         5.00000         9.00000
    838362.88204    653264.00605  25064603.01300  25064602.57000  25064606.46800
         1.00000         5.00000
 04  8 26  1 53  0.0000000  0 11G22G21G26G28G14G15G29G18G 9G19G 3
 -19428433.30108 -15139032.30708  21381590.31100  21381590.25200  21381587.79100
       233.00000       114.00000
 -20899058.39908 -16284985.14107  21523945.98700  21523945.72600  21523945.88200
       163.00000        73.00000
  -5203378.86907  -4054584.76606  23280267.63700  23280268.42200  23280268.96500
        39.00000        24.00000
  -1369233.43704  -1066933.47804  25327975.05300  25327973.99700  25327974.42400
         2.00000         3.00000
  -2102008.90705  -1637926.90805  23649251.93900  23649252.60800  23649253.38300
         8.00000         6.00000
 -22600720.20308 -17610949.15108  20738674.41100  20738673.85900  20738674.58900
       224.00000       118.00000
    -41854.47406    -32619.02606  24281646.94700  24281646.77500  24281648.58800
        14.00000        14.00000
 -23431810.01808 -18258550.49509  20217388.72600  20217388.61700  20217387.69700
       194.00000       334.00000
 -22197103.20008 -17296433.55508  20477532.27100  20477532.20600  20477532.90900
       298.00000       172.00000
  -2036226.43905  -1586671.29205  24866949.44800  24866948.83300  24866948.16000
         9.00000         6.00000
    893633.96304    696332.30205  25075121.86900  25075121.54700  25075124.81200
         2.00000         5.00000
 04  8 26  1 53 30.0000000  0 11G22G21G26G28G14G15G29G18G 9G19G 3
 -19489781.80908 -15186836.32508  21369916.07700  21369915.91200  21369913.55600
       232.00000       118.00000
 -20814653.56108 -16219215.16707  21540007.58200  21540007.71000  21540007.24000
       165.00000        64.00000
  -5100324.95707  -3974283.06506  23299878.14900  23299878.95900  23299880.23000
        38.00000        25.00000
  -1352926.59904  -1054226.86204  25331076.54800  25331076.09600  25331077.42300
         1.00000         3.00000
  -2194212.45906  -1709773.76705  23631707.24100  23631706.35900  23631706.64700
        11.00000         6.00000
 -22614559.02908 -17621732.65308  20736040.90000  20736040.44100  20736041.00600
       225.00000       114.00000
     51612.57506     40212.35406  24299432.55100  24299432.30000  24299434.53700
        14.00000        14.00000
 -23437802.29308 -18263219.81009  20216248.75900  20216248.42000  20216247.41500
       196.00000       336.00000
 -22226585.62108 -17319406.85108  20471922.42600  20471922.05100  20471922.33300
       298.00000       168.00000
  -2042126.80805  -1591269.01505  24865826.05900  24865825.15300  24865824.82900
         9.00000         7.00000
    949315.14204    739720.17205  25085717.14900  25085717.88100  25085721.64600
         1.00000         6.00000
 04  8 26  1 54  0.0000000  0 11G22G21G26G28G14G15G29G18G 9G19G 3
 -19550922.66208 -15234478.53608  21358281.19800  21358281.08400  21358278.81000
       235.00000       119.00000
 -20729865.57908 -16153146.64607  21556142.90800  21556142.33900  21556142.07700
       160.00000        65.00000
  -4997243.34507  -3893959.77906  23319493.89400  23319494.43100  23319495.71200
        35.00000        24.00000
  -1336160.83800  -1041162.64904  25334266.53700  25334266.46200  25334266.00400
          .00000         2.00000
  -2286298.97706  -1781529.51105  23614183.75200  23614182.90000  23614182.74200
        12.00000         6.00000
 -22627795.82208 -17632047.04908  20733522.17600  20733521.63900  20733522.33200
       226.00000       118.00000
    145054.22406    113023.93306  24317213.61100  24317214.38800  24317215.84600
        14.00000        12.00000
 -23443433.49908 -18267607.77409  20215176.93400  20215176.84700  20215175.70100
       195.00000       332.00000
 -22255447.23208 -17341896.40508  20466429.76800  20466429.64300  20466430.04000
       296.00000       165.00000
  -2047538.75505  -1595486.11105  24864795.65300  24864795.28800  24864794.82400
         9.00000         7.00000
   1005293.58504    783339.75405  25096371.63700  25096370.48300  25096374.62900
         2.00000         5.00000
 04  8 26  1 54 30.0000000  0 11G22G21G26G28G14G15G29G18G 9G19G 3
 -19611831.35608 -15281939.84008  21346690.68300  21346690.57600  21346688.21400
       237.00000       120.00000
 -20644673.98308 -16086763.61907  21572353.51800  21572353.46500  21572353.56600
       149.00000        62.00000
  -4894112.60607  -3813598.20906  23339119.23700  23339119.33700  23339121.28100
        33.00000        25.00000
  -1318913.42300  -1027723.09504  25337545.40000  25337546.04500  25337546.72400
          .00000         3.00000
  -2378244.58406  -1853175.35205  23596686.28600  23596686.25800  23596688.38400
        11.00000         6.00000
 -22640406.93608 -17641873.89508  20731122.01000  20731121.46400  20731122.43400
       222.00000       120.00000
    238492.48306    185832.89606  24334994.88700  24334994.07600  24334996.83100
        12.00000        11.00000
 -23448679.95408 -18271695.92509  20214178.68500  20214178.30400  20214177.33900
       190.00000       331.00000
 -22283663.97908 -17363883.46108  20461060.39300  20461060.16300  20461060.34500
       298.00000       163.00000
  -2052439.37605  -1599304.80005  24863861.38300  24863861.38400  24863862.68500
         8.00000         7.00000
   1061590.09505    827207.06205  25107085.19500  25107084.19000  25107086.06100
         4.00000         6.00000
 04  8 26  1 55  0.0000000  0 11G22G21G26G28G14G15G29G18G 9G19G 3
 -19672442.94708 -15329169.64008  21335156.91700  21335156.62100  21335154.24700
       236.00000       122.00000
 -20559017.13808 -16020018.06507  21588653.84700  21588653.60700  21588653.80600
       151.00000        63.00000
  -4790870.87407  -3733150.14506  23358765.40600  23358765.79900  23358767.38400
        32.00000        24.00000
  -1301121.25500  -1013859.12904  25340933.54600  25340932.87100  25340933.23200
          .00000         2.00000
  -2469985.01906  -1924661.34705  23579230.26000  23579229.46000  23579229.29100
        15.00000         7.00000
 -22652327.82808 -17651162.91008  20728854.00300  20728853.29700  20728853.90200
       238.00000       118.00000
    331990.03606    258688.05206  24352787.16400  24352786.94900  24352788.96800
        12.00000        11.00000
 -23453477.21108 -18275434.04809  20213265.74100  20213265.29400  20213264.62900
       185.00000       339.00000
 -22311171.36708 -17385317.77908  20455825.84600  20455825.66000  20455825.95000
       299.00000       167.00000
  -2056765.25405  -1602675.63605  24863039.68100  24863038.80800  24863039.96000
         9.00000         9.00000
   1118265.50904    871369.60905  25117868.05500  25117869.06600  25117870.47600
         2.00000         4.00000
 04  8 26  1 55 30.0000000  0 11G22G21G26G28G14G15G29G18G 9G19G 3
 -19732772.65408 -15376179.78808  21323676.22700  21323676.05400  21323674.00800
       237.00000       125.00000
 -20472914.63508 -15952925.23407  21605038.49200  21605038.32300  21605038.50700
       152.00000        63.00000
  -4687536.18207  -3652629.65406  23378430.04700  23378430.07500  23378431.60600
        34.00000        23.00000
  -1282801.11904   -999583.69304  25344420.63400  25344419.63800  25344420.26600
         1.00000         3.00000
  -2561536.04206  -1995999.77205  23561807.60500  23561807.67600  23561808.38100
        15.00000         7.00000
 -22663574.28408 -17659926.40108  20726713.59600  20726712.90800  20726713.94900
       231.00000       121.00000
    425529.36706    331575.76906  24370588.11100  24370587.97400  24370589.21100
        13.00000        11.00000
 -23457840.80508 -18278834.25309  20212435.34300  20212435.02000  20212434.33900
       188.00000       344.00000
 -22337984.93108 -17406211.45008  20450723.39700  20450723.32900  20450723.52500
       301.00000       169.00000
  -2060533.25205  -1605611.78005  24862321.82700  24862321.36800  24862323.13000
         8.00000         7.00000
   1175300.70500    915812.56005  25128721.24500  25128720.36600  25128724.35800
          .00000         4.00000
 04  8 26  1 56  0.0000000  0 11G22G21G26G28G14G15G29G18G 9G19G 3
 -19792910.24108 -15423040.23708  21312232.50900  21312232.33900  21312230.00700
       237.00000       125.00000
 -20386460.49708 -15885558.40607  21621490.68300  21621490.09700  21621489.66200
       147.00000        56.00000
  -4584201.70407  -3572109.33306  23398093.80600  23398094.33100  23398095.18000
        36.00000        22.00000
  -1264045.15504   -984968.65404  25347989.74200  25347989.61100  25347990.26900
         2.00000         3.00000
  -2652988.07506  -2067261.04505  23544405.11800  23544404.78900  23544404.32500
        18.00000         7.00000
 -22674237.08208 -17668235.08208  20724684.54000  20724683.90300  20724685.06800
       230.00000       130.00000
    519017.98406    404423.94106  24388377.71100  24388377.81900  24388379.46600
        11.00000        12.00000
 -23461861.39808 -18281967.18309  20211670.42000  20211669.97000  20211669.14100
       187.00000       338.00000
 -22364195.34808 -17426635.13108  20445735.43000  20445735.58800  20445736.01500
       305.00000       173.00000
  -2063834.75205  -1608184.40905  24861693.59000  24861693.56100  24861694.58700
         7.00000         9.00000
   1232601.72900    960462.68805  25139624.68400  25139624.32300  25139627.44400
        -1.00000         5.00000
 04  8 26  1 56 30.0000000  0 11G22G21G26G28G14G15G29G18G 9G19G 3
 -19852755.00908 -15469672.51408  21300844.66000  21300844.30300  21300842.10100
       235.00000       129.00000
 -20299557.63908 -15817841.93407  21638027.51000  21638027.20900  21638026.87700
       144.00000        56.00000
  -4480769.30007  -3491512.70406  23417776.47600  23417776.85800  23417777.27300
        35.00000        21.00000
  -1244754.33600   -969936.86804  25351658.00300  25351660.40000  25351660.00000
          .00000         3.00000
  -2744240.84706  -2138367.07305  23527039.87400  23527039.91200  23527040.01300
        21.00000         7.00000
 -22684216.03908 -17676010.90808  20722785.94900  20722785.46200  20722786.23800
       238.00000       130.00000
    612554.41205    477309.38906  24406177.47800  24406176.99800  24406178.68200
         7.00000        11.00000
 -23465438.99108 -18284754.92209  20210989.66600  20210989.19500  20210988.24700
       185.00000       332.00000
 -22389702.45208 -17446510.78008  20440882.30600  20440881.90800  20440882.22600
       300.00000       175.00000
  -2066570.74205  -1610316.35205  24861174.90200  24861174.28000  24861172.77300
         9.00000         9.00000
   1290265.65000   1005395.58305  25150599.58300  25150599.33500  25150602.64200
          .00000         4.00000
 04  8 26  1 57  0.0000000  0 11G22G21G26G28G14G15G29G18G 9G19G 3
 -19912308.41608 -15516077.76008  21289511.51200  21289511.50500  21289509.50100
       232.00000       129.00000
 -20212211.75208 -15749780.24307  21654649.53800  21654648.92500  21654648.81400
       148.00000        58.00000
  -4377243.73906  -3410843.49206  23437475.84000  23437475.76800  23437477.66000
        29.00000        21.00000
  -1224931.87700   -954490.85505  25355432.44600  25355432.13700  25355434.17700
        -1.00000         4.00000
  -2835296.57106  -2209319.54706  23509712.28900  23509712.45300  23509713.77900
        22.00000        11.00000
 -22693513.72108 -17683255.87108  20721016.46000  20721015.77600  20721016.87500
       222.00000       131.00000
    706134.77405    550229.06406  24423985.29100  24423985.50100  24423986.91400
         9.00000        12.00000
 -23468575.45108 -18287198.92409  20210392.51900  20210392.28500  20210391.28100
       186.00000       328.00000
 -22414508.22808 -17465839.94308  20436162.03700  20436161.52300  20436161.75100
       303.00000       176.00000
  -2068744.35305  -1612010.05406  24860761.21700  24860759.07600  24860759.66600
        10.00000        11.00000
   1348286.87200   1050606.83604  25161641.34300  25161640.38600  25161640.64000
          .00000         2.00000
 04  8 26  1 57 30.0000000  0 10G22G21G26G28G14G15G29G18G 9G19
 -19971584.27708 -15562266.72508  21278231.48400  21278231.51800  21278229.61800
       225.00000       130.00000
 -20124440.34708 -15681386.96807  21671351.20700  21671351.01800  21671351.13100
       144.00000        56.00000
  -4273641.62106  -3330114.59906  23457191.30100  23457190.80800  23457192.32000
        26.00000        21.00000
  -1204593.56600   -938642.87404  25359299.98400  25359301.22400  25359303.74600
        -2.00000         2.00000
  -2926169.59306  -2280129.65005  23492420.02400  23492420.18700  23492420.23300
        25.00000        10.00000
 -22702144.85108 -17689981.43508  20719373.87800  20719373.36400  20719374.34900
       226.00000       128.00000
    799742.74205    623170.24906  24441798.32200  24441798.67000  24441799.73800
         8.00000        14.00000
 -23471285.47408 -18289310.63609  20209876.79100  20209876.56300  20209875.78100
       187.00000       333.00000
 -22438627.43108 -17484634.10508  20431571.64900  20431571.55900  20431572.01000
       305.00000       178.00000
  -2070371.30005  -1613277.80605  24860450.03900  24860450.23600  24860449.30900
        10.00000         9.00000
 04  8 26  1 58  0.0000000  0 10G22G21G26G28G14G15G29G18G 9G19
 -20030605.89308 -15608257.58808  21267000.22200  21267000.18300  21266998.15300
       226.00000       129.00000
 -20036271.28308 -15612683.83507  21688129.38300  21688128.82000  21688128.75900
       128.00000        53.00000
  -4169989.42706  -3249346.70406  23476916.12800  23476916.44300  23476917.82300
        31.00000        23.00000
  -1183764.81300   -922412.76504  25363266.15500  25363265.39300  25363266.78200
        -2.00000         2.00000
  -3016884.06306  -2350816.18706  23475159.45500  23475158.64600  23475158.29400
        29.00000        13.00000
 -22710133.32608 -17696206.24208  20717853.96900  20717853.38100  20717854.28900
       226.00000       128.00000
    893352.64005    696112.93606  24459611.64700  24459611.13600  24459612.30300
         8.00000        11.00000
 -23473592.61308 -18291108.41309  20209437.97300  20209437.58300  20209436.75600
       185.00000       334.00000
 -22462083.94208 -17502911.89408  20427108.08600  20427107.90300  20427108.51500
       305.00000       181.00000
  -2071476.60105  -1614139.11505  24860240.58000  24860239.08100  24860240.18100
         9.00000         9.00000
 04  8 26  1 58 30.0000000  0 10G22G21G26G28G14G15G29G18G 9G19
 -20089342.31608 -15654026.21008  21255822.87800  21255822.85000  21255820.93900
       225.00000       130.00000
 -19947677.38908 -15543649.67807  21704988.73500  21704987.93600  21704987.64400
       140.00000        54.00000
  -4066259.17907  -3168517.98606  23496656.90800  23496656.39900  23496656.86600
        35.00000        22.00000
  -1162416.61700   -905777.85704  25367329.35800  25367327.23100  25367329.19300
        -1.00000         2.00000
  -3107409.55607  -2421355.45206  23457931.90200  23457931.87500  23457931.05300
        33.00000        13.00000
 -22717449.23808 -17701906.96308  20716461.52700  20716460.90900  20716462.09100
       215.00000       125.00000
    986993.15806    769079.48106  24477430.11100  24477430.31000  24477432.51200
        11.00000        13.00000
 -23475466.98008 -18292568.96409  20209080.96500  20209080.76600  20209080.09700
       182.00000       330.00000
 -22484847.32608 -17520649.58108  20422776.50800  20422776.13400  20422776.82600
       304.00000       184.00000
  -2072031.11405  -1614571.22805  24860135.62600  24860134.06400  24860134.23600
        10.00000         8.00000
