     2.10           OBSERVATION DATA    G (GPS)             RINEX VERSION / TYPE
teqc  2002Mar14     gpsodc(auto)        20040823 01:10:43UTCPGM / RUN BY / DATE
OBSERVATION MODE: IGS-Net                                   COMMENT
ULAB Ulaanbataar (ULAB)                                     MARKER NAME
24201M001                                                   MARKER NUMBER
287-U               AOA SNR-8000 ACT     3.30               REC # / TYPE / VERS
340-U               AOAD/M_T        NONE                    ANT # / TYPE
        0.0460        0.0000        0.0000                  ANTENNA: DELTA H/E/N
  -1257408.5177  4099404.3395  4707992.6133                 APPROX POSITION XYZ
  107.05232504  47.86506790  1575.5106  LonLatAlt  S/W      COMMENT
unknown             IVTAN                                   OBSERVER / AGENCY
     1     1                                                WAVELENGTH FACT L1/2
     7    L1    L2    C1    P1    P2    S1    S2            # / TYPES OF OBSERV
    30.0000                                                 INTERVAL
Linux 2.0.36|Pentium II|gcc -static|Linux|486/DX+           COMMENT
bx2rxo      unknown * Mon Aug 23 02:18:49 2004              COMMENT
  2004     8    23     0     0    0.0000000     GPS         TIME OF FIRST OBS
  2004     8    23    20    59   30.0000000     GPS         TIME OF LAST OBS
                                                            END OF HEADER
 04  8 23  0  0  0.0000000  0  9G29G15G 6G17G10G18G 8G26G21
 -18808619.86708 -14656065.55908  20698928.69600  20698929.15600  20698929.28300
       245.00000       191.00000
  -2646066.30605  -2061870.05906  24343250.22400  24343249.51200  24343253.14800
         9.00000        13.00000
 -10280758.60606  -8010989.92006  23241592.94600  23241592.79700  23241594.63000
        31.00000        19.00000
  -5390080.95706  -4200069.77806  23052967.45800  23052967.17000  23052970.33000
        29.00000        21.00000
  -6753763.56907  -5262672.42107  22825077.16500  22825076.16900  22825077.68900
        64.00000        37.00000
 -11633969.90307  -9065431.15807  22457921.11000  22457920.83900  22457921.13500
       100.00000        40.00000
  -7674045.78806  -5979773.48406  24026229.41500  24026228.93100  24026230.32700
        20.00000        14.00000
 -23014993.29209 -17933758.02708  19891922.54800  19891922.59600  19891922.82100
       332.00000       253.00000
 -24531208.79508 -19115229.43508  20797202.35500  20797201.88600  20797200.60600
       268.00000       131.00000
 04  8 23  0  0 30.0000000  0  9G29G15G 6G17G10G18G 8G26G21
 -18769688.69508 -14625729.59808  20706337.68300  20706337.61000  20706337.87500
       245.00000       196.00000
  -2757145.82805  -2148425.51906  24322111.89900  24322112.09600  24322115.12700
         9.00000        11.00000
 -10191947.63806  -7941786.61306  23258492.34400  23258491.98400  23258494.09400
        28.00000        18.00000
  -5288113.45006  -4120614.66206  23072372.33300  23072371.68800  23072374.45900
        31.00000        21.00000
  -6669524.65407  -5197031.76107  22841106.82700  22841106.02800  22841107.96400
        59.00000        36.00000
 -11711234.29808  -9125637.14407  22443218.26500  22443218.15800  22443218.03600
       102.00000        38.00000
  -7625890.02106  -5942249.56206  24035392.65600  24035392.07200  24035393.84700
        15.00000        11.00000
 -22999369.14009 -17921583.37008  19894896.32300  19894896.09800  19894895.97200
       341.00000       256.00000
 -24584982.43108 -19157130.96208  20786969.91500  20786969.15100  20786967.87300
       258.00000       133.00000
 04  8 23  0  1  0.0000000  0  9G29G15G 6G17G10G18G 8G26G21
 -18730278.69708 -14595020.50708  20713837.96400  20713837.41300  20713837.35500
       243.00000       195.00000
  -2868119.26905  -2234898.33805  24300994.84600  24300994.80900  24300996.81000
         9.00000         7.00000
 -10102883.18407  -7872385.79606  23275440.82700  23275440.81800  23275442.83900
        32.00000        21.00000
  -5185854.34306  -4040932.32106  23091831.15100  23091830.67400  23091833.89000
        30.00000        24.00000
  -6585123.92807  -5131265.00007  22857167.62600  22857166.82700  22857169.47100
        55.00000        39.00000
 -11788301.83108  -9185689.73407  22428552.80800  22428552.89600  22428552.26700
       105.00000        36.00000
  -7577166.39906  -5904283.07506  24044664.26300  24044663.99100  24044664.92600
        17.00000        11.00000
 -22983098.08209 -17908904.62508  19897992.20300  19897992.23900  19897992.38400
       342.00000       259.00000
 -24638275.77608 -19198658.24408  20776828.34400  20776827.84900  20776826.48000
       269.00000       136.00000
 04  8 23  0  1 30.0000000  0 10G29G15G 6G17G10G18G 8G26G21G 3
 -18690424.82208 -14563965.53108  20721421.71700  20721421.32400  20721421.20200
       242.00000       192.00000
  -2979017.63905  -2321312.65905  24279890.44500  24279889.90400  24279893.03100
         6.00000         6.00000
 -10013601.44506  -7802815.69906  23292431.50600  23292430.94400  23292432.72000
        30.00000        18.00000
  -5083338.77507  -3961050.12206  23111339.86200  23111339.32700  23111341.58900
        34.00000        22.00000
  -6500595.27907  -5065398.56507  22873253.39900  22873252.79000  22873254.27600
        59.00000        36.00000
 -11865205.01308  -9245614.25507  22413919.50000  22413918.95100  22413918.39800
       103.00000        35.00000
  -7527909.58106  -5865901.18406  24054037.37200  24054036.69100  24054038.94400
        19.00000        11.00000
 -22966214.69909 -17895748.75008  19901205.04300  19901205.11100  19901205.25100
       342.00000       258.00000
 -24691119.89908 -19239835.48008  20766772.41400  20766771.90300  20766770.64700
       270.00000       139.00000
    -21728.32104    -16931.40404  25231207.96000  25231208.43600  25231208.24600
         1.00000         2.00000
 04  8 23  0  2  0.0000000  0 10G29G15G 6G17G10G18G 8G26G21G 3
 -18650131.42608 -14532568.08408  20729088.52200  20729088.63000  20729088.66900
       246.00000       187.00000
  -3089841.39905  -2407668.84705  24258802.62300  24258802.41500  24258804.30300
         9.00000         8.00000
  -9924108.01907  -7733080.63806  23309461.37700  23309461.38100  23309462.91200
        33.00000        18.00000
  -4980570.93006  -3880971.36606  23130895.55400  23130895.19100  23130897.77900
        30.00000        20.00000
  -6415942.33807  -4999435.29207  22889362.43000  22889361.47700  22889363.81200
        57.00000        38.00000
 -11941945.48907  -9305411.99507  22399315.73800  22399315.12600  22399314.59400
        98.00000        36.00000
  -7478124.20206  -5827107.40906  24063511.54300  24063511.40900  24063512.56900
        19.00000        11.00000
 -22948723.05609 -17882118.90608  19904533.34700  19904533.59700  19904533.63700
       344.00000       252.00000
 -24743515.53108 -19280663.24008  20756801.32900  20756800.98100  20756800.10400
       257.00000       143.00000
    -86644.66700    -67515.56904  25218855.81500  25218855.54600  25218856.28300
          .00000         2.00000
 04  8 23  0  2 30.0000000  0 10G29G15G 6G17G10G18G 8G26G21G 3
 -18609409.37008 -14500836.62308  20736837.78600  20736837.71100  20736837.79200
       245.00000       185.00000
  -3200596.98705  -2493971.89305  24237727.42800  24237725.45200  24237728.39900
         8.00000         9.00000
  -9834414.58006  -7663189.72306  23326528.00300  23326527.94200  23326531.27600
        24.00000        15.00000
  -4877561.63206  -3800704.43406  23150497.82000  23150497.34400  23150500.78100
        28.00000        22.00000
  -6331174.60907  -4933382.57407  22905492.80800  22905491.90700  22905493.60300
        54.00000        33.00000
 -12018531.61408  -9365089.45807  22384741.94500  22384741.33200  22384740.76600
       103.00000        37.00000
  -7427820.73206  -5787909.93406  24073084.15700  24073083.35300  24073084.64600
        18.00000        11.00000
 -22930633.23809 -17868022.94408  19907976.23400  19907976.03300  19907975.92600
       337.00000       252.00000
 -24795469.06808 -19321146.50408  20746915.14400  20746914.65100  20746913.74800
       252.00000       147.00000
   -151155.32900   -117783.63804  25206579.37600  25206579.00100  25206581.29100
          .00000         3.00000
 04  8 23  0  3  0.0000000  0 11G29G15G 6G17G10G18G 8G26G21G 3G 9
 -18568218.73808 -14468740.03908  20744676.44300  20744676.29200  20744676.00300
       247.00000       184.00000
  -3311240.87805  -2580187.88805  24216672.46500  24216670.81700  24216672.58500
         6.00000         9.00000
  -9744482.55506  -7593112.89106  23343642.50400  23343642.51700  23343644.96800
        25.00000        15.00000
  -4774270.93306  -3720218.27706  23170153.23300  23170152.56500  23170156.62700
        23.00000        25.00000
  -6246251.40607  -4867208.67007  22921653.36400  22921652.72800  22921654.51800
        55.00000        36.00000
 -12094920.87808  -9424613.53907  22370205.08500  22370204.67700  22370204.81200
       108.00000        38.00000
  -7376958.66506  -5748277.18906  24082761.85400  24082761.69900  24082763.91700
        18.00000        12.00000
 -22911905.14009 -17853429.62308  19911539.51900  19911539.60400  19911539.84300
       332.00000       250.00000
 -24846937.05208 -19361251.41708  20737121.33800  20737120.72800  20737119.61200
       265.00000       147.00000
   -215216.93900   -167701.81905  25194388.70700  25194387.12700  25194389.99800
        -1.00000         4.00000
    -79289.59004    -61783.91505  24628004.68300  24628003.43400  24628005.46400
         3.00000         5.00000
 04  8 23  0  3 30.0000000  0 11G29G15G 6G17G10G18G 8G26G21G 3G 9
 -18526586.24208 -14436299.13108  20752599.53000  20752598.88700  20752598.56500
       243.00000       186.00000
  -3421795.80405  -2666334.57805  24195632.67100  24195632.40400  24195635.24900
         5.00000         9.00000
  -9654339.79506  -7522871.87906  23360796.94900  23360796.64100  23360798.83000
        30.00000        19.00000
  -4670725.46806  -3639533.57606  23189857.41500  23189856.62200  23189859.67300
        27.00000        18.00000
  -6161198.22707  -4800933.53007  22937838.61200  22937838.14700  22937839.43700
        60.00000        34.00000
 -12171137.74408  -9484003.29007  22355700.66000  22355700.94900  22355700.88000
       109.00000        37.00000
  -7325565.19406  -5708230.33605  24092541.56400  24092541.66900  24092543.61700
        17.00000         9.00000
 -22892565.28709 -17838359.61208  19915219.94600  19915219.97800  19915220.05100
       334.00000       249.00000
 -24897942.10908 -19400995.61808  20727415.40000  20727414.96100  20727413.65600
       272.00000       146.00000
   -278852.44700   -217287.94105  25182282.48600  25182282.41400  25182281.68200
        -1.00000         6.00000
   -198258.17704   -154486.64105  24605365.88800  24605363.34600  24605366.22600
         3.00000         5.00000
 04  8 23  0  4  0.0000000  0 11G29G15G 6G17G10G18G 8G26G21G 3G 9
 -18484558.12508 -14403549.95108  20760596.63500  20760596.28300  20760596.41600
       239.00000       185.00000
  -3532303.70305  -2752444.60805  24174604.74600  24174603.67600  24174606.13500
         7.00000         8.00000
  -9564033.51106  -7452503.42506  23377981.16500  23377980.64700  23377983.49300
        31.00000        17.00000
  -4566971.26906  -3558686.19706  23209601.57900  23209600.95500  23209603.76400
        27.00000        18.00000
  -6076060.13207  -4734592.20707  22954038.87700  22954038.50000  22954041.16500
        54.00000        36.00000
 -12247225.46308  -9543292.39707  22341222.65000  22341222.24500  22341221.44400
       117.00000        35.00000
  -7273686.10206  -5667805.10605  24102414.01100  24102413.73200  24102416.00600
        20.00000         9.00000
 -22872659.04709 -17822848.26208  19919008.20500  19919008.17700  19919008.00800
       346.00000       247.00000
 -24948526.30608 -19440411.86808  20717789.36200  20717788.85800  20717787.81000
       265.00000       148.00000
   -342103.89400   -266574.79905  25170245.34000  25170244.13200  25170244.53800
        -1.00000         4.00000
   -317282.81705   -247233.03005  24582714.68300  24582713.52000  24582715.88000
         4.00000         5.00000
 04  8 23  0  4 30.0000000  0 11G29G15G 6G17G10G18G 8G26G21G 3G 9
 -18442051.29208 -14370427.74808  20768685.34600  20768685.05100  20768684.93900
       239.00000       181.00000
  -3642677.77905  -2838450.37405  24153600.38900  24153600.36700  24153602.77700
         7.00000        10.00000
  -9473481.85306  -7381943.76106  23395212.16900  23395212.15900  23395213.93000
        24.00000        11.00000
  -4462925.49706  -3477611.66406  23229401.55400  23229400.69400  23229404.18700
        26.00000        26.00000
  -5990753.39207  -4668119.47507  22970273.04500  22970272.08100  22970274.19700
        53.00000        33.00000
 -12323098.66308  -9602414.32607  22326784.77800  22326784.31400  22326783.52200
       117.00000        37.00000
  -7221238.25006  -5626936.66506  24112394.68000  24112394.76300  24112397.12000
        22.00000        11.00000
 -22852103.44309 -17806830.91408  19922919.90600  19922919.74300  19922919.65200
       342.00000       244.00000
 -24998602.84508 -19479432.53908  20708260.35900  20708259.78700  20708258.56500
       266.00000       150.00000
   -404884.90000   -315495.01604  25158297.02800  25158297.78700  25158304.34600
        -2.00000         3.00000
   -436275.80605   -339954.77805  24560071.11200  24560070.06200  24560072.11100
         6.00000         6.00000
 04  8 23  0  5  0.0000000  0 11G29G15G 6G17G10G18G 8G26G21G 3G 9
 -18399083.63708 -14336946.47008  20776860.96200  20776861.42500  20776861.35200
       242.00000       175.00000
  -3752931.88105  -2924362.61406  24132620.30600  24132620.11400  24132621.94900
         8.00000        12.00000
  -9382703.92106  -7311207.77606  23412488.48900  23412487.97800  23412490.10300
        26.00000        15.00000
  -4358605.74206  -3396323.66406  23249252.13200  23249251.79200  23249254.14400
        28.00000        20.00000
  -5905294.71007  -4601528.33707  22986535.98600  22986535.12900  22986536.10400
        57.00000        33.00000
 -12398772.73908  -9661381.10807  22312383.84500  22312383.74500  22312383.28700
       117.00000        39.00000
  -7168239.89106  -5585639.27405  24122480.04900  24122479.55400  24122482.03900
        21.00000        10.00000
 -22830915.91609 -17790321.16008  19926951.61000  19926951.55700  19926951.56400
       341.00000       245.00000
 -25048185.78808 -19518068.59708  20698825.31300  20698824.71900  20698823.30200
       281.00000       152.00000
   -467209.12200   -364059.35005  25146436.37900  25146438.23300  25146440.17100
        -1.00000         5.00000
   -555250.37405   -432662.18905  24537430.33800  24537430.10500  24537432.22700
         8.00000         7.00000
 04  8 23  0  5 30.0000000  0 11G29G15G 6G17G10G18G 8G26G21G 3G 9
 -18355719.37108 -14303156.14008  20785113.73200  20785113.56500  20785113.32500
       245.00000       176.00000
  -3863125.95805  -3010228.11205  24111650.56800  24111649.89500  24111652.69200
         9.00000        10.00000
  -9291764.86106  -7240346.28106  23429792.05600  23429791.77600  23429794.74400
        18.00000        13.00000
  -4254076.36206  -3314872.27506  23269143.79600  23269142.77500  23269145.57200
        28.00000        14.00000
  -5819747.06307  -4534867.88407  23002814.56300  23002813.90400  23002815.83600
        58.00000        34.00000
 -12474309.23408  -9720240.68407  22298010.32000  22298009.78300  22298009.15200
       121.00000        40.00000
  -7114754.42206  -5543962.30105  24132657.89600  24132657.42500  24132660.38700
        17.00000        10.00000
 -22809160.32909 -17773368.75808  19931091.93100  19931091.70600  19931091.51000
       344.00000       245.00000
 -25097335.10508 -19556366.76908  20689472.22200  20689471.74000  20689470.37200
       277.00000       152.00000
   -529137.12600   -412314.95805  25134651.00200  25134649.83000  25134653.45000
        -1.00000         5.00000
   -674265.51805   -525401.20505  24514781.76300  24514781.62300  24514785.54100
         8.00000         8.00000
 04  8 23  0  6  0.0000000  0 11G29G15G 6G17G10G18G 8G26G21G 3G 9
 -18311937.37708 -14269040.30008  20793445.83200  20793445.19700  20793444.92800
       243.00000       178.00000
  -3973235.28306  -3096027.57705  24090697.15300  24090697.36400  24090699.21900
        11.00000        10.00000
  -9200644.72706  -7169343.64705  23447132.07000  23447131.16400  23447133.67400
        18.00000         9.00000
  -4149316.11706  -3233240.93406  23289078.29600  23289077.15600  23289081.03100
        19.00000        16.00000
  -5734088.43107  -4468120.95707  23019114.46200  23019113.60800  23019116.35900
        52.00000        34.00000
 -12549684.38408  -9778974.54207  22283666.03100  22283665.89400  22283665.92700
       114.00000        42.00000
  -7060761.26706  -5501889.75505  24142933.52500  24142932.56000  24142934.51500
        17.00000         9.00000
 -22786815.30409 -17755957.05408  19935343.79900  19935343.72300  19935343.62000
       347.00000       245.00000
 -25146026.17708 -19594307.86008  20680206.35000  20680205.82700  20680204.70100
       264.00000       154.00000
   -590643.81300   -460242.22305  25122952.19500  25122950.20100  25122949.26200
          .00000         5.00000
   -793295.49405   -618151.79205  24492132.00900  24492131.75800  24492135.35000
         9.00000         9.00000
 04  8 23  0  6 30.0000000  0 12G29G15G 6G17G10G18G 8G26G21G 3G 9G22
 -18267662.75808 -14234540.60308  20801870.87600  20801870.37100  20801870.22000
       235.00000       178.00000
  -4083180.65306  -3181699.28806  24069776.65800  24069775.82200  24069777.97500
        14.00000        11.00000
  -9109269.74206  -7098142.40105  23464519.71200  23464520.29900  23464520.86600
        23.00000        10.00000
  -4044249.85206  -3151371.24106  23309072.43500  23309071.58500  23309074.79000
        22.00000        20.00000
  -5648242.94307  -4401228.41907  23035450.68600  23035449.98700  23035452.40800
        52.00000        35.00000
 -12624820.74808  -9837522.33607  22269367.51800  22269367.53400  22269367.88200
       107.00000        42.00000
  -7006185.61106  -5459363.30005  24153316.96000  24153317.77400  24153320.18900
        16.00000         9.00000
 -22763805.68109 -17738027.47908  19939722.46300  19939722.23500  19939722.10800
       342.00000       242.00000
 -25194180.03308 -19631830.34008  20671043.11300  20671042.56400  20671041.32500
       268.00000       155.00000
   -651650.42100   -507779.82405  25111336.45800  25111340.15800  25111340.48700
        -2.00000         5.00000
   -912260.53705   -710851.77005  24469495.23800  24469494.30200  24469495.87500
         9.00000         8.00000
         -.45410          .39114  25040605.71400  25040604.60300  25040604.43300
          .00000         1.00000
 04  8 23  0  7  0.0000000  0 11G29G15G 6G17G10G18G 8G26G21G 3G 9
 -18222989.11708 -14199729.97908  20810371.17800  20810371.08100  20810371.33100
       234.00000       180.00000
  -4193051.47506  -3267312.92006  24048868.31600  24048867.85900  24048869.99800
        15.00000        12.00000
  -9017734.66106  -7026816.47006  23481939.66700  23481938.78100  23481941.38400
        13.00000        14.00000
  -3938971.45106  -3069336.19506  23329107.69600  23329106.38100  23329108.88400
        24.00000        22.00000
  -5562302.82107  -4334262.15306  23051806.03900  23051805.15800  23051805.49200
        59.00000        31.00000
 -12699809.15308  -9895954.83607  22255098.34800  22255097.96300  22255097.73900
       114.00000        41.00000
  -6951120.50406  -5416455.43305  24163795.42800  24163795.85400  24163799.70200
        19.00000         9.00000
 -22740224.66309 -17719652.66208  19944209.63600  19944209.52600  19944209.36900
       340.00000       241.00000
 -25241886.14908 -19669003.93408  20661964.82400  20661964.42100  20661963.20900
       277.00000       159.00000
   -712247.41900   -554998.20805  25099807.85000  25099810.01300  25099809.95500
        -1.00000         5.00000
  -1031249.36506   -803570.28405  24446852.34400  24446851.95300  24446853.74400
        11.00000         9.00000
 04  8 23  0  7 30.0000000  0 12G29G15G 6G17G10G18G 8G26G21G 3G 9G22
 -18177893.17908 -14164590.30308  20818952.31600  20818952.61500  20818952.69300
       243.00000       178.00000
  -4302820.72506  -3352847.39606  24027980.44800  24027980.14600  24027981.57000
        16.00000        13.00000
  -8926017.45606  -6955348.63006  23499391.04600  23499391.10700  23499394.54800
        11.00000        15.00000
  -3833457.34206  -2987117.49106  23349182.78600  23349183.10400  23349186.44000
        18.00000        12.00000
  -5476243.68707  -4267203.12707  23068181.15300  23068180.53700  23068182.53900
        50.00000        33.00000
 -12774623.71108  -9954251.86307  22240861.88600  22240861.40200  22240861.11000
       120.00000        41.00000
  -6895542.66606  -5373148.02905  24174372.87600  24174372.64000  24174374.88800
        17.00000         8.00000
 -22716048.77509 -17700814.30508  19948810.10300  19948810.15100  19948809.99600
       342.00000       243.00000
 -25289117.44208 -19705807.54508  20652977.16100  20652976.42600  20652975.41200
       264.00000       160.00000
   -772407.45400   -601876.18005  25088357.69600  25088357.29300  25088358.72000
        -1.00000         4.00000
  -1150234.04306   -896285.55205  24424209.31400  24424208.52400  24424211.82100
        12.00000         9.00000
    -61221.81404    -47704.62604  25005651.22300  25005650.03400  25005649.70500
         2.00000         3.00000
 04  8 23  0  8  0.0000000  0 12G29G15G 6G17G10G18G 8G26G21G 3G 9G22
 -18132384.70508 -14129129.16108  20827612.82300  20827612.79000  20827612.58400
       246.00000       174.00000
  -4412493.66206  -3438306.79906  24007110.01600  24007109.52800  24007111.44100
        16.00000        12.00000
  -8834128.50506  -6883746.93106  23516877.50900  23516877.17100  23516880.58500
        12.00000        11.00000
  -3727717.26706  -2904722.69006  23369306.58900  23369305.42200  23369308.91500
        20.00000        14.00000
  -5390074.19007  -4200058.11507  23084578.32900  23084577.93500  23084580.31700
        50.00000        33.00000
 -12849271.57808 -10012418.99307  22226656.92100  22226656.41100  22226655.62900
       122.00000        40.00000
  -6839461.86106  -5329448.71805  24185046.27500  24185045.01800  24185046.94000
        14.00000         8.00000
 -22691287.39209 -17681519.71108  19953522.20800  19953522.01900  19953521.95800
       333.00000       244.00000
 -25335879.64508 -19742245.61508  20644078.32900  20644077.78700  20644076.95800
       257.00000       164.00000
   -832136.20600   -648418.09305  25076992.52700  25076990.88900  25076994.24700
        -1.00000         4.00000
  -1269219.18206   -989001.19305  24401566.55700  24401566.13800  24401568.70200
        12.00000         8.00000
   -153028.45100   -119242.28905  24988179.26900  24988179.46800  24988175.89400
          .00000         4.00000
 04  8 23  0  8 30.0000000  0 12G29G15G 6G17G10G18G 8G26G21G 3G 9G22
 -18086427.43208 -14093318.30408  20836358.59600  20836358.27200  20836357.94700
       239.00000       173.00000
  -4522029.87006  -3523659.68406  23986265.56600  23986264.96200  23986267.91300
        14.00000        14.00000
  -8742032.76106  -6811984.06206  23534403.40900  23534402.86900  23534405.10000
        13.00000        11.00000
  -3621714.94406  -2822123.56506  23389478.96900  23389478.29900  23389481.42400
        25.00000        22.00000
  -5303756.84307  -4132797.90906  23101005.42600  23101004.50300  23101005.80300
        53.00000        31.00000
 -12923714.02708 -10070426.05607  22212491.52900  22212490.46800  22212489.52800
       122.00000        40.00000
  -6782842.15206  -5285329.47305  24195817.95400  24195818.25200  24195822.07400
        12.00000         9.00000
 -22665904.03909 -17661740.47808  19958352.47700  19958352.29500  19958352.23100
       333.00000       246.00000
 -25382132.62708 -19778286.90108  20635276.81800  20635276.41500  20635275.16900
       273.00000       163.00000
   -891393.87704   -694592.90205  25065716.97700  25065718.45000  25065718.83200
         1.00000         5.00000
  -1388163.75806  -1081685.24405  24378932.17300  24378932.01300  24378934.42300
        13.00000         9.00000
   -244769.65900   -190729.02505  24970720.61400  24970719.93600  24970718.93900
          .00000         4.00000
 04  8 23  0  9  0.0000000  0 12G29G15G 6G17G10G18G 8G26G21G 3G 9G22
 -18040045.92308 -14057176.87608  20845184.83300  20845184.30200  20845184.09500
       230.00000       173.00000
  -4631449.73506  -3608921.89606  23965443.67300  23965444.19000  23965445.96700
        15.00000        14.00000
  -8649755.93506  -6740080.12105  23551963.02500  23551963.01100  23551965.04900
        14.00000        10.00000
  -3515474.80506  -2739339.15106  23409695.39600  23409694.04600  23409697.76100
        21.00000        20.00000
  -5217315.19707  -4065440.84806  23117454.11000  23117453.12900  23117454.63900
        49.00000        28.00000
 -12997972.50108 -10128289.78207  22198359.74800  22198359.40900  22198358.79100
       120.00000        41.00000
  -6725707.97405  -5240809.38405  24206692.11600  24206691.42600  24206695.17100
        10.00000         9.00000
 -22639923.04909 -17641495.54708  19963296.62500  19963296.35800  19963296.27300
       336.00000       248.00000
 -25427896.98908 -19813947.44408  20626568.36700  20626567.91200  20626566.57900
       279.00000       169.00000
   -950200.98504   -740416.68605  25054526.84200  25054526.56800  25054527.07700
         3.00000         4.00000
  -1507087.18006  -1174352.82306  24356301.93400  24356302.02300  24356305.18700
        14.00000        12.00000
   -336467.54504   -262181.91805  24953269.95200  24953268.33900  24953268.60700
         2.00000         4.00000
 04  8 23  0  9 30.0000000  0 12G29G15G 6G17G10G18G 8G26G21G 3G 9G22
 -17993279.01408 -14020735.13508  20854084.04700  20854083.69700  20854083.49300
       235.00000       172.00000
  -4740788.10706  -3694120.60906  23944638.16900  23944637.28800  23944639.76500
        11.00000        12.00000
  -8557337.91306  -6668066.13706  23569549.09400  23569549.70300  23569552.02300
        17.00000        13.00000
  -3409035.63106  -2656399.61406  23429947.83100  23429947.28800  23429951.47900
        13.00000        13.00000
  -5130786.96407  -3998016.27807  23133919.61800  23133918.54000  23133921.17400
        45.00000        32.00000
 -13072083.48008 -10186038.55207  22184256.62500  22184255.96000  22184256.46600
       116.00000        47.00000
  -6668097.78706  -5195918.35205  24217655.21000  24217654.52400  24217657.01100
        12.00000         9.00000
 -22613383.07409 -17620815.04708  19968346.88100  19968346.72200  19968346.72800
       338.00000       249.00000
 -25473207.61208 -19849254.42108  20617945.87400  20617945.28500  20617944.23800
       266.00000       170.00000
  -1008592.64105   -785916.68005  25043413.33500  25043414.83100  25043415.22300
         4.00000         4.00000
  -1626023.29106  -1267030.26006  24333667.47700  24333667.87500  24333672.17400
        13.00000        15.00000
   -428158.66705   -333629.59305  24935822.13400  24935822.46200  24935820.89900
         5.00000         6.00000
 04  8 23  0 10  0.0000000  0 12G29G15G 6G17G10G18G 8G26G21G 3G 9G22
 -17946117.48708 -13983985.90308  20863058.72700  20863058.38400  20863058.05200
       239.00000       170.00000
  -4850031.35705  -3779245.17905  23923850.39700  23923848.69800  23923850.57200
         9.00000         9.00000
  -8464770.41505  -6595935.74606  23587165.21600  23587164.15600  23587167.55700
        10.00000        13.00000
  -3302388.34506  -2573297.89306  23450243.96900  23450243.18200  23450245.53800
        20.00000        11.00000
  -5044161.89807  -3930516.29606  23150404.10700  23150403.33500  23150404.55700
        50.00000        25.00000
 -13146035.13808 -10243663.19507  22170183.79600  22170183.67400  22170183.96400
       113.00000        50.00000
  -6610002.72506  -5150649.49605  24228711.53100  24228710.67500  24228712.18500
        13.00000         9.00000
 -22586274.63509 -17599691.58908  19973505.37000  19973505.12100  19973505.27000
       327.00000       249.00000
 -25518051.59608 -19884197.78408  20609412.52000  20609411.91900  20609410.72200
       270.00000       171.00000
  -1066555.90805   -831082.88304  25032385.08600  25032385.07000  25032385.25300
         6.00000         3.00000
  -1744958.13005  -1359706.68206  24311034.50600  24311034.68800  24311039.64700
         8.00000        14.00000
   -519831.16004   -405062.76505  24918377.55900  24918377.57800  24918376.27200
         3.00000         5.00000
 04  8 23  0 10 30.0000000  0 12G29G15G 6G17G10G18G 8G26G21G 3G 9G22
 -17898518.31308 -13946895.64708  20872116.42400  20872116.22200  20872115.90600
       244.00000       170.00000
  -4959132.35205  -3864258.93905  23903088.61400  23903088.43500  23903089.81200
         9.00000        10.00000
  -8372011.78806  -6523656.41405  23604815.89100  23604815.99800  23604818.95900
        12.00000        10.00000
  -3195489.72506  -2490000.27606  23470586.50300  23470585.82300  23470588.95300
        19.00000        15.00000
  -4957395.76907  -3862906.37206  23166914.82800  23166913.87700  23166915.90500
        44.00000        27.00000
 -13219781.74608 -10301128.05507  22156150.27700  22156150.50200  22156150.26100
       115.00000        52.00000
  -6551379.89006  -5104969.38205  24239866.59100  24239866.40600  24239868.49700
        15.00000         9.00000
 -22558554.74609 -17578091.67508  19978779.95800  19978779.96600  19978780.19500
       330.00000       247.00000
 -25562382.08908 -19918741.02608  20600976.40900  20600976.20600  20600974.79900
       280.00000       169.00000
  -1124044.11105   -875878.94704  25021445.58700  25021445.33700  25021446.15800
         8.00000         3.00000
  -1863843.71906  -1452344.74106  24288412.22100  24288412.91000  24288416.75400
        13.00000        12.00000
   -611439.61005   -476446.05505  24900945.70500  24900945.16900  24900944.28900
         4.00000         4.00000
 04  8 23  0 11  0.0000000  0 12G29G15G 6G17G10G18G 8G26G21G 3G 9G22
 -17850496.74108 -13909476.24108  20881254.27100  20881254.29700  20881254.27200
       240.00000       171.00000
  -5068102.24905  -3949170.50105  23882353.15700  23882351.82500  23882352.97800
         9.00000         8.00000
  -8279078.10106  -6451240.62505  23622502.65200  23622502.12900  23622502.95300
        14.00000         7.00000
  -3088354.95306  -2406518.73306  23490973.36400  23490973.07900  23490976.95000
        16.00000        23.00000
  -4870502.27507  -3795197.21006  23183449.63200  23183449.17700  23183451.13900
        42.00000        25.00000
 -13293335.94108 -10358442.98107  22142153.53600  22142153.24800  22142153.34000
       118.00000        50.00000
  -6492244.55606  -5058889.91905  24251120.89700  24251119.64400  24251120.25400
        12.00000         8.00000
 -22530238.29609 -17556026.91108  19984168.75300  19984168.63700  19984168.56000
       337.00000       246.00000
 -25606210.14708 -19952892.76008  20592636.44900  20592635.83700  20592634.52800
       260.00000       170.00000
  -1181069.10005   -920313.97504  25010593.90900  25010593.66800  25010595.75000
         8.00000         2.00000
  -1982690.39106  -1544952.48906  24265797.80600  24265797.36100  24265800.49300
        13.00000        11.00000
   -702997.15805   -547789.64905  24883523.85400  24883523.40000  24883521.58800
         7.00000         5.00000
 04  8 23  0 11 30.0000000  0 12G29G15G 6G17G10G18G 8G26G21G 3G 9G22
 -17802042.18408 -13871719.44708  20890474.86000  20890474.73700  20890474.92500
       231.00000       172.00000
  -5176926.11905  -4033968.32705  23861643.81800  23861642.89500  23861644.24900
        10.00000         8.00000
  -8185959.82806  -6378680.99605  23640221.12400  23640220.18800  23640221.76100
        13.00000         6.00000
  -2980973.34306  -2322844.84706  23511407.08900  23511406.77600  23511410.58100
        18.00000        21.00000
  -4783469.73907  -3727379.72306  23200011.83500  23200011.47300  23200013.24600
        47.00000        28.00000
 -13366684.41208 -10415597.61807  22128195.98300  22128195.83900  22128195.78400
       135.00000        53.00000
  -6432585.91405  -5012402.68805  24262472.38900  24262471.83900  24262474.11600
        10.00000        10.00000
 -22501314.43609 -17533488.83308  19989672.65200  19989672.61600  19989672.62200
       334.00000       244.00000
 -25649521.24608 -19986641.65808  20584393.97000  20584393.52600  20584392.71000
       248.00000       169.00000
  -1237616.15305   -964376.63804  24999834.53000  24999833.75100  24999834.41000
         8.00000         1.00000
  -2101482.25706  -1637517.54705  24243192.41000  24243192.10400  24243194.64100
        16.00000        10.00000
   -794490.37105   -619083.06405  24866112.42700  24866112.76000  24866110.85000
         8.00000         6.00000
 04  8 23  0 12  0.0000000  0 11G29G15G 6G17G10G18G 8G26G21G 9G22
 -17753156.51308 -13833626.72708  20899777.74000  20899777.40600  20899777.56200
       226.00000       170.00000
  -5285601.31006  -4118650.27005  23840962.91200  23840962.76500  23840964.46200
        14.00000        10.00000
  -8092659.82106  -6305979.75705  23657975.11000  23657974.96000  23657977.17000
        12.00000         8.00000
  -2873346.73906  -2238980.02205  23531886.79600  23531886.38600  23531890.02400
        12.00000        10.00000
  -4696298.97307  -3659454.51506  23216599.80300  23216598.98000  23216600.89300
        38.00000        23.00000
 -13439826.21908 -10472591.20407  22114278.35500  22114277.74800  22114277.14700
       134.00000        53.00000
  -6372405.86105  -4965509.19206  24273922.82200  24273922.91800  24273926.07800
         9.00000        11.00000
 -22471784.83009 -17510478.74908  19995291.81500  19995291.90500  19995291.84100
       332.00000       242.00000
 -25692313.43308 -20019986.22008  20576251.80200  20576251.10600  20576249.56700
       268.00000       171.00000
  -2220216.01406  -1730037.30206  24220598.56000  24220597.83400  24220599.93700
        21.00000        11.00000
   -885918.57705   -690325.81005  24848714.69400  24848714.30100  24848713.50600
         7.00000         8.00000
 04  8 23  0 12 30.0000000  0 12G29G15G 6G17G10G18G 8G26G21G 9G22G 3
 -17703891.16508 -13795238.15308  20909153.38400  20909152.81100  20909152.34200
       228.00000       169.00000
  -5394175.22606  -4203253.28105  23820302.91700  23820301.98600  23820302.83100
        14.00000         8.00000
  -7999230.55406  -6233177.78805  23675755.53900  23675755.10500  23675757.04900
        18.00000        10.00000
  -2765526.51006  -2154964.30306  23552405.70600  23552405.16800  23552406.90300
        15.00000        11.00000
  -4609040.15107  -3591460.66206  23233204.84200  23233204.07800  23233205.48100
        43.00000        25.00000
 -13512809.87808 -10529461.55807  22100389.41900  22100389.04800  22100388.62700
       138.00000        54.00000
  -6311756.17505  -4918249.71606  24285465.44600  24285464.48500  24285466.69400
         8.00000        11.00000
 -22441700.82809 -17487036.66908  20001017.24900  20001016.96800  20001016.62700
       337.00000       240.00000
 -25734634.33308 -20052963.54308  20568198.17900  20568197.60800  20568196.06800
       266.00000       172.00000
  -2338938.23906  -1822548.08605  24198006.52200  24198005.88700  24198007.57000
        23.00000         9.00000
   -977330.91605   -761556.18805  24831319.60900  24831318.89400  24831318.01100
         5.00000         9.00000
    -37039.73605    -28861.69504  24978576.91100  24978575.89700  24978576.82400
         8.00000         2.00000
 04  8 23  0 13  0.0000000  0 11G29G15G 6G17G10G18G 8G26G21G 9G22
 -17654273.78308 -13756575.26908  20918594.54000  20918594.43300  20918594.01900
       235.00000       165.00000
  -5502671.33006  -4287795.68105  23799655.49700  23799655.62000  23799657.29800
        15.00000        10.00000
  -7905700.67106  -6160297.43005  23693552.61000  23693552.12700  23693554.80700
        12.00000         6.00000
  -2657540.13906  -2070819.13306  23572953.68600  23572953.57900  23572957.31300
        15.00000        15.00000
  -4521719.77007  -3523418.90206  23249821.10800  23249820.48600  23249823.06000
        38.00000        28.00000
 -13585660.29408 -10586228.09707  22086527.24000  22086526.37200  22086524.84100
       145.00000        47.00000
  -6250664.75205  -4870646.04906  24297089.87300  24297089.55700  24297092.58900
        10.00000        11.00000
 -22411089.98109 -17463184.05608  20006842.12200  20006842.00300  20006841.77800
       338.00000       241.00000
 -25776507.60708 -20085592.06708  20560229.74900  20560229.17100  20560228.04000
       262.00000       177.00000
  -2457671.82606  -1915067.76405  24175411.44300  24175411.33200  24175413.78700
        24.00000         8.00000
  -1068752.57705   -832793.83705  24813920.72000  24813920.47200  24813920.39000
         4.00000        10.00000
 04  8 23  0 13 30.0000000  0 12G29G15G 6G17G10G18G 8G26G21G 9G22G 3
 -17604163.04108 -13717527.95008  20928130.08900  20928130.05700  20928129.80500
       233.00000       164.00000
  -5610943.66906  -4372163.70905  23779054.50500  23779053.13300  23779053.75600
        15.00000        10.00000
  -7811929.90605  -6087229.39805  23711396.28000  23711397.18100  23711398.87200
         9.00000         6.00000
  -2549246.26906  -1986434.41506  23593561.44000  23593561.36200  23593565.98200
        14.00000        20.00000
  -4434195.27407  -3455218.05606  23266476.25200  23266475.46200  23266478.36600
        36.00000        29.00000
 -13658233.58308 -10642778.68307  22072716.76800  22072716.22400  22072715.01000
       143.00000        46.00000
  -6188989.98406  -4822587.81706  24308825.95900  24308825.82700  24308828.10800
        11.00000        11.00000
 -22379810.77909 -17438810.65008  20012793.75700  20012793.86200  20012793.93600
       328.00000       238.00000
 -25817788.12408 -20117758.69908  20552374.64000  20552374.03200  20552372.67100
       277.00000       181.00000
  -2576270.25506  -2007482.12006  24152843.36100  24152842.99400  24152845.55300
        22.00000        12.00000
  -1160039.81204   -903926.73906  24796548.48800  24796549.13900  24796550.19700
         3.00000        12.00000
    -18182.65805    -14167.57904  24957663.33900  24957663.06500  24957663.84400
         6.00000         2.00000
 04  8 23  0 14  0.0000000  0 11G29G15G 6G17G10G18G 8G26G21G 9G22
 -17553699.16008 -13678205.45408  20937733.46400  20937732.95500  20937732.87100
       223.00000       162.00000
  -5719128.54106  -4456463.58605  23758468.74200  23758466.80400  23758466.50400
        14.00000        10.00000
  -7718059.44405  -6014083.68705  23729259.91100  23729259.72100  23729261.94400
         6.00000         6.00000
  -2440785.27106  -1901919.47206  23614201.44600  23614201.13700  23614204.89500
        13.00000        16.00000
  -4346605.54607  -3386966.38206  23283144.58600  23283144.06700  23283145.94500
        43.00000        27.00000
 -13730667.50608 -10699220.67307  22058931.81800  22058931.92600  22058931.12800
       130.00000        46.00000
  -6126872.48806  -4774184.58205  24320647.82600  24320647.78200  24320648.31500
        12.00000        10.00000
 -22348003.43409 -17414025.69608  20018846.78600  20018846.47000  20018846.57500
       318.00000       235.00000
 -25858612.29008 -20149569.74008  20544606.18600  20544605.49400  20544604.04900
       283.00000       185.00000
  -2694868.83206  -2099896.56006  24130274.46900  24130273.88300  24130277.67000
        20.00000        18.00000
  -1251330.33505   -975062.21906  24779176.79900  24779176.29800  24779177.54900
         4.00000        11.00000
 04  8 23  0 14 30.0000000  0 11G29G15G 6G17G10G18G 8G26G21G 9G22
 -17502827.77608 -13638565.42508  20947413.69900  20947413.27000  20947413.52400
       220.00000       161.00000
  -5827167.29306  -4540649.57406  23737907.31400  23737906.09000  23737907.65300
        14.00000        12.00000
  -7624036.06905  -5940818.76905  23747150.64200  23747151.58900  23747154.31200
         6.00000         5.00000
  -2332102.61006  -1817231.76606  23634883.03000  23634883.19800  23634886.40400
        16.00000        11.00000
  -4258895.15707  -3318620.68206  23299835.20400  23299834.70500  23299836.87400
        40.00000        28.00000
 -13802904.65408 -10755509.32207  22045186.06700  22045185.68100  22045184.86700
       129.00000        49.00000
  -6064258.01505  -4725394.10205  24332563.42600  24332562.86400  24332564.07600
         9.00000        10.00000
 -22315613.40109 -17388786.70408  20025010.18200  20025010.13100  20025010.29200
       325.00000       236.00000
 -25898921.82508 -20180979.76908  20536935.14000  20536934.59800  20536933.42600
       271.00000       185.00000
  -2813407.98006  -2192264.65806  24107716.64600  24107715.58000  24107719.82100
        14.00000        17.00000
  -1342567.39205  -1046156.01905  24761814.44400  24761815.25500  24761816.17500
         6.00000         9.00000
 04  8 23  0 15  0.0000000  0 11G18G29G15G 6G17G10G 9G 8G26G22G21
 -13874946.74308 -10811645.99807  22031477.06600  22031476.79800  22031475.93000
       138.00000        49.00000
 -17451553.45408 -13598611.41908  20957170.78700  20957170.61400  20957170.76300
       222.00000       164.00000
  -5935059.88806  -4624721.71106  23717375.13000  23717374.82100  23717376.08300
        16.00000        12.00000
  -7529865.32605  -5867439.05105  23765073.04000  23765071.28100  23765074.93200
         6.00000         6.00000
  -2223202.78005  -1732374.82606  23655605.91100  23655605.01900  23655609.82100
         9.00000        15.00000
  -4171067.49407  -3250183.62806  23316548.70700  23316547.98500  23316550.71700
        40.00000        29.00000
  -2931887.36806  -2284586.19606  24085170.69400  24085170.15600  24085173.38000
        18.00000        12.00000
  -6001150.88505  -4676219.76505  24344573.00300  24344570.99900  24344573.56400
         7.00000        10.00000
 -22282645.15009 -17363097.15508  20031283.93100  20031283.96400  20031283.92700
       329.00000       236.00000
  -1433752.94705  -1117209.66705  24744463.15300  24744463.69600  24744462.84900
         7.00000         7.00000
 -25938717.58008 -20211989.44408  20529362.63200  20529361.91900  20529360.56500
       269.00000       187.00000
 04  8 23  0 15 30.0000000  0 11G18G29G15G 6G17G10G 9G 8G26G22G21
 -13946797.95908 -10867633.93707  22017804.77900  22017804.11200  22017803.28000
       134.00000        50.00000
 -17399882.85708 -13558348.63008  20967003.72700  20967003.40300  20967003.19400
       225.00000       161.00000
  -6042808.91706  -4708681.95106  23696871.01100  23696870.55600  23696872.42200
        13.00000        13.00000
  -7435554.74105  -5793950.37305  23783020.49000  23783020.14600  23783021.10000
         5.00000         7.00000
  -2114092.49906  -1647353.96106  23676369.06900  23676369.32200  23676372.64100
        15.00000        13.00000
  -4083127.69707  -3181659.17206  23333283.56900  23333282.20700  23333284.21700
        39.00000        26.00000
  -3050308.38506  -2376862.35306  24062635.31800  24062635.93500  24062638.70800
        18.00000        11.00000
  -5937558.39205  -4626667.18905  24356672.37100  24356671.58100  24356673.36500
         9.00000        10.00000
 -22249105.47609 -17336962.34308  20037666.61100  20037666.50800  20037666.25600
       327.00000       232.00000
  -1524891.19306  -1188226.47205  24727123.19000  24727122.58500  24727120.54500
        12.00000         8.00000
 -25978002.21008 -20242600.84708  20521887.03700  20521886.38000  20521884.83700
       272.00000       187.00000
 04  8 23  0 16  0.0000000  0 11G18G29G15G 6G17G10G 9G 8G26G22G21
 -14018453.15508 -10923469.14307  22004168.54500  22004168.05200  22004167.61300
       135.00000        54.00000
 -17347813.68308 -13517775.25808  20976911.89200  20976911.78000  20976911.74800
       226.00000       160.00000
  -6150407.50506  -4792524.97706  23676396.56300  23676395.85000  23676397.28900
        18.00000        14.00000
  -7341102.88905  -5720351.66405  23800991.30300  23800990.76600  23800994.44200
         4.00000         6.00000
  -2004769.09606  -1562166.99706  23697173.96200  23697172.57400  23697177.08400
        12.00000        15.00000
  -3995072.11707  -3113044.48906  23350038.77600  23350038.45500  23350041.48900
        39.00000        28.00000
  -3168663.53705  -2469087.09406  24040113.59900  24040113.02000  24040116.65400
         9.00000        14.00000
  -5873478.38405  -4576734.74305  24368866.61400  24368865.41300  24368867.57100
        10.00000        10.00000
 -22214991.60909 -17310380.10408  20044157.90200  20044157.92700  20044157.87500
       327.00000       231.00000
  -1615977.21406  -1259202.54605  24709789.34400  24709789.31400  24709788.21300
        18.00000        10.00000
 -26016769.43908 -20272809.08408  20514509.39700  20514508.78400  20514507.90700
       258.00000       193.00000
 04  8 23  0 16 30.0000000  0 12G18G29G15G 6G17G10G 9G 8G26G22G21G 3
 -14089912.41908 -10979151.66307  21990570.35900  21990569.94600  21990569.78600
       146.00000        58.00000
 -17295348.87008 -13476893.59808  20986896.24400  20986895.68600  20986895.40300
       222.00000       158.00000
  -6257854.20706  -4876249.66306  23655949.71200  23655949.12300  23655950.96600
        18.00000        16.00000
  -7246513.87805  -5646646.03405  23818992.57200  23818992.98700  23818994.13400
         8.00000         6.00000
  -1895235.65306  -1476816.37706  23718015.65200  23718016.37200  23718019.92300
        15.00000        13.00000
  -3906902.64207  -3044341.07806  23366818.31700  23366817.42100  23366818.87400
        42.00000        25.00000
  -3286950.79506  -2561258.89306  24017606.13800  24017605.47500  24017607.23000
        11.00000        16.00000
  -5808914.06706  -4526424.92906  24381152.77200  24381151.91200  24381154.74700
        13.00000        11.00000
 -22180306.61109 -17283352.82308  20050758.36700  20050758.31300  20050758.22700
       325.00000       232.00000
  -1707011.46006  -1330138.30405  24692464.19000  24692464.86200  24692463.52700
        14.00000         8.00000
 -26055018.40008 -20302613.46108  20507230.80700  20507230.23800  20507229.21600
       251.00000       190.00000
    -17237.73105    -13432.06104  24897067.36200  24897066.17900  24897066.55900
         6.00000         1.00000
 04  8 23  0 17  0.0000000  0 11G18G29G15G 6G17G10G 9G 8G26G22G21
 -14161202.60808 -11034702.43507  21977004.62000  21977003.97400  21977003.82600
       157.00000        61.00000
 -17242518.29708 -13435726.92508  20996949.33900  20996948.86300  20996948.61300
       215.00000       154.00000
  -6365174.43706  -4959875.78106  23635526.93400  23635526.27400  23635528.27300
        17.00000        16.00000
  -7151818.22605  -5572857.20305  23837012.42100  23837012.53700  23837015.03900
         9.00000         6.00000
  -1785521.76905  -1391325.13605  23738895.51000  23738894.09500  23738897.67200
        10.00000        10.00000
  -3818647.72607  -2975571.09306  23383612.16000  23383610.95900  23383613.92800
        38.00000        27.00000
  -3405194.70606  -2653396.97206  23995104.10500  23995103.87600  23995106.04700
        21.00000        15.00000
  -5743894.23206  -4475760.13206  24393525.65400  24393524.86300  24393526.67900
        14.00000        11.00000
 -22145080.32409 -17255903.76308  20057461.76100  20057461.81500  20057461.61300
       325.00000       233.00000
  -1798021.23106  -1401055.02305  24675146.40200  24675146.06200  24675145.27800
        14.00000         9.00000
 -26092775.35408 -20332034.46708  20500046.21200  20500045.57500  20500044.22900
       260.00000       190.00000
 04  8 23  0 17 30.0000000  0 11G18G29G15G 6G17G10G 9G 8G26G22G21
 -14232298.42208 -11090101.75107  21963475.42200  21963474.92400  21963474.20900
       163.00000        58.00000
 -17189299.38908 -13394257.65608  21007076.49300  21007076.09600  21007075.85200
       216.00000       151.00000
  -6472341.66606  -5043382.69706  23615134.68000  23615133.74300  23615134.81500
        19.00000        14.00000
  -7056994.93605  -5498969.00505  23855057.06300  23855057.00700  23855059.77300
         8.00000         8.00000
  -1675605.16006  -1305675.93206  23759812.85400  23759812.41100  23759814.68800
        18.00000        14.00000
  -3730283.81607  -2906716.15506  23400428.23200  23400427.07900  23400428.80300
        41.00000        23.00000
  -3523368.02006  -2745480.04406  23972616.49100  23972615.89200  23972618.19600
        19.00000        12.00000
  -5678398.03306  -4424724.15506  24405988.08000  24405988.11200  24405989.88300
        14.00000        11.00000
 -22109290.29409 -17228015.42208  20064272.16600  20064272.17500  20064272.37900
       320.00000       237.00000
  -1888981.68206  -1471933.26605  24657835.72700  24657835.34900  24657836.85300
        12.00000         9.00000
 -26130014.03208 -20361051.62208  20492959.64600  20492959.06400  20492957.96800
       253.00000       190.00000
 04  8 23  0 18  0.0000000  0 12G18G29G15G 6G17G10G 9G 8G26G22G21G 3
 -14303194.40708 -11145345.35307  21949984.22400  21949983.75200  21949983.36900
       164.00000        59.00000
 -17135689.22308 -13352483.51308  21017278.04500  21017277.75900  21017277.48500
       219.00000       150.00000
  -6579348.27106  -5126764.46406  23594771.47500  23594770.77300  23594772.24200
        17.00000        17.00000
  -6962041.64605  -5424979.54305  23873124.60400  23873125.38500  23873127.29900
         7.00000         7.00000
  -1565482.81706  -1219866.42206  23780767.97100  23780766.68600  23780769.43800
        13.00000        12.00000
  -3641806.49407  -2837772.85406  23417264.12200  23417262.95000  23417265.33700
        38.00000        24.00000
  -3641462.36206  -2837501.58806  23950142.50700  23950142.37300  23950145.51300
        16.00000        12.00000
  -5612422.07606  -4373314.34506  24418544.75100  24418543.15500  24418546.06100
        13.00000        12.00000
 -22072933.41109 -17199685.37908  20071190.88700  20071190.66700  20071190.92300
       319.00000       237.00000
  -1979887.20806  -1542768.69305  24640538.70500  24640538.60700  24640536.75100
        13.00000         9.00000
 -26166727.49308 -20389659.51608  20485973.24100  20485972.77800  20485971.69100
       256.00000       193.00000
         -.69015         -.40314  24867977.43000  24867977.17000  24867976.56200
         5.00000         2.00000
 04  8 23  0 18 30.0000000  0 11G18G29G15G 6G17G10G 9G 8G26G22G21
 -14373885.42508 -11200429.23607  21936532.49500  21936531.98800  21936531.12600
       165.00000        62.00000
 -17081685.57508 -13310402.75308  21027554.54200  21027554.36600  21027554.28000
       220.00000       152.00000
  -6686187.43506  -5210015.72406  23574439.34000  23574439.68600  23574441.39200
        12.00000        18.00000
  -6866957.09904  -5350887.77505  23891219.45200  23891219.02900  23891221.48500
         3.00000         7.00000
  -1455152.15406  -1133894.57806  23801762.40200  23801761.78000  23801764.90500
        11.00000        11.00000
  -3553212.06107  -2768738.30906  23434122.86200  23434122.33900  23434124.49000
        37.00000        22.00000
  -3759470.13106  -2929455.65006  23927687.74800  23927687.29600  23927689.19000
        25.00000        15.00000
  -5545964.01906  -4321528.87906  24431187.32700  24431189.20800  24431191.82300
        11.00000        11.00000
 -22036007.43909 -17170911.88908  20078217.31500  20078217.42700  20078217.54500
       322.00000       233.00000
  -2070732.89206  -1613557.47905  24623251.52300  24623250.97400  24623248.58300
        17.00000         8.00000
 -26202909.52308 -20417853.31008  20479088.57400  20479087.88300  20479086.45800
       268.00000       195.00000
 04  8 23  0 19  0.0000000  0 12G18G29G15G 6G17G10G 9G 8G26G22G21G 3
 -14444387.78508 -11255366.12407  21923115.91500  21923115.54500  21923114.74800
       154.00000        61.00000
 -17027307.73808 -13268030.42208  21037902.27600  21037902.01400  21037901.97100
       213.00000       152.00000
  -6792874.09606  -5293148.14506  23554137.28800  23554136.98600  23554139.96600
        11.00000        16.00000
  -6771761.52905  -5276709.51105  23909335.77400  23909334.91300  23909337.66200
         5.00000         7.00000
  -1344632.50306  -1047775.48806  23822793.62000  23822793.00600  23822797.41000
        14.00000        12.00000
  -3464518.53307  -2699626.52406  23451001.19400  23450999.78600  23451002.32000
        34.00000        21.00000
  -3877405.50407  -3021353.28506  23905245.90400  23905245.61600  23905247.27600
        32.00000        18.00000
  -5479043.74806  -4269383.22506  24443924.36300  24443923.38200  24443925.65600
        13.00000        11.00000
 -21998531.67609 -17141709.99208  20085349.09800  20085349.03400  20085348.77200
       329.00000       230.00000
  -2161535.74106  -1684312.92605  24605972.13400  24605971.62700  24605970.46800
        25.00000         9.00000
 -26238576.02308 -20445645.39808  20472300.95900  20472300.66400  20472299.45700
       270.00000       199.00000
    -16461.88905    -12827.14204  24849043.48500  24849042.73800  24849044.97400
         5.00000         3.00000
 04  8 23  0 19 30.0000000  0 12G18G29G15G 6G17G10G 9G 8G26G22G21G 3
 -14514690.53908 -11310147.46507  21909737.63500  21909737.22300  21909736.86600
       147.00000        63.00000
 -16972547.42408 -13225360.05608  21048322.58000  21048322.41100  21048322.52900
       211.00000       150.00000
  -6899395.59406  -5376151.88906  23533868.27100  23533867.70400  23533869.46900
        13.00000        19.00000
  -6676447.71005  -5202439.07805  23927472.75800  23927472.22100  23927473.88900
         9.00000         6.00000
  -1233915.53706   -961502.62805  23843862.03100  23843862.41400  23843865.64400
        16.00000         9.00000
  -3375716.64707  -2630430.30706  23467899.32500  23467898.33400  23467900.82200
        32.00000        23.00000
  -3995255.22606  -3113184.15406  23882818.64100  23882818.29700  23882820.96900
        19.00000        17.00000
  -5411653.53006  -4216871.38505  24456748.03300  24456746.96500  24456749.19400
        14.00000        10.00000
 -21960497.87309 -17112073.25708  20092586.83400  20092586.66500  20092586.49000
       327.00000       231.00000
  -2252284.81406  -1755026.49405  24588703.85600  24588703.60500  24588701.78600
        30.00000         7.00000
 -26273714.66508 -20473026.15708  20465614.51700  20465613.91800  20465612.86300
       263.00000       202.00000
    -65487.48005    -51028.95404  24839715.91100  24839715.25900  24839716.29700
         6.00000         3.00000
 04  8 23  0 20  0.0000000  0 12G18G29G15G 6G17G10G 9G 8G26G22G21G 3
 -14584766.60108 -11364752.17707  21896402.23300  21896402.03100  21896401.55400
       150.00000        61.00000
 -16917380.56408 -13182372.90508  21058820.64100  21058820.38300  21058820.49100
       212.00000       151.00000
  -7005723.38406  -5459004.66306  23513634.29800  23513633.98200  23513635.74100
        14.00000        18.00000
  -6580992.12505  -5128058.14405  23945636.98200  23945636.58600  23945640.19100
         8.00000         7.00000
  -1122977.10106   -875057.14906  23864976.38900  23864974.39800  23864976.52800
        12.00000        11.00000
  -3286780.62907  -2561129.55306  23484823.36500  23484822.71900  23484824.18400
        35.00000        21.00000
  -4112989.93206  -3204925.38806  23860413.77600  23860413.21200  23860416.22000
        18.00000        14.00000
  -5343769.02206  -4163974.39405  24469666.14800  24469665.96500  24469667.52500
        16.00000        10.00000
 -21921881.76709 -17081982.78608  20099935.02300  20099934.85800  20099935.11100
       323.00000       234.00000
  -2342953.21306  -1825677.19205  24571449.66100  24571449.39700  24571447.58500
        24.00000         8.00000
 -26308297.58808 -20499973.89008  20459033.77800  20459033.21300  20459031.98800
       267.00000       204.00000
   -113999.63905    -88830.69805  24830482.50600  24830482.34500  24830485.11700
         5.00000         5.00000
 04  8 23  0 20 30.0000000  0 12G18G29G15G 6G17G10G 9G 8G26G22G21G 3
 -14654662.29408 -11419216.33607  21883101.33400  21883101.42700  21883101.18800
       161.00000        63.00000
 -16861856.03608 -13139107.05208  21069387.02000  21069386.56800  21069386.54200
       213.00000       149.00000
  -7111901.97905  -5541741.20406  23493430.08900  23493429.20500  23493430.45400
        10.00000        18.00000
  -6485445.19605  -5053606.06905  23963818.50700  23963818.84600  23963821.47400
         7.00000         7.00000
  -1011866.31506   -788477.44906  23886118.00700  23886116.66000  23886120.59900
        11.00000        12.00000
  -3197758.44006  -2491761.68106  23501763.85000  23501762.88100  23501765.21600
        31.00000        23.00000
  -4230653.64406  -3296611.31406  23838023.41700  23838022.93500  23838025.65200
        21.00000        14.00000
  -5275439.50006  -4110730.60405  24482669.64800  24482669.27600  24482669.31000
        20.00000        10.00000
 -21882732.70909 -17051477.02908  20107384.97700  20107384.85200  20107384.91100
       330.00000       231.00000
  -2433587.78506  -1896301.49305  24554201.53400  24554201.57400  24554200.47300
        17.00000         8.00000
 -26342370.27608 -20526524.03608  20452549.56900  20452549.14400  20452547.99200
       265.00000       202.00000
   -162044.23505   -126268.04105  24821340.28300  24821339.47100  24821341.94900
         5.00000         5.00000
 04  8 23  0 21  0.0000000  0 12G18G29G15G 6G17G10G 9G 8G26G22G21G 3
 -14724361.84008 -11473527.65607  21869838.57400  21869838.14200  21869837.52900
       172.00000        61.00000
 -16805960.77908 -13095552.31708  21080023.60200  21080023.17000  21080023.00300
       218.00000       145.00000
  -7217913.91806  -5624347.86106  23473256.00600  23473254.70400  23473257.23700
        11.00000        20.00000
  -6389794.56405  -4979073.23305  23982022.01000  23982021.08600  23982022.97500
         8.00000         5.00000
   -900569.89006   -701753.08106  23907295.92400  23907295.29700  23907299.05300
        11.00000        11.00000
  -3108635.50307  -2422315.29406  23518723.57400  23518722.70100  23518725.07200
        34.00000        22.00000
  -4348227.93507  -3388227.59506  23815650.82200  23815650.17600  23815652.96800
        33.00000        15.00000
  -5206652.46206  -4057130.33306  24495758.22700  24495758.31000  24495759.82400
        17.00000        11.00000
 -21843037.54109 -17020545.72208  20114938.53600  20114938.55500  20114938.50700
       328.00000       227.00000
  -2524172.52306  -1966886.98405  24536962.57100  24536962.32600  24536963.36100
        12.00000         8.00000
 -26375915.65808 -20552663.29408  20446166.29600  20446165.77500  20446164.53700
       260.00000       204.00000
   -209604.50404   -163327.99305  24812289.78200  24812288.81800  24812291.90300
         3.00000         6.00000
 04  8 23  0 21 30.0000000  0 12G18G29G15G 6G17G10G 9G 8G26G22G21G 3
 -14793863.02608 -11527684.40907  21856613.18900  21856612.84700  21856611.96400
       193.00000        61.00000
 -16749695.71208 -13051709.41508  21090730.23900  21090730.11900  21090729.91400
       222.00000       147.00000
  -7323755.46706  -5706821.77106  23453115.10600  23453114.56800  23453116.33600
        16.00000        18.00000
  -6294041.87805  -4904460.83105  24000242.32800  24000242.31800  24000244.39100
        10.00000         4.00000
   -789088.52906   -614884.59205  23928510.07400  23928509.73500  23928513.36800
        15.00000        10.00000
  -3019411.24907  -2352789.94806  23535701.97700  23535701.24600  23535704.19200
        32.00000        24.00000
  -4465708.51406  -3479770.82306  23793293.23200  23793293.19800  23793296.76000
        18.00000        14.00000
  -5137408.42806  -4003173.96506  24508935.97700  24508935.38100  24508937.09900
        17.00000        12.00000
 -21802796.97109 -16989189.42808  20122595.69700  20122595.88200  20122595.79600
       318.00000       219.00000
  -2614705.80206  -2037432.36505  24519735.08700  24519734.81400  24519735.53300
        15.00000         8.00000
 -26408930.86008 -20578389.42508  20439883.58500  20439883.16400  20439881.91800
       263.00000       204.00000
   -256677.66704   -200008.42905  24803332.83300  24803330.40500  24803333.91800
         2.00000         7.00000
 04  8 23  0 22  0.0000000  0 12G18G29G15G 6G17G10G 9G 8G26G22G21G 3
 -14863139.56508 -11581666.12207  21843430.16800  21843429.78100  21843429.11900
       189.00000        62.00000
 -16693037.26508 -13007559.98308  21101511.83100  21101511.68900  21101511.72300
       216.00000       147.00000
  -7429398.58906  -5789141.03806  23433011.00000  23433011.11800  23433013.43300
        18.00000        19.00000
  -6198164.67205  -4829751.42405  24018486.27100  24018486.80900  24018489.01700
         9.00000         5.00000
   -677398.85205   -527853.77306  23949765.45400  23949764.60900  23949768.26200
        10.00000        14.00000
  -2930060.84507  -2283166.35506  23552704.89500  23552704.57200  23552706.96200
        34.00000        24.00000
  -4583066.52806  -3571218.48806  23770961.57000  23770961.14100  23770964.62800
        16.00000        18.00000
  -5067684.62206  -3948843.76706  24522204.64300  24522203.58700  24522204.77400
        16.00000        11.00000
 -21761987.72608 -16957390.01208  20130362.04400  20130361.84000  20130361.58200
       313.00000       219.00000
  -2705161.59806  -2107917.39005  24502522.27500  24502522.60900  24502522.54900
        21.00000        10.00000
 -26441388.95708 -20603681.45308  20433707.30100  20433706.65000  20433705.35100
       260.00000       205.00000
   -303237.03905   -236288.43005  24794473.27700  24794472.03500  24794473.08400
         4.00000         7.00000
 04  8 23  0 22 30.0000000  0 12G18G29G15G 6G17G10G 9G 8G26G22G21G 3
 -14932226.58308 -11635500.13807  21830283.04300  21830282.67100  21830282.34700
       174.00000        64.00000
 -16636023.58708 -12963133.75008  21112361.30400  21112361.13600  21112360.94000
       215.00000       144.00000
  -7534876.68606  -5871331.76506  23412938.50100  23412938.97500  23412940.88300
        21.00000        15.00000
  -6102201.87505  -4754975.30105  24036747.84400  24036747.75800  24036750.68100
         9.00000         6.00000
   -565538.78906   -440690.20906  23971050.89600  23971050.57700  23971054.22900
        13.00000        11.00000
  -2840621.27207  -2213473.24306  23569725.21100  23569724.60400  23569726.62100
        36.00000        23.00000
  -4700334.66106  -3662596.14205  23748647.00800  23748646.35100  23748646.90900
        27.00000        10.00000
  -4997519.06106  -3894169.32305  24535555.06900  24535555.06800  24535556.61400
        16.00000         9.00000
 -21720647.96409 -16925177.20908  20138228.48400  20138228.46400  20138228.31400
       318.00000       219.00000
  -2795575.38606  -2178369.67405  24485317.53400  24485317.65400  24485316.49600
        19.00000         7.00000
 -26473323.96308 -20628565.87508  20427630.15800  20427629.46900  20427628.33700
       249.00000       206.00000
   -349317.15205   -272195.01905  24785702.96000  24785703.91400  24785704.75900
         6.00000         7.00000
 04  8 23  0 23  0.0000000  0 12G18G29G15G 6G17G10G 9G 8G26G22G21G 3
 -15001135.76408 -11689195.58007  21817169.83600  21817169.72200  21817169.23400
       174.00000        65.00000
 -16578669.07608 -12918441.92908  21123275.39100  21123275.16800  21123275.15100
       209.00000       144.00000
  -7640200.23106  -5953402.03106  23392897.56200  23392897.06700  23392898.59500
        25.00000        15.00000
  -6006168.95305  -4680144.57205  24055023.77100  24055022.89600  24055027.11500
         6.00000         6.00000
   -453522.83006   -353405.16805  23992368.25200  23992367.39700  23992370.09100
        12.00000        10.00000
  -2751105.44506  -2143720.69906  23586759.23800  23586758.19800  23586760.68500
        31.00000        21.00000
  -4817522.44907  -3753911.30106  23726346.50600  23726346.66200  23726347.16800
        32.00000        11.00000
  -4926927.75906  -3839163.14105  24548988.75800  24548988.66400  24548990.13900
        15.00000         9.00000
 -21678792.34009 -16892562.43608  20146192.92300  20146193.23800  20146193.19900
       326.00000       219.00000
  -2885959.21606  -2248798.61905  24468118.66800  24468118.16500  24468116.56200
        17.00000         5.00000
 -26504746.86908 -20653051.25608  20421650.47200  20421649.82300  20421648.84100
       253.00000       211.00000
   -394929.07904   -307736.74405  24777022.62000  24777023.45700  24777026.34100
         2.00000         7.00000
 04  8 23  0 23 30.0000000  0 12G18G29G15G 6G17G10G 9G 8G26G22G21G 3
 -15069836.10508 -11742728.29707  21804096.77800  21804096.45300  21804095.95700
       172.00000        64.00000
 -16520945.80908 -12873462.76808  21134259.72300  21134259.53600  21134259.53800
       201.00000       143.00000
  -7745336.28806  -6035326.19206  23372891.41100  23372890.61600  23372891.97600
        27.00000        15.00000
  -5910038.62905  -4605237.93304  24073315.75000  24073314.81800  24073317.45400
         6.00000         3.00000
   -341322.94005   -265976.78705  24013718.41100  24013717.06700  24013721.95100
        10.00000        10.00000
  -2661484.07807  -2073885.91006  23603813.91600  23603813.03500  23603815.55100
        35.00000        24.00000
  -4934596.48506  -3845137.70806  23704068.93000  23704067.69500  23704069.39000
        20.00000        17.00000
  -4855881.54106  -3783802.48305  24562508.43900  24562508.74100  24562510.14500
        17.00000         9.00000
 -21636392.70009 -16859523.75508  20154262.15400  20154261.86000  20154261.60200
       319.00000       216.00000
  -2976282.04306  -2319179.99305  24450931.73900  24450931.56300  24450928.69700
        14.00000         7.00000
 -26535625.58708 -20677112.59908  20415774.49700  20415773.94800  20415772.84700
       254.00000       215.00000
   -440041.26904   -342889.09105  24768441.47800  24768439.79100  24768442.51000
         2.00000         7.00000
 04  8 23  0 24  0.0000000  0 12G18G29G15G 6G17G10G 9G 8G26G22G21G 3
 -15138322.93108 -11796094.64507  21791064.04300  21791063.79600  21791063.35300
       172.00000        66.00000
 -16462851.73608 -12828194.67108  21145314.81400  21145314.59700  21145314.47700
       208.00000       142.00000
  -7850278.41406  -6117099.27105  23352920.77200  23352920.48900  23352921.41000
        31.00000        10.00000
  -5813810.13905  -4530254.79305  24091627.05000  24091626.91400  24091631.27700
         6.00000         4.00000
   -228937.08006   -178403.49405  24035104.03600  24035102.71200  24035107.33700
        11.00000        10.00000
  -2571753.81507  -2003966.30806  23620888.23900  23620888.27400  23620891.00200
        35.00000        24.00000
  -5051549.59906  -3936269.86006  23681812.59000  23681812.16500  23681814.45400
        28.00000        24.00000
  -4784379.20406  -3728086.39405  24576115.53500  24576114.93900  24576116.59800
        16.00000         8.00000
 -21593447.41608 -16826059.89608  20162433.71900  20162433.77800  20162433.76900
       313.00000       214.00000
  -3066539.68006  -2389510.61005  24433754.43200  24433754.12600  24433753.94800
        15.00000         8.00000
 -26565954.97608 -20700745.89208  20410002.78500  20410002.29700  20410001.42100
       252.00000       220.00000
   -484648.38804   -377647.87305  24759952.17200  24759951.02400  24759952.38300
         1.00000         5.00000
 04  8 23  0 24 30.0000000  0 12G18G29G15G 6G17G10G 9G 8G26G22G21G 3
 -15206629.24808 -11849320.33007  21778066.26600  21778065.83100  21778064.84500
       182.00000        68.00000
 -16404422.71008 -12782665.56908  21156433.13400  21156433.20000  21156433.09000
       207.00000       138.00000
  -7955058.02906  -6198745.71906  23332981.60700  23332981.27200  23332983.43200
        28.00000        14.00000
  -5717519.74505  -4455223.44005  24109950.17600  24109949.47400  24109954.02700
         4.00000         4.00000
   -116400.88405    -90713.08305  24056518.72700  24056518.32500  24056523.06100
         9.00000        10.00000
  -2481948.83107  -1933988.44606  23637978.09200  23637977.06900  23637980.32100
        32.00000        22.00000
  -5168412.29506  -4027331.60006  23659574.16400  23659573.61700  23659575.90000
        27.00000        18.00000
  -4712456.74706  -3672042.95405  24589801.44400  24589801.45900  24589803.61500
        19.00000         7.00000
 -21549992.25808 -16792198.73708  20170702.72900  20170702.85800  20170703.08900
       314.00000       214.00000
  -3156765.18806  -2459816.17205  24416585.58000  24416585.48200  24416584.13000
        16.00000         9.00000
 -26595766.92308 -20723975.98308  20404329.88600  20404329.42200  20404328.37800
       259.00000       221.00000
   -528782.70305   -412038.21605  24751551.55400  24751550.33800  24751554.71000
         4.00000         4.00000
 04  8 23  0 25  0.0000000  0 12G18G29G15G 6G17G10G 9G 8G26G22G21G 3
 -15274678.46008 -11902345.67607  21765116.85200  21765116.36400  21765115.85400
       184.00000        71.00000
 -16345585.10008 -12736818.08908  21167630.14700  21167629.78100  21167629.50200
       201.00000       135.00000
  -8059596.71106  -6280204.41406  23313089.41700  23313088.75300  23313090.67300
        31.00000        14.00000
  -5621095.05704  -4380087.42405  24128301.71900  24128300.84700  24128303.36500
         3.00000         4.00000
     -3640.79106     -2848.15105  24077977.66200  24077976.90600  24077980.16400
        11.00000         9.00000
  -2391994.58706  -1863894.30406  23655095.84800  23655094.63400  23655097.89600
        29.00000        23.00000
  -5285105.70806  -4118261.46606  23637366.07800  23637366.52500  23637369.39300
        22.00000        12.00000
  -4640041.21206  -3615615.27605  24603582.10700  24603581.90700  24603584.17800
        18.00000        10.00000
 -21505953.64909 -16757882.93008  20179083.67800  20179083.54700  20179083.45000
       322.00000       218.00000
  -3246882.25606  -2530037.23605  24399435.96000  24399435.79700  24399435.78600
        14.00000        10.00000
 -26624984.10408 -20746742.62208  20398770.20400  20398769.67300  20398768.56900
       256.00000       221.00000
   -572367.20805   -446000.20904  24743258.77600  24743258.99100  24743259.27100
         8.00000         3.00000
 04  8 23  0 25 30.0000000  0 12G18G29G15G 6G17G10G 9G 8G26G22G21G 3
 -15342529.41008 -11955216.52907  21752205.27900  21752204.79200  21752204.23800
       187.00000        72.00000
 -16286400.65708 -12690700.34108  21178892.48500  21178892.08700  21178892.02500
       201.00000       138.00000
  -8163951.99006  -6361520.19706  23293231.70800  23293230.73100  23293231.77900
        27.00000        15.00000
  -5524598.39504  -4304895.34004  24146662.47900  24146663.16700  24146665.00100
         2.00000         2.00000
    109281.40805     85143.08606  24099466.56100  24099466.00000  24099469.03400
         9.00000        12.00000
  -2301951.45006  -1793730.88706  23672229.79500  23672229.14800  23672232.51900
        28.00000        21.00000
  -5401686.35006  -4209103.44506  23615182.65100  23615182.47300  23615185.81200
        29.00000        18.00000
  -4567194.67206  -3558851.78005  24617444.07000  24617443.71700  24617445.57700
        15.00000         8.00000
 -21461393.75209 -16723160.92308  20187563.00600  20187563.07100  20187562.96700
       327.00000       220.00000
  -3336950.10705  -2600219.95706  24382296.87100  24382296.68100  24382296.88100
         9.00000        11.00000
 -26653664.90108 -20769091.29608  20393312.09000  20393311.54700  20393310.80900
       249.00000       221.00000
   -615460.54405   -479579.48704  24735057.89400  24735057.34800  24735058.28900
         7.00000         3.00000
 04  8 23  0 26  0.0000000  0 12G18G29G15G 6G17G10G 9G 8G26G22G21G 3
 -15410188.81708 -12007938.12807  21739329.83300  21739329.52300  21739328.94700
       190.00000        72.00000
 -16226878.94808 -12644319.79508  21190218.90000  21190218.66100  21190218.73000
       198.00000       138.00000
  -8268128.70206  -6442696.83206  23273406.78300  23273406.35700  23273407.82700
        25.00000        17.00000
  -5428040.56300  -4229655.58504  24165038.52400  24165037.91900  24165037.82900
          .00000         1.00000
    222356.31805    173253.29605  24120983.56500  24120982.86200  24120986.40100
         9.00000        10.00000
  -2211827.53306  -1723504.52006  23689380.66800  23689380.04700  23689382.62800
        27.00000        20.00000
  -5518158.43906  -4299860.83206  23593019.54500  23593018.64800  23593021.71400
        27.00000        22.00000
  -4493926.75806  -3501759.90705  24631387.35500  24631386.36200  24631387.38700
        14.00000         8.00000
 -21416322.15709 -16688040.20808  20196139.56900  20196139.61000  20196139.75500
       320.00000       218.00000
  -3426975.97405  -2670369.91605  24365164.13000  24365163.92400  24365165.04400
         7.00000        10.00000
 -26681815.21708 -20791026.60908  20387955.57200  20387955.04900  20387953.83400
       254.00000       218.00000
   -658068.90705   -512780.81904  24726949.89800  24726950.09400  24726949.99300
         5.00000         3.00000
 04  8 23  0 26 30.0000000  0 11G18G29G15G17G10G 9G 8G26G22G21G 3
 -15477643.41808 -12060500.13907  21726493.64200  21726493.41900  21726492.77900
       188.00000        70.00000
 -16167009.68808 -12597668.43208  21201611.37100  21201611.26900  21201611.44900
       194.00000       138.00000
  -8372111.99106  -6523722.72206  23253619.80600  23253619.27400  23253620.74900
        27.00000        17.00000
    335594.14605    261490.44306  24142530.68900  24142530.31800  24142535.28900
        10.00000        11.00000
  -2121611.06606  -1653206.02206  23706548.22400  23706547.41200  23706550.71900
        24.00000        22.00000
  -5634506.39806  -4390521.47606  23570880.10000  23570879.24400  23570880.51800
        28.00000        20.00000
  -4420227.55106  -3444331.98505  24645411.35500  24645411.00100  24645411.90000
        13.00000         7.00000
 -21370728.79009 -16652512.91708  20204816.27400  20204815.93400  20204815.88000
       319.00000       215.00000
  -3516946.60106  -2740476.86705  24348046.02900  24348045.42300  24348043.23300
        14.00000         8.00000
 -26709421.22108 -20812537.78108  20382701.98900  20382701.58600  20382700.57200
       253.00000       218.00000
   -700178.40305   -545593.40704  24718937.70100  24718937.17800  24718937.57100
         5.00000         3.00000
 04  8 23  0 27  0.0000000  0 11G18G29G15G17G10G 9G 8G26G22G21G 3
 -15544857.61608 -12112874.81607  21713703.59800  21713703.06600  21713702.46600
       186.00000        71.00000
 -16106760.36308 -12550720.91508  21213076.37200  21213076.53400  21213076.59400
       199.00000       137.00000
  -8475864.47706  -6604568.80006  23233875.31500  23233875.13500  23233876.95900
        20.00000        19.00000
    449027.57905    349880.00105  24164116.78500  24164116.08700  24164120.93500
        10.00000         7.00000
  -2031267.91606  -1582808.83006  23723739.23900  23723738.79900  23723741.73400
        24.00000        19.00000
  -5750692.40106  -4481055.95006  23548767.38800  23548767.91000  23548770.76100
        22.00000        16.00000
  -4346065.19306  -3386543.16605  24659522.55300  24659522.34200  24659525.66500
        11.00000         8.00000
 -21324581.12609 -16616553.70208  20213597.75600  20213597.54100  20213597.51200
       323.00000       213.00000
  -3606826.78706  -2810513.36605  24330943.39400  24330942.57700  24330939.81100
        15.00000         8.00000
 -26736446.23508 -20833596.22808  20377559.38800  20377558.87600  20377557.84600
       251.00000       219.00000
   -741753.14805   -577989.30204  24711027.23700  24711025.76700  24711027.09600
         4.00000         2.00000
 04  8 23  0 27 30.0000000  0 11G18G29G15G17G10G 9G 8G26G22G21G 3
 -15611902.16008 -12165117.29307  21700944.99100  21700944.85100  21700944.07500
       188.00000        70.00000
 -16046204.30308 -12503534.38208  21224600.15400  21224600.02200  21224600.17300
       196.00000       137.00000
  -8579455.12206  -6685288.73806  23214163.73900  23214163.04200  23214164.13000
        29.00000        20.00000
    562583.13205    438364.78705  24185727.14200  24185725.79700  24185729.61200
         8.00000         7.00000
  -1940870.41806  -1512369.26806  23740942.20000  23740941.54800  23740944.45700
        25.00000        22.00000
  -5866784.83306  -4571517.47506  23526675.72300  23526675.41600  23526680.14800
        23.00000        19.00000
  -4271513.20406  -3328450.75405  24673712.48600  24673710.60900  24673712.03200
        13.00000         7.00000
 -21277952.89709 -16580220.02108  20222470.30800  20222470.51700  20222470.52700
       326.00000       212.00000
  -3696687.44405  -2880534.63505  24313841.59000  24313841.52500  24313839.60600
        10.00000        10.00000
 -26762960.66208 -20854256.82208  20372514.05700  20372513.53800  20372512.41800
       258.00000       224.00000
   -782863.52904   -610023.40004  24703203.26000  24703202.92400  24703204.49900
         2.00000         3.00000
 04  8 23  0 28  0.0000000  0 11G18G29G15G17G10G 9G 8G26G22G21G 3
 -15678719.05308 -12217182.39607  21688230.43000  21688229.96000  21688229.33100
       186.00000        71.00000
 -15985286.29908 -12456065.81608  21236192.33300  21236192.19800  21236192.55300
       189.00000       135.00000
  -8682824.07006  -6765835.93206  23194492.73100  23194491.99100  23194494.19700
        25.00000        23.00000
    676316.05405    526987.73405  24207369.94300  24207369.00500  24207372.15100
        10.00000         9.00000
  -1850362.03006  -1441843.33006  23758165.99700  23758164.93200  23758167.68200
        27.00000        19.00000
  -5982722.89206  -4661858.74706  23504614.78000  23504614.36600  23504616.87200
        30.00000        18.00000
  -4196516.89206  -3270012.07905  24687980.56500  24687981.22800  24687983.70400
        13.00000         8.00000
 -21230788.93809 -16543468.89108  20231445.46400  20231445.52300  20231445.49800
       322.00000       213.00000
  -3786470.69606  -2950495.52105  24296757.58500  24296756.93300  24296754.94200
        11.00000        10.00000
 -26788905.72108 -20874473.75708  20367577.25500  20367576.59900  20367575.35200
       265.00000       228.00000
   -823450.95904   -641649.96804  24695478.41500  24695478.36700  24695481.36800
         1.00000         3.00000
 04  8 23  0 28 30.0000000  0 11G18G29G15G17G10G 9G 8G26G22G21G 3
 -15745297.06808 -12269061.35107  21675561.01200  21675560.53800  21675559.99000
       190.00000        77.00000
 -15923998.30908 -12408308.95308  21247855.33900  21247855.09700  21247855.03000
       196.00000       130.00000
  -8785958.67906  -6846200.53106  23174866.01800  23174865.72000  23174868.21600
        24.00000        24.00000
    790234.57205    615755.30005  24229047.86400  24229046.91100  24229050.03400
         8.00000         9.00000
  -1759733.08306  -1371223.42106  23775409.87300  23775409.91300  23775413.26700
        22.00000        18.00000
  -6098493.24806  -4752069.33906  23482584.84700  23482583.94400  23482587.34300
        25.00000        23.00000
  -4121068.29106  -3211221.00405  24702338.33600  24702338.07400  24702340.55200
        11.00000         6.00000
 -21183081.53008 -16506294.28808  20240523.76400  20240523.83000  20240523.96900
       314.00000       213.00000
  -3876165.87706  -3020387.86505  24279688.35100  24279687.29300  24279686.16400
        11.00000        10.00000
 -26814269.65608 -20894237.86308  20362750.26900  20362749.81200  20362748.74500
       262.00000       231.00000
   -863504.13000   -672860.24305  24687856.91500  24687855.85100  24687858.42400
          .00000         7.00000
 04  8 23  0 29  0.0000000  0 11G18G29G15G17G10G 9G 8G26G22G21G 3
 -15811660.70008 -12320773.27107  21662932.02100  21662931.63000  21662931.54200
       193.00000        76.00000
 -15862367.55308 -12360284.99408  21259583.35500  21259582.89400  21259582.75100
       193.00000       125.00000
  -8888881.59206  -6926400.16106  23155280.75100  23155280.55200  23155282.43800
        26.00000        24.00000
    904311.29505    704646.15305  24250754.37700  24250754.77400  24250758.26500
         8.00000        10.00000
  -1669009.50406  -1300529.80106  23792674.53200  23792674.74400  23792677.69600
        26.00000        19.00000
  -6214117.92606  -4842166.35206  23460580.70800  23460580.98500  23460583.89800
        22.00000        19.00000
  -4045195.68705  -3152099.51105  24716776.20900  24716776.03800  24716779.01500
        10.00000         6.00000
 -21134857.99408 -16468717.51108  20249700.57200  20249700.55000  20249700.59500
       315.00000       212.00000
  -3965797.58606  -3090230.70106  24262630.90400  24262630.67400  24262629.77200
        12.00000        12.00000
 -26839076.22308 -20913567.65908  20358029.66400  20358029.27300  20358028.29700
       262.00000       234.00000
   -903047.05000   -703672.89005  24680333.39400  24680332.31200  24680334.55500
          .00000         6.00000
 04  8 23  0 29 30.0000000  0 11G18G29G15G17G10G 9G 8G26G22G21G 3
 -15877853.86008 -12372352.35407  21650335.98400  21650335.67900  21650335.33000
       196.00000        77.00000
 -15800441.02308 -12312030.56608  21271367.68800  21271367.28900  21271367.06100
       193.00000       125.00000
  -8991635.31506  -7006467.94906  23135726.94900  23135726.86600  23135729.33700
        24.00000        25.00000
   1018499.24305    793623.66306  24272483.07600  24272483.29800  24272488.58300
         7.00000        11.00000
  -1578237.08906  -1229798.12106  23809949.55700  23809948.61400  23809950.40500
        25.00000        17.00000
  -6329638.40507  -4932182.24206  23438599.49600  23438599.20400  23438600.58900
        40.00000        16.00000
  -3968946.26105  -3092684.40805  24731288.08900  24731286.97600  24731288.39500
        10.00000         5.00000
 -21086165.64109 -16430775.42508  20258966.41900  20258966.52800  20258966.41500
       321.00000       206.00000
  -4055410.24906  -3160058.71105  24245577.66700  24245577.93000  24245576.20300
        12.00000        10.00000
 -26863369.02708 -20932497.12008  20353406.93400  20353406.49200  20353405.58800
       256.00000       235.00000
   -942123.54904   -734122.07105  24672897.86200  24672896.43300  24672897.45600
         3.00000         5.00000
 04  8 23  0 30  0.0000000  0 11G29G18G15G17G10G 9G 8G26G22G21G 3
 -15738155.46808 -12263496.36808  21283219.89600  21283219.80100  21283219.79400
       189.00000       127.00000
 -15943810.34108 -12423747.00407  21637785.17100  21637784.56600  21637784.09800
       200.00000        78.00000
  -9094151.86206  -7086350.93806  23116219.26700  23116218.77600  23116221.02300
        23.00000        27.00000
   1132862.00105    882737.36606  24294247.83400  24294246.03500  24294250.96400
         5.00000        12.00000
  -1487350.93806  -1158977.79206  23827244.43400  23827243.44500  23827245.81700
        25.00000        16.00000
  -6444985.98606  -5022063.41706  23416647.32500  23416647.36600  23416650.74200
        25.00000        17.00000
  -3892256.78205  -3032926.39805  24745879.46200  24745879.20500  24745882.92600
         9.00000         5.00000
 -21036941.42109 -16392418.89108  20268333.93700  20268333.79300  20268333.43800
       325.00000       203.00000
  -4144937.57706  -3229820.23006  24228541.11200  24228541.06700  24228541.63100
        12.00000        13.00000
 -26887080.78208 -20950973.81108  20348894.49000  20348894.15700  20348893.25000
       250.00000       233.00000
   -980666.70305   -764155.69005  24665562.14400  24665561.51600  24665563.43100
         9.00000         6.00000
 04  8 23  0 30 30.0000000  0 11G29G18G15G17G10G 9G 8G26G22G21G 3
 -15675512.72108 -12214683.84408  21295140.48100  21295140.17300  21295140.40600
       183.00000       126.00000
 -16009529.00108 -12474956.33307  21625279.28100  21625278.90400  21625278.38800
       204.00000        84.00000
  -9196428.37906  -7166046.87106  23096757.17000  23096756.21400  23096758.46200
        25.00000        25.00000
   1247397.45505    971985.63705  24316043.32300  24316043.21900  24316046.30500
         8.00000        10.00000
  -1396351.41006  -1088069.13806  23844560.54200  23844560.08600  23844563.16700
        24.00000        19.00000
  -6560157.36407  -5111807.28006  23394731.27600  23394731.69900  23394734.85800
        33.00000        21.00000
  -3815130.08305  -2972827.67905  24760556.65800  24760557.38400  24760559.59400
         9.00000         5.00000
 -20987187.19308 -16353649.36008  20277801.47100  20277801.41900  20277801.44400
       315.00000       204.00000
  -4234379.03906  -3299514.84106  24211521.67200  24211521.66200  24211521.89400
        14.00000        15.00000
 -26910210.62008 -20968997.06508  20344493.05800  20344492.77300  20344491.71500
       253.00000       233.00000
  -1018675.41806   -793772.87805  24658328.79700  24658328.53700  24658329.19500
        14.00000         5.00000
 04  8 23  0 31  0.0000000  0 11G29G18G15G17G10G 9G 8G26G22G21G 3
 -15612560.23708 -12165629.96608  21307119.88500  21307119.57700  21307119.76800
       179.00000       124.00000
 -16075054.45208 -12526015.10507  21612809.64100  21612809.59200  21612809.16200
       201.00000        82.00000
  -9298507.84006  -7245589.29506  23077331.47700  23077330.35900  23077332.74300
        25.00000        20.00000
   1362058.28605   1061331.63505  24337862.37800  24337862.46000  24337865.46800
         7.00000         8.00000
  -1305284.67206  -1017108.09706  23861890.44400  23861890.02500  23861892.40200
        25.00000        18.00000
  -6675194.69707  -5201446.69006  23372841.79100  23372841.19800  23372844.35300
        35.00000        25.00000
  -3737613.30905  -2912425.03005  24775307.56200  24775307.30800  24775310.20200
         8.00000         4.00000
 -20936950.95308 -16314504.23908  20287360.57600  20287360.81500  20287361.31700
       311.00000       208.00000
  -4323779.54706  -3369177.53806  24194509.03000  24194508.97100  24194509.02000
        17.00000        17.00000
 -26932801.92108 -20986600.67608  20340194.04600  20340193.67100  20340192.80200
       250.00000       235.00000
  -1056194.28806   -823008.34405  24651190.16600  24651189.21100  24651191.97400
        18.00000         8.00000
 04  8 23  0 31 30.0000000  0 11G29G18G15G17G10G 9G 8G26G22G21G 3
 -15549290.45308 -12116328.84608  21319159.39400  21319159.41700  21319159.62200
       184.00000       124.00000
 -16140376.45208 -12576915.34207  21600379.44800  21600379.32300  21600378.61800
       198.00000        82.00000
  -9400377.79306  -7324968.44006  23057945.68300  23057945.19200  23057947.84200
        27.00000        23.00000
   1476851.88505   1150781.05705  24359706.48000  24359705.80200  24359709.84000
         6.00000         8.00000
  -1214141.73706   -946087.66606  23879235.51700  23879233.99600  23879236.36200
        23.00000        18.00000
  -6790085.13007  -5290971.62906  23350980.16900  23350979.48800  23350980.30000
        34.00000        19.00000
  -3659699.80905  -2851713.24205  24790132.98300  24790133.15800  24790136.19300
         9.00000         4.00000
 -20886225.32108 -16274977.78208  20297013.61700  20297013.75600  20297014.10100
       311.00000       208.00000
  -4413128.67406  -3438800.19306  24177506.32900  24177505.78200  24177505.67300
        20.00000        16.00000
 -26954844.16108 -21003776.45108  20335999.45400  20335999.22900  20335998.26300
       252.00000       234.00000
  -1093212.26706   -851853.51805  24644145.44900  24644145.10900  24644147.05200
        15.00000         7.00000
 04  8 23  0 32  0.0000000  0 11G29G18G15G17G10G 9G 8G26G22G21G 3
 -15485654.58508 -12066742.46508  21331269.21600  21331269.02900  21331269.11900
       184.00000       121.00000
 -16205443.09008 -12627616.60207  21587997.65900  21587997.36200  21587997.42800
       199.00000        85.00000
  -9501985.00606  -7404142.86006  23038609.77000  23038609.95000  23038611.80400
        27.00000        21.00000
   1591827.16205   1240372.04805  24381584.90000  24381584.98200  24381589.08800
         7.00000         9.00000
  -1122872.47906   -874968.83106  23896601.92300  23896601.26800  23896604.88800
        22.00000        19.00000
  -6904774.60006  -5380339.97706  23329154.76200  23329153.73800  23329156.10400
        26.00000        20.00000
  -3581341.52305  -2790654.82704  24805047.20500  24805045.10300  24805047.21300
         9.00000         3.00000
 -20834961.79508 -16235032.18508  20306769.21700  20306769.00000  20306769.12900
       314.00000       202.00000
  -4502375.11306  -3508342.84906  24160523.26300  24160523.77000  24160523.44500
        24.00000        18.00000
 -26976284.89808 -21020483.52108  20331919.70400  20331919.30200  20331918.30400
       257.00000       235.00000
  -1129677.94906   -880268.31605  24637207.66400  24637206.74200  24637208.77600
        12.00000         7.00000
 04  8 23  0 32 30.0000000  0 11G29G18G15G17G10G 9G 8G26G22G21G 3
 -15421717.30008 -12016921.20908  21343435.80500  21343435.62700  21343435.91400
       174.00000       117.00000
 -16270315.76708 -12678166.71707  21575652.98400  21575652.84200  21575652.21300
       203.00000        82.00000
  -9603389.12207  -7483159.03606  23019314.90900  23019314.38900  23019315.49600
        32.00000        21.00000
   1706919.55805   1330054.28305  24403487.51000  24403486.62300  24403490.30000
         7.00000         8.00000
  -1031540.04606   -803800.77806  23913983.03900  23913981.69300  23913985.16400
        24.00000        20.00000
  -7019322.19307  -5469597.78406  23307354.50100  23307355.41700  23307358.83400
        35.00000        25.00000
  -3502603.47505  -2729300.54305  24820029.82400  24820028.91400  24820031.30300
         7.00000         4.00000
 -20783225.23909 -16194717.98208  20316613.99400  20316614.12500  20316614.05600
       320.00000       191.00000
  -4591580.81806  -3577853.75206  24143547.43300  24143547.74400  24143548.23000
        23.00000        20.00000
 -26997185.08508 -21036769.38708  20327942.62900  20327942.09400  20327941.06300
       254.00000       232.00000
  -1165652.50705   -908300.46005  24630360.12300  24630359.75500  24630362.10400
         8.00000         5.00000
 04  8 23  0 33  0.0000000  0 11G29G18G15G17G10G 9G 8G26G22G21G 3
 -15357438.02508 -11966833.46908  21355667.72000  21355667.60300  21355667.94300
       173.00000       116.00000
 -16334951.27008 -12728532.03607  21563353.18400  21563352.93100  21563352.27300
       210.00000        79.00000
  -9704544.93906  -7561981.70706  23000064.40700  23000064.08500  23000066.52300
        30.00000        24.00000
   1822169.78205   1419859.53605  24425418.26400  24425417.75800  24425422.74000
         9.00000         7.00000
   -940102.35706   -732550.71306  23931382.66100  23931382.07200  23931384.23700
        23.00000        15.00000
  -7133682.01307  -5558709.26306  23285593.12300  23285593.23300  23285596.22500
        35.00000        24.00000
  -3423445.18905  -2667618.77305  24835091.46800  24835091.36100  24835094.32300
         5.00000         4.00000
 -20730975.11209 -16154003.60108  20326556.68900  20326557.03300  20326556.72100
       322.00000       187.00000
  -4680702.34206  -3647299.06306  24126589.69000  24126589.61700  24126588.55000
        27.00000        19.00000
 -27017501.01708 -21052599.99108  20324076.36000  20324076.05100  20324075.08200
       259.00000       232.00000
  -1201091.85905   -935915.56205  24623615.00600  24623615.11400  24623618.74000
         6.00000         4.00000
 04  8 23  0 33 30.0000000  0 10G29G18G15G17G10G 9G26G22G21G 3
 -15292856.24308 -11916509.98008  21367957.55200  21367957.23700  21367957.03700
       169.00000       110.00000
 -16399386.11708 -12778740.97107  21551091.96600  21551091.43700  21551090.50900
       212.00000        78.00000
  -9805487.50007  -7640638.19406  22980856.82500  22980856.23000  22980857.07400
        34.00000        21.00000
   1937538.13905   1509756.88605  24447371.93000  24447371.84900  24447375.36700
         8.00000         5.00000
   -848597.66606   -661248.41506  23948797.02500  23948794.76900  23948796.99000
        19.00000        14.00000
  -7247888.24807  -5647701.05506  23263862.10100  23263861.44300  23263863.31800
        33.00000        23.00000
 -20678251.53208 -16112920.27208  20336590.14900  20336589.99000  20336589.40100
       313.00000       182.00000
  -4769776.50906  -3716707.43206  24109638.70200  24109637.98600  24109637.41800
        21.00000        12.00000
 -27037268.81708 -21068003.45108  20320315.17100  20320314.49300  20320312.95100
       255.00000       223.00000
  -1236032.93905   -963142.34205  24616966.16900  24616965.66900  24616969.73000
         5.00000         5.00000
 04  8 23  0 34  0.0000000  0 10G29G18G15G17G10G 9G26G22G21G 3
 -15227954.85808 -11865937.48108  21380307.98800  21380307.64400  21380307.27300
       171.00000       110.00000
 -16463600.19408 -12828777.90407  21538871.88000  21538871.64400  21538870.92100
       208.00000        79.00000
  -9906195.11907  -7719111.63206  22961693.29200  22961692.65400  22961693.23800
        35.00000        21.00000
   2053041.62505   1599759.47305  24469351.79600  24469350.84500  24469355.82500
        10.00000         5.00000
   -757007.31506   -589879.37506  23966223.56000  23966223.06600  23966226.85500
        20.00000        16.00000
  -7361918.51107  -5736555.69006  23242163.47100  23242162.76500  23242163.40600
        40.00000        18.00000
 -20625037.76108 -16071455.00108  20346716.36300  20346716.21400  20346715.86600
       308.00000       185.00000
  -4858783.89506  -3786063.80206  24092701.01700  24092701.04000  24092699.54500
        20.00000        11.00000
 -27056468.52008 -21082964.26908  20316661.27200  20316660.84600  20316659.40400
       254.00000       223.00000
  -1270455.62105   -989965.20904  24610416.50900  24610415.41300  24610416.58200
         4.00000         3.00000
 04  8 23  0 34 30.0000000  0 11G29G18G15G17G10G 9G26G22G21G 3G 8
 -15162711.34408 -11815098.39308  21392723.53200  21392723.34200  21392722.86400
       177.00000       110.00000
 -16527568.13208 -12878623.03907  21526699.50900  21526699.00700  21526698.14700
       214.00000        79.00000
 -10006640.50607  -7797380.73506  22942578.69100  22942577.67600  22942579.44300
        32.00000        24.00000
   2168702.92805   1689885.02605  24491362.44700  24491361.32400  24491365.56200
         8.00000         4.00000
   -665307.66606   -518425.17806  23983674.25300  23983673.86000  23983676.74000
        24.00000        15.00000
  -7475744.85107  -5825251.49906  23220500.22200  23220500.18600  23220503.60900
        32.00000        21.00000
 -20571311.58108 -16029590.44708  20356939.83200  20356939.75700  20356939.87300
       305.00000       191.00000
  -4947698.99806  -3855348.26506  24075782.24200  24075781.69500  24075779.93700
        22.00000        13.00000
 -27075073.51908 -21097461.67208  20313120.81100  20313120.32700  20313118.99900
       253.00000       222.00000
  -1304334.28105  -1016364.16804  24603969.57200  24603968.72900  24603969.61200
         5.00000         2.00000
        -1.01014         -.26810  24880729.21400  24880728.99600  24880730.08100
         1.00000          .00000
 04  8 23  0 35  0.0000000  0 10G29G18G15G17G10G 9G26G22G21G 3
 -15097153.22908 -11764014.15708  21405199.05400  21405198.57300  21405198.01500
       178.00000       108.00000
 -16591314.43808 -12928295.48407  21514569.31400  21514568.70800  21514567.54200
       214.00000        80.00000
 -10106846.41607  -7875463.24006  22923510.26900  22923509.36900  22923510.84600
        34.00000        22.00000
   2284494.35505   1780111.98805  24513395.83400  24513395.28900  24513399.72400
         8.00000         5.00000
   -573524.80406   -446906.14206  24001141.40500  24001139.75000  24001142.60000
        20.00000        15.00000
  -7589389.41907  -5913805.58806  23198874.40400  23198874.80900  23198877.35300
        36.00000        23.00000
 -20517100.54608 -15987348.09608  20367255.71000  20367255.86300  20367255.79400
       309.00000       188.00000
  -5036546.69406  -3924580.17606  24058872.93800  24058873.31200  24058873.68200
        16.00000        14.00000
 -27093108.45708 -21111514.88008  20309689.03400  20309688.47800  20309687.12100
       252.00000       223.00000
  -1337693.33005  -1042358.21605  24597623.30000  24597622.63400  24597623.01300
        10.00000         4.00000
 04  8 23  0 35 30.0000000  0 10G29G18G15G17G10G 9G26G22G21G 3
 -15031296.82608 -11712697.48208  21417730.48700  21417730.39800  21417730.00800
       174.00000       107.00000
 -16654852.76608 -12977805.84807  21502477.79700  21502477.55400  21502476.70400
       215.00000        83.00000
 -10206824.51106  -7953368.22106  22904485.06100  22904484.11000  22904485.72800
        30.00000        23.00000
   2400399.65705   1870427.69305  24535451.93200  24535451.45300  24535455.91000
         8.00000         4.00000
   -481673.68506   -375333.89106  24018618.88300  24018618.39700  24018620.84600
        21.00000        14.00000
  -7702863.25307  -6002226.67106  23177282.85600  23177282.06700  23177284.04000
        36.00000        25.00000
 -20462421.68308 -15944741.19608  20377660.88000  20377660.96400  20377660.66700
       311.00000       181.00000
  -5125340.88206  -3993770.42006  24041978.61700  24041977.98300  24041975.72400
        21.00000        11.00000
 -27110586.13308 -21125133.85108  20306363.15200  20306362.58200  20306361.28000
       249.00000       224.00000
  -1370546.15305  -1067957.87005  24591370.66800  24591369.80900  24591370.97300
         9.00000         4.00000
 04  8 23  0 36  0.0000000  0 10G29G18G15G17G10G 9G26G22G21G 3
 -14965115.11608 -11661127.32708  21430324.57800  21430324.27000  21430324.14900
       170.00000       107.00000
 -16718152.72308 -13027130.47407  21490432.85900  21490432.29000  21490431.09600
       217.00000        81.00000
 -10306542.89806  -8031070.82706  22885508.12200  22885507.82500  22885509.62600
        30.00000        24.00000
   2516446.01305   1960853.30705  24557536.15200  24557534.91100  24557539.09500
         7.00000         5.00000
   -389725.33306   -303685.90706  24036115.58300  24036115.24400  24036118.74400
        22.00000        15.00000
  -7816133.90607  -6090489.39606  23155728.99500  23155728.29600  23155729.36700
        50.00000        25.00000
 -20407248.03608 -15901748.75208  20388160.43800  20388160.33200  20388159.77400
       306.00000       177.00000
  -5214051.61006  -4062895.64706  24025095.92300  24025095.43900  24025094.81400
        20.00000        11.00000
 -27127476.26008 -21138294.99408  20303149.05200  20303148.58700  20303147.00500
       248.00000       222.00000
  -1402862.62106  -1093139.54605  24585220.96100  24585220.26300  24585222.05900
        12.00000         6.00000
 04  8 23  0 36 30.0000000  0 11G29G18G15G17G10G 9G26G22G21G 3G 8
 -14898607.15408 -11609302.94608  21442980.70400  21442980.57200  21442980.06600
       174.00000       104.00000
 -16781210.50808 -13076266.39807  21478432.38600  21478432.46800  21478431.50600
       224.00000        79.00000
 -10405996.17906  -8108566.85506  22866583.25400  22866582.73900  22866584.13200
        29.00000        21.00000
   2632634.21305   2051389.43105  24579645.51400  24579644.88000  24579649.42400
         5.00000         4.00000
   -297677.79106   -231960.64506  24053632.89100  24053631.98500  24053634.37700
        19.00000        15.00000
  -7929195.01407  -6178588.85406  23134211.22400  23134211.25600  23134214.17100
        34.00000        23.00000
 -20351579.03508 -15858370.32208  20398753.92500  20398753.82900  20398753.14900
       307.00000       174.00000
  -5302675.50006  -4131953.19006  24008231.04700  24008231.02100  24008230.24500
        19.00000        12.00000
 -27143775.21208 -21150995.48008  20300047.49300  20300046.92100  20300045.44600
       250.00000       223.00000
  -1434638.83706  -1117900.26605  24579173.77200  24579172.89300  24579175.57800
        11.00000         5.00000
        -1.22915         -.54110  24942632.00100  24942631.03100  24942632.00800
         5.00000          .00000
 04  8 23  0 37  0.0000000  0 10G29G18G15G17G10G 9G26G22G21G 3
 -14831790.21308 -11557237.80508  21455695.23100  21455695.47500  21455694.81900
       177.00000       101.00000
 -16844040.53608 -13125224.84207  21466476.91000  21466476.48800  21466475.29800
       230.00000        80.00000
 -10505196.78707  -8185866.02506  22847706.04000  22847705.70100  22847706.94600
        35.00000        21.00000
   2748946.68104   2142022.40904  24601778.14400  24601777.85800  24601782.54900
         2.00000         2.00000
   -205546.64506   -160170.22206  24071164.85400  24071164.16900  24071166.40300
        22.00000        12.00000
  -8042058.70707  -6266534.46306  23112734.00100  23112734.39900  23112736.79900
        37.00000        22.00000
 -20295432.42108 -15814619.72508  20409437.65400  20409437.92300  20409437.66300
       300.00000       176.00000
  -5391226.99006  -4200954.32606  23991380.95800  23991380.66200  23991379.67100
        21.00000        12.00000
 -27159496.26108 -21163245.65308  20297055.73600  20297055.21800  20297053.84700
       250.00000       225.00000
  -1465889.27205  -1142251.27305  24573226.90700  24573226.26500  24573228.18200
        10.00000         4.00000
 04  8 23  0 37 30.0000000  0 10G29G18G15G17G10G 9G26G22G21G 3
 -14764674.86408 -11504940.13808  21468467.16100  21468467.08000  21468466.66400
       174.00000       104.00000
 -16906650.34308 -13174011.69107  21454562.65300  21454562.22100  21454560.95300
       236.00000        79.00000
 -10604150.50507  -8262972.79806  22828875.81300  22828875.43400  22828876.10700
        38.00000        19.00000
   2865373.21504   2232744.25104  24623934.15100  24623933.47600  24623937.23600
         3.00000         2.00000
   -113341.20906    -88321.81806  24088710.44200  24088709.80300  24088712.35100
        23.00000        14.00000
  -8154730.21907  -6354330.34806  23091294.05100  23091293.91800  23091295.50000
        38.00000        19.00000
 -20238819.01308 -15770505.40008  20420211.05000  20420211.13100  20420210.91300
       295.00000       179.00000
  -5479713.85106  -4269905.08305  23974543.16000  23974542.71700  23974540.68800
        27.00000        10.00000
 -27174647.16708 -21175051.56108  20294172.65900  20294172.21200  20294170.90100
       254.00000       229.00000
  -1496621.58806  -1166198.52304  24567379.49700  24567379.20400  24567380.82900
        12.00000         3.00000
 04  8 23  0 38  0.0000000  0 10G29G18G15G17G10G 9G26G22G21G 3
 -14697279.77608 -11452424.49408  21481292.22700  21481292.00000  21481291.85700
       171.00000       107.00000
 -16969055.56408 -13222639.12707  21442687.15600  21442686.72000  21442685.52500
       226.00000        80.00000
 -10702871.42007  -8339898.16506  22810089.94600  22810089.46800  22810090.83100
        40.00000        22.00000
   2981895.05805   2323540.37604  24646107.36100  24646106.02900  24646112.21900
         4.00000         3.00000
    -21078.85706    -16429.13606  24106268.29900  24106267.09200  24106269.48800
        17.00000        13.00000
  -8267222.67807  -6441986.70406  23069888.81100  23069888.08800  23069889.63400
        43.00000        25.00000
 -20181757.92208 -15726042.22008  20431070.03000  20431069.74100  20431069.48500
       295.00000       180.00000
  -5568152.10906  -4338818.00205  23957713.63400  23957713.56900  23957711.23600
        26.00000        10.00000
 -27189243.31808 -21186425.18708  20291395.12200  20291394.70600  20291393.17000
       252.00000       230.00000
  -1526851.61106  -1189754.38204  24561626.75700  24561626.34100  24561627.36800
        14.00000         3.00000
 04  8 23  0 38 30.0000000  0  9G29G18G15G17G10G 9G26G22G21
 -14629577.89008 -11399669.78708  21494175.52300  21494175.14700  21494175.02200
       166.00000       106.00000
 -17031226.02008 -13271083.63307  21430856.35700  21430856.25800  21430855.01100
       224.00000        82.00000
 -10801327.71507  -8416617.34006  22791354.05500  22791353.62100  22791355.38500
        42.00000        23.00000
   3098539.18205   2414431.78304  24668303.51700  24668303.93800  24668308.42300
         4.00000         2.00000
     71269.04806     55530.21806  24123841.07900  24123840.41700  24123842.27800
        22.00000        13.00000
  -8379503.43507  -6529478.06906  23048520.30700  23048520.09100  23048522.88300
        36.00000        25.00000
 -20124222.33508 -15681209.30408  20442018.49200  20442018.32500  20442018.10200
       295.00000       179.00000
  -5656511.79506  -4407669.67506  23940899.15700  23940899.11600  23940897.20900
        24.00000        13.00000
 -27203254.66908 -21197343.13108  20288728.61800  20288728.34800  20288727.00700
       252.00000       231.00000
 04  8 23  0 39  0.0000000  0  9G29G18G15G10G 9G26G22G21G 3
 -14561537.77508 -11346651.52108  21507122.89100  21507122.35900  21507122.41100
       156.00000       102.00000
 -17093127.35008 -13319318.41807  21419077.08600  21419076.71200  21419075.72700
       223.00000        86.00000
 -10899483.38307  -8493102.26006  22772675.80700  22772675.18500  22772676.39500
        36.00000        21.00000
    163735.09006    127581.61806  24141434.27100  24141435.23200  24141438.71900
        17.00000        13.00000
  -8491535.69407  -6616775.81906  23027201.52700  23027201.49300  23027203.51300
        46.00000        24.00000
 -20066181.33908 -15635982.56408  20453063.10500  20453063.03100  20453062.74400
       297.00000       173.00000
  -5744759.27006  -4476433.89706  23924107.71400  23924106.34900  23924104.60500
        18.00000        13.00000
 -27216646.34308 -21207778.20508  20286180.62000  20286180.08100  20286178.65500
       254.00000       234.00000
         -.54015         -.05414  24550432.19300  24550431.77500  24550432.69800
         9.00000         2.00000
 04  8 23  0 39 30.0000000  0  9G29G18G15G10G 9G26G22G21G 3
 -14493236.44708 -11293429.72107  21520119.92600  21520119.98400  21520119.75600
       164.00000       100.00000
 -17154834.16108 -13367401.63607  21407334.18400  21407334.12300  21407333.24500
       214.00000        88.00000
 -10997410.67807  -8569409.21106  22754040.46400  22754039.92000  22754040.99500
        35.00000        21.00000
    256243.83506    199666.27506  24159040.14400  24159039.45500  24159042.07500
        17.00000        12.00000
  -8603391.51307  -6703936.09106  23005916.10000  23005916.01900  23005917.86200
        44.00000        21.00000
 -20007712.43308 -15590422.38808  20464189.19300  20464189.29000  20464188.89500
       294.00000       167.00000
  -5832968.43006  -4545168.26206  23907321.04600  23907320.92900  23907319.00400
        28.00000        11.00000
 -27229492.61108 -21217788.28908  20283735.86200  20283735.31800  20283734.21800
       246.00000       236.00000
    -28639.64005    -22316.23204  24544981.84800  24544980.96700  24544982.56300
         7.00000         2.00000
 04  8 23  0 40  0.0000000  0  8G29G18G15G10G 9G26G22G21
 -14424615.26808 -11239958.68007  21533178.52300  21533178.27300  21533177.81100
       165.00000        95.00000
 -17216284.52208 -13415285.02107  21395641.01200  21395640.60700  21395639.71200
       219.00000        89.00000
 -11095046.08107  -8645488.71806  22735461.14300  22735460.52200  22735462.21100
        32.00000        21.00000
    348855.43006    271831.08306  24176663.77600  24176663.26700  24176665.49300
        20.00000        13.00000
  -8715006.73607  -6790908.90606  22984677.81400  22984677.12200  22984678.37900
        48.00000        22.00000
 -19948757.17308 -15544483.23708  20475408.02700  20475408.10700  20475407.72700
       292.00000       166.00000
  -5921078.29606  -4613825.29006  23890553.11300  23890553.21200  23890551.84000
        21.00000        11.00000
 -27241731.28308 -21227324.92508  20281406.95100  20281406.45200  20281405.16000
       245.00000       232.00000
 04  8 23  0 40 30.0000000  0  9G29G18G15G10G 9G26G22G21G 3
 -14355700.19908 -11186258.64007  21546292.49500  21546292.39300  21546291.77500
       163.00000        93.00000
 -17277501.26308 -13462986.37507  21383991.34600  21383991.27000  21383990.46900
       223.00000        88.00000
 -11192410.81607  -8721357.31906  22716933.83300  22716933.12400  22716934.04300
        35.00000        22.00000
    441545.38806    344056.95806  24194301.77600  24194301.00500  24194304.42700
        17.00000        12.00000
  -8826401.80407  -6877710.14906  22963478.66300  22963478.39800  22963481.09100
        45.00000        28.00000
 -19889341.95308 -15498185.67808  20486714.36400  20486714.50900  20486714.11700
       295.00000       166.00000
  -6009111.77006  -4682422.74506  23873800.76500  23873800.69500  23873799.27900
        20.00000        14.00000
 -27253385.45808 -21236406.10408  20279189.29400  20279188.82100  20279187.47700
       244.00000       233.00000
         -.73215         -.14314  24534392.80900  24534392.70400  24534395.06900
         5.00000         3.00000
 04  8 23  0 41  0.0000000  0  9G29G18G15G10G 9G26G22G21G 3
 -14286493.22308 -11132331.13907  21559461.86100  21559461.87300  21559461.62300
       158.00000        94.00000
 -17338483.55808 -13510505.03407  21372387.04600  21372386.59800  21372385.90400
       223.00000        87.00000
 -11289502.20707  -8797012.91806  22698456.58300  22698456.66900  22698458.08800
        36.00000        22.00000
    534312.92106    416343.28106  24211953.64000  24211953.58400  24211957.08300
        17.00000        12.00000
  -8937573.40307  -6964337.28106  22942324.01000  22942323.64600  22942325.00300
        51.00000        23.00000
 -19829469.36808 -15451531.72108  20498108.03900  20498108.04900  20498107.59300
       298.00000       166.00000
  -6097068.20006  -4750960.18805  23857062.08600  23857061.98900  23857060.92100
        20.00000        10.00000
 -27264454.12108 -21245031.04608  20277082.85400  20277082.39000  20277081.24500
       241.00000       234.00000
    -27024.14905    -21057.33305  24529250.18200  24529250.46800  24529253.47000
         8.00000         5.00000
 04  8 23  0 41 30.0000000  0  9G29G18G15G10G 9G26G22G21G 3
 -14216989.51508 -11078172.41907  21572688.18400  21572688.08600  21572687.83500
       156.00000        94.00000
 -17399223.78308 -13557835.08007  21360828.36800  21360828.30300  21360827.43700
       236.00000        89.00000
 -11386310.87307  -8872448.22606  22680036.28000  22680035.39000  22680036.44400
        44.00000        25.00000
    627164.08206    488694.77306  24229623.68700  24229623.26300  24229626.81600
        16.00000        15.00000
  -9048511.69707  -7050782.63106  22921211.80700  22921211.93700  22921213.30000
        46.00000        21.00000
 -19769134.97208 -15404517.91608  20509589.59600  20509589.38200  20509588.96600
       292.00000       166.00000
  -6184940.30506  -4819431.94306  23840343.01200  23840341.92400  23840340.16400
        22.00000        11.00000
 -27274929.53208 -21253193.70608  20275089.48100  20275089.11200  20275087.74000
       243.00000       233.00000
    -53509.03805    -41694.93705  24524210.56400  24524211.08000  24524212.98500
         9.00000         5.00000
 04  8 23  0 42  0.0000000  0 10G29G18G15G10G 9G26G22G21G 3G 8
 -14147216.94108 -11023804.19307  21585965.91700  21585965.52200  21585965.32100
       150.00000        97.00000
 -17459746.29608 -13604995.47007  21349311.34400  21349311.11500  21349310.45900
       231.00000        91.00000
 -11482859.66007  -8947681.01106  22661662.74700  22661662.24100  22661663.17200
        41.00000        23.00000
    720072.98206    561091.19606  24247303.60600  24247303.02900  24247306.88300
        16.00000        15.00000
  -9159238.67707  -7137063.30406  22900142.81700  22900141.96600  22900143.86100
        47.00000        28.00000
 -19708366.89608 -15357166.18008  20521153.45200  20521153.11300  20521152.77200
       286.00000       166.00000
  -6272752.96506  -4887857.37406  23823631.29100  23823631.37100  23823629.83100
        29.00000        13.00000
 -27284836.03408 -21260913.06408  20273204.28700  20273203.82500  20273202.71500
       241.00000       234.00000
    -79480.27606    -61932.25904  24519269.78100  24519269.83300  24519270.55900
        13.00000         3.00000
         -.06110          .11910  25118776.23000  25118776.66000  25118776.41900
          .00000        -1.00000
 04  8 23  0 42 30.0000000  0  9G29G18G15G10G 9G26G22G21G 3
 -14077138.11308 -10969197.32707  21599301.27900  21599301.00400  21599300.73400
       145.00000        96.00000
 -17520010.90308 -13651954.89707  21337843.78800  21337843.27400  21337842.33400
       235.00000        94.00000
 -11579106.59307  -9022678.60306  22643347.44900  22643346.94000  22643348.19700
        43.00000        22.00000
    813078.26606    633562.76006  24265000.89500  24265000.26300  24265004.60900
        14.00000        12.00000
  -9269711.59507  -7223145.99406  22879119.65000  22879119.80900  22879121.19700
        53.00000        27.00000
 -19647128.08908 -15309447.64208  20532806.05700  20532806.03600  20532805.94800
       273.00000       161.00000
  -6360466.27707  -4956205.37806  23806939.75000  23806939.81300  23806938.60500
        32.00000        13.00000
 -27294133.35408 -21268157.73708  20271435.37700  20271434.89200  20271433.40900
       245.00000       232.00000
   -104897.57706    -81738.01304  24514433.13100  24514433.08200  24514433.00100
        12.00000         3.00000
 04  8 23  0 43  0.0000000  0  9G29G18G15G10G 9G26G22G21G 3
 -14006770.97508 -10914365.82007  21612691.44300  21612691.29800  21612691.19700
       143.00000        95.00000
 -17580032.73308 -13698725.14907  21326422.11300  21326421.64700  21326420.80900
       235.00000        99.00000
 -11675064.90707  -9097451.29606  22625087.54100  22625087.07500  22625087.80500
        46.00000        23.00000
    906163.24306    706096.45906  24282716.97900  24282715.77200  24282718.88000
        18.00000        13.00000
  -9379943.16107  -7309040.65606  22858142.19500  22858142.49600  22858144.17000
        53.00000        23.00000
 -19585437.26308 -15261376.87908  20544545.04500  20544545.31100  20544545.35300
       268.00000       161.00000
  -6448095.42707  -5024487.81506  23790266.18600  23790265.59100  23790264.05200
        39.00000        17.00000
 -27302836.98108 -21274939.79208  20269778.89200  20269778.41200  20269777.20800
       245.00000       233.00000
   -129776.63105   -101124.31405  24509697.95800  24509697.27200  24509699.55300
         8.00000         4.00000
 04  8 23  0 43 30.0000000  0  9G29G18G15G10G 9G26G22G21G 3
 -13936127.66508 -10859319.10607  21626134.77100  21626134.53100  21626134.03700
       144.00000        92.00000
 -17639820.84908 -13745313.27607  21315044.70300  21315044.16400  21315043.50200
       227.00000       100.00000
 -11770741.84507  -9172004.72606  22606880.72500  22606880.41600  22606881.11700
        47.00000        23.00000
    999317.32406    778683.98706  24300441.23600  24300441.78900  24300444.86400
        13.00000        14.00000
  -9489939.94107  -7394752.37506  22837211.15300  22837211.04900  22837212.33400
        52.00000        23.00000
 -19523306.82808 -15212963.57308  20556368.81500  20556368.73300  20556368.36300
       275.00000       159.00000
  -6535649.45407  -5092711.69806  23773605.01100  23773604.48100  23773602.48900
        42.00000        16.00000
 -27310955.74408 -21281266.11008  20268233.87000  20268233.52400  20268232.27800
       246.00000       233.00000
   -154126.58405   -120098.31105  24505064.16000  24505063.93700  24505065.20300
         4.00000         4.00000
 04  8 23  0 44  0.0000000  0  9G29G18G15G10G 9G26G22G21G 3
 -13865232.85708 -10804076.41907  21639625.84300  21639625.29200  21639625.11900
       142.00000        93.00000
 -17699396.94908 -13791736.20108  21303707.99200  21303707.41900  21303706.39500
       233.00000       102.00000
 -11866157.41507  -9246354.50506  22588724.29500  22588723.61100  22588724.66100
        48.00000        28.00000
   1092517.14506    851307.11006  24318178.80600  24318177.73500  24318180.23700
        12.00000        11.00000
  -9599721.58607  -7480296.44006  22816321.01400  22816320.54700  22816321.99300
        49.00000        27.00000
 -19460762.03208 -15164227.38908  20568270.70400  20568270.73800  20568270.19500
       278.00000       157.00000
  -6623150.91707  -5160894.64206  23756953.48900  23756953.34500  23756951.81300
        38.00000        18.00000
 -27318511.67408 -21287153.85908  20266796.29000  20266795.84700  20266794.39700
       250.00000       234.00000
   -177969.60004   -138677.32604  24500526.67700  24500525.89100  24500527.67800
         3.00000         2.00000
 04  8 23  0 44 30.0000000  0  9G29G18G15G10G 9G26G22G21G 3
 -13794031.70908 -10748595.02507  21653174.72100  21653174.43500  21653174.21800
       146.00000        92.00000
 -17758703.16608 -13837948.82508  21292422.23500  21292421.67600  21292420.84700
       237.00000       103.00000
 -11961251.97707  -9320454.12406  22570627.78100  22570627.42800  22570628.58400
        50.00000        29.00000
   1185818.99006    924009.77306  24335932.41000  24335932.04100  24335935.24000
        15.00000        11.00000
  -9709227.72607  -7565625.84306  22795482.39300  22795482.10300  22795483.70000
        55.00000        30.00000
 -19397748.32308 -15115125.81208  20580261.64200  20580261.70300  20580261.55500
       273.00000       157.00000
  -6710541.90607  -5228991.48706  23740322.89500  23740322.95600  23740322.23500
        33.00000        18.00000
 -27325446.66908 -21292557.76208  20265476.59800  20265475.95900  20265474.78700
       243.00000       235.00000
   -201248.34405   -156816.63605  24496098.21000  24496098.21000  24496098.84200
         8.00000         4.00000
 04  8 23  0 45  0.0000000  0  9G29G15G10G18G 9G 3G26G22G21
 -13722562.66508 -10692904.88007  21666775.27900  21666774.98100  21666774.39000
       149.00000        90.00000
 -12056059.35207  -9394329.97807  22552587.14100  22552586.47900  22552587.24100
        50.00000        33.00000
   1279185.73006    996763.03205  24353698.90400  24353698.99200  24353702.42000
        14.00000        10.00000
 -17817774.90208 -13883978.73607  21281181.41800  21281180.74700  21281179.79300
       245.00000       100.00000
  -9818491.49607  -7650766.39206  22774688.78900  22774689.09300  22774691.80600
        49.00000        30.00000
   -223998.82805   -174544.28005  24491768.38800  24491768.42700  24491769.97500
         9.00000         4.00000
 -19334304.68108 -15065689.21608  20592334.54900  20592334.59500  20592334.45700
       268.00000       157.00000
  -6797858.27207  -5297030.15306  23723707.02000  23723706.89700  23723706.00700
        36.00000        19.00000
 -27331796.53208 -21297505.71208  20264268.46700  20264267.86800  20264266.35500
       247.00000       235.00000
 04  8 23  0 45 30.0000000  0  9G29G15G10G18G 9G 3G26G22G21
 -13650792.27308 -10636979.92007  21680432.49800  21680432.35400  21680431.90400
       144.00000        89.00000
 -12150541.21207  -9467952.17506  22534606.86800  22534606.66400  22534607.83400
        52.00000        30.00000
   1372652.49006   1069594.17605  24371487.41900  24371486.32900  24371488.32400
        13.00000        10.00000
 -17876575.73808 -13929797.56807  21269991.52000  21269991.44000  21269990.22900
       257.00000        98.00000
  -9927474.11807  -7735687.87506  22753950.79700  22753950.69100  22753952.85600
        50.00000        29.00000
   -246184.87706   -191832.11905  24487548.28000  24487547.28300  24487548.91800
        12.00000         6.00000
 -19270398.15008 -15015891.93408  20604495.92900  20604495.69000  20604495.64000
       263.00000       159.00000
  -6885063.71206  -5364982.44206  23707111.98600  23707111.96900  23707110.92800
        29.00000        17.00000
 -27337524.74008 -21301969.26308  20263178.38100  20263177.78500  20263176.29600
       245.00000       236.00000
 04  8 23  0 46  0.0000000  0  9G29G15G10G18G 9G 3G26G22G21
 -13578760.88308 -10580851.59207  21694139.65600  21694139.39300  21694138.89700
       140.00000        87.00000
 -12244733.34407  -9541348.61906  22516683.02600  22516682.28200  22516683.72000
        47.00000        28.00000
   1466180.09706   1142472.73205  24389285.31200  24389284.18200  24389286.15500
        16.00000        10.00000
 -17935143.46208 -13975434.74207  21258846.61500  21258846.16600  21258845.25800
       253.00000        99.00000
 -10036210.62707  -7820417.58206  22733260.10100  22733259.68500  22733260.23800
        58.00000        29.00000
   -267844.25606   -208709.55605  24483424.72600  24483425.27200  24483426.19900
        11.00000         6.00000
 -19206069.62408 -14965765.82808  20616736.68600  20616736.81400  20616736.91900
       268.00000       156.00000
  -6972196.16607  -5432877.81106  23690531.81500  23690531.44500  23690530.92000
        33.00000        24.00000
 -27342669.22208 -21305977.95908  20262199.14900  20262198.63300  20262197.46600
       239.00000       236.00000
 04  8 23  0 46 30.0000000  0  9G29G15G10G18G 9G 3G26G22G21
 -13506473.94608 -10524524.13207  21707895.27400  21707895.14700  21707894.56100
       141.00000        85.00000
 -12338636.47107  -9614519.87106  22498813.95700  22498813.16000  22498814.50200
        49.00000        29.00000
   1559764.63006   1215395.67605  24407092.69500  24407091.86500  24407094.74600
        14.00000         8.00000
 -17993480.25008 -14020891.97008  21247745.81800  21247745.24900  21247744.19700
       253.00000       101.00000
 -10144700.86707  -7904955.38906  22712614.48800  22712614.21400  22712615.39300
        58.00000        31.00000
   -288980.00605   -225179.00805  24479402.04500  24479401.21000  24479404.73800
         6.00000         6.00000
 -19141324.89308 -14915315.40308  20629057.18300  20629057.44600  20629057.33900
       273.00000       153.00000
  -7059257.93806  -5500718.10906  23673963.34400  23673963.55600  23673963.05100
        29.00000        22.00000
 -27347232.31808 -21309533.63308  20261331.05800  20261330.51400  20261328.94200
       243.00000       233.00000
 04  8 23  0 47  0.0000000  0  9G29G15G10G18G 9G 3G26G22G21
 -13433911.40608 -10467981.91407  21721703.10000  21721703.05200  21721702.85800
       139.00000        82.00000
 -12432225.88107  -9687446.65406  22481005.27900  22481004.11900  22481004.70000
        52.00000        27.00000
   1653427.31706   1288379.51305  24424916.60000  24424915.91300  24424917.73800
        14.00000         7.00000
 -18051563.44508 -14066151.59608  21236692.69600  21236692.12400  21236691.02300
       246.00000       101.00000
 -10252919.76107  -7989281.75707  22692019.18700  22692020.14800  22692022.34000
        57.00000        32.00000
   -309569.80705   -241223.02205  24475484.74300  24475485.13200  24475486.18500
         7.00000         6.00000
 -19076144.68908 -14864525.65608  20641461.08700  20641460.97500  20641460.84600
       276.00000       154.00000
  -7146226.80406  -5568486.04206  23657414.89100  23657414.64000  23657413.09300
        30.00000        20.00000
 -27351191.39208 -21312618.63708  20260577.74900  20260577.07800  20260575.72800
       240.00000       238.00000
 04  8 23  0 47 30.0000000  0  9G29G15G10G18G 9G 3G26G22G21
 -13361076.42008 -10411227.40207  21735563.06000  21735562.86300  21735563.06100
       135.00000        82.00000
 -12525499.47507  -9760127.34506  22463254.80000  22463254.30800  22463255.40600
        54.00000        27.00000
   1747166.62906   1361423.02005  24442755.58400  24442754.81800  24442755.97600
        15.00000         8.00000
 -18109392.61308 -14111213.26608  21225688.10100  21225687.73800  21225686.66300
       243.00000       106.00000
 -10360864.60307  -8073394.57507  22671480.14100  22671479.75600  22671480.85900
        64.00000        32.00000
   -329614.27305   -256842.05805  24471671.43600  24471670.60800  24471671.51600
         7.00000         6.00000
 -19010532.40208 -14813399.21708  20653947.02800  20653946.76800  20653946.38400
       276.00000       150.00000
  -7233102.64906  -5636181.43606  23640883.51300  23640882.96300  23640881.19400
        29.00000        21.00000
 -27354546.50208 -21315233.02008  20259939.24300  20259938.65900  20259937.34500
       241.00000       237.00000
 04  8 23  0 48  0.0000000  0  9G29G15G10G18G 9G 3G26G22G21
 -13287983.86508 -10354272.18607  21749472.41000  21749472.23000  21749472.05600
       138.00000        81.00000
 -12618467.66507  -9832570.08606  22445562.57500  22445562.46800  22445564.18200
        49.00000        27.00000
   1840968.97506   1434515.69505  24460605.53600  24460604.17800  24460606.04800
        15.00000         7.00000
 -18166979.78008 -14156086.36908  21214729.84600  21214729.28100  21214728.42300
       245.00000       111.00000
 -10468545.31007  -8157301.57307  22650989.48800  22650989.20000  22650990.37900
        68.00000        32.00000
   -349125.95505   -272045.98805  24467958.44500  24467957.86000  24467958.00800
         9.00000         4.00000
 -18944503.65008 -14761948.25908  20666511.89200  20666511.69800  20666511.07700
       276.00000       148.00000
  -7319897.66707  -5703813.89106  23624366.89200  23624366.37800  23624364.61200
        34.00000        21.00000
 -27357310.12408 -21317386.50708  20259413.08100  20259412.69700  20259411.29300
       243.00000       233.00000
 04  8 23  0 48 30.0000000  0  9G29G15G10G18G 9G 3G26G22G21
 -13214649.03008 -10297128.17707  21763427.10500  21763427.31000  21763427.11100
       137.00000        80.00000
 -12711141.22007  -9904783.23506  22427928.60000  22427928.18300  22427928.74300
        53.00000        23.00000
   1934820.25406   1507646.48805  24478464.61100  24478463.78100  24478466.49300
        14.00000         8.00000
 -18224337.33908 -14200780.55608  21203814.87100  21203814.41500  21203813.55200
       253.00000       112.00000
 -10575971.75307  -8241010.45206  22630545.57000  22630545.54400  22630547.33200
        63.00000        28.00000
   -368117.63506   -286844.72505  24464344.06600  24464343.90000  24464344.35200
        12.00000         4.00000
 -18878074.04108 -14710184.94208  20679152.75100  20679152.60200  20679152.22600
       267.00000       146.00000
  -7406624.85107  -5771393.45506  23607862.99600  23607863.07400  23607861.33400
        32.00000        25.00000
 -27359494.42208 -21319088.56208  20258997.70200  20258997.01900  20258995.80400
       240.00000       237.00000
 04  8 23  0 49  0.0000000  0  9G29G15G10G18G 9G 3G26G22G21
 -13141056.74608 -10239783.56907  21777432.34200  21777431.75400  21777431.58700
       133.00000        81.00000
 -12803500.05307  -9976751.14506  22410352.93600  22410352.34000  22410353.91700
        49.00000        26.00000
   2028737.54706   1580828.71005  24496336.47900  24496335.39800  24496337.57200
        13.00000         8.00000
 -18281447.23208 -14245281.76208  21192947.29100  21192946.90100  21192945.89900
       262.00000       112.00000
 -10683123.31207  -8324505.16906  22610155.36800  22610155.40100  22610156.22100
        66.00000        29.00000
   -386571.65905   -301224.49005  24460831.55600  24460831.75400  24460832.66100
        10.00000         4.00000
 -18811228.85208 -14658097.80008  20691872.75500  20691872.76400  20691872.54600
       263.00000       149.00000
  -7493265.80707  -5838905.84306  23591375.68300  23591375.81600  23591373.97300
        34.00000        23.00000
 -27361082.40308 -21320325.95708  20258695.31000  20258694.87100  20258693.61800
       242.00000       236.00000
 04  8 23  0 49 30.0000000  0  9G29G15G10G18G 9G 3G26G22G21
 -13067166.91708 -10182207.10707  21791492.75900  21791492.44000  21791492.13700
       131.00000        80.00000
 -12895499.30107 -10048438.85406  22392845.42300  22392845.23600  22392846.32400
        51.00000        27.00000
   2122762.12506   1654094.52205  24514229.07300  24514227.98100  24514229.10900
        15.00000         7.00000
 -18338266.13808 -14289556.22308  21182134.62700  21182134.51200  21182133.62000
       261.00000       114.00000
 -10789954.69707  -8407750.32707  22589826.64400  22589825.96700  22589827.97700
        60.00000        35.00000
   -404445.92405   -315152.48805  24457429.81900  24457429.88300  24457431.51700
         7.00000         5.00000
 -18743928.83108 -14605656.23808  20704679.71800  20704679.55100  20704679.47000
       262.00000       147.00000
  -7579778.14506  -5906318.01506  23574912.85300  23574912.51700  23574910.83200
        29.00000        20.00000
 -27362030.91208 -21321065.06108  20258515.08000  20258514.39300  20258513.02000
       237.00000       235.00000
 04  8 23  0 50  0.0000000  0  9G29G15G10G18G 9G 3G26G22G21
 -12993037.81408 -10124444.19607  21805598.83300  21805598.54000  21805598.42300
       126.00000        78.00000
 -12987192.34807 -10119887.97306  22375397.23200  22375396.90900  22375397.67400
        54.00000        26.00000
   2216837.14306   1727399.68405  24532129.97200  24532129.48500  24532131.61100
        14.00000         6.00000
 -18394849.42708 -14333647.08508  21171367.70900  21171367.17300  21171366.11600
       258.00000       112.00000
 -10896518.82907  -8490787.26806  22569549.43600  22569548.94000  22569548.68300
        77.00000        29.00000
   -421796.11605   -328672.11605  24454128.21500  24454127.33500  24454130.07400
         6.00000         4.00000
 -18676232.31808 -14552905.72808  20717561.96100  20717561.70500  20717561.59400
       256.00000       143.00000
  -7666217.08307  -5973672.99706  23558463.62600  23558463.16300  23558462.16400
        32.00000        21.00000
 -27362394.77008 -21321348.60208  20258445.48600  20258445.10700  20258443.77900
       240.00000       238.00000
 04  8 23  0 50 30.0000000  0  9G29G15G10G18G 9G 3G26G22G21
 -12918647.10108 -10066477.43507  21819754.49500  21819754.56900  21819754.49300
       128.00000        78.00000
 -13078552.37507 -10191077.58807  22358013.28900  22358012.25000  22358013.22300
        55.00000        33.00000
   2310986.24306   1800762.58005  24550046.54500  24550046.05400  24550048.67400
        14.00000         8.00000
 -18451171.88808 -14377534.71308  21160649.96700  21160649.30200  21160648.35700
       251.00000       112.00000
 -11002788.07507  -8573594.45507  22549325.27200  22549325.34400  22549326.98400
        71.00000        32.00000
   -438597.83606   -341764.39205  24450930.80100  24450931.37500  24450933.75600
        11.00000         4.00000
 -18608117.98708 -14499829.64308  20730523.62400  20730523.56700  20730523.27600
       261.00000       142.00000
  -7752557.75706  -6040951.43706  23542032.69300  23542032.43000  23542031.98900
        29.00000        20.00000
 -27362150.17908 -21321158.01808  20258492.22100  20258491.61300  20258490.57500
       237.00000       243.00000
 04  8 23  0 51  0.0000000  0  9G29G15G10G18G 9G 3G26G22G21
 -12843999.14208 -10008310.22107  21833960.32400  21833959.79800  21833959.45500
       128.00000        77.00000
 -13169579.00507 -10262007.41306  22340690.46500  22340689.84400  22340690.84100
        53.00000        28.00000
   2405206.39006   1874180.76305  24567975.73900  24567975.05900  24567978.42600
        12.00000         9.00000
 -18507234.92508 -14421220.18408  21149981.25900  21149980.71700  21149979.85000
       248.00000       114.00000
 -11108761.44207  -8656171.06407  22529159.37800  22529159.04100  22529160.55400
        70.00000        32.00000
   -454853.06406   -354430.86605  24447838.58800  24447837.92700  24447839.31600
        12.00000         4.00000
 -18539590.61808 -14446431.71108  20743564.20400  20743563.95900  20743563.66500
       260.00000       146.00000
  -7838801.80407  -6108154.55706  23525621.93200  23525621.56500  23525619.83000
        34.00000        17.00000
 -27361298.43908 -21320494.34008  20258654.16300  20258653.69600  20258652.43900
       237.00000       240.00000
 04  8 23  0 51 30.0000000  0  9G29G15G10G18G 9G 3G26G22G21
 -12769104.00108  -9949950.39207  21848211.86500  21848211.93100  21848211.43700
       124.00000        75.00000
 -13260277.41207 -10332681.48206  22323431.03600  22323430.82100  22323431.76100
        56.00000        29.00000
   2499489.13206   1947647.72305  24585917.63400  24585916.83600  24585920.30700
        13.00000         8.00000
 -18563045.59808 -14464709.01508  21139360.66700  21139360.35100  21139359.34400
       253.00000       114.00000
 -11214443.61607  -8738520.76907  22509049.74400  22509049.19600  22509049.42700
        70.00000        33.00000
   -470569.68506   -366677.62105  24444847.79700  24444847.60800  24444849.65100
        15.00000         4.00000
 -18470660.72408 -14392720.12508  20756680.47200  20756680.82300  20756680.66900
       255.00000       145.00000
  -7924956.37007  -6175287.94506  23509228.34300  23509227.80500  23509225.69800
        42.00000        17.00000
 -27359846.49008 -21319362.95608  20258930.65200  20258930.13800  20258928.92900
       238.00000       243.00000
 04  8 23  0 52  0.0000000  0  9G29G15G10G18G 9G 3G26G22G21
 -12693948.68708  -9891387.83807  21862513.32400  21862513.41600  21862513.43400
       120.00000        75.00000
 -13350629.87407 -10403085.96806  22306238.17700  22306237.22300  22306238.31800
        53.00000        30.00000
   2593848.60906   2021174.50505  24603872.70000  24603872.63400  24603875.46500
        15.00000         7.00000
 -18618588.13808 -14507988.90808  21128791.29500  21128790.86400  21128790.03100
       253.00000       116.00000
 -11319816.31507  -8820629.31207  22488998.66100  22488997.99300  22488997.98200
        80.00000        33.00000
   -485732.45506   -378492.78905  24441962.63200  24441961.99600  24441964.21800
        12.00000         5.00000
 -18401315.86708 -14338685.18708  20769876.54500  20769876.71200  20769876.46600
       256.00000       142.00000
  -8011005.97607  -6242339.56606  23492853.22500  23492853.28400  23492850.65600
        48.00000        17.00000
 -27357780.11308 -21317752.80308  20259323.77600  20259323.21200  20259322.14100
       231.00000       245.00000
 04  8 23  0 52 30.0000000  0  9G29G15G10G18G 9G 3G26G22G21
 -12618565.89708  -9832648.03707  21876858.46500  21876858.31200  21876858.25100
       118.00000        75.00000
 -13440664.75907 -10473243.00206  22289104.12400  22289103.78800  22289105.01700
        59.00000        29.00000
   2688253.44206   2094736.63605  24621839.55100  24621838.49300  24621840.19900
        14.00000         7.00000
 -18673892.10708 -14551082.91008  21118267.46200  21118266.98200  21118265.99800
       264.00000       117.00000
 -11424906.77507  -8902517.96007  22468998.52900  22468998.61700  22469000.41400
        79.00000        36.00000
   -500371.98806   -389900.21805  24439176.55700  24439176.54800  24439176.30700
        12.00000         5.00000
 -18331589.53208 -14284352.99408  20783145.08700  20783145.18200  20783145.20200
       254.00000       144.00000
  -8096980.44807  -6309332.60606  23476492.84500  23476492.57400  23476490.16000
        46.00000        17.00000
 -27355128.89808 -21315686.93208  20259828.34700  20259827.80600  20259826.52400
       236.00000       240.00000
 04  8 23  0 53  0.0000000  0  9G29G15G10G18G 9G 3G26G22G21
 -12542952.87208  -9773728.81807  21891246.94400  21891246.91700  21891246.85700
       118.00000        73.00000
 -13530374.17407 -10543146.43107  22272033.47900  22272032.75400  22272034.25900
        62.00000        32.00000
   2782707.87105   2168337.39305  24639811.96800  24639811.55000  24639815.09100
         9.00000         8.00000
 -18728951.60808 -14593986.41708  21107789.78100  21107789.49000  21107788.53300
       262.00000       119.00000
 -11529707.04707  -8984180.47107  22449056.40000  22449055.96500  22449057.50900
        77.00000        36.00000
   -514483.07205   -400895.90705  24436490.18100  24436490.61600  24436492.95900
        10.00000         4.00000
 -18261479.19508 -14229721.58708  20796486.43400  20796486.75000  20796486.74300
       252.00000       143.00000
  -8182874.25307  -6376262.82906  23460147.23700  23460147.22200  23460145.89300
        48.00000        19.00000
 -27351887.71508 -21313161.35108  20260445.03800  20260444.60600  20260443.31500
       238.00000       240.00000
 04  8 23  0 53 30.0000000  0  9G29G15G10G18G 9G 3G26G22G21
 -12467062.51108  -9714593.49607  21905688.35300  21905688.40600  21905688.47900
       116.00000        72.00000
 -13619706.42707 -10612755.95107  22255033.93300  22255033.65000  22255034.19600
        70.00000        32.00000
   2877260.51705   2242014.62705  24657805.89300  24657804.63800  24657807.31500
        10.00000         8.00000
 -18783716.52008 -14636660.37108  21097368.32700  21097367.95200  21097367.14300
       255.00000       123.00000
 -11634164.75707  -9065576.03807  22429179.98500  22429179.18800  22429179.37100
        80.00000        36.00000
   -528016.80905   -411441.67105  24433915.54700  24433915.10000  24433916.91700
         7.00000         5.00000
 -18190938.36308 -14174754.72008  20809910.59800  20809910.48700  20809910.23900
       255.00000       139.00000
  -8268637.76707  -6443091.50906  23443826.66700  23443826.25700  23443825.84700
        39.00000        24.00000
 -27348006.68108 -21310137.18008  20261183.46400  20261183.02400  20261181.96400
       237.00000       242.00000
 04  8 23  0 54  0.0000000  0  9G29G15G10G18G 9G 3G26G22G21
 -12390944.52708  -9655280.81007  21920174.04400  21920173.65100  21920173.21000
       120.00000        71.00000
 -13708706.51307 -10682106.63507  22238098.07700  22238097.45600  22238098.20900
        72.00000        34.00000
   2971862.68406   2315730.51405  24675806.13200  24675806.07100  24675809.38100
        13.00000         7.00000
 -18838233.82508 -14679141.38308  21086993.86400  21086993.65600  21086992.90900
       253.00000       126.00000
 -11738324.29107  -9146739.27507  22409357.69300  22409357.43800  22409358.23900
        83.00000        34.00000
   -541020.83005   -421574.71905  24431440.11000  24431441.16100  24431442.50500
         6.00000         5.00000
 -18120017.55608 -14119491.76908  20823405.91000  20823406.09100  20823405.90300
       251.00000       134.00000
  -8354317.85407  -6509855.16906  23427520.54900  23427521.60700  23427521.12300
        39.00000        21.00000
 -27343533.30808 -21306651.45408  20262034.80100  20262034.40100  20262033.13500
       243.00000       239.00000
 04  8 23  0 54 30.0000000  0  9G29G15G10G18G 9G 3G26G22G21
 -12314580.59308  -9595776.46807  21934705.52500  21934705.27200  21934704.83600
       121.00000        70.00000
 -13797351.48907 -10751180.62307  22221229.28900  22221228.82800  22221230.15900
        74.00000        39.00000
   3066534.14705   2389500.41805  24693822.92700  24693821.37300  24693825.91000
         8.00000         6.00000
 -18892482.30708 -14721412.92608  21076670.84300  21076670.38000  21076669.83400
       243.00000       130.00000
 -11842162.35607  -9227652.03307  22389597.53200  22389597.48000  22389598.20200
        84.00000        35.00000
   -553474.94305   -431279.21105  24429070.34600  24429070.42500  24429073.96300
         7.00000         7.00000
 -18048699.01508 -14063918.89808  20836977.71000  20836977.57200  20836977.46300
       248.00000       134.00000
  -8439893.40807  -6576537.38806  23411237.00800  23411237.29600  23411236.44500
        40.00000        20.00000
 -27338446.87208 -21302688.01408  20263002.74900  20263002.34000  20263001.16200
       248.00000       239.00000
 04  8 23  0 55  0.0000000  0  9G29G15G10G18G 9G 3G26G22G21
 -12237982.51908  -9536089.68507  21949281.59600  21949281.29600  21949280.93100
       117.00000        69.00000
 -13885648.31107 -10819983.31407  22204427.03400  22204426.41200  22204427.61300
        69.00000        39.00000
   3161264.70705   2463316.33105  24711847.60200  24711847.88100  24711852.28200
         6.00000         7.00000
 -18946470.86908 -14763481.92608  21066396.88700  21066396.71200  21066396.01200
       244.00000       129.00000
 -11945685.22007  -9308319.14707  22369898.70800  22369898.31700  22369899.04800
        83.00000        38.00000
   -565388.62506   -440562.59605  24426803.72100  24426804.62800  24426805.04500
        12.00000         4.00000
 -17976995.13608 -14008045.76208  20850622.27300  20850622.32800  20850622.26600
       248.00000       134.00000
  -8525373.60807  -6643145.29306  23394971.90200  23394971.61300  23394970.42600
        44.00000        21.00000
 -27332757.11108 -21298254.44708  20264085.69700  20264085.17900  20264083.88000
       254.00000       238.00000
 04  8 23  0 55 30.0000000  0  9G29G15G10G18G 9G 3G26G22G21
 -12161134.86308  -9476208.42407  21963905.05900  21963904.91200  21963904.37000
       115.00000        67.00000
 -13973576.96507 -10888499.11207  22187695.40700  22187694.60300  22187695.41700
        69.00000        38.00000
   3256070.89805   2537191.15005  24729890.72200  24729889.30900  24729894.26400
         6.00000         9.00000
 -19000180.72008 -14805333.75608  21056176.12900  21056175.83900  21056175.31000
       239.00000       129.00000
 -12048872.27207  -9388724.58207  22350262.50300  22350262.47300  22350263.57500
        83.00000        40.00000
   -576744.55005   -449411.37505  24424644.16700  24424643.13500  24424644.48700
         9.00000         4.00000
 -17904890.96108 -13951860.70608  20864343.08700  20864343.22900  20864343.25100
       242.00000       133.00000
  -8610740.19107  -6709664.69406  23378726.69400  23378726.09400  23378724.97700
        38.00000        18.00000
 -27326446.01908 -21293336.72508  20265286.68800  20265286.19200  20265284.87900
       259.00000       237.00000
 04  8 23  0 56  0.0000000  0  9G29G15G10G18G 9G 3G26G22G21
 -12084040.07808  -9416134.58807  21978575.64000  21978575.55800  21978575.18100
       116.00000        66.00000
 -14061135.30607 -10956726.36407  22171033.34500  22171032.55800  22171033.44700
        67.00000        38.00000
   3350951.49905   2611124.00505  24747946.15300  24747944.59900  24747948.23000
        10.00000         8.00000
 -19053611.53908 -14846968.15608  21046009.03200  21046008.47900  21046007.87900
       245.00000       130.00000
 -12151720.61207  -9468866.08107  22330689.50500  22330690.14000  22330691.32100
        83.00000        37.00000
   -587542.97705   -457825.74505  24422588.30100  24422587.87900  24422589.90100
         9.00000         5.00000
 -17832389.54708 -13895366.11208  20878139.85100  20878139.77900  20878139.78700
       228.00000       131.00000
  -8695993.04107  -6776095.42806  23362503.86500  23362503.50000  23362502.23600
        40.00000        23.00000
 -27319513.59508 -21287934.85508  20266605.64200  20266605.21200  20266604.01700
       259.00000       235.00000
 04  8 23  0 56 30.0000000  0  9G29G15G10G18G 9G 3G26G22G21
 -12006732.22308  -9355894.72307  21993286.64400  21993286.67800  21993286.48000
       115.00000        65.00000
 -14148352.56307 -11024687.83507  22154435.88400  22154435.24000  22154436.92100
        64.00000        39.00000
   3445874.11705   2685089.60405  24766007.67400  24766008.07300  24766012.46900
        10.00000        10.00000
 -19106794.20108 -14888409.19108  21035888.94600  21035888.42700  21035887.55100
       253.00000       131.00000
 -12254258.90507  -9548766.01607  22311178.31400  22311178.35200  22311178.70100
        93.00000        37.00000
   -597815.98805   -465830.71005  24420632.05900  24420632.54900  24420635.25000
         7.00000         5.00000
 -17759525.42808 -13838588.89808  20892005.59100  20892005.52800  20892005.40400
       232.00000       131.00000
  -8781163.19207  -6842461.73306  23346296.07600  23346296.04100  23346294.16300
        36.00000        20.00000
 -27311991.67908 -21282073.63908  20268037.28800  20268036.80100  20268035.65600
       259.00000       241.00000
 04  8 23  0 57  0.0000000  0  9G29G15G10G18G 9G 3G26G22G21
 -11929232.79608  -9295505.58807  22008034.37000  22008034.26000  22008034.09600
       114.00000        64.00000
 -14235245.71207 -11092396.77007  22137900.36400  22137899.84800  22137901.32500
        65.00000        39.00000
   3540818.43806   2759072.13305  24784076.51700  24784075.74000  24784079.02700
        11.00000         8.00000
 -19159747.50708 -14929671.51008  21025812.02600  21025811.56700  21025810.70900
       257.00000       130.00000
 -12356503.58407  -9628437.13407  22291722.19400  22291721.61800  22291722.85900
        85.00000        44.00000
   -607583.25505   -473441.58305  24418775.63000  24418774.85300  24418775.81100
         9.00000         4.00000
 -17686320.96208 -13781546.46908  20905935.87400  20905936.06000  20905935.85100
       237.00000       130.00000
  -8866269.74007  -6908778.50006  23330100.66800  23330100.35400  23330099.31800
        38.00000        23.00000
 -27303899.78408 -21275768.28408  20269576.81800  20269576.44900  20269575.30900
       253.00000       239.00000
 04  8 23  0 57 30.0000000  0  9G29G15G10G18G 9G 3G26G22G21
 -11851510.12008  -9234942.48807  22022824.62400  22022824.49100  22022824.20200
       109.00000        62.00000
 -14321778.24707 -11159824.68607  22121433.77200  22121433.59700  22121434.38800
        71.00000        39.00000
   3635817.45806   2833097.22005  24802155.06800  24802154.21500  24802157.22400
        11.00000         9.00000
 -19212436.81408 -14970728.11008  21015785.55800  21015785.13500  21015784.29000
       256.00000       132.00000
 -12458417.74307  -9707850.70207  22272327.68000  22272327.89500  22272328.92100
        92.00000        43.00000
   -616811.28505   -480632.25905  24417019.43100  24417018.73000  24417020.76600
         9.00000         7.00000
 -17612744.96908 -13724214.54908  20919936.99100  20919937.00500  20919936.72100
       228.00000       125.00000
  -8951278.10807  -6975018.73106  23313924.51700  23313924.35300  23313922.61900
        50.00000        24.00000
 -27295203.70708 -21268992.13308  20271231.78800  20271231.43400  20271230.20300
       252.00000       239.00000
 04  8 23  0 58  0.0000000  0  9G29G15G10G18G 9G 3G26G22G21
 -11773523.33108  -9174173.58007  22037664.98200  22037664.74100  22037664.80500
       106.00000        64.00000
 -14407904.46107 -11226936.00407  22105045.23900  22105044.48000  22105045.23100
        75.00000        37.00000
   3730913.54806   2907198.01005  24820249.14700  24820249.24900  24820253.17800
        11.00000         5.00000
 -19264818.33908 -15011544.87908  21005817.36600  21005817.03500  21005816.48200
       248.00000       134.00000
 -12559955.31107  -9786970.86207  22253006.27800  22253006.03600  22253006.58500
        96.00000        40.00000
   -625457.24905   -487369.41005  24415374.11200  24415373.29600  24415374.70500
         8.00000         5.00000
 -17538757.17108 -13666561.74208  20934016.52500  20934016.54800  20934016.20800
       232.00000       123.00000
  -9036144.73707  -7041148.54806  23297774.76600  23297774.99600  23297773.61500
        52.00000        26.00000
 -27285860.47108 -21261711.70908  20273009.65000  20273009.18500  20273008.18500
       252.00000       237.00000
 04  8 23  0 58 30.0000000  0  9G29G15G10G18G 9G 3G26G22G21
 -11695322.29508  -9113237.73307  22052546.16200  22052545.92500  22052546.09800
       105.00000        64.00000
 -14493669.57707 -11293765.94307  22088724.43200  22088724.16700  22088724.71300
        78.00000        38.00000
   3826058.32105   2981336.72105  24838357.85200  24838356.51300  24838358.01600
        10.00000         5.00000
 -19316939.11308 -15052158.46308  20995899.01900  20995898.83700  20995898.21200
       248.00000       134.00000
 -12661160.83007  -9865832.26707  22233747.96700  22233747.67400  22233747.81200
        94.00000        40.00000
   -633569.07205   -493690.32305  24413829.53800  24413829.73800  24413831.88600
         9.00000         6.00000
 -17464408.15708 -13608627.46208  20948164.31000  20948164.46400  20948164.27100
       223.00000       121.00000
  -9120916.58207  -7107204.47706  23281642.73000  23281642.82900  23281641.83800
        44.00000        27.00000
 -27275917.76808 -21253964.15708  20274901.68600  20274901.31000  20274900.22200
       253.00000       237.00000
 04  8 23  0 59  0.0000000  0  9G29G15G10G18G 9G 3G26G22G21
 -11616889.16008  -9052121.02907  22067471.61700  22067471.58900  22067471.10200
       104.00000        64.00000
 -14579051.24607 -11360297.09807  22072477.17000  22072476.32200  22072477.03400
        77.00000        38.00000
   3921270.41006   3055527.86805  24856474.26800  24856473.86400  24856476.40300
        13.00000         6.00000
 -19368778.37208 -15092552.68208  20986034.56100  20986034.22000  20986033.43500
       245.00000       132.00000
 -12762011.43207  -9944417.11207  22214555.70600  22214555.59100  22214556.25200
        88.00000        40.00000
   -641127.14106   -499579.74805  24412392.78600  24412392.05700  24412393.53300
        11.00000         6.00000
 -17389680.55808 -13550398.18208  20962384.30900  20962384.46700  20962384.55600
       215.00000       121.00000
  -9205573.35007  -7173170.75006  23265532.96900  23265533.30500  23265531.86300
        44.00000        26.00000
 -27265356.08808 -21245734.29508  20276911.76700  20276911.32000  20276910.05400
       260.00000       234.00000
 04  8 23  0 59 30.0000000  0  9G29G15G10G18G 9G 3G26G22G21
 -11538236.94208  -8990833.62107  22082438.90800  22082438.83200  22082438.01200
       106.00000        62.00000
 -14664057.70907 -11426535.88407  22056300.82200  22056300.25200  22056301.05700
        77.00000        42.00000
   4016538.28706   3129762.48005  24874603.35900  24874603.21200  24874604.54800
        11.00000         4.00000
 -19420345.82608 -15132735.10008  20976221.47500  20976221.30000  20976220.29700
       252.00000       131.00000
 -12862514.57807 -10022731.22307  22195430.94000  22195430.55600  22195431.97400
        92.00000        47.00000
   -648142.80805   -505046.54405  24411056.98500  24411056.50400  24411058.30700
         8.00000         4.00000
 -17314588.07408 -13491884.57108  20976674.63900  20976674.45900  20976674.29800
       221.00000       121.00000
  -9290125.18307  -7239055.25506  23249443.89500  23249443.86200  23249442.37800
        48.00000        28.00000
 -27254186.12708 -21237030.44708  20279036.94900  20279036.73100  20279035.56500
       259.00000       233.00000
 04  8 23  1  0  0.0000000  0  9G26G29G15G10G18G 9G 3G22G21
 -17239158.30308 -13433108.14608  20991028.70800  20991028.44000  20991028.15400
       226.00000       122.00000
 -11459392.70208  -8929396.58307  22097442.43900  22097442.24200  22097441.60900
       103.00000        63.00000
 -14748711.25907 -11492499.66607  22040191.89600  22040191.10300  22040191.83100
        77.00000        42.00000
   4111836.40005   3204020.67805  24892736.05000  24892736.67400  24892739.21900
         6.00000         4.00000
 -19471665.63908 -15172724.55808  20966456.33400  20966455.72400  20966454.58600
       257.00000       130.00000
 -12962692.21107 -10100791.69007  22176368.13600  22176367.56900  22176368.17800
        86.00000        45.00000
   -654641.33005   -510110.34105  24409819.84700  24409819.65200  24409821.41700
         8.00000         4.00000
  -9374596.46207  -7304877.02206  23233368.44400  23233368.80900  23233368.09300
        48.00000        29.00000
 -27242432.81308 -21227872.04108  20281273.92200  20281273.49900  20281272.18400
       262.00000       231.00000
 04  8 23  1  0 30.0000000  0  9G26G29G15G10G18G 9G 3G22G21
 -17163350.03808 -13374036.78608  21005454.04400  21005454.06000  21005453.96600
       224.00000       120.00000
 -11380314.32007  -8867777.09407  22112490.54200  22112490.10600  22112490.15900
        97.00000        62.00000
 -14832965.36307 -11558152.19507  22024158.95100  22024158.11200  22024159.12900
        79.00000        45.00000
   4207208.04105   3278336.16305  24910887.44100  24910885.69000  24910888.72900
         6.00000         4.00000
 -19522692.84508 -15212486.01008  20956745.94300  20956745.46500  20956744.41700
       267.00000       134.00000
 -13062497.35207 -10178561.89007  22157375.32400  22157375.22000  22157376.18700
        94.00000        47.00000
   -660578.81105   -514736.96304  24408689.82800  24408688.40600  24408690.58500
         6.00000         2.00000
  -9458942.64007  -7370601.26206  23217317.56800  23217318.16900  23217317.16700
        48.00000        27.00000
 -27230051.84708 -21218224.55208  20283629.91000  20283629.47700  20283628.18400
       264.00000       228.00000
 04  8 23  1  1  0.0000000  0  9G26G29G15G10G18G 9G 3G22G21
 -17087187.26108 -13314689.18708  21019947.31200  21019947.27900  21019947.43700
       219.00000       121.00000
 -11301025.34407  -8805993.50107  22127578.23800  22127578.04000  22127578.31400
        94.00000        59.00000
 -14916838.84807 -11623508.13507  22008197.41600  22008197.42000  22008198.34400
        82.00000        44.00000
   4302630.93105   3352691.61005  24929045.34200  24929044.75200  24929047.01000
         8.00000         4.00000
 -19573448.22308 -15252035.64208  20947086.92400  20947086.95400  20947085.96900
       268.00000       136.00000
 -13161948.20807 -10256056.05007  22138450.05100  22138449.87900  22138451.31200
        95.00000        47.00000
   -665977.03806   -518943.40204  24407663.69600  24407663.02700  24407663.76500
        12.00000         3.00000
  -9543183.98207  -7436243.83706  23201289.03400  23201288.71000  23201286.41000
        54.00000        26.00000
 -27217064.91108 -21208104.87708  20286101.25700  20286100.78000  20286099.58800
       264.00000       228.00000
 04  8 23  1  1 30.0000000  0  9G26G29G15G10G18G 9G 3G22G21
 -17010664.08108 -13255060.75108  21034509.23900  21034509.11200  21034509.21000
       219.00000       116.00000
 -11221519.22607  -8744040.70307  22142708.05600  22142707.99800  22142707.90100
        96.00000        58.00000
 -15000320.62907 -11688558.84207  21992311.99900  21992311.27000  21992311.90000
        79.00000        41.00000
   4398113.07205   3427093.17105  24947215.49900  24947214.74700  24947216.94500
         6.00000         5.00000
 -19623922.08308 -15291365.91208  20937482.38900  20937482.19200  20937481.10100
       267.00000       137.00000
 -13261033.27907 -10333265.18107  22119594.68700  22119594.73900  22119596.33300
        96.00000        47.00000
   -670827.90106   -522723.32104  24406739.68400  24406739.69600  24406741.36500
        12.00000         3.00000
  -9627311.63807  -7501797.80906  23185279.35000  23185279.03900  23185277.77500
        49.00000        26.00000
 -27203462.99008 -21197506.00008  20288689.78100  20288689.27200  20288688.01100
       266.00000       227.00000
 04  8 23  1  2  0.0000000  0  9G26G29G15G10G18G 9G 3G22G21
 -16933769.57108 -13195142.96308  21049142.06700  21049141.88900  21049141.63100
       221.00000       112.00000
 -11141784.31707  -8681909.62907  22157881.16300  22157880.86800  22157881.00100
        91.00000        57.00000
 -15083394.24507 -11753291.51307  21976502.85300  21976502.35600  21976503.72100
        76.00000        40.00000
   4493667.12405   3501550.77205  24965397.62700  24965396.70200  24965400.36400
         7.00000         5.00000
 -19674099.71008 -15330465.35208  20927933.88000  20927933.69800  20927932.77400
       266.00000       141.00000
 -13359735.49208 -10410175.98207  22100813.51300  22100813.21700  22100813.57200
       106.00000        47.00000
   -675117.81705   -526066.13305  24405923.65900  24405923.63600  24405925.32000
        10.00000         6.00000
  -9711310.82607  -7567251.69406  23169294.35100  23169294.57600  23169293.01700
        43.00000        26.00000
 -27189233.20908 -21186417.87708  20291397.38400  20291396.94000  20291395.74500
       264.00000       223.00000
 04  8 23  1  2 30.0000000  0  9G26G29G15G10G18G 9G 3G22G21
 -16856525.10208 -13134952.48508  21063840.90600  21063840.92000  21063840.87200
       221.00000       114.00000
 -11061841.44807  -8619616.50107  22173093.71900  22173093.36600  22173093.82200
        87.00000        56.00000
 -15166076.08007 -11817718.90207  21960768.89000  21960768.66900  21960769.33200
        79.00000        38.00000
   4589273.66505   3576049.30804  24983589.55000  24983591.20200  24983592.68800
         7.00000         3.00000
 -19723999.29208 -15369348.13808  20918438.52300  20918438.12800  20918437.06700
       266.00000       143.00000
 -13458070.45307 -10486800.60107  22082099.69100  22082099.48300  22082101.32700
       100.00000        48.00000
   -678866.09805   -528986.88505  24405209.96800  24405210.06800  24405211.53700
         8.00000         6.00000
  -9795200.18407  -7632619.98606  23153330.97800  23153330.79200  23153329.43000
        46.00000        26.00000
 -27174394.29408 -21174855.10208  20294221.42800  20294220.89000  20294219.69100
       263.00000       226.00000
 04  8 23  1  3  0.0000000  0  9G26G29G15G10G18G 9G 3G22G21
 -16778961.00508 -13074512.94308  21078601.08700  21078601.05100  21078601.02300
       223.00000       115.00000
 -10981720.20807  -8557184.40507  22188340.62000  22188340.33900  22188340.29900
        88.00000        56.00000
 -15248391.07607 -11881860.43807  21945105.33600  21945104.71100  21945105.81600
        83.00000        39.00000
   4684904.56405   3650566.77505  25001792.26100  25001790.56900  25001792.28300
         8.00000         5.00000
 -19773647.53208 -15408035.07108  20908990.63000  20908990.31500  20908989.37700
       263.00000       147.00000
 -13556062.62508 -10563158.12307  22063452.60700  22063452.60400  22063453.80100
       106.00000        48.00000
   -682100.85205   -531507.46705  24404595.15200  24404594.69200  24404597.15500
         8.00000         5.00000
  -9879006.25907  -7697923.38406  23137382.24600  23137382.27200  23137381.18700
        43.00000        24.00000
 -27158973.45708 -21162838.87908  20297155.51100  20297155.11900  20297154.06100
       259.00000       221.00000
 04  8 23  1  3 30.0000000  0  9G26G29G15G10G18G 9G 3G22G21
 -16701056.93308 -13013808.48608  21093425.59400  21093425.52700  21093425.62000
       213.00000       115.00000
 -10901399.57307  -8494596.91807  22203625.01200  22203624.60300  22203624.64200
        87.00000        53.00000
 -15330313.58507 -11945696.14407  21929516.06300  21929515.82400  21929516.64300
        90.00000        43.00000
   4780582.02105   3725120.49605  25019995.44300  25019995.62300  25019999.51400
         8.00000         7.00000
 -19823020.60408 -15446507.58608  20899595.06800  20899594.89300  20899594.15400
       263.00000       151.00000
 -13653685.98308 -10639228.24107  22044875.58200  22044875.59200  22044876.59800
       103.00000        48.00000
   -684799.52406   -533610.35305  24404080.83800  24404080.90800  24404082.10800
        12.00000         4.00000
  -9962705.43307  -7763143.47506  23121455.82100  23121455.83100  23121453.61800
        50.00000        26.00000
 -27142948.47808 -21150351.90008  20300205.52000  20300204.92400  20300203.53500
       259.00000       219.00000
 04  8 23  1  4  0.0000000  0  9G26G29G15G10G18G 9G 3G22G21
 -16622808.28708 -12952835.53008  21108315.22100  21108315.33000  21108315.73700
       203.00000       112.00000
 -10820874.31807  -8431849.99407  22218948.65800  22218948.12500  22218948.06000
        86.00000        52.00000
 -15411833.54807 -12009218.18007  21914003.33800  21914002.73200  21914003.65100
        88.00000        43.00000
   4876312.43505   3799715.53105  25038212.57900  25038211.28800  25038215.87400
         6.00000         5.00000
 -19872110.15708 -15484759.17808  20890253.81000  20890253.38900  20890252.62900
       267.00000       151.00000
 -13750930.12607 -10715002.88707  22026370.14300  22026370.04600  22026371.75700
        97.00000        50.00000
   -686955.27806   -535290.19305  24403671.05600  24403670.67300  24403673.10100
        11.00000         5.00000
 -10046289.63107  -7828273.97806  23105549.08100  23105549.83500  23105548.67900
        52.00000        28.00000
 -27126312.05208 -21137388.47708  20303370.97500  20303370.47100  20303369.38000
       259.00000       217.00000
 04  8 23  1  4 30.0000000  0  9G26G29G15G10G18G 9G 3G22G21
 -16544192.36108 -12891576.38408  21123275.70500  21123275.82900  21123275.85000
       206.00000       108.00000
 -10740121.08607  -8368925.42207  22234314.95800  22234314.98300  22234314.60600
        87.00000        49.00000
 -15492923.21807 -12072404.92707  21898572.50200  21898571.91400  21898572.71600
        87.00000        46.00000
   4972120.51205   3874371.05605  25056442.79900  25056443.14600  25056448.09300
         6.00000         6.00000
 -19920889.78308 -15522769.26708  20880971.07800  20880971.07300  20880970.04800
       273.00000       149.00000
 -13847766.76508 -10790460.01407  22007943.96900  22007943.41400  22007944.10100
       106.00000        54.00000
   -688543.27705   -536527.58705  24403368.55100  24403368.13700  24403370.83500
         9.00000         6.00000
 -10129732.81007  -7893294.58906  23089671.15300  23089671.52400  23089670.19700
        59.00000        29.00000
 -27109038.87208 -21123928.87208  20306658.02600  20306657.58100  20306656.36200
       260.00000       217.00000
 04  8 23  1  5  0.0000000  0  9G26G29G15G10G18G 9G 3G22G21
 -16465243.61408 -12830057.89708  21138299.53900  21138299.44500  21138299.15400
       210.00000       104.00000
 -10659173.82007  -8305849.65307  22249719.10000  22249718.90300  22249718.63200
        84.00000        50.00000
 -15573612.20007 -12135279.44607  21883218.65100  21883217.65100  21883218.44400
        86.00000        50.00000
   5067973.31505   3949061.44505  25074684.90400  25074684.54200  25074688.70600
         7.00000         4.00000
 -19969390.82808 -15560562.28208  20871741.99100  20871741.68700  20871740.52400
       274.00000       148.00000
 -13944224.61607 -10865621.96407  21989588.21900  21989587.95800  21989589.02100
        99.00000        54.00000
   -689595.92006   -537347.82605  24403169.48300  24403169.02500  24403170.41900
        13.00000         6.00000
 -10213066.35807  -7958229.78306  23073813.53000  23073813.52100  23073812.03900
        61.00000        28.00000
 -27091161.09908 -21109998.16408  20310060.15200  20310059.67800  20310058.47100
       259.00000       214.00000
 04  8 23  1  5 30.0000000  0  9G26G29G15G10G18G 9G 3G22G21
 -16385971.22408 -12768287.21707  21153384.62200  21153384.50600  21153384.06700
       205.00000       100.00000
 -10578040.82007  -8242629.15007  22265158.14700  22265158.02100  22265157.72200
        83.00000        50.00000
 -15653904.22407 -12197844.64007  21867938.57500  21867938.44200  21867939.34600
        92.00000        51.00000
   5163864.26305   4023781.53704  25092933.36400  25092932.63000  25092935.91400
         6.00000         3.00000
 -20017618.50608 -15598142.29008  20862564.33000  20862564.15400  20862563.14100
       267.00000       147.00000
 -14040306.89708 -10940491.26907  21971304.33600  21971304.27300  21971304.99800
       109.00000        52.00000
   -690119.88906   -537756.11705  24403069.17300  24403068.85000  24403070.42500
        15.00000         5.00000
 -10296295.77207  -8023083.84106  23057975.46400  23057975.60700  23057973.91800
        65.00000        26.00000
 -27072685.45108 -21095601.57608  20313576.03600  20313575.50200  20313574.06100
       262.00000       209.00000
 04  8 23  1  6  0.0000000  0  9G26G29G15G10G18G 9G 3G22G21
 -16306355.31808 -12706248.86608  21168534.73900  21168534.73600  21168534.65200
       200.00000       101.00000
 -10496701.64407  -8179247.99707  22280636.40500  22280636.15900  22280635.95600
        78.00000        50.00000
 -15733774.36307 -12260081.09307  21852740.37400  21852739.55100  21852740.36300
        95.00000        49.00000
   5259814.83805   4098548.10704  25111189.11900  25111189.84700  25111193.58500
         5.00000         3.00000
 -20065549.36408 -15635491.00708  20853443.30500  20853442.95200  20853442.20800
       262.00000       149.00000
 -14135987.92508 -11015047.93807  21953096.13700  21953096.11800  21953097.85000
       106.00000        57.00000
   -690093.62006   -537735.64105  24403074.57700  24403073.70700  24403075.18900
        13.00000         4.00000
 -10379397.78807  -8087838.61706  23042161.28200  23042161.47500  23042159.70700
        62.00000        26.00000
 -27053589.89008 -21080721.94208  20317209.53300  20317209.20900  20317208.09300
       263.00000       211.00000
 04  8 23  1  6 30.0000000  0  9G26G29G15G10G18G 9G 3G22G21
 -16226420.96608 -12643962.37908  21183745.35500  21183745.65200  21183745.69400
       195.00000       101.00000
 -10415180.67107  -8115725.20307  22296149.27000  22296148.90300  22296149.35800
        76.00000        52.00000
 -15813242.18107 -12322004.06007  21837617.64400  21837617.26000  21837618.06000
        97.00000        48.00000
   5355802.13305   4173343.28404  25129456.65000  25129456.51300  25129459.94100
         6.00000         3.00000
 -20113204.86508 -15672625.15208  20844375.30900  20844374.65800  20844373.85500
       264.00000       157.00000
 -14231287.02208 -11089306.96707  21934962.28400  21934961.88500  21934962.68100
       106.00000        56.00000
   -689539.83706   -537304.13405  24403179.50900  24403179.18200  24403180.18500
        12.00000         5.00000
 -10462394.07007  -8152511.00207  23026368.49600  23026367.91300  23026366.69900
        62.00000        32.00000
 -27033896.52908 -21065376.48608  20320957.12500  20320956.75900  20320955.63200
       262.00000       211.00000
 04  8 23  1  7  0.0000000  0  9G26G29G15G10G18G 9G 3G22G21
 -16146140.82808 -12581406.44608  21199022.49400  21199022.53500  21199022.64000
       190.00000       102.00000
 -10333449.72607  -8052038.77207  22311701.98800  22311701.85800  22311702.20600
        76.00000        55.00000
 -15892274.76707 -12383587.88507  21822578.52600  21822577.77400  21822578.78500
        94.00000        46.00000
   5451855.01205   4248189.50005  25147737.43600  25147735.74900  25147738.95100
         4.00000         5.00000
 -20160553.76108 -15709520.38908  20835364.76100  20835364.46000  20835363.66300
       272.00000       162.00000
 -14326171.25308 -11163242.73107  21916906.00700  21916905.80500  21916906.82200
       109.00000        55.00000
   -688429.14206   -536438.66305  24403390.76700  24403390.55800  24403392.51000
        15.00000         5.00000
 -10545253.51607  -8217076.76506  23010600.87200  23010600.83900  23010598.32400
        67.00000        29.00000
 -27013575.93108 -21049542.27108  20324824.14200  20324823.66200  20324822.30100
       260.00000       205.00000
 04  8 23  1  7 30.0000000  0  9G26G29G15G10G18G 9G 3G22G21
 -16065552.35408 -12518610.25308  21214357.92800  21214358.03100  21214358.25000
       183.00000       103.00000
 -10251545.87107  -7988217.61907  22327288.45600  22327288.05700  22327288.38500
        83.00000        57.00000
 -15970904.72407 -12444857.97807  21807615.32500  21807614.88800  21807615.98200
        89.00000        45.00000
   5547938.00105   4323059.17205  25166020.33500  25166019.94900  25166022.89100
         5.00000         4.00000
 -20207630.74708 -15746203.75308  20826406.47800  20826406.15200  20826405.16900
       284.00000       165.00000
 -14420672.40808 -11236880.01507  21898922.94800  21898922.79200  21898924.00500
       114.00000        55.00000
   -686797.09405   -535166.95405  24403700.24100  24403700.36400  24403702.12200
        10.00000         4.00000
 -10628010.87707  -8281562.97707  22994853.16300  22994852.68400  22994851.11600
        64.00000        35.00000
 -26992663.22408 -21033246.67908  20328803.95600  20328803.26400  20328802.03300
       260.00000       209.00000
 04  8 23  1  8  0.0000000  0  9G26G29G15G10G18G 9G 3G22G21
 -15984637.89008 -12455560.04808  21229755.32200  21229755.50900  21229755.70800
       182.00000       102.00000
 -10169450.56007  -7924247.27107  22342909.99000  22342910.11300  22342910.56700
        81.00000        57.00000
 -16049109.09207 -12505796.42707  21792733.70200  21792732.98500  21792733.86400
        82.00000        45.00000
   5644070.75104   4397967.65905  25184310.13700  25184311.33900  25184317.45900
         3.00000         6.00000
 -20254414.06208 -15782658.27708  20817504.42200  20817503.72200  20817502.55300
       284.00000       167.00000
 -14514767.30808 -11310200.70707  21881018.29900  21881017.62600  21881018.06300
       115.00000        58.00000
   -684623.98506   -533473.61905  24404114.40700  24404114.05600  24404116.83300
        12.00000         6.00000
 -10710644.65007  -8345952.90506  22979128.03200  22979127.80800  22979125.77300
        67.00000        30.00000
 -26971138.83108 -21016474.43908  20332899.51900  20332899.13100  20332897.98500
       261.00000       208.00000
 04  8 23  1  8 30.0000000  0  9G26G29G15G10G18G 9G 3G22G21
 -15903394.25508 -12392253.34807  21245216.07800  21245215.93400  21245215.71800
       184.00000        97.00000
 -10087159.94407  -7860124.74207  22358569.48500  22358569.38500  22358569.96600
        78.00000        55.00000
 -16126879.60207 -12566396.81507  21777934.65500  21777933.93500  21777934.90900
        89.00000        47.00000
   5740258.23005   4472918.77205  25202618.14100  25202617.18500  25202621.39900
         7.00000         6.00000
 -20300896.84808 -15818878.61808  20808658.83000  20808658.36800  20808657.22400
       286.00000       171.00000
 -14608446.99708 -11383197.86407  21863190.68600  21863190.45100  21863191.32500
       114.00000        58.00000
   -681904.63806   -531354.68705  24404633.36100  24404632.45900  24404633.30500
        11.00000         6.00000
 -10793148.24207  -8410241.39207  22963428.00400  22963427.72600  22963425.86700
        61.00000        32.00000
 -26948996.86608 -20999220.98708  20337113.40900  20337112.82400  20337111.61000
       261.00000       208.00000
 04  8 23  1  9  0.0000000  0  9G26G29G15G10G18G 9G 3G22G21
 -15821810.21808 -12328681.38307  21260740.46100  21260740.58000  21260740.74600
       184.00000        97.00000
 -10004662.32007  -7795840.91707  22374268.48400  22374268.03000  22374268.62200
        75.00000        52.00000
 -16204199.97207 -12626646.43707  21763220.37000  21763220.11000  21763221.46000
        98.00000        48.00000
   5836514.00705   4547923.07405  25220935.36600  25220934.71800  25220938.00700
         8.00000         5.00000
 -20347064.86708 -15854853.69008  20799872.88500  20799872.62700  20799871.70600
       282.00000       172.00000
 -14701694.50808 -11455858.27507  21845445.93000  21845445.94400  21845447.04700
       118.00000        60.00000
   -678626.02705   -528799.97405  24405257.17200  24405255.80600  24405257.63200
         8.00000         7.00000
 -10875507.21207  -8474417.18407  22947755.80600  22947755.22400  22947753.21900
        57.00000        32.00000
 -26926224.10908 -20981476.00508  20341446.38000  20341445.95900  20341445.17400
       256.00000       210.00000
 04  8 23  1  9 30.0000000  0 10G26G29G15G10G18G 9G 3G22G21G28
 -15739917.59208 -12264868.97107  21276324.29700  21276324.27700  21276324.76600
       185.00000        97.00000
  -9921988.48507  -7731419.76807  22390000.04100  22390000.30700  22390000.35000
        73.00000        46.00000
 -16281096.80708 -12686566.03807  21748588.31600  21748587.80300  21748588.10000
       104.00000        48.00000
   5932807.74505   4622956.96305  25239259.62200  25239259.14400  25239262.58000
        10.00000         5.00000
 -20392946.16308 -15890605.34008  20791142.10500  20791141.72200  20791140.81500
       280.00000       176.00000
 -14794535.94408 -11528202.24307  21827779.12400  21827779.06500  21827780.32700
       124.00000        65.00000
   -674817.96606   -525832.68205  24405981.39400  24405980.80500  24405982.12100
        11.00000         5.00000
 -10957750.03607  -8538502.44807  22932104.78700  22932104.68700  22932103.10200
        55.00000        34.00000
 -26902850.74208 -20963263.00808  20345894.38700  20345893.94800  20345893.00700
       259.00000       209.00000
    -12742.67405     -9929.68404  25580342.84600  25580343.15300  25580342.34300
         4.00000         2.00000
 04  8 23  1 10  0.0000000  0  9G26G29G15G10G18G 9G 3G22G21
 -15657749.54008 -12200841.93807  21291960.73800  21291960.75600  21291960.60700
       189.00000        96.00000
  -9839170.93907  -7666886.64407  22405760.42900  22405759.99300  22405759.96400
        70.00000        44.00000
 -16357597.93008 -12746177.28907  21734030.41000  21734029.90900  21734030.16100
       108.00000        48.00000
   6029108.23305   4697996.12204  25257583.87800  25257583.15300  25257587.64800
         9.00000         3.00000
 -20438570.08108 -15926156.44008  20782459.93800  20782459.74100  20782458.86600
       275.00000       174.00000
 -14886998.67808 -11600251.12607  21810183.65800  21810183.68300  21810184.83300
       123.00000        62.00000
   -670511.59806   -522477.08805  24406801.16900  24406800.23200  24406801.89900
        11.00000         6.00000
 -11039906.41007  -8602520.36307  22916470.29800  22916470.40000  22916469.08100
        56.00000        34.00000
 -26878906.83708 -20944605.44008  20350450.55800  20350450.31000  20350449.28900
       258.00000       208.00000
 04  8 23  1 10 30.0000000  0 10G26G29G15G10G18G 9G 3G22G21G28
 -15575274.46208 -12136575.67107  21307655.55000  21307655.33100  21307654.98300
       180.00000        94.00000
  -9756177.68807  -7602216.59307  22421553.14100  22421553.00200  22421553.51200
        69.00000        42.00000
 -16433666.79708 -12805451.71807  21719555.06800  21719554.44800  21719554.89400
       108.00000        49.00000
   6125448.97305   4773066.69505  25275917.33500  25275916.36900  25275921.70600
         8.00000         6.00000
 -20483901.82708 -15961479.87108  20773833.71600  20773833.29400  20773832.35000
       266.00000       170.00000
 -14979045.82508 -11671976.17107  21792668.25900  21792668.19500  21792668.79800
       130.00000        61.00000
   -665673.61006   -518707.28205  24407721.11400  24407720.78300  24407722.11000
        12.00000         7.00000
 -11121941.40707  -8666443.69707  22900859.58000  22900859.58200  22900858.45500
        58.00000        34.00000
 -26854358.41608 -20925476.82608  20355122.25100  20355121.70000  20355120.86800
       255.00000       207.00000
         -.86515         -.16114  25565973.72000  25565973.01400  25565972.23400
         5.00000         2.00000
 04  8 23  1 11  0.0000000  0 10G26G29G15G10G18G 9G 3G22G21G28
 -15492452.67208 -12072039.24007  21323415.75700  21323415.55000  21323415.42800
       174.00000        92.00000
  -9672967.82007  -7537377.76907  22437387.91100  22437387.65200  22437387.82800
        71.00000        42.00000
 -16509258.17808 -12864354.06407  21705170.22400  21705169.69500  21705170.40100
       105.00000        51.00000
   6221871.82505   4848201.17905  25294267.59800  25294266.18000  25294271.01100
         5.00000         5.00000
 -20528898.20008 -15996541.97308  20765271.14200  20765270.75300  20765269.80600
       263.00000       171.00000
 -15070631.64308 -11743341.72707  21775240.48700  21775239.95500  21775240.79500
       138.00000        62.00000
   -660262.37206   -514490.76605  24408751.33500  24408750.36200  24408752.12500
        11.00000         7.00000
 -11203811.92607  -8730238.88206  22885280.28000  22885280.43700  22885277.77000
        63.00000        28.00000
 -26829164.24608 -20905845.03208  20359916.38200  20359916.13300  20359914.81900
       265.00000       199.00000
    -37088.90605    -28899.91604  25558915.45600  25558914.05700  25558914.39800
         5.00000         2.00000
 04  8 23  1 11 30.0000000  0  9G26G29G15G10G18G 9G 3G22G21
 -15409329.08408 -12007267.63707  21339234.00000  21339233.75700  21339233.38500
       176.00000        90.00000
  -9589586.13207  -7472405.05707  22453255.36800  22453255.32300  22453255.08800
        77.00000        45.00000
 -16584412.15808 -12922915.59407  21690869.04700  21690868.36500  21690868.97700
       104.00000        51.00000
   6318333.40704   4923365.89204  25312620.97000  25312620.80600  25312625.36200
         3.00000         2.00000
 -20573600.35108 -16031374.80608  20756764.57800  20756764.19200  20756763.21300
       264.00000       171.00000
 -15161795.88008 -11814378.77307  21757891.52600  21757891.42700  21757892.67200
       128.00000        60.00000
   -654321.04505   -509861.19305  24409880.76200  24409881.44300  24409883.35200
        10.00000         6.00000
 -11285559.42707  -8793938.19707  22869724.20000  22869724.34700  22869722.55200
        61.00000        32.00000
 -26803367.57208 -20885743.74608  20364825.35400  20364824.93200  20364823.99600
       263.00000       200.00000
 04  8 23  1 12  0.0000000  0  8G26G29G15G18G 9G 3G22G21
 -15325952.02808 -11942298.52507  21355099.53200  21355099.50600  21355099.49800
       173.00000        89.00000
  -9506080.11007  -7407335.45607  22469146.09400  22469146.12300  22469145.85500
        76.00000        45.00000
 -16659171.91108 -12981169.92407  21676641.69500  21676641.74600  21676642.63300
       104.00000        52.00000
 -20618052.74808 -16066013.03008  20748305.78500  20748305.25400  20748304.23900
       266.00000       175.00000
 -15252580.91308 -11885120.33107  21740615.95900  21740615.85100  21740616.71900
       136.00000        62.00000
   -647896.00205   -504854.68305  24411104.07100  24411103.81600  24411105.37400
        10.00000         5.00000
 -11367228.71707  -8857576.56606  22854183.38100  22854183.06600  22854181.08500
        62.00000        31.00000
 -26777014.18208 -20865208.66308  20369840.71600  20369840.11900  20369838.87700
       269.00000       198.00000
 04  8 23  1 12 30.0000000  0  9G26G29G15G18G 9G 3G22G21G10
 -15242238.58008 -11877067.28907  21371029.78200  21371029.56300  21371029.75600
       172.00000        87.00000
  -9422365.92407  -7342103.65107  22485076.85000  22485076.45700  22485076.03600
        73.00000        45.00000
 -16733449.46207 -13039048.51507  21662508.15700  21662507.38300  21662508.17100
       100.00000        54.00000
 -20662169.10808 -16100389.40908  20739910.52000  20739910.22000  20739909.26700
       267.00000       178.00000
 -15342898.31408 -11955497.49907  21723429.22600  21723429.01300  21723430.45000
       133.00000        67.00000
   -640902.72606   -499405.41105  24412435.82900  24412435.10200  24412435.84200
        11.00000         4.00000
 -11448733.40407  -8921086.68107  22838673.48600  22838673.09800  22838671.83400
        63.00000        37.00000
 -26750019.37008 -20844173.76408  20374977.40200  20374976.85400  20374975.93000
       269.00000       202.00000
        -1.24515         -.24910  25349346.64100  25349346.16600  25349347.65900
         7.00000          .00000
 04  8 23  1 13  0.0000000  0  9G26G29G15G18G 9G 3G22G21G28
 -15158222.75108 -11811600.42607  21387017.07600  21387017.42400  21387017.55800
       175.00000        88.00000
  -9338476.96407  -7276735.66207  22501039.74400  22501039.44500  22501039.25000
        68.00000        44.00000
 -16807273.53208 -13096573.74507  21648460.14500  21648459.39100  21648460.17800
       103.00000        56.00000
 -20705980.10508 -16134527.83708  20731573.69200  20731573.28000  20731572.13900
       265.00000       177.00000
 -15432776.50508 -12025532.41807  21706325.38500  21706325.66800  21706326.64700
       131.00000        65.00000
   -633373.44205   -493538.49605  24413867.49500  24413867.11300  24413868.99600
         8.00000         5.00000
 -11530104.23707  -8984492.48607  22823188.87800  22823189.09600  22823187.43500
        76.00000        38.00000
 -26722414.94008 -20822663.84608  20380230.49800  20380230.06600  20380228.94700
       277.00000       202.00000
         -.09615         -.49114  25531479.02600  25531478.40900  25531478.97600
         5.00000         1.00000
 04  8 23  1 13 30.0000000  0  8G26G29G15G18G 9G 3G22G21
 -15073913.87208 -11745905.22007  21403061.08300  21403061.10500  21403060.98500
       173.00000        87.00000
  -9254421.93507  -7211238.27107  22517035.30500  22517034.62700  22517034.52600
        65.00000        43.00000
 -16880648.31708 -13153748.88307  21634496.72000  21634496.21800  21634497.46900
       102.00000        58.00000
 -20749491.48308 -16168432.80108  20723294.07500  20723293.47600  20723292.34300
       262.00000       179.00000
 -15522219.11408 -12095227.92207  21689305.67700  21689305.37000  21689306.24300
       134.00000        67.00000
   -625315.50805   -487259.60805  24415399.55900  24415400.21500  24415401.94700
         9.00000         6.00000
 -11611347.21007  -9047798.66607  22807729.49200  22807729.62400  22807727.55300
        84.00000        43.00000
 -26694208.28608 -20800684.66308  20385598.06100  20385597.61500  20385596.31000
       278.00000       198.00000
 04  8 23  1 14  0.0000000  0  8G26G29G15G18G 9G 3G22G21
 -14989337.65708 -11680001.70507  21419155.38900  21419155.23900  21419155.14900
       167.00000        84.00000
  -9170225.75407  -7145630.89107  22533057.24100  22533056.61100  22533056.48000
        66.00000        40.00000
 -16953594.70708 -13210590.20607  21620615.67500  21620615.01600  21620616.37800
       104.00000        58.00000
 -20792725.28008 -16202121.46608  20715066.56000  20715066.13400  20715065.10000
       258.00000       177.00000
 -15611246.48708 -12164599.86307  21672364.28000  21672364.07800  21672365.13900
       138.00000        72.00000
   -616753.36006   -480587.77305  24417031.09100  24417030.58400  24417032.45300
        13.00000         8.00000
 -11692484.68007  -9111022.62907  22792289.25800  22792289.37000  22792287.81000
        84.00000        43.00000
 -26665422.74108 -20778254.38908  20391075.97900  20391075.46000  20391074.28100
       284.00000       203.00000
 04  8 23  1 14 30.0000000  0  8G26G29G15G18G 9G 3G22G21
 -14904436.81708 -11613845.23007  21435311.11200  21435311.42200  21435311.15300
       166.00000        82.00000
  -9085830.51807  -7079868.39207  22549116.81100  22549116.76900  22549116.73800
        71.00000        40.00000
 -17026050.17808 -13267049.00207  21606827.99200  21606827.36100  21606828.37800
       108.00000        56.00000
 -20835620.52408 -16235546.32908  20706903.52800  20706903.33100  20706902.43100
       258.00000       179.00000
 -15699795.69808 -12233599.21507  21655513.97300  21655513.74100  21655514.30100
       140.00000        69.00000
   -607628.02606   -473477.16305  24418767.28600  24418767.21600  24418768.59400
        13.00000         6.00000
 -11773455.85407  -9174117.02207  22776881.02200  22776880.75900  22776879.13800
        75.00000        41.00000
 -26635999.73108 -20755327.39308  20396674.75100  20396674.29000  20396673.35900
       284.00000       202.00000
 04  8 23  1 15  0.0000000  0  8G29G15G18G 9G 3G26G22G21
  -9001287.73207  -7013990.92107  22565205.48700  22565205.12200  22565204.60400
        73.00000        39.00000
 -17098062.09008 -13323162.16707  21593124.72200  21593124.04300  21593124.54900
       112.00000        56.00000
 -20878226.35608 -16268745.67308  20698796.35900  20698795.89200  20698794.79700
       257.00000       181.00000
 -15787913.71408 -12302262.56907  21638745.63400  21638745.37000  21638746.60600
       145.00000        74.00000
   -597989.92105   -465966.96704  24420600.77100  24420600.56800  24420601.42400
         9.00000         3.00000
 -14819263.66908 -11547476.56507  21451519.79500  21451519.43900  21451519.12900
       163.00000        81.00000
 -11854309.57907  -9237119.88007  22761495.06100  22761494.70200  22761492.95000
        74.00000        40.00000
 -26605989.48008 -20731942.81008  20402385.36400  20402385.00700  20402384.04000
       282.00000       198.00000
 04  8 23  1 15 30.0000000  0  9G29G15G18G 9G 3G26G22G21G28
  -8916538.08607  -6947952.27607  22581332.10600  22581332.06500  22581332.05500
        71.00000        40.00000
 -17169566.89408 -13378880.17607  21579517.36100  21579516.76900  21579518.20000
       112.00000        61.00000
 -20920480.83508 -16301671.23208  20690755.37700  20690755.07900  20690754.06000
       254.00000       182.00000
 -15875536.49908 -12370540.02607  21622071.09500  21622071.09600  21622072.10000
       145.00000        73.00000
   -587779.08106   -458010.49805  24422543.40700  24422543.57400  24422545.80700
        12.00000         4.00000
 -14733759.66208 -11480850.09307  21467790.19600  21467790.09100  21467790.19700
       161.00000        80.00000
 -11934983.99307  -9299983.01107  22746143.25900  22746143.05900  22746141.28500
        72.00000        41.00000
 -26575331.65208 -20708053.62408  20408219.78200  20408219.21100  20408218.20900
       286.00000       199.00000
         -.68015         -.08014  25499042.41500  25499041.35500  25499042.33700
         8.00000         1.00000
 04  8 23  1 16  0.0000000  0  8G29G15G18G 9G 3G26G22G21
  -8831666.13507  -6881818.31407  22597482.90900  22597482.37300  22597482.72400
        65.00000        41.00000
 -17240644.52408 -13434265.33207  21565991.60500  21565991.08900  21565992.50600
       112.00000        63.00000
 -20962465.44208 -16334386.50108  20682765.61200  20682765.46500  20682764.57800
       253.00000       186.00000
 -15962743.72508 -12438493.67707  21605476.05200  21605475.94700  21605477.32300
       145.00000        75.00000
   -577079.03706   -449672.82604  24424581.10500  24424579.99500  24424581.34000
        14.00000         3.00000
 -14648009.86608 -11414032.09807  21484107.17500  21484107.75100  21484107.94600
       158.00000        81.00000
 -12015560.85907  -9362770.14207  22730809.38900  22730809.34000  22730808.03400
        69.00000        40.00000
 -26544109.71808 -20683724.86808  20414160.64600  20414160.18400  20414159.38500
       281.00000       193.00000
 04  8 23  1 16 30.0000000  0  8G29G15G18G 9G 3G26G22G21
  -8746648.52807  -6815570.86207  22613661.46400  22613660.96300  22613661.12500
        64.00000        41.00000
 -17311267.44808 -13489296.15707  21552552.79300  21552552.21100  21552553.12500
       116.00000        61.00000
 -21004154.15908 -16366871.21208  20674832.67600  20674832.36300  20674831.54700
       251.00000       191.00000
 -16049507.37308 -12506101.69907  21588966.17000  21588965.83400  21588966.38200
       155.00000        73.00000
   -565865.44606   -440935.02604  24426714.74200  24426713.92800  24426714.85800
        15.00000         2.00000
 -14561991.83508 -11347005.09007  21500476.42300  21500476.47900  21500476.64100
       152.00000        81.00000
 -12096014.14707  -9425460.97807  22715499.49400  22715499.48400  22715497.74400
        72.00000        37.00000
 -26512299.00908 -20658937.33308  20420214.11500  20420213.82300  20420212.76700
       284.00000       190.00000
 04  8 23  1 17  0.0000000  0  9G29G15G18G 9G 3G26G22G21G28
  -8661448.56607  -6749181.31407  22629874.39700  22629874.04500  22629874.36700
        61.00000        41.00000
 -17381394.55508 -13543940.64107  21539208.50200  21539207.80000  21539208.41700
       121.00000        60.00000
 -21045507.29208 -16399094.42708  20666963.56500  20666963.20000  20666962.32100
       250.00000       195.00000
 -16135785.92908 -12573331.71907  21572547.42700  21572547.22200  21572548.49600
       142.00000        78.00000
   -554101.01706   -431767.96404  24428953.30100  24428952.61500  24428954.47700
        13.00000         3.00000
 -14475669.56008 -11279741.00807  21516903.07300  21516902.99200  21516903.32300
       148.00000        81.00000
 -12176304.49907  -9488024.86007  22700221.93700  22700221.62400  22700218.32800
        78.00000        34.00000
 -26479861.92508 -20633661.71708  20426386.98900  20426386.48400  20426385.15500
       286.00000       181.00000
         -.98415         -.23710  25480581.39900  25480579.62500  25480581.51000
         9.00000          .00000
 04  8 23  1 17 30.0000000  0  8G29G15G18G 9G 3G26G22G21
  -8576089.40807  -6682667.71607  22646116.96200  22646117.08900  22646117.36800
        61.00000        41.00000
 -17451044.77208 -13598213.53307  21525953.57500  21525953.47100  21525954.29500
       127.00000        62.00000
 -21086545.20108 -16431072.01408  20659154.20600  20659153.91900  20659153.15800
       252.00000       201.00000
 -16221597.76208 -12640198.06007  21556217.91000  21556217.76100  21556218.68700
       150.00000        76.00000
   -541808.09205   -422189.10605  24431291.31500  24431291.49400  24431293.35800
        10.00000         4.00000
 -14389066.88408 -11212258.43507  21533383.45600  21533383.14700  21533383.38400
       152.00000        81.00000
 -12256452.34007  -9550477.67007  22684969.58000  22684969.57500  22684966.83800
        76.00000        34.00000
 -26446820.95308 -20607915.53208  20432674.30700  20432673.91500  20432672.95800
       286.00000       181.00000
 04  8 23  1 18  0.0000000  0  8G29G15G18G 9G 3G26G22G21
  -8490601.74807  -6616053.98307  22662384.95900  22662384.93200  22662384.91200
        60.00000        39.00000
 -17520244.57008 -13652135.44107  21512785.92700  21512785.21100  21512786.22300
       125.00000        64.00000
 -21127295.58608 -16462825.55408  20651399.73400  20651399.52400  20651398.69300
       256.00000       204.00000
 -16306968.75708 -12706720.89107  21539972.69200  21539972.29500  21539973.15600
       151.00000        74.00000
   -529016.55905   -412221.68605  24433725.91800  24433726.12800  24433727.41400
         9.00000         4.00000
 -14302215.22408 -11144581.84107  21549910.81000  21549910.71700  21549910.65100
       158.00000        79.00000
 -12336485.79907  -9612841.38207  22669739.96000  22669739.66400  22669736.94800
        84.00000        34.00000
 -26413205.16508 -20581721.44208  20439071.60600  20439071.01500  20439069.59200
       287.00000       174.00000
 04  8 23  1 18 30.0000000  0  9G29G15G18G 9G 3G26G22G21G28
  -8404954.63707  -6549316.01307  22678682.98700  22678682.93600  22678682.91500
        61.00000        38.00000
 -17588958.79508 -13705678.98107  21499709.82500  21499709.28600  21499710.26100
       124.00000        63.00000
 -21167724.99708 -16494328.98308  20643706.61300  20643706.18400  20643705.16500
       260.00000       205.00000
 -16391863.51408 -12772872.63707  21523818.15400  21523817.69200  21523817.94600
       154.00000        73.00000
   -515694.70706   -401841.06405  24436261.58600  24436261.02600  24436262.67000
        13.00000         5.00000
 -14215084.30308 -11076687.64807  21566491.13400  21566491.21600  21566490.87600
       155.00000        76.00000
 -12416371.21507  -9675089.71007  22654538.14700  22654538.13600  22654536.02600
        88.00000        37.00000
 -26378982.81308 -20555054.69308  20445583.61000  20445583.09200  20445582.03200
       280.00000       170.00000
         -.26915          .19514  25462885.72400  25462886.41800  25462888.78200
         8.00000         1.00000
 04  8 23  1 19  0.0000000  0  8G29G15G18G 9G 3G26G22G21
  -8319175.25107  -6482474.96507  22695006.71300  22695006.42900  22695006.48200
        60.00000        38.00000
 -17657210.30408 -13758861.96207  21486721.60200  21486721.14300  21486722.52300
       123.00000        65.00000
 -21207857.93908 -16525601.40008  20636069.40700  20636068.95200  20636068.05500
       258.00000       204.00000
 -16476304.27808 -12838670.62107  21507748.31600  21507748.40800  21507749.68000
       152.00000        75.00000
   -501869.21906   -391067.99205  24438892.82900  24438892.29200  24438894.18400
        14.00000         7.00000
 -14127702.10608 -11008597.65407  21583119.11200  21583119.21700  21583119.23600
       150.00000        76.00000
 -12496132.95707  -9737241.70007  22639359.78600  22639359.43200  22639357.05900
        78.00000        34.00000
 -26344180.10808 -20527935.72408  20452206.45200  20452205.98500  20452204.65400
       285.00000       169.00000
 04  8 23  1 19 30.0000000  0  8G29G15G18G 9G 3G26G22G21
  -8233218.14607  -6415495.44507  22711363.86100  22711363.41900  22711363.51100
        57.00000        36.00000
 -17724949.39608 -13811645.65907  21473831.45500  21473830.93500  21473832.13900
       128.00000        66.00000
 -21247646.05008 -16556605.11308  20628497.71100  20628497.55600  20628496.55700
       259.00000       200.00000
 -16560241.01108 -12904075.83907  21491776.89700  21491776.30900  21491776.77200
       161.00000        74.00000
   -487493.72605   -379866.33805  24441627.94400  24441627.17400  24441629.99700
         7.00000         8.00000
 -14040023.74608 -10940276.88307  21599804.07900  21599803.90000  21599804.04900
       145.00000        76.00000
 -12575722.75107  -9799259.68707  22624214.72600  22624214.30000  22624212.34000
        78.00000        38.00000
 -26308750.70508 -20500328.43008  20458948.52300  20458947.96200  20458946.78700
       283.00000       171.00000
 04  8 23  1 20  0.0000000  0  9G29G15G18G 9G 3G26G22G21G28
  -8147122.71307  -6348408.12307  22727747.34500  22727746.87400  22727746.89400
        56.00000        35.00000
 -17792211.46408 -13864057.64607  21461032.31500  21461031.54600  21461032.41000
       128.00000        65.00000
 -21287126.05808 -16587368.74508  20620985.20100  20620984.86000  20620983.60000
       263.00000       198.00000
 -16643708.60208 -12969115.50007  21475892.71100  21475892.67800  21475893.58300
       160.00000        76.00000
   -472607.17405   -368266.49205  24444461.29700  24444460.50200  24444462.37400
         7.00000         6.00000
 -13952089.53608 -10871756.75507  21616537.32300  21616537.41900  21616537.19400
       145.00000        72.00000
 -12655177.52507  -9861172.47107  22609094.61900  22609094.14900  22609092.07700
        78.00000        38.00000
 -26272733.28708 -20472262.93608  20465802.30600  20465801.84500  20465800.59800
       285.00000       168.00000
         -.80315         -.86810  25445959.94800  25445960.42300  25445960.39200
         7.00000          .00000
 04  8 23  1 20 30.0000000  0  8G29G15G18G 9G 3G26G22G21
  -8060854.61407  -6281186.25707  22744163.04400  22744162.83900  22744163.46500
        53.00000        35.00000
 -17858957.77008 -13916067.74107  21448330.95700  21448330.25200  21448330.72300
       128.00000        64.00000
 -21326260.58408 -16617863.17808  20613538.25700  20613537.80400  20613536.62700
       262.00000       200.00000
 -16726668.07808 -13033759.23707  21460106.44500  21460106.01600  21460107.01800
       160.00000        80.00000
   -457174.55605   -356241.12305  24447397.44200  24447396.84300  24447399.52700
         8.00000         5.00000
 -13863865.88308 -10803011.08207  21633325.93400  21633325.84300  21633325.49000
       141.00000        68.00000
 -12734460.22607  -9922951.16607  22594007.27500  22594007.00400  22594005.79200
        76.00000        43.00000
 -26236092.79608 -20443711.93208  20472774.98400  20472774.41500  20472773.37700
       284.00000       172.00000
 04  8 23  1 21  0.0000000  0  9G29G15G18G 9G 3G26G22G21G28
  -7974455.30007  -6213862.14407  22760604.35000  22760604.52200  22760604.71800
        52.00000        34.00000
 -17925225.72208 -13967705.09307  21435720.27800  21435719.75600  21435720.37400
       131.00000        65.00000
 -21365088.77408 -16648118.90308  20606149.23300  20606148.83600  20606147.78500
       255.00000       202.00000
 -16809156.26608 -13098035.73907  21444409.82200  21444409.31600  21444409.88200
       168.00000        80.00000
   -441236.87005   -343822.17305  24450430.03000  24450429.45500  24450431.74000
         7.00000         6.00000
 -13775394.84008 -10734072.63607  21650161.24700  21650161.18800  21650161.35100
       141.00000        68.00000
 -12813609.78607  -9984626.12207  22578946.30300  22578945.84800  22578943.65500
        83.00000        42.00000
 -26198869.88308 -20414707.09008  20479858.34100  20479857.80300  20479856.74200
       281.00000       174.00000
         -.43015         -.93614  25435117.86900  25435117.09200  25435118.34300
         5.00000         1.00000
 04  8 23  1 21 30.0000000  0  8G29G15G18G 9G 3G26G22G21
  -7887947.74207  -6146453.69207  22777066.79000  22777066.47300  22777066.86500
        50.00000        33.00000
 -17991034.20508 -14018984.41007  21423197.28500  21423196.74000  21423197.80600
       132.00000        65.00000
 -21403630.62308 -16678151.50508  20598815.02500  20598814.66000  20598813.67100
       256.00000       208.00000
 -16891191.60808 -13161959.36507  21428798.91900  21428798.14900  21428799.25900
       160.00000        82.00000
   -424816.46006   -331027.05905  24453555.36500  24453555.07100  24453557.20200
        11.00000         8.00000
 -13686700.11408 -10664959.88607  21667039.32100  21667039.34800  21667039.31000
       140.00000        66.00000
 -12892646.35207 -10046213.02407  22563906.67900  22563906.11800  22563903.50400
        91.00000        42.00000
 -26161086.55908 -20385265.56208  20487048.00900  20487047.51600  20487046.69600
       281.00000       173.00000
 04  8 23  1 22  0.0000000  0  8G29G15G18G 9G 3G26G22G21
  -7801266.84707  -6078910.17007  22793561.62600  22793561.57800  22793561.69200
        52.00000        32.00000
 -18056313.96708 -14069851.74607  21410775.48800  21410774.76600  21410775.17900
       135.00000        65.00000
 -21441818.22308 -16707908.07108  20591548.36600  20591548.02400  20591546.84400
       261.00000       213.00000
 -16972704.47208 -13225475.87307  21413287.07200  21413286.83300  21413287.70800
       167.00000        81.00000
   -407847.53806   -317804.55505  24456785.07000  24456783.78900  24456786.31600
        12.00000         7.00000
 -13597717.37508 -10595622.71907  21683972.25100  21683972.13000  21683972.43300
       133.00000        65.00000
 -12971502.24508 -10107659.13707  22548900.72400  22548900.59800  22548897.92700
       102.00000        45.00000
 -26122676.78208 -20355335.89008  20494357.24000  20494356.71300  20494355.58600
       276.00000       168.00000
 04  8 23  1 22 30.0000000  0  9G29G15G18G 9G 3G26G22G21G28
  -7714480.92707  -6011284.81706  22810076.99500  22810076.60200  22810076.36200
        56.00000        31.00000
 -18121129.38408 -14120357.25607  21398441.16600  21398440.61700  21398441.43900
       134.00000        70.00000
 -21479717.41608 -16737439.90708  20584336.45400  20584336.01500  20584334.84100
       257.00000       215.00000
 -17053758.75608 -13288635.04007  21397863.47200  21397862.95300  21397863.57000
       173.00000        82.00000
   -390398.27005   -304207.75005  24460104.95000  24460103.93900  24460107.44600
         8.00000         8.00000
 -13508515.87508 -10526115.08207  21700946.57500  21700946.54900  21700946.82200
       132.00000        65.00000
 -13050243.22007 -10169015.71407  22533916.37200  22533916.03000  22533913.52000
        98.00000        43.00000
 -26083708.64908 -20324971.13308  20501772.87400  20501772.27000  20501771.20900
       277.00000       171.00000
         -.67014         -.45114  25419489.17600  25419488.43000  25419489.28600
         3.00000         1.00000
 04  8 23  1 23  0.0000000  0  8G29G15G18G 9G 3G26G22G21
  -7627524.28507  -5943526.42507  22826623.88600  22826623.63200  22826623.88000
        58.00000        32.00000
 -18185410.18008 -14170446.16607  21386209.04800  21386208.38700  21386209.23500
       136.00000        74.00000
 -21517259.46308 -16766693.43808  20577191.96900  20577191.87400  20577190.90300
       259.00000       219.00000
 -17134283.84708 -13351381.85807  21382539.58900  21382539.08400  21382539.70800
       172.00000        79.00000
   -372402.08005   -290184.77105  24463528.30400  24463528.71500  24463531.57800
         8.00000         8.00000
 -13419030.17508 -10456385.98607  21717974.82400  21717975.05000  21717975.41000
       131.00000        65.00000
 -13128800.56307 -10230229.18907  22518967.24400  22518967.04200  22518964.73500
        94.00000        46.00000
 -26044115.38508 -20294119.26808  20509307.19500  20509306.66700  20509305.26800
       286.00000       162.00000
 04  8 23  1 23 30.0000000  0  8G29G15G18G 9G 3G26G22G21
  -7540452.77207  -5875678.52606  22843192.88900  22843192.48100  22843192.87700
        53.00000        31.00000
 -18249208.36708 -14220159.02307  21374068.36500  21374067.75600  21374068.93600
       133.00000        72.00000
 -21554497.68908 -16795710.22808  20570106.22200  20570105.67300  20570104.67600
       259.00000       222.00000
 -17214331.43108 -13413756.57907  21367307.39000  21367306.94300  21367307.62400
       178.00000        83.00000
   -353914.64406   -275779.02105  24467047.61100  24467047.74900  24467049.26200
        14.00000         7.00000
 -13329317.00908 -10386479.64707  21735047.29900  21735047.04200  21735047.37900
       131.00000        66.00000
 -13207227.74407 -10291341.24407  22504042.91400  22504042.73800  22504040.71600
        95.00000        47.00000
 -26003952.36908 -20262823.43408  20516949.61400  20516949.25300  20516948.35900
       285.00000       166.00000
 04  8 23  1 24  0.0000000  0  8G29G15G18G 9G 3G26G22G21
  -7453209.56507  -5807696.83706  22859794.42300  22859794.33900  22859794.44100
        52.00000        30.00000
 -18312462.95908 -14269448.30307  21362031.82800  21362031.04500  21362031.54700
       136.00000        68.00000
 -21591372.47708 -16824443.82808  20563089.17200  20563088.66400  20563087.56300
       257.00000       222.00000
 -17293840.21408 -13475711.46707  21352177.60300  21352177.20700  21352176.92300
       187.00000        79.00000
   -334878.43106   -260945.66905  24470669.02400  24470669.28900  24470671.43700
        14.00000         5.00000
 -13239320.52108 -10316352.54407  21752173.45000  21752173.09900  21752173.18600
       132.00000        66.00000
 -13285465.11307 -10352305.39707  22489153.75500  22489154.25300  22489152.08400
        95.00000        46.00000
 -25963162.08108 -20231038.82208  20524711.97100  20524711.47900  20524710.45300
       285.00000       162.00000
 04  8 23  1 24 30.0000000  0  9G29G15G18G 9G 3G26G22G21G28
  -7365889.10307  -5739654.94906  22876411.07100  22876410.28800  22876411.51600
        45.00000        31.00000
 -18375264.30908 -14318384.41907  21350080.73500  21350079.95900  21350080.95700
       134.00000        68.00000
 -21627975.79108 -16852965.88408  20556123.57800  20556123.20300  20556122.13400
       255.00000       221.00000
 -17372900.04908 -13537316.51507  21337132.65400  21337132.19700  21337132.78900
       180.00000        80.00000
   -315387.64006   -245758.04305  24474381.10400  24474380.04700  24474381.13500
        17.00000         6.00000
 -13149135.68908 -10246078.68007  21769334.83300  21769334.58300  21769334.64700
       130.00000        64.00000
 -13363604.37607 -10413193.10307  22474285.43300  22474285.27800  22474283.09000
        97.00000        48.00000
 -25921838.48208 -20198838.63808  20532575.48100  20532575.10500  20532573.81800
       282.00000       154.00000
    -16673.75304    -12992.35504  25399888.33300  25399889.63500  25399889.50300
         2.00000         1.00000
 04  8 23  1 25  0.0000000  0  8G29G15G18G 9G 3G26G22G21
  -7278409.19307  -5671488.81206  22893057.81400  22893057.50100  22893058.19200
        44.00000        31.00000
 -18437526.15208 -14366900.13307  21338232.68800  21338232.00500  21338233.03600
       132.00000        72.00000
 -21664222.49508 -16881210.06408  20549225.99300  20549225.77200  20549224.56500
       254.00000       219.00000
 -17451424.19608 -13598504.15407  21322190.09300  21322189.52400  21322189.94300
       181.00000        81.00000
   -295359.79906   -230151.95705  24478191.34500  24478190.29000  24478191.41100
        14.00000         5.00000
 -13058681.06508 -10175594.58607  21786547.69300  21786547.51500  21786547.36700
       128.00000        61.00000
 -13441560.98607 -10473938.48507  22459450.27300  22459450.14900  22459448.46400
        95.00000        49.00000
 -25879898.59008 -20166158.23308  20540556.61100  20540555.99900  20540555.01300
       278.00000       157.00000
 04  8 23  1 25 30.0000000  0  8G29G15G18G 9G 3G26G22G21
  -7190781.13607  -5603207.24006  22909733.24300  22909732.74200  22909733.55800
        42.00000        31.00000
 -18499256.05008 -14415001.32807  21326485.80100  21326485.25600  21326486.30100
       137.00000        73.00000
 -21700121.26708 -16909183.12608  20542394.69500  20542394.32400  20542393.38700
       248.00000       223.00000
 -17529419.94508 -13659280.05307  21307348.13300  21307347.59500  21307347.85700
       187.00000        81.00000
   -274805.81205   -214135.92105  24482101.30300  24482100.97200  24482103.87200
         9.00000         4.00000
 -12967968.70408 -10104909.66107  21803809.77200  21803809.59500  21803809.75900
       129.00000        61.00000
 -13519343.38707 -10534548.11607  22444648.61700  22444648.53700  22444646.94800
        98.00000        48.00000
 -25837353.54208 -20133006.27108  20548652.38600  20548651.84000  20548651.26000
       272.00000       156.00000
 04  8 23  1 26  0.0000000  0  8G29G15G18G 9G 3G26G22G21
  -7103019.14907  -5534821.30606  22926433.54900  22926433.26500  22926434.23100
        43.00000        31.00000
 -18560464.16808 -14462695.95507  21314838.24700  21314837.72100  21314838.77600
       146.00000        72.00000
 -21735683.72108 -16936894.12608  20535627.37700  20535627.09400  20535626.03400
       248.00000       226.00000
 -17606897.01808 -13719651.78707  21292604.25100  21292603.91700  21292604.86700
       184.00000        85.00000
   -253739.48206   -197720.61205  24486109.90400  24486109.65200  24486111.58600
        12.00000         4.00000
 -12877013.55308 -10034035.53907  21821118.03900  21821117.85500  21821117.92300
       123.00000        61.00000
 -13596963.10007 -10595030.98107  22429878.37900  22429878.11200  22429876.85600
        97.00000        53.00000
 -25794216.69308 -20099393.16608  20556861.27900  20556860.85000  20556859.66200
       281.00000       150.00000
 04  8 23  1 26 30.0000000  0  8G29G15G18G 9G 3G26G22G21
  -7015192.23707  -5466384.79006  22943146.72000  22943146.33200  22943147.30600
        44.00000        30.00000
 -18621215.57408 -14510034.70707  21303278.20800  21303277.33700  21303277.69100
       150.00000        66.00000
 -21770976.23808 -16964394.78608  20528911.85700  20528911.23500  20528910.14700
       247.00000       231.00000
 -17683920.30508 -13779669.91507  21277947.73800  21277947.31600  21277947.55600
       193.00000        86.00000
   -232229.80706   -180959.87905  24490204.41200  24490204.15200  24490205.68900
        15.00000         5.00000
 -12785885.48308  -9963026.68907  21838459.04600  21838458.88000  21838459.22600
       116.00000        61.00000
 -13674486.77607 -10655439.00507  22415126.05800  22415125.96200  22415124.10900
        98.00000        51.00000
 -25750556.71608 -20065372.42508  20565169.49700  20565168.91200  20565168.02300
       272.00000       150.00000
 04  8 23  1 27  0.0000000  0  8G29G15G18G 9G 3G26G22G21
  -6927227.42607  -5397840.80906  22959884.95600  22959885.08200  22959886.18600
        43.00000        29.00000
 -18681433.26808 -14556957.57807  21291819.17100  21291818.38000  21291818.47900
       149.00000        66.00000
 -21805923.02808 -16991626.04308  20522261.07400  20522260.82200  20522260.00400
       241.00000       234.00000
 -17760412.19508 -13839273.97207  21263391.22700  21263390.88000  21263392.09600
       186.00000        94.00000
   -210203.62106   -163796.63205  24494394.60700  24494394.99500  24494396.72900
        12.00000         5.00000
 -12694512.15608  -9891826.72207  21855846.75500  21855846.70000  21855846.86300
       112.00000        60.00000
 -13751838.67307 -10715713.17607  22400406.12700  22400406.24000  22400404.45800
       100.00000        50.00000
 -25706300.55608 -20030887.12708  20573591.24600  20573590.76700  20573589.51800
       286.00000       149.00000
 04  8 23  1 27 30.0000000  0  9G29G15G18G 9G 3G26G22G21G28
  -6839136.20407  -5329198.33106  22976648.81100  22976648.81200  22976649.43600
        46.00000        29.00000
 -18741124.88008 -14603470.51607  21280459.97100  21280459.32600  21280459.88500
       152.00000        70.00000
 -21840533.17408 -17018594.98208  20515675.06400  20515674.74700  20515673.91700
       239.00000       235.00000
 -17836379.54208 -13898469.28607  21248935.37100  21248935.04900  21248935.86700
       191.00000        92.00000
   -187671.72505   -146239.32505  24498683.52000  24498682.50200  24498684.61400
        10.00000         6.00000
 -12602905.54608  -9820444.97907  21873278.92600  21873278.76700  21873278.90300
       109.00000        60.00000
 -13829027.49807 -10775860.28707  22385716.98500  22385717.27900  22385715.67700
        97.00000        51.00000
 -25661458.85808 -19995945.56208  20582124.43400  20582124.03100  20582122.74900
       292.00000       149.00000
    -14775.19404    -11513.02605  25373166.67900  25373166.02700  25373163.63100
         1.00000         4.00000
 04  8 23  1 28  0.0000000  0  9G29G15G18G 9G 3G26G22G21G28
  -6750921.40507  -5260459.56806  22993436.03900  22993435.87900  22993436.19300
        49.00000        30.00000
 -18800289.61908 -14649572.90207  21269200.68900  21269200.22200  21269201.41700
       149.00000        76.00000
 -21874806.87108 -17045301.75508  20509152.91600  20509152.66000  20509151.84000
       239.00000       237.00000
 -17911821.29808 -13957255.04907  21234578.70800  21234578.55900  21234579.94200
       188.00000        94.00000
   -164637.05505   -128290.26905  24503066.56200  24503065.66800  24503067.28600
         8.00000         4.00000
 -12511069.63108  -9748884.55107  21890753.70300  21890754.28300  21890754.70200
       104.00000        58.00000
 -13906053.53708 -10835880.54107  22371060.64400  22371060.41500  22371057.92900
       105.00000        48.00000
 -25616034.27608 -19960549.80508  20590768.38800  20590767.92600  20590766.80000
       298.00000       150.00000
    -36539.50404    -28472.16804  25369025.08600  25369024.07800  25369022.66400
         1.00000         3.00000
 04  8 23  1 28 30.0000000  0 10G29G15G18G 9G 3G26G22G21G28G19
  -6662567.58607  -5191612.46606  23010249.51400  23010249.03600  23010249.08400
        49.00000        30.00000
 -18858907.68308 -14695249.30207  21258046.32700  21258045.85100  21258046.82700
       149.00000        80.00000
 -21908725.87708 -17071732.14508  20502698.23800  20502698.04900  20502697.18200
       234.00000       237.00000
 -17986717.65708 -14015615.83407  21220326.90200  21220326.51800  21220327.15800
       193.00000        93.00000
   -141083.87205   -109937.18405  24507548.52400  24507547.80700  24507549.57200
         8.00000         5.00000
 -12418989.45608  -9677133.79907  21908276.55700  21908276.65000  21908277.08600
       105.00000        55.00000
 -13982898.57208 -10895759.75407  22356437.51300  22356437.26000  22356435.36200
       102.00000        52.00000
 -25570010.69408 -19924687.29508  20599526.44400  20599526.01700  20599524.83800
       302.00000       151.00000
    -57808.38404    -45045.24604  25364977.88500  25364976.56600  25364974.43300
         1.00000         2.00000
    -14977.91806    -11671.59204  25233167.28700  25233165.76200  25233166.35500
        11.00000         3.00000
 04  8 23  1 29  0.0000000  0 10G29G15G18G 9G 3G26G22G21G28G19
  -6574062.33807  -5122647.39206  23027092.15600  23027091.73400  23027091.63800
        50.00000        31.00000
 -18916962.63208 -14740486.91107  21246998.87800  21246998.42500  21246999.20800
       147.00000        79.00000
 -21942274.95808 -17097874.28208  20496314.40800  20496313.93900  20496313.14600
       236.00000       242.00000
 -18061051.79108 -14073538.52107  21206181.40200  21206181.06400  21206181.92100
       194.00000        95.00000
   -116999.46205    -91170.11405  24512129.43300  24512130.16700  24512132.68400
        10.00000         7.00000
 -12326653.37108  -9605183.63607  21925847.60100  21925847.75900  21925848.12000
       105.00000        54.00000
 -14059547.61308 -10955486.25807  22341850.59300  22341851.10500  22341849.16700
       105.00000        53.00000
 -25523375.35308 -19888348.09008  20608400.68900  20608400.36000  20608399.20300
       300.00000       148.00000
    -78566.52300    -61220.41405  25361025.44400  25361023.27300  25361025.35700
          .00000         5.00000
    -59544.77105    -46399.02904  25224684.92800  25224684.71200  25224684.01700
         8.00000         3.00000
 04  8 23  1 29 30.0000000  0 10G29G15G18G 9G 3G26G22G21G28G19
  -6485479.19807  -5053621.60606  23043949.02300  23043948.40300  23043947.89900
        47.00000        29.00000
 -18974524.35508 -14785340.19307  21236045.61600  21236044.90700  21236045.65700
       147.00000        78.00000
 -21975525.08008 -17123783.46008  20489986.97600  20489986.62900  20489985.85300
       234.00000       242.00000
 -18134893.19108 -14131077.25907  21192130.01500  21192129.89000  21192130.63400
       207.00000        99.00000
    -92457.38106    -72046.43405  24516801.15200  24516801.04700  24516803.18900
        11.00000        10.00000
 -12234135.60807  -9533091.90307  21943453.43500  21943453.27700  21943453.56600
       100.00000        51.00000
 -14136071.51708 -11015115.24607  22327289.55800  22327289.28600  22327287.10500
       110.00000        53.00000
 -25476201.90108 -19851589.57908  20617377.60100  20617377.13400  20617376.19000
       297.00000       150.00000
    -98884.89200    -77052.91504  25357153.80000  25357155.93100  25357161.24300
          .00000         2.00000
   -103661.12805    -80775.42405  25216289.64600  25216287.05100  25216290.65000
         8.00000         5.00000
 04  8 23  1 30  0.0000000  0 10G29G15G28G19G18G 9G 3G26G22G21
  -6396780.39207  -4984505.68806  23060826.94200  23060826.77500  23060827.12600
        42.00000        30.00000
 -19031551.18708 -14829776.67707  21225193.11400  21225192.88800  21225193.89500
       153.00000        81.00000
   -118723.07400    -92511.20605  25353379.02600  25353385.09100  25353382.59400
          .00000         4.00000
   -147286.55506   -114769.25605  25207988.52300  25207988.17700  25207987.61700
        13.00000         5.00000
 -22008435.80308 -17149428.16908  20483724.27200  20483723.96500  20483723.08500
       239.00000       240.00000
 -18208199.96308 -14188199.40707  21178179.90600  21178179.63000  21178180.89500
       198.00000        99.00000
    -67419.92306    -52536.74005  24521565.87100  24521565.60100  24521567.53800
        12.00000         8.00000
 -12141399.09107  -9460829.71607  21961100.23700  21961100.43500  21961100.61500
        99.00000        48.00000
 -14212429.85408 -11074615.22507  22312758.97000  22312758.81500  22312757.02400
       110.00000        57.00000
 -25428452.15208 -19814382.00308  20626464.25100  20626463.76400  20626462.56800
       290.00000       147.00000
 04  8 23  1 30 30.0000000  0 10G29G15G28G19G18G 9G 3G26G22G21
  -6307977.38307  -4915308.57306  23077724.36200  23077724.72800  23077725.75500
        37.00000        27.00000
 -19088050.88008 -14873802.39407  21214441.81800  21214441.26700  21214442.32000
       150.00000        82.00000
   -138089.86000   -107602.24105  25349698.00900  25349698.79200  25349699.33700
          .00000         5.00000
   -190429.62406   -148387.21605  25199778.79100  25199778.94900  25199778.42700
        15.00000         6.00000
 -22041016.34408 -17174815.59608  20477524.50000  20477524.09400  20477523.21600
       238.00000       240.00000
 -18280979.35108 -14244910.60707  21164330.74700  21164330.51000  21164331.10000
       204.00000        99.00000
    -41898.32006    -32649.85105  24526422.51200  24526422.00300  24526424.62700
        12.00000         7.00000
 -12048456.11607  -9388406.64807  21978787.52300  21978786.98500  21978787.29700
        96.00000        50.00000
 -14288631.59808 -11133993.17007  22298257.76200  22298257.79100  22298256.13400
       109.00000        56.00000
 -25380137.28608 -19776734.07708  20635658.28400  20635657.65500  20635656.72600
       282.00000       147.00000
 04  8 23  1 31  0.0000000  0 10G29G15G28G19G18G 9G 3G26G22G21
  -6219066.87207  -4846027.67906  23094643.42800  23094643.43300  23094644.42400
        33.00000        24.00000
 -19144016.46108 -14917411.92807  21203791.94200  21203791.37200  21203792.45900
       151.00000        82.00000
   -156979.44100   -122321.37004  25346098.67200  25346105.86900  25346114.45100
          .00000         3.00000
   -233084.23706   -181624.55405  25191662.19400  25191662.39900  25191661.94700
        16.00000         5.00000
 -22073260.83008 -17199941.16108  20471388.56200  20471388.19100  20471387.14400
       238.00000       238.00000
 -18353223.90508 -14301205.05408  21150582.78000  21150582.46000  21150583.73600
       200.00000       104.00000
    -15889.48806    -12383.28705  24531371.65800  24531371.85000  24531373.24400
        12.00000         6.00000
 -11955304.17707  -9315820.75107  21996513.44000  21996513.18500  21996513.58100
        97.00000        50.00000
 -14364670.95108 -11193244.59507  22283788.29400  22283788.07200  22283785.91600
       114.00000        53.00000
 -25331254.03508 -19738643.24908  20644960.15600  20644959.67800  20644958.84500
       274.00000       143.00000
 04  8 23  1 31 30.0000000  0 10G29G15G28G19G18G 9G 3G26G22G21
  -6130006.72507  -4776630.19906  23111591.62900  23111591.51900  23111592.22600
        34.00000        24.00000
 -19199401.71308 -14960569.25107  21193252.69600  21193251.97300  21193252.80000
       154.00000        78.00000
   -175346.77400   -136633.60605  25342608.71500  25342607.53200  25342608.36400
          .00000         6.00000
   -275205.07706   -214445.95605  25183648.01600  25183646.66800  25183646.34600
        15.00000         5.00000
 -22105124.10208 -17224769.67808  20465325.14300  20465324.75300  20465323.73300
       237.00000       236.00000
 -18424887.16808 -14357046.53608  21136945.41400  21136945.27000  21136946.62700
       201.00000       104.00000
     10648.95006      8295.97105  24536421.62400  24536421.21000  24536423.69100
        11.00000         6.00000
 -11861901.72308  -9243039.63907  22014286.86800  22014287.04900  22014288.11500
       101.00000        53.00000
 -14440502.75808 -11252334.28407  22269357.89700  22269357.76900  22269355.94800
       115.00000        55.00000
 -25281759.54608 -19700076.13508  20654378.85500  20654378.38500  20654377.51900
       271.00000       145.00000
 04  8 23  1 32  0.0000000  0 10G29G15G28G19G18G 9G 3G26G22G21
  -6040856.78707  -4707162.74606  23128556.85500  23128556.59000  23128556.44500
        38.00000        23.00000
 -19254263.14508 -15003318.41407  21182812.53700  21182812.00500  21182812.61000
       157.00000        73.00000
   -193249.64200   -150583.84105  25339201.17400  25339201.00700  25339203.19000
          .00000         6.00000
   -316849.26206   -246895.96405  25175722.46300  25175720.87800  25175721.33800
        13.00000         4.00000
 -22136663.89808 -17249346.14508  20459323.14900  20459322.94100  20459321.91800
       237.00000       238.00000
 -18496025.18108 -14412478.74708  21123408.21400  21123408.35900  21123409.27800
       213.00000       104.00000
     37656.86005     29341.07705  24541560.47200  24541560.42500  24541563.51800
        10.00000         6.00000
 -11768309.52908  -9170110.68107  22032097.36700  22032097.41800  22032097.94000
       107.00000        53.00000
 -14516184.74108 -11311307.23207  22254956.21600  22254955.90100  22254954.21700
       110.00000        59.00000
 -25231713.80908 -19661079.47808  20663901.80800  20663901.37300  20663900.60900
       258.00000       137.00000
 04  8 23  1 32 30.0000000  0 10G29G15G28G19G18G 9G 3G26G22G21
  -5951616.51307  -4637624.90906  23145540.00700  23145539.84400  23145538.74700
        43.00000        22.00000
 -19308596.22108 -15045655.87307  21172473.42800  21172472.91100  21172473.79400
       160.00000        76.00000
   -210684.51104   -164169.43905  25335885.44300  25335886.45200  25335884.18400
         3.00000         6.00000
   -358013.56906   -278972.04905  25167889.58000  25167887.23200  25167888.01000
        15.00000         4.00000
 -22167876.97708 -17273668.02108  20453383.41100  20453383.24500  20453382.31200
       232.00000       243.00000
 -18566633.00308 -14467497.81608  21109972.47300  21109972.24600  21109973.05700
       213.00000       105.00000
     65135.28106     50752.78905  24546789.24600  24546789.45600  24546792.81000
        15.00000         8.00000
 -11674527.61208  -9097033.89907  22049944.18200  22049943.96000  22049944.12800
       109.00000        52.00000
 -14591713.34208 -11370160.64907  22240583.41200  22240583.23100  22240581.44200
       110.00000        58.00000
 -25181116.33008 -19621652.89608  20673530.79100  20673530.31400  20673529.36400
       267.00000       140.00000
 04  8 23  1 33  0.0000000  0 10G29G15G28G19G18G 9G 3G26G22G21
  -5862257.75407  -4567994.73706  23162543.85800  23162543.77800  23162542.94900
        42.00000        20.00000
 -19362369.27508 -15087556.95007  21162240.69100  21162240.15500  21162240.92200
       160.00000        79.00000
   -227620.96504   -177366.64305  25332662.20700  25332662.55700  25332661.48600
         2.00000         6.00000
   -398667.28206   -310650.23304  25160152.21400  25160150.98800  25160151.87100
        14.00000         3.00000
 -22198732.66408 -17297711.40508  20447511.88200  20447511.62600  20447510.75000
       232.00000       248.00000
 -18636678.83608 -14522078.95708  21096643.36000  21096643.03000  21096643.87700
       218.00000       105.00000
     93111.75106     72552.58905  24552114.31100  24552113.70500  24552116.41900
        17.00000         7.00000
 -11580528.67608  -9023788.00907  22067831.08600  22067830.96400  22067831.09700
       101.00000        49.00000
 -14667058.03208 -11428870.76707  22226245.08400  22226245.32400  22226243.88800
       113.00000        59.00000
 -25129938.91408 -19581774.40908  20683269.45500  20683268.83900  20683267.86100
       264.00000       136.00000
 04  8 23  1 33 30.0000000  0 10G29G15G28G19G18G 9G 3G26G22G21
  -5772815.64107  -4498299.61506  23179563.48500  23179563.46400  23179564.09000
        40.00000        23.00000
 -19415613.54208 -15129045.97407  21152108.98200  21152108.31700  21152109.11700
       166.00000        81.00000
   -244091.41704   -190200.76205  25329526.40100  25329527.25400  25329526.55200
         1.00000         5.00000
   -438842.44806   -341955.53504  25152507.96000  25152506.82200  25152506.80700
        15.00000         3.00000
 -22229263.29208 -17321501.50308  20441702.30000  20441701.98000  20441700.97900
       238.00000       253.00000
 -18706193.67508 -14576246.36308  21083415.14600  21083414.83700  21083415.26100
       220.00000       103.00000
    121551.29306     94713.23105  24557525.23000  24557525.48200  24557529.37400
        17.00000         8.00000
 -11486348.30007  -8950400.73907  22085752.15100  22085752.60500  22085752.89200
        96.00000        47.00000
 -14742251.10808 -11487462.74307  22211936.29600  22211936.56700  22211934.97100
       115.00000        58.00000
 -25078216.44508 -19541471.20408  20693111.67000  20693111.30400  20693110.44500
       270.00000       134.00000
 04  8 23  1 34  0.0000000  0 10G29G15G28G19G18G 9G 3G26G22G21
  -5683259.91707  -4428515.95706  23196604.67700  23196604.77800  23196605.97200
        36.00000        22.00000
 -19468295.23308 -15170096.63507  21142084.06200  21142083.40900  21142083.78400
       173.00000        78.00000
   -260063.21504   -202646.32905  25326487.48300  25326487.52700  25326488.11800
         1.00000         6.00000
   -478506.18406   -372862.31904  25144959.96600  25144958.69800  25144958.91600
        12.00000         2.00000
 -22259436.21608 -17345012.85908  20435960.64800  20435960.28300  20435959.34200
       237.00000       257.00000
 -18775143.21408 -14629973.25308  21070294.71100  21070294.21400  21070294.53900
       221.00000       103.00000
    150483.95206    117258.11805  24563031.49200  24563031.08200  24563033.35800
        11.00000         7.00000
 -11391957.29607  -8876849.34007  22103714.71400  22103714.81600  22103714.94800
        96.00000        46.00000
 -14817259.78908 -11545911.03807  22197662.54900  22197662.63600  22197660.76300
       115.00000        56.00000
 -25025918.73008 -19500719.75108  20703063.80000  20703063.37700  20703062.26300
       268.00000       132.00000
 04  8 23  1 34 30.0000000  0 10G29G15G28G19G18G 9G 3G26G22G21
  -5593610.04507  -4358658.94706  23213664.24700  23213664.00500  23213665.42300
        32.00000        24.00000
 -19520429.95208 -15210721.08607  21132162.84500  21132162.31900  21132162.95900
       170.00000        77.00000
   -275553.55104   -214716.71005  25323539.07000  25323538.57400  25323539.97400
         2.00000         5.00000
   -517675.12606   -403383.55604  25137506.41900  25137506.55400  25137506.08700
        12.00000         3.00000
 -22289267.99208 -17368258.39008  20430283.78200  20430283.38200  20430282.32100
       232.00000       251.00000
 -18843542.76608 -14683271.59508  21057278.41600  21057278.15700  21057278.84700
       226.00000       106.00000
    179890.34005    140172.13005  24568627.87900  24568627.22400  24568629.55600
        10.00000         7.00000
 -11297375.52407  -8803149.28607  22121712.99400  22121713.00200  22121713.67800
        95.00000        47.00000
 -14892100.77908 -11604228.67007  22183421.52400  22183421.41200  22183419.22300
       120.00000        57.00000
 -24973064.80608 -19459534.89308  20713121.45300  20713121.05000  20713120.30000
       268.00000       134.00000
 04  8 23  1 35  0.0000000  0 10G29G15G28G19G18G 9G 3G26G22G21
  -5503850.78106  -4288716.69606  23230745.04400  23230744.79700  23230745.84000
        30.00000        24.00000
 -19571999.21408 -15250904.91107  21122349.43300  21122348.74300  21122349.68200
       159.00000        82.00000
   -290544.67000   -226398.08505  25320685.90100  25320684.65900  25320687.93200
          .00000         6.00000
   -556331.71805   -433505.57904  25130150.96200  25130149.24900  25130148.88300
         8.00000         2.00000
 -22318741.40808 -17391224.68708  20424674.86300  20424674.71300  20424673.65000
       234.00000       246.00000
 -18911373.36808 -14736126.57908  21044370.46300  21044370.25300  21044371.06000
       221.00000       108.00000
    209785.14706    163466.72405  24574316.84300  24574316.19200  24574318.70100
        11.00000         7.00000
 -11202588.74007  -8729289.47607  22139750.98900  22139750.51800  22139751.12400
        94.00000        48.00000
 -14966756.54108 -11662401.96907  22169215.16800  22169214.85700  22169212.94300
       120.00000        59.00000
 -24919639.75808 -19417905.00508  20723287.54000  20723287.39100  20723286.55100
       262.00000       130.00000
 04  8 23  1 35 30.0000000  0  9G29G15G28G18G 9G 3G26G22G21
  -5413982.36006  -4218689.40606  23247846.66600  23247846.47400  23247847.65000
        30.00000        25.00000
 -19622999.38208 -15290645.28607  21112643.98500  21112643.69900  21112644.75500
       165.00000        84.00000
   -305034.45800   -237688.82505  25317926.57800  25317927.04900  25317930.88000
          .00000         4.00000
 -22347854.07408 -17413909.88108  20419135.07200  20419134.86100  20419133.61500
       235.00000       243.00000
 -18978630.94208 -14788535.05608  21031571.41900  21031571.22400  21031572.10300
       219.00000       106.00000
    240168.30806    187141.86905  24580098.69800  24580098.37300  24580100.32000
        18.00000         7.00000
 -11107597.63307  -8655270.46807  22157826.17500  22157826.60400  22157827.52000
        94.00000        51.00000
 -15041224.43908 -11720428.87807  22155043.95000  22155043.93700  22155042.05100
       124.00000        60.00000
 -24865643.91708 -19375830.33508  20733562.79800  20733562.33700  20733561.73300
       256.00000       130.00000
 04  8 23  1 36  0.0000000  0  9G29G15G28G18G 9G 3G26G22G21
  -5324017.76106  -4148587.14506  23264967.29800  23264967.14100  23264967.34300
        31.00000        25.00000
 -19673440.12708 -15329949.75407  21103046.08400  21103045.50900  21103046.08100
       168.00000        84.00000
   -319033.22900   -248597.01505  25315263.71000  25315263.20200  25315266.00700
          .00000         5.00000
 -22376616.17808 -17436321.90508  20413661.98300  20413661.53400  20413660.40700
       230.00000       247.00000
 -19045324.94008 -14840504.38608  21018880.13100  21018879.76700  21018880.71500
       215.00000       107.00000
    271026.65306    211187.28705  24585970.84500  24585970.62800  24585972.90200
        20.00000         7.00000
 -11012416.24207  -8581103.18707  22175939.43100  22175939.33000  22175939.88000
        90.00000        50.00000
 -15115514.96808 -11778317.56907  22140906.89700  22140906.82800  22140904.87100
       125.00000        60.00000
 -24811090.27008 -19333321.00808  20743944.20900  20743943.78200  20743942.88000
       258.00000       123.00000
 04  8 23  1 36 30.0000000  0 10G29G15G28G18G 9G 3G26G22G21G19
  -5233932.56807  -4078390.94806  23282110.71500  23282110.28100  23282110.28500
        34.00000        24.00000
 -19723293.38508 -15368796.44007  21093559.15900  21093558.61800  21093559.37100
       173.00000        83.00000
   -332514.74404   -259102.09205  25312699.25500  25312701.04600  25312699.98200
         1.00000         4.00000
 -22405001.00208 -17458439.94308  20408260.50300  20408260.02500  20408259.08600
       230.00000       257.00000
 -19111426.91808 -14892012.39108  21006301.49800  21006300.92100  21006302.23400
       212.00000       111.00000
    302384.01406    235621.56905  24591938.18500  24591938.09000  24591939.13100
        16.00000         4.00000
 -10917020.74707  -8506769.06707  22194092.74600  22194092.50400  22194093.02800
        86.00000        50.00000
 -15189600.99208 -11836046.91007  22126808.06900  22126808.45000  22126806.69900
       123.00000        60.00000
 -24755954.69008 -19290358.23908  20754436.19100  20754435.62400  20754434.73800
       254.00000       122.00000
         -.61115         -.31610  25108668.53800  25108667.67300  25108668.18500
        10.00000          .00000
 04  8 23  1 37  0.0000000  0  9G29G15G28G18G 9G 3G26G22G21
  -5143793.11107  -4008152.43806  23299263.52700  23299263.27300  23299263.29100
        38.00000        23.00000
 -19772621.82108 -15407234.18407  21084172.45700  21084171.88300  21084172.39000
       179.00000        84.00000
   -345542.71305   -269253.74505  25310222.94800  25310222.09500  25310220.71000
         4.00000         5.00000
 -22433072.16808 -17480313.57308  20402918.92100  20402918.27600  20402917.40200
       225.00000       263.00000
 -19176999.49008 -14943107.88008  20993823.30900  20993823.00300  20993823.80400
       215.00000       107.00000
    334174.11206    260393.04805  24597986.39100  24597986.27000  24597989.35800
        11.00000         5.00000
 -10821478.21207  -8432320.37707  22212272.85300  22212273.55700  22212273.85800
        82.00000        46.00000
 -15263546.33208 -11893666.63207  22112737.84000  22112737.57000  22112735.50000
       128.00000        62.00000
 -24700303.67308 -19246993.82708  20765026.05000  20765025.49900  20765024.97000
       250.00000       121.00000
 04  8 23  1 37 30.0000000  0  9G29G15G28G18G 9G 3G26G22G21
  -5053593.03607  -3937866.70306  23316428.73100  23316428.06000  23316427.91900
        40.00000        20.00000
 -19821415.63408 -15445255.32807  21074887.36000  21074886.69600  21074887.40500
       187.00000        90.00000
   -358108.60804   -279045.32905  25307830.16700  25307830.67700  25307830.48000
         3.00000         5.00000
 -22460821.01808 -17501936.04508  20397638.52700  20397637.96700  20397636.96600
       226.00000       263.00000
 -19242032.58208 -14993782.99308  20981448.04500  20981447.65300  20981448.35600
       216.00000       107.00000
    366402.93305    285506.35605  24604120.29100  24604119.59000  24604121.10600
         8.00000         4.00000
 -10725782.92907  -8357752.64807  22230483.47200  22230483.48400  22230484.24200
        77.00000        46.00000
 -15337342.14508 -11951169.84107  22098694.86300  22098694.68200  22098692.40900
       132.00000        60.00000
 -24644130.99408 -19203222.92508  20775715.21700  20775714.84300  20775714.03700
       246.00000       117.00000
 04  8 23  1 38  0.0000000  0  9G29G15G28G18G 9G 3G26G22G21
  -4963255.03407  -3867473.48306  23333618.45600  23333618.21200  23333618.51000
        37.00000        20.00000
 -19869594.18308 -15482797.04907  21065718.92000  21065718.39300  21065719.32800
       184.00000        90.00000
   -370133.16904   -288415.10405  25305544.94100  25305544.44800  25305542.01100
         3.00000         6.00000
 -22488167.84608 -17523245.25508  20392434.11600  20392433.79900  20392433.03500
       221.00000       266.00000
 -19306445.12208 -15043974.55408  20969190.31800  20969190.04900  20969191.22600
       212.00000       110.00000
    399147.35006    311021.43105  24610351.72000  24610351.41000  24610352.96500
        13.00000         6.00000
 -10629858.49707  -8283006.37607  22248736.96400  22248737.17500  22248737.93300
        79.00000        44.00000
 -15410908.57408 -12008494.30607  22084695.23600  22084695.31900  22084693.14800
       134.00000        61.00000
 -24587359.49608 -19158985.43308  20786518.72400  20786518.25900  20786517.41800
       252.00000       116.00000
 04  8 23  1 38 30.0000000  0 10G29G15G28G18G 9G 3G26G22G21G19
  -4872814.85307  -3797000.64506  23350828.12500  23350827.65600  23350828.54500
        33.00000        18.00000
 -19917189.43708 -15519884.24907  21056662.29900  21056661.64100  21056662.03800
       186.00000        88.00000
   -381649.44905   -297388.81705  25303350.54700  25303351.26900  25303351.14600
         4.00000         7.00000
 -22515145.66108 -17544266.92308  20387300.59900  20387300.17300  20387299.26500
       220.00000       267.00000
 -19370268.66008 -15093707.16308  20957045.30900  20957045.17100  20957045.71500
       225.00000       108.00000
    432371.47806    336910.31805  24616674.14600  24616673.95800  24616674.89100
        14.00000         5.00000
 -10533741.01407  -8208109.66407  22267028.10300  22267027.87000  22267029.23600
        79.00000        45.00000
 -15484278.38808 -12065665.56807  22070733.13800  22070733.43300  22070731.17600
       133.00000        62.00000
 -24530024.93708 -19114309.17908  20797429.17800  20797428.68900  20797428.02500
       250.00000       116.00000
         -.12316         -.10210  25081365.63900  25081364.80600  25081365.30600
        24.00000          .00000
 04  8 23  1 39  0.0000000  0  9G29G15G28G18G 9G 3G26G22G21
  -4782275.81806  -3726450.76206  23368056.06700  23368056.01000  23368057.76400
        29.00000        18.00000
 -19964201.59708 -15556517.09907  21047716.33600  21047715.55000  21047715.94700
       188.00000        89.00000
   -392658.77405   -305967.49405  25301258.28100  25301256.91500  25301255.75600
         5.00000         6.00000
 -22541755.67008 -17565001.98708  20382236.91900  20382236.49300  20382235.59100
       224.00000       267.00000
 -19433503.13008 -15142980.75208  20945012.53100  20945012.18300  20945012.67200
       228.00000       112.00000
    466071.37306    363169.91605  24623088.03000  24623087.59700  24623088.38100
        16.00000         6.00000
 -10437434.81107  -8133065.90107  22285354.73700  22285354.68200  22285355.44600
        82.00000        43.00000
 -15557452.51308 -12122684.34007  22056808.28400  22056808.70800  22056806.91600
       133.00000        65.00000
 -24472131.24008 -19069197.22908  20808446.01500  20808445.54300  20808444.91900
       255.00000       117.00000
 04  8 23  1 39 30.0000000  0  9G29G15G28G18G 9G 3G26G22G21
  -4691690.41106  -3655864.74806  23385293.58000  23385293.77800  23385295.68300
        25.00000        18.00000
 -20010679.68008 -15592733.78507  21038871.76700  21038871.10100  21038871.58900
       185.00000        93.00000
   -403211.54305   -314190.43305  25299248.31200  25299248.04300  25299247.47400
         7.00000         6.00000
 -22568047.52308 -17585489.14408  20377233.88400  20377233.44300  20377232.32500
       226.00000       265.00000
 -19496197.16608 -15191833.22808  20933082.01100  20933081.69600  20933082.34500
       228.00000       111.00000
    500194.16105    389759.06805  24629580.26700  24629579.84800  24629582.42400
        10.00000         7.00000
 -10340993.07607  -8057916.52507  22303706.82500  22303706.84700  22303707.64800
        78.00000        41.00000
 -15630480.78008 -12179589.45907  22042912.49000  22042912.35800  22042909.83400
       142.00000        64.00000
 -24413730.88708 -19023690.48708  20819559.48600  20819558.97100  20819558.16100
       256.00000       118.00000
 04  8 23  1 40  0.0000000  0 10G29G15G28G18G 9G 3G26G22G21G19
  -4600993.39506  -3585191.77406  23402553.65800  23402553.55100  23402554.77900
        26.00000        20.00000
 -20056555.16008 -15628480.91007  21030141.47900  21030141.03000  21030141.95700
       180.00000        94.00000
   -413240.34105   -322005.04505  25297339.43200  25297339.16900  25297338.95600
         6.00000         5.00000
 -22593953.62108 -17605675.70908  20372304.09200  20372303.65800  20372302.37800
       225.00000       262.00000
 -19558281.94308 -15240210.96008  20921267.69600  20921267.38100  20921268.15200
       235.00000       113.00000
    534804.73905    416728.32005  24636164.21800  24636165.04900  24636169.03100
         5.00000         5.00000
 -10244351.15907  -7982611.16907  22322096.98700  22322097.11700  22322098.00300
        78.00000        41.00000
 -15703295.51108 -12236328.19007  22029056.78400  22029056.39600  22029053.66700
       145.00000        67.00000
 -24354758.96008 -18977738.36408  20830781.12600  20830780.92100  20830779.96900
       261.00000       114.00000
         -.71516          .41710  25061920.82300  25061918.94100  25061920.64700
        17.00000          .00000
 04  8 23  1 40 30.0000000  0  9G29G15G28G18G 9G 3G26G22G21
  -4510209.77706  -3514451.33606  23419829.95000  23419829.72900  23419830.27900
        26.00000        19.00000
 -20101849.74008 -15663775.38707  21021521.95500  21021521.42300  21021522.47900
       177.00000        91.00000
   -422767.82004   -329429.07305  25295526.29500  25295525.01800  25295527.39400
         3.00000         6.00000
 -22619496.76108 -17625579.45608  20367443.37500  20367442.97700  20367441.74400
       225.00000       266.00000
 -19619778.91408 -15288130.65308  20909564.95900  20909564.81200  20909565.53100
       236.00000       112.00000
    569877.57605    444057.79105  24642840.11400  24642841.36800  24642841.92800
         8.00000         4.00000
 -10147534.90407  -7907169.96107  22340520.65400  22340520.56500  22340521.52500
        75.00000        42.00000
 -15775919.06008 -12292917.93607  22015236.47300  22015236.15200  22015234.03400
       146.00000        69.00000
 -24295240.94708 -18931360.71708  20842107.17100  20842106.69200  20842105.99300
       257.00000       117.00000
 04  8 23  1 41  0.0000000  0  9G29G15G28G18G 9G 3G26G22G21
  -4419320.11106  -3443628.27506  23437125.81200  23437125.53900  23437126.46400
        28.00000        20.00000
 -20146540.64308 -15698599.46607  21013017.87900  21013017.29400  21013017.86000
       178.00000        90.00000
   -431772.72705   -336445.88505  25293810.51500  25293810.86800  25293813.32100
         4.00000         7.00000
 -22644655.01008 -17645183.27508  20362655.86500  20362655.43000  20362654.45300
       219.00000       273.00000
 -19680664.95408 -15335574.30508  20897979.04400  20897978.89700  20897979.20700
       244.00000       111.00000
    605431.69205    471762.27005  24649606.44600  24649606.43600  24649608.14500
         5.00000         5.00000
 -10050525.64207  -7831578.36207  22358980.89900  22358980.97300  22358981.38000
        75.00000        40.00000
 -15848329.45608 -12349341.59707  22001456.69600  22001456.85100  22001454.88300
       152.00000        69.00000
 -24235157.91408 -18884542.78908  20853540.60300  20853540.22800  20853539.63400
       254.00000       116.00000
 04  8 23  1 41 30.0000000  0  9G29G15G28G18G 9G 3G26G22G21
  -4328399.21606  -3372780.86406  23454426.80600  23454427.18900  23454428.12200
        27.00000        20.00000
 -20190699.06308 -15733008.62707  21004614.69700  21004614.12000  21004614.90800
       173.00000        92.00000
   -440327.76905   -343112.18405  25292183.25800  25292183.63200  25292185.42800
         6.00000         8.00000
 -22669500.75908 -17664543.60008  20357927.70000  20357927.32000  20357926.57500
       218.00000       279.00000
 -19741011.29208 -15382597.40608  20886495.30800  20886495.15600  20886495.87100
       244.00000       115.00000
    641391.87905    499783.13004  24656450.99300  24656450.87900  24656450.64900
         4.00000         2.00000
  -9953398.77507  -7755895.13407  22377463.77800  22377463.84600  22377464.29300
        78.00000        41.00000
 -15920598.90308 -12405655.42607  21987704.07700  21987704.20200  21987702.14000
       152.00000        67.00000
 -24174584.78808 -18837342.98608  20865067.23800  20865066.88300  20865066.30400
       255.00000       114.00000
 04  8 23  1 42  0.0000000  0 10G29G15G28G18G 9G 3G26G22G21G19
  -4237382.52206  -3301858.81906  23471746.05300  23471746.73000  23471748.13500
        25.00000        22.00000
 -20234257.20108 -15766950.03007  20996325.81600  20996325.27200  20996326.22700
       174.00000        95.00000
   -448366.23605   -349375.90905  25290654.08700  25290653.64100  25290655.87000
         6.00000         7.00000
 -22693966.91008 -17683608.13208  20353272.10900  20353271.71600  20353270.73900
       218.00000       279.00000
 -19800749.67408 -15429146.77108  20875127.43000  20875127.30800  20875127.98100
       245.00000       114.00000
    677822.43105    528170.48805  24663382.68700  24663382.50300  24663383.15200
         5.00000         4.00000
  -9856090.24107  -7680070.33707  22395981.18800  22395981.21000  22395981.62400
        80.00000        41.00000
 -15992660.13808 -12461807.01907  21973991.93700  21973991.71600  21973989.34100
       154.00000        68.00000
 -24113457.21908 -18789711.13508  20876699.49700  20876698.93100  20876698.29800
       250.00000       110.00000
         -.19715          .27510  25037365.77800  25037365.73800  25037365.43500
         7.00000          .00000
 04  8 23  1 42 30.0000000  0  9G29G15G28G18G 9G 3G26G22G21
  -4146282.60406  -3230871.90306  23489082.13200  23489082.27000  23489083.31200
        24.00000        20.00000
 -20277224.54508 -15800431.07507  20988149.80600  20988149.20600  20988149.95100
       182.00000       100.00000
   -455898.80005   -355245.43305  25289222.58100  25289221.55700  25289221.73300
         4.00000         5.00000
 -22718063.85508 -17702384.97308  20348686.65100  20348686.14800  20348685.16500
       216.00000       278.00000
 -19859889.14308 -15475229.44608  20863873.93800  20863873.66800  20863873.90100
       253.00000       114.00000
    714709.86705    556913.89805  24670400.53800  24670399.29900  24670403.64600
         5.00000         4.00000
  -9758613.69207  -7604114.62007  22414530.27400  22414530.44900  22414531.44000
        81.00000        42.00000
 -16064523.24408 -12517804.22607  21960316.77600  21960316.62300  21960314.32200
       148.00000        71.00000
 -24051788.64808 -18741657.73408  20888434.94800  20888434.48000  20888433.58200
       258.00000       109.00000
 04  8 23  1 43  0.0000000  0  9G29G15G28G18G 9G 3G26G22G21
  -4055124.15206  -3159839.36906  23506429.67600  23506429.28700  23506430.54700
        24.00000        20.00000
 -20319622.77808 -15833468.65307  20980081.41700  20980080.77500  20980081.85800
       174.00000        99.00000
   -462948.38604   -360738.62405  25287876.53400  25287877.89300  25287880.80800
         3.00000         5.00000
 -22741813.96708 -17720891.54608  20344167.03900  20344166.67500  20344165.67800
       219.00000       276.00000
 -19918450.98808 -15520862.02908  20852730.15800  20852729.61500  20852730.14300
       247.00000       117.00000
    752028.95105    585993.65705  24677503.20900  24677502.69000  24677504.92600
        10.00000         4.00000
  -9660994.49907  -7528047.74507  22433106.75500  22433106.41500  22433107.51600
        76.00000        40.00000
 -16136210.44908 -12573664.35307  21946675.14000  21946674.94300  21946672.66400
       151.00000        70.00000
 -23989604.11308 -18693202.26408  20900268.07200  20900267.52500  20900266.73500
       251.00000       103.00000
 04  8 23  1 43 30.0000000  0 10G29G15G28G18G 9G 3G26G22G21G19
  -3963860.26006  -3088724.69006  23523795.55200  23523795.54700  23523797.20800
        23.00000        19.00000
 -20361401.72708 -15866023.67707  20972131.27000  20972130.50000  20972131.40500
       173.00000        97.00000
   -469465.91005   -365817.20405  25286641.35700  25286639.46800  25286639.53200
         6.00000         5.00000
 -22765167.77608 -17739089.31608  20339722.99200  20339722.53500  20339721.52700
       216.00000       275.00000
 -19976384.71308 -15566005.16308  20841705.60900  20841705.21200  20841705.68400
       252.00000       118.00000
    789826.25505    615446.08504  24684695.49000  24684694.91900  24684696.35200
         8.00000         3.00000
  -9563186.20607  -7451833.51407  22451718.24100  22451718.49100  22451719.50300
        71.00000        38.00000
 -16207672.20208 -12629348.82007  21933076.34900  21933076.30500  21933073.91300
       157.00000        68.00000
 -23926857.00408 -18644308.41608  20912208.35700  20912208.05800  20912207.37500
       257.00000       106.00000
         -.52815         -.33610  25019984.84500  25019982.95100  25019984.01300
         4.00000          .00000
 04  8 23  1 44  0.0000000  0  9G29G15G28G18G 9G 3G26G22G21
  -3872520.88606  -3017551.18406  23541177.85700  23541177.37800  23541178.92000
        25.00000        18.00000
 -20402588.47708 -15898117.24307  20964293.49700  20964292.99200  20964293.81600
       184.00000        97.00000
   -475479.64905   -370503.20805  25285495.78000  25285496.13600  25285495.31500
         6.00000         4.00000
 -22788152.89308 -17756999.79708  20335349.07500  20335348.66700  20335347.56200
       215.00000       273.00000
 -20033717.08808 -15610679.72308  20830794.73900  20830794.74700  20830795.57600
       247.00000       118.00000
    828071.02106    645247.17104  24691973.61700  24691972.99300  24691974.69900
        12.00000         3.00000
  -9465219.61107  -7375495.94307  22470361.43300  22470361.22200  22470362.14700
        69.00000        35.00000
 -16278935.90708 -12684878.95907  21919515.09400  21919515.03400  21919513.03600
       155.00000        73.00000
 -23863578.02208 -18595000.12108  20924250.25600  20924249.74400  20924248.79100
       257.00000       102.00000
 04  8 23  1 44 30.0000000  0  9G29G15G28G18G 9G 3G26G22G21
  -3781130.60406  -2946338.02306  23558569.37000  23558569.15800  23558568.92500
        28.00000        15.00000
 -20443204.10208 -15929765.78007  20956564.25900  20956563.88500  20956564.70000
       185.00000        94.00000
   -481011.94205   -374814.07505  25284443.60000  25284442.84700  25284442.04300
         6.00000         5.00000
 -22810791.36808 -17774640.16708  20331041.27900  20331040.67500  20331039.54400
       212.00000       271.00000
 -20090469.07008 -15654902.03008  20819995.54900  20819995.37900  20819996.13300
       250.00000       121.00000
    866737.89706    675377.17505  24699331.46400  24699331.71300  24699333.46000
        14.00000         5.00000
  -9367119.96107  -7299054.68807  22489028.66900  22489028.78100  22489029.77000
        68.00000        34.00000
 -16350023.52708 -12740271.88907  21905988.01000  21905987.91500  21905985.51900
       160.00000        77.00000
 -23799792.07208 -18545296.78308  20936387.91800  20936387.50000  20936386.83600
       248.00000       101.00000
 04  8 23  1 45  0.0000000  0  9G26G29G22G28G15G18G 9G 3G21
  -9268834.35707  -7222468.53506  22507731.89600  22507732.47700  22507732.36500
        71.00000        31.00000
  -3689635.59706  -2875043.24506  23575980.75500  23575980.41100  23575980.71200
        28.00000        16.00000
 -16420878.78608 -12795483.75807  21892504.45600  21892504.39200  21892502.11600
       160.00000        74.00000
   -486007.50804   -378706.71705  25283492.87600  25283492.79900  25283492.92800
         3.00000         4.00000
 -20483191.88808 -15960925.08807  20948954.86300  20948954.50400  20948955.13200
       192.00000        90.00000
 -22833027.42008 -17791966.95108  20326809.65300  20326809.32400  20326808.08100
       210.00000       269.00000
 -20146583.62608 -15698627.62408  20809317.14400  20809317.23600  20809317.88400
       252.00000       123.00000
    905880.11005    705877.53105  24706779.16400  24706779.35600  24706782.96400
         7.00000         5.00000
 -23735446.39108 -18495157.29808  20948633.22900  20948632.63500  20948631.54400
       250.00000       102.00000
 04  8 23  1 45 30.0000000  0  9G26G29G22G28G15G18G 9G 3G21
  -9170382.58907  -7145752.90007  22526467.33200  22526467.22300  22526467.54900
        73.00000        33.00000
  -3598055.24206  -2803681.96906  23593407.52600  23593406.76900  23593407.21900
        26.00000        14.00000
 -16491518.25908 -12850527.48507  21879062.20500  21879062.03700  21879059.81900
       159.00000        73.00000
   -490483.50104   -382194.51205  25282638.13000  25282638.85600  25282640.00500
         1.00000         4.00000
 -20522567.60608 -15991607.46907  20941462.54400  20941461.97700  20941462.33000
       206.00000        92.00000
 -22854877.82908 -17808993.24308  20322651.53300  20322651.27900  20322650.12700
       209.00000       274.00000
 -20202076.38208 -15741868.70808  20798756.95400  20798756.91900  20798757.99800
       243.00000       125.00000
    945477.83904    736732.86105  24714315.76900  24714314.23800  24714317.55400
         3.00000         5.00000
 -23670560.40408 -18444596.80708  20960979.84800  20960979.54400  20960979.11700
       242.00000       103.00000
 04  8 23  1 46  0.0000000  0 10G26G29G22G28G15G18G 9G 3G21G19
  -9071807.66107  -7068941.29007  22545225.64300  22545225.41800  22545225.93100
        70.00000        33.00000
  -3506431.67106  -2732287.02606  23610842.90400  23610842.27200  23610842.85300
        27.00000        14.00000
 -16561981.82708 -12905434.14207  21865653.35000  21865653.12100  21865651.10500
       156.00000        75.00000
   -494480.46204   -385309.04304  25281878.27900  25281877.64500  25281879.41600
         3.00000         2.00000
 -20561370.45008 -16021843.44807  20934078.61500  20934077.99400  20934078.63100
       200.00000        94.00000
 -22876382.33908 -17825749.99908  20318559.33300  20318559.11900  20318558.06600
       209.00000       279.00000
 -20256986.16908 -15784655.52208  20788309.04600  20788308.53000  20788308.82000
       249.00000       125.00000
    985488.00400    767909.58304  24721925.34100  24721926.10100  24721932.93100
          .00000         2.00000
 -23605177.02008 -18393648.74008  20973422.45300  20973421.98500  20973421.19700
       242.00000       105.00000
     -9047.23505     -7049.58404  24993016.21600  24993015.89800  24993015.34300
         9.00000         3.00000
 04  8 23  1 46 30.0000000  0  9G26G29G22G28G15G18G 9G21G19
  -8973101.81607  -6992027.68007  22564008.98900  22564008.64100  22564009.35700
        69.00000        34.00000
  -3414756.54806  -2660851.89306  23628285.77300  23628286.45200  23628287.93000
        20.00000        14.00000
 -16632258.51408 -12960195.18607  21852280.53600  21852280.10200  21852277.76200
       156.00000        75.00000
   -497988.37305   -388042.46604  25281208.51900  25281211.92600  25281211.71800
         4.00000         2.00000
 -20599589.33908 -16051624.39107  20926805.22300  20926804.76100  20926805.66100
       192.00000        95.00000
 -22897530.60508 -17842229.16108  20314534.99800  20314534.79500  20314533.73800
       214.00000       283.00000
 -20311301.61308 -15826979.21008  20777972.32700  20777972.02900  20777973.08600
       245.00000       127.00000
 -23539288.81908 -18342307.30807  20985960.19800  20985959.84100  20985959.04300
       237.00000       100.00000
    -35838.12605    -27925.60905  24987918.81700  24987917.50600  24987917.31500
         9.00000         4.00000
 04  8 23  1 47  0.0000000  0  9G26G29G22G28G15G18G 9G21G19
  -8874244.83207  -6914996.29107  22582819.76600  22582820.06800  22582820.98700
        65.00000        32.00000
  -3323008.92506  -2589360.28006  23645746.11900  23645746.38900  23645747.54100
        25.00000        14.00000
 -16702324.78508 -13014792.26507  21838947.40200  21838946.97200  21838944.45300
       159.00000        71.00000
   -500984.33805   -390376.96604  25280639.41700  25280639.76000  25280641.37300
         5.00000         3.00000
 -20637200.22808 -16080931.56607  20919648.37000  20919647.76100  20919648.44900
       197.00000        92.00000
 -22918299.24908 -17858412.51608  20310582.87800  20310582.69200  20310581.57600
       212.00000       287.00000
 -20364998.58108 -15868820.97708  20767754.49600  20767754.08500  20767754.70300
       253.00000       126.00000
 -23472875.19708 -18290556.45408  20998598.56700  20998598.17100  20998597.49500
       238.00000       104.00000
    -62097.19905    -48387.24505  24982921.88400  24982919.95900  24982920.88200
        10.00000         6.00000
 04  8 23  1 47 30.0000000  0 10G26G29G22G28G15G18G 9G21G19G 3
  -8775222.24207  -6837835.85807  22601663.13100  22601663.31700  22601664.40800
        59.00000        35.00000
  -3231173.57406  -2517800.28906  23663222.14300  23663222.10600  23663222.57500
        22.00000        13.00000
 -16772162.72408 -13069211.42207  21825656.90600  21825656.99800  21825654.66400
       158.00000        74.00000
   -503451.39504   -392299.38004  25280172.20300  25280170.94900  25280173.11300
         3.00000         3.00000
 -20674185.02208 -16109750.89207  20912610.19800  20912609.69800  20912610.48700
       197.00000        92.00000
 -22938670.66108 -17874286.34008  20306706.45100  20306706.09400  20306705.05300
       211.00000       291.00000
 -20418058.53308 -15910166.36508  20757657.25100  20757656.96000  20757657.54500
       249.00000       126.00000
 -23405921.73008 -18238384.95408  21011339.05400  21011338.83100  21011338.29200
       242.00000       103.00000
    -87807.51506    -68421.26505  24978028.80800  24978027.35100  24978028.34600
        11.00000         6.00000
     13822.58306     10770.67004  24745265.18900  24745264.57700  24745265.57800
        12.00000         3.00000
 04  8 23  1 48  0.0000000  0 10G26G29G22G28G15G18G 9G21G19G 3
  -8676079.85607  -6760582.08107  22620530.17200  22620529.78100  22620530.25900
        57.00000        34.00000
  -3139295.64006  -2446207.14006  23680707.12900  23680706.47400  23680706.91400
        25.00000        16.00000
 -16841815.14308 -13123486.01107  21812402.93000  21812402.75400  21812400.46000
       163.00000        78.00000
   -505433.41605   -393843.82204  25279797.43700  25279795.52600  25279794.82800
         4.00000         3.00000
 -20710585.87108 -16138115.17607  20905683.43400  20905682.84500  20905683.63800
       191.00000        97.00000
 -22958687.95908 -17889884.23108  20302897.37300  20302896.95000  20302895.86400
       206.00000       293.00000
 -20470523.51308 -15951048.13508  20747673.18100  20747673.05900  20747673.90100
       253.00000       126.00000
 -23338474.24208 -18185828.50208  21024173.98200  21024173.60300  21024173.04000
       236.00000       101.00000
   -113012.22205    -88061.31805  24973231.31700  24973231.09700  24973231.83400
        10.00000         6.00000
     55556.85106     43290.81704  24753206.80200  24753206.54000  24753207.35500
        13.00000         2.00000
 04  8 23  1 48 30.0000000  0  9G26G29G22G28G15G18G 9G21G19
  -8576793.66607  -6683216.25207  22639423.44900  22639423.52700  22639423.82200
        56.00000        32.00000
  -3047350.31106  -2374561.48606  23698203.31300  23698203.06000  23698203.64800
        25.00000        15.00000
 -16911254.72808 -13177594.75907  21799189.24400  21799188.91900  21799186.28400
       169.00000        78.00000
   -506903.62705   -394989.48604  25279515.88500  25279515.55500  25279515.86900
         6.00000         2.00000
 -20746375.03208 -16166002.82707  20898873.26600  20898872.75100  20898873.31600
       204.00000        98.00000
 -22978324.02008 -17905185.04908  20299160.56800  20299160.20500  20299159.23700
       202.00000       290.00000
 -20522365.40408 -15991444.37808  20737808.66200  20737808.26400  20737808.51400
       261.00000       127.00000
 -23270508.66708 -18132868.34807  21037107.66200  21037107.12200  21037106.67800
       232.00000        99.00000
   -137684.43705   -107286.43105  24968538.01000  24968536.42900  24968536.78000
         6.00000         5.00000
 04  8 23  1 49  0.0000000  0 10G26G29G22G28G15G18G 9G21G19G 3
  -8477378.11607  -6605749.62907  22658341.63200  22658341.78700  22658342.01100
        54.00000        34.00000
  -2955351.43806  -2302874.09406  23715709.54700  23715709.12400  23715710.64800
        20.00000        15.00000
 -16980492.78708 -13231546.46807  21786013.54400  21786013.27900  21786010.93000
       172.00000        81.00000
   -507874.38705   -395745.88904  25279333.20300  25279332.14000  25279331.73100
         8.00000         2.00000
 -20781563.40008 -16193422.33507  20892177.46100  20892176.78100  20892177.22200
       205.00000       100.00000
 -22997590.24008 -17920197.67508  20295494.24600  20295493.82300  20295492.92800
       199.00000       288.00000
 -20573594.96608 -16031363.47808  20728059.74300  20728059.38600  20728059.83100
       262.00000       127.00000
 -23202039.62008 -18079515.85807  21050136.69100  21050136.26600  21050135.63400
       228.00000        94.00000
   -161836.20105   -126106.01005  24963940.07000  24963940.89900  24963941.39800
         5.00000         7.00000
     14239.96904     11096.36904  24769330.82300  24769329.93600  24769333.63400
         3.00000         1.00000
 04  8 23  1 49 30.0000000  0  9G26G29G22G28G15G18G 9G21G19
  -8377812.67007  -6528166.21306  22677288.13400  22677288.04800  22677288.61600
        52.00000        31.00000
  -2863277.90806  -2231128.52106  23733230.69400  23733230.53700  23733232.16800
        21.00000        17.00000
 -17049505.48808 -13285322.57407  21772880.66600  21772880.45700  21772878.20000
       177.00000        83.00000
   -508322.68305   -396095.17504  25279246.50200  25279246.10000  25279245.87100
         6.00000         2.00000
 -20816126.82708 -16220354.88508  20885599.22900  20885598.96500  20885600.10900
       196.00000       104.00000
 -23016463.39008 -17934904.02108  20291902.57700  20291902.38300  20291901.40400
       201.00000       286.00000
 -20624187.85808 -16070786.47108  20718431.77700  20718431.69600  20718432.30600
       261.00000       128.00000
 -23133047.31508 -18025755.64507  21063265.12200  21063264.79800  21063264.55400
       225.00000        94.00000
   -185444.53505   -144502.15005  24959447.15000  24959448.00400  24959448.22500
         5.00000         6.00000
 04  8 23  1 50  0.0000000  0  9G26G29G22G28G15G18G 9G21G19
  -8278122.42207  -6450485.53306  22696258.78100  22696258.52600  22696259.20100
        52.00000        30.00000
  -2771154.02306  -2159343.71606  23750759.66600  23750759.89500  23750762.40700
        18.00000        15.00000
 -17118314.62808 -13338940.05607  21759786.48700  21759786.43400  21759784.42800
       178.00000        86.00000
   -508271.39504   -396055.21804  25279255.85100  25279255.47700  25279255.27000
         2.00000         3.00000
 -20850086.99208 -16246817.35408  20879137.33700  20879136.84500  20879137.76700
       205.00000       109.00000
 -23034965.40208 -17949321.17508  20288382.13200  20288381.70100  20288380.65400
       200.00000       289.00000
 -20674165.31508 -16109729.90408  20708921.42700  20708921.39500  20708921.84900
       262.00000       129.00000
 -23063556.37508 -17971606.88707  21076489.25300  21076488.70400  21076488.33300
       218.00000        93.00000
   -208531.83205   -162492.24405  24955055.53900  24955054.51000  24955054.69200
         9.00000         6.00000
 04  8 23  1 50 30.0000000  0 10G26G29G22G28G15G18G 9G21G19G 3
  -8178262.19707  -6372672.40006  22715260.84100  22715260.95200  22715262.07400
        53.00000        29.00000
  -2678933.81706  -2087483.84906  23768310.41900  23768309.37800  23768311.31500
        18.00000        15.00000
 -17186871.92408 -13392361.30707  21746740.96300  21746740.73800  21746738.25500
       179.00000        84.00000
   -507673.12604   -395589.06104  25279367.48800  25279367.22300  25279369.72900
         1.00000         3.00000
 -20883395.28608 -16272771.87108  20872798.86600  20872798.42600  20872799.50000
       200.00000       115.00000
 -23053048.24108 -17963411.69708  20284941.07200  20284940.68300  20284939.65300
       200.00000       291.00000
 -20723478.46408 -16148155.69508  20699537.39600  20699537.04800  20699537.88000
       255.00000       131.00000
 -22993522.15308 -17917034.79307  21089816.05900  21089815.90300  21089815.25500
       218.00000        90.00000
   -231050.29205   -180039.10105  24950771.54800  24950769.74200  24950770.10400
         9.00000         7.00000
         -.42916          .06114  24794140.62200  24794139.96700  24794141.06200
        12.00000         1.00000
 04  8 23  1 51  0.0000000  0  9G26G29G22G28G15G18G 9G21G19
  -8078289.87607  -6294771.92006  22734285.67300  22734285.33100  22734286.29100
        55.00000        30.00000
  -2586674.53006  -2015593.54606  23785866.99400  23785866.79000  23785867.49600
        22.00000        14.00000
 -17255231.76908 -13445628.69707  21733731.94200  21733731.89700  21733729.69900
       178.00000        84.00000
   -506583.34105   -394739.89505  25279573.09800  25279575.08100  25279578.43600
         4.00000         5.00000
 -20916106.00508 -16298260.74008  20866574.03700  20866573.55600  20866574.79700
       188.00000       112.00000
 -23070767.04808 -17977218.54908  20281569.28200  20281568.82000  20281567.93800
       200.00000       298.00000
 -20772181.42508 -16186106.01608  20690269.89200  20690269.79600  20690269.81200
       273.00000       130.00000
 -22923001.74508 -17862083.85507  21103235.67000  21103235.18600  21103235.05000
       214.00000        90.00000
   -253055.46405   -197185.98305  24946583.58400  24946583.27100  24946583.11400
         9.00000         9.00000
 04  8 23  1 51 30.0000000  0 10G26G29G22G28G15G18G 9G21G19G 3
  -7978175.12007  -6216760.45806  22753336.67300  22753336.89100  22753337.72300
        57.00000        30.00000
  -2494345.18006  -1943648.64406  23803437.53000  23803437.66900  23803436.69600
        24.00000        14.00000
 -17323360.85108 -13498716.26907  21720767.89600  21720767.60400  21720765.15000
       182.00000        83.00000
   -504970.00105   -393482.76804  25279883.86100  25279883.75400  25279883.89900
         7.00000         3.00000
 -20948185.67308 -16323257.87908  20860469.95400  20860469.34100  20860470.21100
       197.00000       111.00000
 -23088088.61108 -17990715.86508  20278272.75800  20278272.60300  20278271.81000
       198.00000       302.00000
 -20820240.54908 -16223554.64508  20681124.26000  20681124.12100  20681124.54600
       265.00000       132.00000
 -22851965.84408 -17806731.23407  21116753.83600  21116753.60200  21116752.82700
       225.00000        94.00000
   -274514.82005   -213907.56405  24942498.08400  24942498.57300  24942499.29100
         4.00000         7.00000
     29863.69106     23270.01605  24811080.16900  24811079.51400  24811082.89500
        11.00000         4.00000
 04  8 23  1 52  0.0000000  0  9G26G29G22G15G18G 9G21G19G 3
  -7877943.09307  -6138657.61306  22772410.53500  22772410.55300  22772411.23100
        60.00000        30.00000
  -2401970.32906  -1871668.28306  23821016.45100  23821015.93500  23821014.39900
        22.00000        12.00000
 -17391281.23808 -13551641.22907  21707842.51300  21707842.64500  21707840.50200
       185.00000        85.00000
 -20979655.88308 -16347780.13008  20854481.31600  20854480.76700  20854481.37800
       195.00000       106.00000
 -23105034.96308 -18003920.81308  20275048.35800  20275047.99100  20275047.10900
       198.00000       305.00000
 -20867677.12408 -16260518.18308  20672098.01000  20672097.45400  20672097.85500
       270.00000       137.00000
 -22780439.62008 -17750996.53807  21130364.33300  21130363.96400  21130363.57200
       211.00000        88.00000
   -295450.78005   -230221.26505  24938514.66000  24938515.17200  24938516.16000
         4.00000         4.00000
     74993.87405     58436.36104  24819667.12900  24819666.59400  24819668.23800
         7.00000         2.00000
 04  8 23  1 52 30.0000000  0 10G26G29G22G15G18G 9G21G19G 3G28
  -7777594.67207  -6060464.07506  22791506.03900  22791506.18700  22791507.14300
        61.00000        31.00000
  -2309550.11806  -1799652.59406  23838602.73300  23838602.55200  23838602.74800
        22.00000        13.00000
 -17458990.86108 -13604401.95507  21694957.82900  21694957.95800  21694955.53100
       186.00000        83.00000
 -21010514.38908 -16371825.72108  20848608.58500  20848608.15800  20848609.16900
       196.00000       105.00000
 -23121604.40008 -18016832.05608  20271895.16100  20271894.85600  20271893.97100
       198.00000       307.00000
 -20914488.34408 -16296994.42108  20663189.70700  20663189.46400  20663189.78200
       268.00000       136.00000
 -22708424.39808 -17694880.80907  21144068.92500  21144068.48300  21144067.91700
       217.00000        89.00000
   -315862.26505   -246126.31504  24934631.30100  24934629.85900  24934631.22700
         5.00000         1.00000
    120527.32405     93916.94105  24828332.03500  24828331.27000  24828334.75800
         8.00000         5.00000
         -.72314          .21414  25280785.12600  25280783.13900  25280784.18100
         2.00000         1.00000
 04  8 23  1 53  0.0000000  0  8G26G29G22G15G18G 9G21G 3
  -7677164.20807  -5982206.59906  22810617.47800  22810617.24500  22810618.18700
        58.00000        31.00000
  -2217118.21706  -1727627.79206  23856191.25500  23856191.39800  23856191.78800
        19.00000        12.00000
 -17526520.49708 -13657022.43207  21682107.53700  21682107.43500  21682105.16200
       185.00000        83.00000
 -21040792.15708 -16395418.79208  20842847.74100  20842847.18200  20842847.50800
       219.00000       102.00000
 -23137828.44108 -18029474.16308  20268807.64700  20268807.47900  20268806.50400
       194.00000       306.00000
 -20960705.17508 -16333007.51008  20654394.83400  20654394.38300  20654395.00700
       261.00000       140.00000
 -22635954.57808 -17638410.84307  21157859.56900  21157858.96200  21157858.38100
       211.00000        88.00000
    166429.71305    129684.98204  24837065.88500  24837066.22200  24837069.43500
         6.00000         3.00000
 04  8 23  1 53 30.0000000  0  9G26G29G22G15G18G 9G21G 3G28
  -7576575.58807  -5903825.88706  22829758.14800  22829758.35400  22829759.72600
        53.00000        29.00000
  -2124597.81106  -1655534.00406  23873796.41600  23873796.87600  23873797.72200
        16.00000        13.00000
 -17593790.52408 -13709440.62207  21669306.72900  21669306.48600  21669303.80000
       183.00000        81.00000
 -21070409.46408 -16418497.22508  20837211.70200  20837211.13100  20837211.61800
       224.00000       105.00000
 -23153627.78608 -18041785.34108  20265801.33100  20265801.02600  20265800.02700
       195.00000       303.00000
 -21006247.81808 -16368495.24908  20645728.54200  20645728.17500  20645728.76000
       262.00000       143.00000
 -22562954.37808 -17581527.59107  21171750.20600  21171750.14300  21171749.79800
       209.00000        85.00000
    212776.85705    165799.63905  24845887.84900  24845886.93900  24845889.24600
        10.00000         5.00000
        -1.08515         -.73614  25282063.22100  25282063.04900  25282063.65200
         5.00000         2.00000
 04  8 23  1 54  0.0000000  0  8G26G29G22G15G18G 9G21G 3
  -7475861.68107  -5825347.55206  22848923.27400  22848923.81200  22848924.60200
        52.00000        28.00000
  -2032021.11806  -1583396.38106  23891413.28000  23891412.98500  23891415.13700
        16.00000        13.00000
 -17660831.07908 -13761680.00107  21656549.42500  21656549.05800  21656546.54800
       181.00000        81.00000
 -21099396.19308 -16441084.28608  20831695.94200  20831695.28800  20831695.57300
       223.00000       106.00000
 -23169032.39708 -18053788.92708  20262869.98900  20262869.63000  20262868.52700
       198.00000       302.00000
 -21051145.63808 -16403480.53008  20637183.75000  20637183.84800  20637184.52200
       254.00000       140.00000
 -22489457.14808 -17524257.05807  21185736.73000  21185736.41900  21185736.15400
       211.00000        86.00000
    259535.40206    202234.80305  24854785.48200  24854785.41800  24854787.18500
        12.00000         4.00000
 04  8 23  1 54 30.0000000  0 11G26G29G22G15G18G 9G21G 3G14G19G28
  -7375026.56007  -5746774.77606  22868111.92900  22868112.27000  22868112.91100
        52.00000        26.00000
  -1939391.54606  -1511217.53406  23909040.79800  23909040.10500  23909041.80000
        19.00000        12.00000
 -17727643.00808 -13813741.22207  21643835.03300  21643834.81600  21643832.56900
       175.00000        81.00000
 -21127753.15608 -16463180.62508  20826299.44700  20826298.97000  20826299.65400
       228.00000       107.00000
 -23184043.88308 -18065486.19008  20260013.14800  20260013.02500  20260011.91400
       198.00000       300.00000
 -21095399.29208 -16437963.87308  20628762.97900  20628762.75900  20628763.65900
       259.00000       144.00000
 -22415467.73508 -17466602.98407  21199816.59300  21199816.15100  21199815.55800
       212.00000        81.00000
    306700.90405    238987.07704  24863760.79800  24863760.68100  24863761.98500
         9.00000         3.00000
         -.14814         -.19110  24038255.31300  24038256.44500  24038256.96900
         1.00000        -1.00000
         -.40314         -.24114  24920104.90900  24920101.18500  24920102.89700
         2.00000         2.00000
         -.64515          .24814  25283739.02800  25283740.15200  25283739.92300
         8.00000         2.00000
 04  8 23  1 55  0.0000000  0 10G26G29G22G15G18G 9G21G 3G19G28
  -7274064.45307  -5668103.03606  22887324.47500  22887324.61300  22887325.31400
        48.00000        25.00000
  -1846702.75306  -1438992.55006  23926678.94800  23926678.65900  23926680.70300
        19.00000        14.00000
 -17794217.46708 -13865617.40707  21631166.34900  21631166.12600  21631163.74200
       178.00000        81.00000
 -21155471.39308 -16484779.25708  20821024.56800  20821024.15200  20821024.85600
       213.00000       106.00000
 -23198653.95108 -18076870.66508  20257233.33100  20257232.90800  20257231.85100
       197.00000       305.00000
 -21138999.87708 -16471938.31908  20620466.61300  20620466.29000  20620466.67100
       271.00000       144.00000
 -22340980.50208 -17408561.01607  21213990.98800  21213990.54300  21213990.24500
       211.00000        83.00000
    354278.71805    276060.59704  24872814.46400  24872813.66300  24872815.99700
        10.00000         3.00000
    -17721.60104    -13808.96405  24916731.43700  24916731.54300  24916732.80100
         2.00000         4.00000
      5187.92105      4043.30004  25284727.36900  25284726.67100  25284726.76900
         6.00000         2.00000
 04  8 23  1 55 30.0000000  0  9G26G29G22G15G18G 9G21G 3G19
  -7173012.23607  -5589361.08406  22906554.52500  22906554.26000  22906554.98100
        48.00000        23.00000
  -1753990.75606  -1366749.47206  23944320.78800  23944320.64000  23944322.61200
        17.00000        12.00000
 -17860588.04208 -13917334.72107  21618536.62500  21618536.31900  21618533.96200
       183.00000        83.00000
 -21182584.47908 -16505906.33808  20815865.29900  20815864.60100  20815865.52100
       201.00000       105.00000
 -23212896.38308 -18087968.66708  20254523.01200  20254522.60800  20254521.54400
       197.00000       308.00000
 -21181980.50808 -16505429.68808  20612286.74600  20612286.93500  20612287.81200
       274.00000       144.00000
 -22266032.05508 -17350159.66007  21228253.46400  21228253.10400  21228252.42800
       214.00000        79.00000
    402231.26405    313426.19905  24881938.14500  24881937.48800  24881941.90300
         7.00000         5.00000
    -34930.66104    -27218.67305  24913457.23800  24913457.82500  24913458.63700
         3.00000         6.00000
 04  8 23  1 56  0.0000000  0  9G26G29G22G15G18G 9G21G 3G19
  -7071840.71207  -5510526.16406  22925807.32300  22925807.07700  22925807.12300
        51.00000        21.00000
  -1661225.58006  -1294464.96906  23961973.82100  23961973.74300  23961975.87700
        18.00000        13.00000
 -17926722.32808 -13968867.90807  21605951.40300  21605951.25800  21605948.72300
       185.00000        81.00000
 -21209059.88708 -16526536.53708  20810827.66800  20810827.02000  20810827.21500
       213.00000       104.00000
 -23226739.05508 -18098755.16908  20251889.06100  20251888.52400  20251887.33800
       198.00000       306.00000
 -21224308.85808 -16538412.79208  20604232.31900  20604232.40100  20604232.85600
       281.00000       144.00000
 -22190594.00908 -17291376.78807  21242608.98800  21242608.38500  21242607.69000
       204.00000        77.00000
    450587.55005    351106.39105  24891139.65400  24891139.09700  24891144.19100
         6.00000         5.00000
    -51596.38104    -40204.92605  24910286.14800  24910285.22200  24910285.89800
         3.00000         7.00000
 04  8 23  1 56 30.0000000  0  9G26G29G22G15G18G 9G21G19G28
  -6970556.31807  -5431603.28506  22945080.26800  22945080.42600  22945080.94200
        51.00000        20.00000
  -1568413.36606  -1222143.80506  23979634.91300  23979635.70100  23979636.66000
        20.00000        11.00000
 -17992623.79808 -14020219.68707  21593410.37700  21593410.55300  21593408.19500
       191.00000        84.00000
 -21234901.22708 -16546672.65508  20805909.83600  20805909.27700  20805909.75000
       205.00000       104.00000
 -23240185.87308 -18109233.22008  20249329.93000  20249329.62800  20249328.49400
       195.00000       304.00000
 -21265988.20108 -16570890.17308  20596301.31800  20596301.02400  20596301.27800
       280.00000       141.00000
 -22114673.90508 -17232218.28507  21257055.59800  21257055.53000  21257054.88100
       210.00000        76.00000
    -67723.14705    -52771.22505  24907217.24800  24907216.21000  24907216.22500
         5.00000         8.00000
         -.52715         -.34310  25288264.74400  25288263.88100  25288263.58000
         5.00000          .00000
 04  8 23  1 57  0.0000000  0  9G26G29G22G15G18G 9G21G19G 3
  -6869143.72707  -5352580.51206  22964379.21600  22964379.09100  22964378.82500
        51.00000        21.00000
  -1475538.01006  -1149773.44506  23997309.62600  23997309.80800  23997309.80800
        20.00000        11.00000
 -18058273.75708 -14071375.47807  21580917.95000  21580917.95300  21580915.81400
       193.00000        89.00000
 -21260090.16808 -16566300.40808  20801116.43400  20801115.83400  20801116.36200
       197.00000       105.00000
 -23253218.83408 -18119388.78008  20246849.71400  20246849.35200  20246848.42500
       190.00000       307.00000
 -21306999.62308 -16602847.10008  20588496.68000  20588496.56400  20588497.20200
       276.00000       144.00000
 -22038256.11508 -17172671.97507  21271597.48500  21271597.18600  21271596.51300
       200.00000        71.00000
    -83293.19604    -64903.70505  24904254.51200  24904252.33700  24904252.76800
         3.00000         8.00000
         -.37615          .29814  24909774.40500  24909774.62100  24909775.16600
        10.00000         3.00000
 04  8 23  1 57 30.0000000  0  9G26G29G22G15G18G 9G21G19G 3
  -6767661.46907  -5273503.45706  22983689.26300  22983689.81700  22983690.10600
        48.00000        20.00000
  -1382657.24306  -1077398.87705  24014985.40000  24014985.23100  24014984.70900
        24.00000         9.00000
 -18123727.68508 -14122378.52107  21568462.36700  21568462.39000  21568460.16000
       193.00000        88.00000
 -21284682.12008 -16585462.97408  20796436.83500  20796436.19000  20796437.01200
       205.00000       113.00000
 -23265893.62108 -18129265.23808  20244437.65500  20244437.53600  20244436.62700
       190.00000       313.00000
 -21347398.21908 -16634326.49608  20580809.56100  20580809.36600  20580809.58900
       282.00000       144.00000
 -21961400.22408 -17112784.28407  21286223.23800  21286222.64900  21286221.71900
       199.00000        71.00000
    -98363.06105    -76646.43605  24901386.86500  24901385.60200  24901385.80900
        10.00000         6.00000
     49516.63406     38584.95704  24919198.20900  24919197.33000  24919199.45600
        11.00000         3.00000
 04  8 23  1 58  0.0000000  0  8G26G29G22G15G18G 9G21G19
  -6666074.29607  -5194344.65106  23003021.87600  23003021.75700  23003021.40800
        46.00000        20.00000
  -1289735.17806  -1004992.13706  24032668.19200  24032667.53400  24032667.16500
        25.00000        11.00000
 -18188947.23308 -14173198.93107  21556051.97200  21556051.69700  21556049.13800
       191.00000        87.00000
 -21308638.77608 -16604130.49708  20791877.68800  20791877.16000  20791878.36600
       198.00000       117.00000
 -23278172.08808 -18138832.88208  20242101.45900  20242101.09800  20242100.07700
       193.00000       315.00000
 -21387145.95908 -16665298.73508  20573245.07800  20573245.15400  20573245.85300
       277.00000       144.00000
 -21884071.00808 -17052527.78207  21300938.17200  21300937.68800  21300937.20000
       194.00000        72.00000
   -112895.81105    -87970.62905  24898620.79000  24898619.82400  24898619.81300
         9.00000         6.00000
 04  8 23  1 58 30.0000000  0  9G26G29G22G15G18G 9G21G19G 3
  -6564337.18707  -5115069.01506  23022381.05200  23022380.99000  23022381.72700
        40.00000        21.00000
  -1196726.28306   -932517.72905  24050365.60200  24050365.99200  24050366.18300
        21.00000         9.00000
 -18253884.26408 -14223799.19807  21543694.81300  21543694.59600  21543692.01200
       192.00000        89.00000
 -21331912.16908 -16622265.60808  20787449.17500  20787448.60300  20787449.60100
       208.00000       119.00000
 -23290006.87908 -18148054.80508  20239849.40100  20239848.93700  20239847.93900
       192.00000       311.00000
 -21426194.64208 -16695726.25408  20565815.05200  20565814.83000  20565814.76000
       288.00000       142.00000
 -21806224.20808 -16991867.97407  21315752.07900  21315751.42700  21315750.84000
       187.00000        71.00000
   -126844.27306    -98839.57105  24895966.62900  24895965.56000  24895966.30200
        11.00000         6.00000
         -.16616          .37214  24938272.30900  24938271.97500  24938273.24600
        12.00000         1.00000
 04  8 23  1 59  0.0000000  0  8G26G29G22G15G18G 9G21G19
  -6462549.29607  -5035753.82606  23041751.78200  23041751.36200  23041751.51300
        41.00000        22.00000
  -1103729.02106   -860052.38505  24068063.87200  24068062.92600  24068062.91700
        20.00000        10.00000
 -18318634.76908 -14274254.12207  21531372.92800  21531372.90500  21531370.51200
       195.00000        90.00000
 -21354598.53608 -16639943.30708  20783132.39200  20783131.96900  20783132.41000
       226.00000       117.00000
 -23301494.54408 -18157006.23508  20237663.34800  20237662.93700  20237661.78100
       187.00000       307.00000
 -21464640.21508 -16725683.81008  20558498.88400  20558498.63100  20558499.03500
       278.00000       145.00000
 -21727959.86308 -16930882.79507  21330645.34500  21330644.69800  21330644.10200
       180.00000        70.00000
   -140305.80906   -109329.07705  24893406.53900  24893404.71000  24893404.96600
        15.00000         5.00000
 04  8 23  1 59 30.0000000  0  8G26G29G22G15G18G 9G21G19
  -6360639.33107  -4956343.50506  23061143.81000  23061143.22900  23061145.20900
        38.00000        25.00000
  -1010671.33606   -787539.94905  24085770.44300  24085770.75100  24085771.62400
        19.00000         9.00000
 -18383124.36408 -14324505.73907  21519101.30800  21519101.09000  21519098.31500
       196.00000        87.00000
 -21376623.68308 -16657105.76408  20778941.03000  20778940.40700  20778941.24000
       219.00000       119.00000
 -23312560.87208 -18165629.35208  20235557.56900  20235557.15500  20235556.08100
       189.00000       311.00000
 -21502408.27508 -16755113.44508  20551312.07500  20551311.72300  20551311.80100
       283.00000       143.00000
 -21649207.04608 -16869516.99407  21345631.57800  21345631.01800  21345630.40400
       182.00000        72.00000
   -153207.07306   -119382.04405  24890950.74600  24890948.90200  24890950.76100
        13.00000         5.00000
 04  8 23  2  0  0.0000000  0 10G22G21G29G15G14G19G18G 9G 3G26
 -18447376.10308 -14374572.01407  21506874.07300  21506874.10300  21506871.66600
       198.00000        89.00000
 -21569992.71008 -16807791.56407  21360705.00000  21360704.74700  21360704.45500
       176.00000        70.00000
   -917578.88106   -715000.42405  24103485.32800  24103485.77800  24103486.61700
        18.00000        10.00000
 -21398011.02808 -16673771.22708  20774871.46700  20774870.70400  20774871.22900
       224.00000       115.00000
    -31369.99004    -24443.74104  23839590.46100  23839590.43000  23839589.61200
         1.00000         3.00000
   -165571.97506   -129017.05605  24888597.12400  24888596.38900  24888597.97100
        12.00000         7.00000
 -23323229.30708 -18173942.42609  20233527.26700  20233526.93800  20233526.03400
       190.00000       318.00000
 -21539521.78308 -16784033.02708  20544249.44700  20544249.11600  20544249.40100
       284.00000       144.00000
         -.13615         -.40714  24967421.93900  24967421.31400  24967423.74000
         6.00000         2.00000
  -6258633.42607  -4876858.41906  23080554.51300  23080554.25200  23080556.72500
        36.00000        26.00000
 04  8 23  2  0 30.0000000  0 10G22G21G29G15G14G19G18G 9G26G28
 -18511360.60608 -14424430.05307  21494698.64000  21494698.44100  21494695.92300
       200.00000        91.00000
 -21490291.04008 -16745686.40407  21375872.21100  21375871.81400  21375871.01600
       180.00000        65.00000
   -824424.84306   -642412.91005  24121212.79600  24121212.86000  24121213.58900
        16.00000        10.00000
 -21418731.51408 -16689917.06408  20770928.09700  20770927.45100  20770928.26200
       228.00000       111.00000
   -125328.91004    -97658.37404  23821711.40300  23821711.59800  23821712.04500
         3.00000         2.00000
   -177372.82706   -138212.52805  24886350.74900  24886350.34100  24886351.33700
        11.00000         8.00000
 -23333471.17708 -18181923.11109  20231578.19100  20231577.96400  20231577.09900
       188.00000       321.00000
 -21575951.68508 -16812419.94608  20537317.06800  20537316.74200  20537317.07700
       286.00000       147.00000
  -6156505.46907  -4797278.22506  23099988.56700  23099988.97900  23099990.98200
        38.00000        24.00000
        -1.10214         -.88910  25301984.50300  25301984.82500  25301985.43200
         2.00000          .00000
 04  8 23  2  1  0.0000000  0  8G22G21G29G15G19G18G 9G26
 -18575089.64408 -14474089.02507  21482571.34500  21482570.96600  21482568.60500
       197.00000        91.00000
 -21410117.31508 -16683213.40207  21391128.25700  21391128.13900  21391128.00800
       179.00000        70.00000
   -731223.06706   -569788.21406  24138946.54400  24138947.66200  24138949.90200
        13.00000        12.00000
 -21438797.12408 -16705552.60308  20767109.30500  20767108.80200  20767109.79700
       223.00000       111.00000
   -188622.57405   -146978.58104  24884208.15100  24884208.92900  24884209.34900
         7.00000         3.00000
 -23343298.56608 -18189580.81909  20229708.25000  20229707.84700  20229706.99500
       187.00000       319.00000
 -21611709.86908 -16840283.43708  20530512.39300  20530512.21300  20530512.42800
       289.00000       149.00000
  -6054270.15307  -4717614.38006  23119443.62100  23119444.07800  23119445.94400
        40.00000        24.00000
 04  8 23  2  1 30.0000000  0 10G22G21G29G15G19G18G 9G26G14G 3
 -18638616.74908 -14523590.66007  21470482.44100  21470482.32800  21470479.78200
       205.00000        94.00000
 -21329529.11808 -16620417.43707  21406464.22800  21406463.87100  21406463.24800
       181.00000        64.00000
   -638029.82806   -497170.18106  24156681.51500  24156681.90500  24156683.48800
        13.00000        11.00000
 -21458261.76508 -16720719.85408  20763405.88700  20763405.30100  20763405.92800
       230.00000       114.00000
   -199375.99305   -155357.84404  24882163.93100  24882162.52600  24882162.48600
         6.00000         2.00000
 -23352765.74408 -18196957.84409  20227906.83400  20227906.35500  20227905.36600
       187.00000       317.00000
 -21646850.14408 -16867665.44208  20523825.30700  20523825.11800  20523825.58300
       283.00000       151.00000
  -5951984.12107  -4637911.01806  23138908.09600  23138908.52800  23138909.76100
        43.00000        22.00000
         -.17215         -.17914  23786037.16800  23786036.54000  23786038.51800
         5.00000         2.00000
         -.00115          .48115  24997228.58000  24997228.29100  24997233.53200
         4.00000         4.00000
 04  8 23  2  2  0.0000000  0  9G22G21G29G15G19G18G 9G26G14
 -18701901.25708 -14572903.24707  21458439.89100  21458439.69600  21458437.12700
       213.00000        98.00000
 -21248490.25508 -16557270.28507  21421885.13400  21421884.81400  21421884.30000
       171.00000        62.00000
   -544806.68705   -424528.80906  24174420.22600  24174421.14000  24174422.76000
        10.00000        11.00000
 -21477085.22308 -16735387.48808  20759824.07700  20759823.45100  20759823.82600
       234.00000       112.00000
   -209593.57005   -163319.59704  24880221.57200  24880219.72800  24880218.55400
        10.00000         3.00000
 -23361832.28208 -18204022.69109  20226181.40600  20226181.09100  20226180.15000
       187.00000       319.00000
 -21681331.72208 -16894534.18108  20517263.55800  20517263.38900  20517263.95200
       281.00000       153.00000
  -5849609.82407  -4558138.88406  23158390.41700  23158390.25200  23158390.73600
        42.00000        20.00000
    -93515.50605    -72869.18504  23768244.20000  23768243.63000  23768243.75600
         8.00000         1.00000
 04  8 23  2  2 30.0000000  0  8G22G21G29G15G19G18G 9G26
 -18764928.83208 -14622015.62908  21446445.94000  21446445.75400  21446443.51600
       210.00000       102.00000
 -21166989.43908 -16493763.19207  21437394.25600  21437393.88900  21437393.65700
       175.00000        65.00000
   -451542.09706   -351855.15306  24192169.68000  24192170.58500  24192170.47900
        13.00000        11.00000
 -21495253.54008 -16749544.62408  20756366.52100  20756365.79900  20756366.63900
       219.00000       111.00000
   -219262.81805   -170854.09905  24878381.34700  24878378.89900  24878378.53000
         9.00000         5.00000
 -23370484.69108 -18210764.84109  20224534.76100  20224534.42900  20224533.65300
       184.00000       322.00000
 -21715140.73208 -16920878.84208  20510830.11100  20510829.91800  20510830.17900
       286.00000       155.00000
  -5747136.14207  -4478289.28906  23177889.49000  23177889.71900  23177890.35100
        40.00000        19.00000
 04  8 23  2  3  0.0000000  0 10G22G21G29G15G19G18G 9G26G14G 3
 -18827715.93408 -14670940.62408  21434497.51300  21434497.67800  21434495.53100
       212.00000       103.00000
 -21085047.58708 -16429912.42207  21452987.13500  21452986.94300  21452986.28800
       179.00000        59.00000
   -358254.87506   -279163.88506  24209922.99100  24209922.33800  24209922.59600
        13.00000        12.00000
 -21512783.51708 -16763204.35108  20753030.22500  20753029.72800  20753030.73300
       213.00000       112.00000
   -228401.20905   -177974.90205  24876640.29600  24876640.10500  24876640.84600
         8.00000         7.00000
 -23378739.74608 -18217197.35609  20222963.86600  20222963.46300  20222962.66800
       181.00000       318.00000
 -21748293.74108 -16946712.33108  20504521.00600  20504520.84600  20504521.43500
       282.00000       157.00000
  -5644582.61507  -4398377.48906  23197404.62300  23197405.11600  23197405.45500
        37.00000        18.00000
    -62114.45705    -48400.51704  23732743.35800  23732743.79000  23732746.65100
         5.00000         3.00000
          .06815         -.29814  25027657.35900  25027656.24400  25027657.27400
         6.00000         1.00000
 04  8 23  2  3 30.0000000  0 10G22G21G29G15G19G18G 9G26G14G28
 -18890277.70508 -14719690.04308  21422592.64300  21422592.70400  21422590.31600
       213.00000       103.00000
 -21002683.00508 -16365732.25607  21468660.97900  21468660.42500  21468659.92500
       173.00000        62.00000
   -264962.49006   -206468.58806  24227674.95300  24227674.89100  24227675.68200
        13.00000        12.00000
 -21529690.69208 -16776378.77508  20749812.71300  20749812.37700  20749813.43000
       214.00000       110.00000
   -237025.21206   -184694.89905  24875000.91800  24874999.54900  24875000.06800
        11.00000         7.00000
 -23386613.13608 -18223332.46708  20221465.54200  20221465.37000  20221464.39600
       185.00000       313.00000
 -21780806.02608 -16972046.55008  20498334.42000  20498334.06000  20498334.60400
       283.00000       156.00000
  -5541967.29707  -4318417.52506  23216930.88600  23216931.38500  23216932.97100
        32.00000        19.00000
   -155168.60906   -120910.15504  23715038.98900  23715038.66200  23715039.19100
        11.00000         3.00000
          .20414          .38510  25316360.70600  25316360.67000  25316359.85900
         2.00000        -1.00000
 04  8 23  2  4  0.0000000  0  9G22G21G29G15G19G18G 9G26G14
 -18952571.11408 -14768230.34808  21410738.36800  21410738.63800  21410736.36000
       216.00000       103.00000
 -20919856.55708 -16301192.20007  21484421.93200  21484421.60600  21484421.61800
       169.00000        63.00000
   -171624.23506   -133737.52806  24245436.44100  24245436.35300  24245437.81400
        13.00000        11.00000
 -21545932.65108 -16789034.85708  20746722.41100  20746721.83800  20746722.42300
       218.00000       106.00000
   -245093.36605   -190981.79205  24873465.73100  24873464.30900  24873465.39600
        10.00000        10.00000
 -23394062.23108 -18229136.96008  20220048.33900  20220047.93100  20220046.77900
       187.00000       309.00000
 -21812634.94008 -16996848.28508  20492277.12000  20492277.14000  20492277.70900
       285.00000       159.00000
  -5439250.15607  -4238378.24206  23236478.67800  23236478.62600  23236479.31300
        34.00000        18.00000
   -248042.53105   -193279.37804  23697366.25300  23697365.26100  23697364.94900
        10.00000         3.00000
 04  8 23  2  4 30.0000000  0 10G22G21G29G15G19G18G 9G26G14G 3
 -19014570.86008 -14816541.82908  21398940.51000  21398940.47900  21398938.23200
       215.00000       105.00000
 -20836547.09908 -16236275.76807  21500275.74300  21500275.35300  21500274.52300
       179.00000        58.00000
    -78217.33706    -60952.98306  24263211.64200  24263211.62000  24263212.99900
        13.00000        12.00000
 -21561484.45608 -16801153.14908  20743763.21100  20743762.61400  20743763.00600
       228.00000       107.00000
   -252581.76905   -196816.94605  24872039.88400  24872038.96600  24872040.01100
        10.00000         7.00000
 -23401062.30508 -18234591.56708  20218716.20100  20218715.90200  20218714.82500
       183.00000       313.00000
 -21843755.48908 -17021098.03708  20486355.45300  20486355.19100  20486355.52600
       286.00000       159.00000
  -5336409.07207  -4158242.36006  23256049.03600  23256048.90100  23256049.34200
        38.00000        19.00000
   -340711.59405   -265488.96304  23679728.31000  23679728.02800  23679730.61700
         8.00000         3.00000
         -.68214         -.41810  25058699.15400  25058698.58500  25058699.62800
         3.00000          .00000
 04  8 23  2  5  0.0000000  0 10G22G21G29G15G19G18G 9G26G14G28
 -19076334.41908 -14864669.25808  21387187.39800  21387187.31500  21387185.11800
       222.00000       108.00000
 -20752816.59208 -16171031.23407  21516209.09200  21516208.61900  21516208.21100
       159.00000        64.00000
     15198.09806     11838.19405  24280986.99400  24280987.85100  24280989.48000
        16.00000        10.00000
 -21576404.25708 -16812778.98108  20740924.43100  20740923.76900  20740924.11800
       225.00000       111.00000
   -259549.49205   -202246.38405  24870714.13900  24870712.53500  24870712.93100
         8.00000         5.00000
 -23407671.54808 -18239741.62909  20217458.38200  20217458.23200  20217457.20500
       187.00000       317.00000
 -21874225.69308 -17044841.02908  20480557.02500  20480556.88100  20480557.46900
       288.00000       162.00000
  -5233504.71707  -4078057.20306  23275630.54000  23275631.05900  23275631.76200
        38.00000        19.00000
   -433233.91006   -337584.18604  23662124.52400  23662123.80100  23662124.50300
        11.00000         3.00000
        -1.19814         -.08110  25324866.33500  25324865.60700  25324866.65000
         3.00000          .00000
