     2.10           OBSERVATION DATA    G (GPS)             RINEX VERSION / TYPE
teqc  2002Mar14     gpsodc(auto)        20040825 01:11:15UTCPGM / RUN BY / DATE
OBSERVATION MODE: IGS-Net                                   COMMENT
ULAB Ulaanbataar (ULAB)                                     MARKER NAME
24201M001                                                   MARKER NUMBER
287-U               AOA SNR-8000 ACT     3.30               REC # / TYPE / VERS
340-U               AOAD/M_T        NONE                    ANT # / TYPE
        0.0460        0.0000        0.0000                  ANTENNA: DELTA H/E/N
  -1257408.5311  4099404.3449  4707992.6289                 APPROX POSITION XYZ
  107.05232519  47.86506793  1575.5283  LonLatAlt  S/W      COMMENT
unknown             IVTAN                                   OBSERVER / AGENCY
     1     1                                                WAVELENGTH FACT L1/2
     7    L1    L2    C1    P1    P2    S1    S2            # / TYPES OF OBSERV
    30.0000                                                 INTERVAL
Linux 2.0.36|Pentium II|gcc -static|Linux|486/DX+           COMMENT
bx2rxo      unknown * Wed Aug 25 02:18:46 2004              COMMENT
  2004     8    25     0     0    0.0000000     GPS         TIME OF FIRST OBS
  2004     8    25    23    59   30.0000000     GPS         TIME OF LAST OBS
                                                            END OF HEADER
 04  8 25  0  0  0.0000000  0 12G18G15G 9G 6G10G17G 8G29G26G22G21G 3
 -12873701.45608 -10031454.26607  22223006.85300  22223006.66900  22223005.01100
       131.00000        41.00000
  -5535152.24306  -4313106.88806  23997946.15200  23997945.63000  23997946.88100
        16.00000        14.00000
  -1705514.70306  -1328970.84705  24394958.71200  24394958.37000  24394959.53100
        14.00000         9.00000
  -9879032.97706  -7697954.21906  23519397.24300  23519398.16600  23519400.44600
        12.00000        12.00000
  -6201545.40007  -4832373.70807  23081736.86400  23081736.36700  23081738.09500
        52.00000        33.00000
  -6486235.16006  -5054212.78606  23377685.07900  23377684.43900  23377687.11700
        22.00000        20.00000
  -6793116.08306  -5293333.08605  24192385.45800  24192385.26400  24192388.25100
        12.00000        10.00000
 -18159385.57308 -14150168.31408  20827867.40200  20827867.38800  20827866.46600
       255.00000       173.00000
 -22787215.53909 -17756270.69908  19953403.75300  19953403.76100  19953403.05300
       340.00000       241.00000
   -244838.07400   -190783.26405  24982482.76600  24982482.64200  24982481.12600
          .00000         5.00000
 -25518058.21408 -19884199.56608  20641569.74900  20641569.24400  20641567.56300
       270.00000       163.00000
   -765171.83300   -596237.33105  25073217.14900  25073216.33700  25073218.21600
        -1.00000         4.00000
 04  8 25  0  0 30.0000000  0 12G18G15G 9G 6G10G17G 8G29G26G22G21G 3
 -12948061.62008 -10089397.23507  22208856.96800  22208856.60600  22208854.82400
       131.00000        42.00000
  -5644604.13406  -4398394.03606  23977118.14600  23977117.54300  23977118.61300
        16.00000        14.00000
  -1824439.03606  -1421639.21105  24372328.30100  24372328.24300  24372329.50200
        15.00000        10.00000
  -9786898.86706  -7626161.46006  23536931.97900  23536931.19900  23536932.60400
        12.00000        12.00000
  -6115227.81607  -4765113.31607  23098163.49900  23098162.92000  23098163.64300
        54.00000        33.00000
  -6380121.00306  -4971526.53506  23397876.40100  23397876.68500  23397879.39000
        20.00000        23.00000
  -6736202.72906  -5248985.06306  24203216.85100  24203216.72300  24203219.27100
        11.00000        11.00000
 -18113377.80508 -14114318.11008  20836622.68600  20836622.40000  20836621.50300
       246.00000       171.00000
 -22761680.16109 -17736373.00308  19958262.94900  19958263.03200  19958262.26200
       342.00000       243.00000
   -336531.59904   -262232.79005  24965033.42500  24965033.56500  24965033.37800
         2.00000         4.00000
 -25564131.57508 -19920100.89708  20632802.17200  20632801.97100  20632800.04900
       288.00000       164.00000
   -824242.47800   -642266.40305  25061978.42100  25061976.75600  25061979.63400
          .00000         6.00000
 04  8 25  0  1  0.0000000  0 12G18G15G 9G 6G10G17G 8G29G26G22G21G 3
 -13022300.15808 -10147245.44007  22194729.16400  22194728.96800  22194727.77200
       125.00000        44.00000
  -5754000.87106  -4483638.22606  23956300.87700  23956300.32000  23956301.63800
        13.00000        15.00000
  -1943403.48806  -1514338.82606  24349690.46100  24349690.38800  24349691.51500
        18.00000        12.00000
  -9694646.33806  -7554276.41505  23554486.79000  23554486.47000  23554487.11300
        14.00000        10.00000
  -6028847.62607  -4697804.14706  23114600.94800  23114600.20000  23114600.72600
        49.00000        27.00000
  -6273831.73406  -4888703.84306  23418103.00200  23418102.21600  23418105.22800
        15.00000        19.00000
  -6678837.98105  -5204285.29005  24214132.38700  24214132.35200  24214133.94200
        10.00000         9.00000
 -18067007.96808 -14078185.78008  20845446.34000  20845446.18000  20845445.34800
       240.00000       170.00000
 -22735609.63109 -17716058.30608  19963224.02700  19963224.08200  19963223.43100
       347.00000       245.00000
   -428243.73004   -333696.76105  24947581.79500  24947581.60400  24947580.67500
         3.00000         6.00000
 -25609777.94508 -19955669.51108  20624116.09400  20624115.76900  20624113.93700
       285.00000       168.00000
   -882924.08104   -687992.40705  25050812.36000  25050812.29400  25050811.68600
         2.00000         5.00000
 04  8 25  0  1 30.0000000  0 12G18G15G 9G 6G10G17G 8G29G26G22G21G 3
 -13096357.46408 -10204952.42507  22180636.18300  22180636.17400  22180635.70900
       118.00000        50.00000
  -5863281.32705  -4568791.78506  23935504.76800  23935503.67600  23935505.83100
         7.00000        14.00000
  -2062346.18606  -1607021.47606  24327054.60100  24327055.06900  24327057.65600
        13.00000        15.00000
  -9602219.42406  -7482255.47606  23572074.99100  23572075.28900  23572076.51200
        17.00000        13.00000
  -5942346.63507  -4630400.81707  23131061.52800  23131060.55600  23131062.07700
        48.00000        32.00000
  -6167310.41506  -4805700.30606  23438373.36600  23438372.76400  23438374.81300
        14.00000        12.00000
  -6620964.96506  -5159189.47506  24225146.22600  24225146.11300  24225148.17600
        13.00000        11.00000
 -18020219.24208 -14041727.04408  20854349.84900  20854349.82000  20854348.91100
       245.00000       169.00000
 -22708946.76209 -17695282.05008  19968297.67600  19968297.90800  19968297.21600
       348.00000       248.00000
   -519915.10304   -405129.00405  24930137.39900  24930137.15500  24930136.50100
         3.00000         7.00000
 -25654936.25608 -19990857.80908  20615522.69400  20615522.21800  20615520.50500
       272.00000       168.00000
   -941155.87005   -733367.84105  25039728.93600  25039730.09400  25039730.62800
         5.00000         4.00000
 04  8 25  0  2  0.0000000  0 12G18G15G 9G 6G10G17G 8G29G26G22G21G 3
 -13170219.61508 -10262507.34507  22166580.77100  22166580.63500  22166580.25700
       116.00000        52.00000
  -5972430.34305  -4653842.94105  23914734.07300  23914734.03700  23914734.50100
         8.00000        10.00000
  -2181251.07706  -1699674.63506  24304428.80900  24304428.79900  24304431.74300
        11.00000        15.00000
  -9509608.11605  -7410090.91006  23589698.71200  23589698.01100  23589699.90100
        10.00000        12.00000
  -5855712.84907  -4562894.05306  23147548.03700  23147547.27300  23147547.44000
        53.00000        26.00000
  -6060545.97806  -4722507.30506  23458690.85600  23458690.41200  23458692.14300
        23.00000        14.00000
  -6562572.27506  -5113688.71406  24236259.23200  24236258.84200  24236259.13300
        15.00000        11.00000
 -17973000.52308 -14004933.25008  20863335.45800  20863335.37200  20863334.45600
       250.00000       170.00000
 -22681680.14909 -17674035.34008  19973486.29400  19973486.37600  19973485.97700
       339.00000       249.00000
   -611532.34804   -476519.11505  24912702.18800  24912702.00900  24912702.41500
         2.00000         6.00000
 -25699591.74108 -20025654.30008  20607025.26200  20607024.76100  20607022.89400
       281.00000       170.00000
   -998923.20905   -778381.38005  25028738.54100  25028738.16100  25028738.13500
         8.00000         4.00000
 04  8 25  0  2 30.0000000  0 12G18G15G 9G 6G10G17G 8G29G26G22G21G 3
 -13243887.10308 -10319910.56607  22152562.96800  22152562.80900  22152561.80600
       126.00000        53.00000
  -6081446.78105  -4738790.77406  23893989.51600  23893988.84900  23893990.17700
         8.00000        12.00000
  -2300116.24806  -1792296.87206  24281810.30400  24281810.00300  24281812.21000
        12.00000        14.00000
  -9416816.71806  -7337786.01306  23607356.98000  23607356.87000  23607357.30500
        14.00000        12.00000
  -5768948.18307  -4495285.24806  23164057.47500  23164056.91100  23164058.69100
        43.00000        28.00000
  -5953541.55406  -4639127.29106  23479053.31100  23479052.36400  23479055.22900
        17.00000        20.00000
  -6503663.62206  -5067785.86906  24247469.14600  24247468.55300  24247468.45100
        13.00000        11.00000
 -17925355.07308 -13967806.93908  20872401.73500  20872401.96700  20872401.08100
       255.00000       169.00000
 -22653812.89909 -17652320.60808  19978789.33500  19978789.43200  19978788.83600
       346.00000       246.00000
   -703096.16005   -547867.57005  24895280.20900  24895279.78600  24895278.61400
         4.00000         6.00000
 -25743743.43608 -20060058.23708  20598623.06800  20598622.91800  20598620.98700
       286.00000       170.00000
  -1056225.46505   -823032.49105  25017834.30300  25017833.73800  25017835.42500
         7.00000         5.00000
 04  8 25  0  3  0.0000000  0 12G18G15G 9G 6G10G17G 8G29G26G22G21G 3
 -13317386.13508 -10377182.51807  22138576.29400  22138576.26600  22138575.14500
       130.00000        53.00000
  -6190354.95405  -4823654.26605  23873264.85500  23873264.63900  23873264.63900
        10.00000         9.00000
  -2418965.58206  -1884906.75305  24259193.34000  24259193.46500  24259195.38600
        13.00000        10.00000
  -9323874.96106  -7265363.90405  23625043.40600  23625042.96200  23625043.79000
        13.00000         9.00000
  -5682080.37907  -4427596.11506  23180587.77500  23180587.59100  23180588.68600
        46.00000        26.00000
  -5846325.66106  -4555582.56506  23499454.16100  23499454.85700  23499458.00700
        15.00000        23.00000
  -6444267.36205  -5021503.11606  24258772.14000  24258771.86300  24258771.90300
        10.00000        11.00000
 -17877311.46308 -13930370.37208  20881544.18400  20881544.32200  20881543.64000
       252.00000       170.00000
 -22625373.39009 -17630159.95008  19984201.41900  19984201.43700  19984200.71700
       349.00000       245.00000
   -794632.63605   -619194.69105  24877861.53100  24877861.75300  24877858.75600
         7.00000         7.00000
 -25787416.31408 -20094089.05508  20590312.45500  20590312.09800  20590310.42600
       269.00000       172.00000
  -1113087.68905   -867340.70304  25007011.53900  25007012.19900  25007012.57000
         7.00000         3.00000
 04  8 25  0  3 30.0000000  0 12G18G15G 9G 6G10G17G 8G29G26G22G21G 3
 -13390679.65708 -10434294.34307  22124629.30200  22124628.78000  22124627.90600
       135.00000        54.00000
  -6299116.77506  -4908403.74006  23852568.01100  23852567.61500  23852568.76500
        12.00000        11.00000
  -2537759.83506  -1977473.73206  24236588.14000  24236587.98900  24236589.87700
        15.00000        14.00000
  -9230749.79806  -7192798.88305  23642763.22200  23642763.35000  23642764.34100
        13.00000         7.00000
  -5595074.03407  -4359799.02906  23197144.86400  23197144.31400  23197145.54900
        47.00000        28.00000
  -5738864.36106  -4471846.60006  23519904.56600  23519904.04300  23519906.53000
        17.00000        18.00000
  -6384349.77605  -4974814.13406  24270172.99700  24270172.36300  24270173.88500
         9.00000        12.00000
 -17828835.65508 -13892597.02708  20890768.86900  20890768.82200  20890768.30600
       239.00000       171.00000
 -22596327.64309 -17607526.90108  19989728.30000  19989728.42900  19989727.89500
       343.00000       242.00000
   -886105.39205   -690472.18005  24860455.10900  24860454.99200  24860453.03300
        10.00000         8.00000
 -25830572.28008 -20127717.08208  20582099.93400  20582099.69000  20582097.93800
       267.00000       171.00000
  -1169472.09905   -911276.59104  24996282.68100  24996282.35700  24996284.09500
         8.00000         3.00000
 04  8 25  0  4  0.0000000  0 12G18G15G 9G 6G10G17G 8G29G26G22G21G 3
 -13463826.24008 -10491291.66207  22110709.54500  22110709.62300  22110708.62100
       145.00000        55.00000
  -6407789.40006  -4993083.67406  23831887.60800  23831887.86900  23831888.85700
        14.00000        11.00000
  -2656555.35606  -2070041.64306  24213983.00000  24213981.94200  24213983.08600
        18.00000        13.00000
  -9137503.46906  -7120139.45605  23660507.82700  23660507.37500  23660509.08000
        11.00000         9.00000
  -5507988.95407  -4291940.56806  23213716.59200  23213715.90500  23213717.14100
        39.00000        26.00000
  -5631218.48106  -4387966.76906  23540388.46400  23540387.87700  23540389.70100
        14.00000        12.00000
  -6323971.88105  -4927766.46106  24281660.95900  24281661.68100  24281662.65300
         8.00000        12.00000
 -17779988.78108 -13854534.54308  20900063.93400  20900063.96600  20900063.47600
       233.00000       169.00000
 -22566736.27609 -17584468.69808  19995359.61200  19995359.65600  19995358.87600
       344.00000       240.00000
   -977573.15805   -761745.72805  24843049.80200  24843049.38100  24843047.52400
         7.00000        10.00000
 -25873268.67408 -20160987.00608  20573975.72100  20573975.14700  20573973.22000
       280.00000       174.00000
  -1225436.29405   -954885.08904  24985633.04700  24985632.80900  24985633.79500
         7.00000         3.00000
 04  8 25  0  4 30.0000000  0 12G18G15G 9G 6G10G17G 8G29G26G22G21G 3
 -13536744.68908 -10548111.21007  22096834.07400  22096833.63200  22096832.35900
       144.00000        54.00000
  -6516289.99906  -5077629.60005  23811241.44200  23811241.09000  23811241.21900
        13.00000        10.00000
  -2775268.65006  -2162545.51806  24191391.32600  24191391.57600  24191392.06900
        23.00000        11.00000
  -9044058.52606  -7047325.27305  23678290.39500  23678290.01700  23678290.90200
        13.00000         8.00000
  -5420745.40407  -4223958.62306  23230319.08000  23230318.65500  23230319.01600
        45.00000        26.00000
  -5523309.78006  -4303882.11106  23560923.17200  23560922.72300  23560924.69200
        13.00000        14.00000
  -6263055.53405  -4880299.22806  24293254.94000  24293254.88800  24293255.71000
        10.00000        13.00000
 -17730692.71808 -13816122.04508  20909445.39000  20909445.20200  20909444.15800
       240.00000       167.00000
 -22536521.06209 -17560924.37808  20001109.49400  20001109.53400  20001108.60900
       348.00000       239.00000
  -1068955.14404   -832952.46005  24825658.15800  24825658.75200  24825658.45800
         3.00000        10.00000
 -25915423.15308 -20193834.66008  20565953.76900  20565953.40100  20565951.32900
       275.00000       172.00000
  -1280897.82605   -998101.85104  24975079.20400  24975079.32600  24975079.07700
         8.00000         3.00000
 04  8 25  0  5  0.0000000  0 12G18G15G 9G 6G10G17G 8G29G26G22G21G 3
 -13609480.07908 -10604788.14207  22082993.04900  22082992.80300  22082990.98400
       154.00000        50.00000
  -6624661.82406  -5162075.15806  23790619.20600  23790618.41600  23790619.47000
        18.00000        11.00000
  -2893942.14106  -2255018.35606  24168808.56300  24168808.97600  24168809.85200
        26.00000        11.00000
  -8950463.75206  -6974394.33005  23696100.10500  23696100.24100  23696101.18200
        11.00000         7.00000
  -5333390.19407  -4155889.69306  23246941.76700  23246941.17100  23246942.74200
        38.00000        28.00000
  -5415185.77806  -4219629.74406  23581498.40800  23581497.99300  23581501.29600
        14.00000        18.00000
  -6201648.64805  -4832449.76406  24304938.89800  24304938.61800  24304940.84700
        10.00000        13.00000
 -17680994.77408 -13777396.39108  20918902.42100  20918902.28200  20918901.29000
       243.00000       164.00000
 -22505729.46409 -17536930.93208  20006968.92400  20006969.03500  20006968.15800
       349.00000       239.00000
  -1160296.44405   -904127.47106  24808276.99300  24808276.78900  24808275.89100
         4.00000        12.00000
 -25957079.79108 -20226294.38508  20558026.61800  20558026.29900  20558024.60800
       274.00000       179.00000
  -1335900.69305  -1040961.25404  24964613.00800  24964612.80400  24964612.92300
         6.00000         2.00000
 04  8 25  0  5 30.0000000  0 12G18G15G 9G 6G10G17G 8G29G26G22G21G 3
 -13682022.56508 -10661314.74807  22069188.53000  22069188.47600  22069186.37000
       146.00000        47.00000
  -6732893.38006  -5246411.41905  23770023.61200  23770022.12700  23770023.12500
        12.00000        10.00000
  -3012563.92306  -2347450.90106  24146236.62000  24146236.02000  24146237.20800
        24.00000        13.00000
  -8856712.91905  -6901341.76905  23713939.97300  23713940.36400  23713940.89100
         7.00000         8.00000
  -5245914.89207  -4087727.17106  23263587.32200  23263587.11600  23263588.98400
        37.00000        29.00000
  -5306839.24406  -4135203.99606  23602116.80500  23602115.65000  23602118.95100
        13.00000        19.00000
  -6139743.84506  -4784212.28606  24316719.75000  24316720.33700  24316720.63300
        11.00000        12.00000
 -17630887.91908 -13738352.10508  20928437.25200  20928437.26500  20928436.35400
       241.00000       163.00000
 -22474354.20809 -17512482.68708  20012939.34800  20012939.40600  20012938.63800
       338.00000       235.00000
  -1251587.37304   -975263.23906  24790902.92700  24790904.57700  24790904.22700
         2.00000        12.00000
 -25998227.35608 -20258357.43308  20550196.88400  20550196.46400  20550194.41500
       293.00000       181.00000
  -1390434.13805  -1083454.82804  24954235.00000  24954234.45700  24954235.74000
         4.00000         2.00000
 04  8 25  0  6  0.0000000  0 12G18G15G 9G 6G10G17G 8G29G26G22G21G 3
 -13754407.59108 -10717718.63807  22055413.84300  22055413.63400  22055412.01200
       137.00000        48.00000
  -6841018.93806  -5330665.09206  23749449.04800  23749447.65500  23749448.20600
        14.00000        12.00000
  -3131167.04206  -2439868.86306  24123665.98900  24123665.40300  24123668.55100
        19.00000        19.00000
  -8762845.33805  -6828198.26305  23731803.11200  23731803.00400  23731804.33200
         4.00000         7.00000
  -5158356.55807  -4019499.97406  23280250.51800  23280249.70400  23280250.90400
        44.00000        29.00000
  -5198308.71006  -4050634.84406  23622770.47400  23622769.45700  23622771.32100
        15.00000        15.00000
  -6077379.71605  -4735616.89006  24328588.36300  24328588.11000  24328587.71400
        10.00000        11.00000
 -17580410.63608 -13699019.17208  20938042.35000  20938042.55000  20938042.00700
       235.00000       163.00000
 -22442433.56609 -17487609.46208  20019013.49200  20019013.46900  20019012.87900
       333.00000       234.00000
  -1342863.78505  -1046387.68805  24773534.05300  24773534.86300  24773535.41700
         6.00000         9.00000
 -26038900.27008 -20290050.62108  20542456.83600  20542456.60600  20542454.68400
       295.00000       185.00000
  -1444532.75605  -1125609.60204  24943940.81600  24943940.57700  24943940.98100
         4.00000         3.00000
 04  8 25  0  6 30.0000000  0 12G18G15G 9G 6G10G17G 8G29G26G22G21G 3
 -13826589.44508 -10773964.21407  22041678.45900  22041678.03400  22041676.37000
       135.00000        50.00000
  -6948990.95006  -5414799.08506  23728901.73400  23728900.77700  23728901.12500
        16.00000        12.00000
  -3249703.59306  -2532234.89806  24101108.98000  24101108.58300  24101110.79700
        17.00000        16.00000
  -8668819.03505  -6754931.06505  23749694.58700  23749695.78600  23749696.78500
         6.00000         7.00000
  -5070670.58907  -3951173.28106  23296935.35900  23296935.15700  23296936.96500
        40.00000        29.00000
  -5089550.79406  -3965888.47106  23643464.53500  23643464.73200  23643467.42100
        13.00000        13.00000
  -6014513.60305  -4686630.35906  24340550.49400  24340549.99700  24340551.62900
         6.00000        11.00000
 -17529519.60108 -13659363.84008  20947726.78100  20947726.74700  20947726.29900
       231.00000       163.00000
 -22409924.30809 -17462277.58008  20025199.71300  20025199.85900  20025199.30700
       339.00000       236.00000
  -1434080.19605  -1117465.42405  24756177.93300  24756177.95900  24756176.97600
         9.00000         8.00000
 -26079051.68808 -20321337.44608  20534816.42600  20534815.92600  20534814.11800
       277.00000       186.00000
  -1498149.97504  -1167389.31104  24933736.69300  24933735.81000  24933737.98200
         1.00000         2.00000
 04  8 25  0  7  0.0000000  0 12G18G15G 9G 6G10G17G 8G29G26G22G21G 3
 -13898587.37008 -10830066.47607  22027976.92900  22027976.89500  22027975.99200
       137.00000        53.00000
  -7056827.10006  -5498827.26906  23708380.48800  23708379.76200  23708381.13300
        15.00000        14.00000
  -3368190.48606  -2624562.28406  24078561.55700  24078562.19000  24078563.02100
        21.00000        12.00000
  -8574656.91505  -6681558.06105  23767615.36400  23767614.74600  23767615.65400
         6.00000         6.00000
  -4982878.21607  -3882763.70906  23313641.84300  23313641.88600  23313644.20400
        42.00000        31.00000
  -4980587.34305  -3880981.98206  23664200.04800  23664199.14600  23664202.95600
         9.00000        16.00000
  -5951167.07705  -4637269.47706  24352606.17900  24352605.15700  24352606.12900
         8.00000        12.00000
 -17478236.87608 -13619403.29408  20957485.76600  20957485.66200  20957485.17500
       232.00000       163.00000
 -22376848.32009 -17436504.08608  20031493.97900  20031494.09700  20031493.47700
       342.00000       235.00000
  -1525256.18705  -1188511.64505  24738826.97100  24738827.30000  24738826.39500
         9.00000         8.00000
 -26118699.69808 -20352232.00708  20527271.48000  20527271.22000  20527269.42300
       282.00000       189.00000
  -1551304.40004  -1208808.35904  24923623.12200  24923624.95100  24923622.81300
         1.00000         3.00000
 04  8 25  0  7 30.0000000  0 12G18G15G 9G 6G10G17G 8G29G26G22G21G 3
 -13970363.54408 -10885995.94607  22014318.45700  22014318.36300  22014317.48700
       137.00000        53.00000
  -7164488.20306  -5582718.99806  23687893.03600  23687892.59400  23687894.11700
        16.00000        15.00000
  -3486587.39306  -2716819.61006  24056031.36200  24056031.32000  24056033.06800
        17.00000        13.00000
  -8480324.99505  -6608052.70205  23785565.56400  23785565.51100  23785566.60700
         5.00000         8.00000
  -4894943.00307  -3814242.80606  23330375.61300  23330375.29700  23330376.67200
        42.00000        26.00000
  -4871383.54106  -3795888.18906  23684980.94600  23684980.93100  23684984.33800
        18.00000        16.00000
  -5887305.58505  -4587507.32006  24364756.36900  24364755.90600  24364757.30500
         9.00000        11.00000
 -17426527.50408 -13579110.30108  20967325.95300  20967325.84500  20967325.09500
       236.00000       161.00000
 -22343170.51209 -17410261.64908  20037902.43800  20037902.72900  20037902.03600
       335.00000       231.00000
  -1616354.00606  -1259496.93606  24721493.84900  24721493.40400  24721491.85200
        16.00000        11.00000
 -26157805.73008 -20382704.25508  20519830.02100  20519829.62400  20519827.73300
       279.00000       189.00000
  -1603956.96204  -1249836.32404  24913603.67100  24913602.73000  24913602.75000
         2.00000         3.00000
 04  8 25  0  8  0.0000000  0 12G18G15G 9G 6G10G17G 8G29G26G22G21G 3
 -14041985.87108 -10941805.54207  22000689.24600  22000689.00400  22000688.59900
       140.00000        58.00000
  -7272040.27706  -5666525.80006  23667427.01600  23667426.00300  23667427.99200
        17.00000        16.00000
  -3604960.12405  -2809058.00106  24033505.55400  24033504.81600  24033508.20700
         7.00000        16.00000
  -8385895.06504  -6534471.01705  23803534.31800  23803534.69600  23803535.91600
         3.00000         9.00000
  -4806934.44307  -3745664.75806  23347123.14500  23347123.04900  23347124.97800
        41.00000        29.00000
  -4762009.85606  -3710662.03806  23705795.50400  23705794.16300  23705796.92600
        13.00000        15.00000
  -5823000.38106  -4537399.41706  24376993.73200  24376993.48600  24376995.48500
        12.00000        13.00000
 -17374462.25208 -13538539.99508  20977233.28100  20977233.36500  20977232.85300
       234.00000       160.00000
 -22308961.41209 -17383605.21808  20044412.51200  20044412.57600  20044411.79900
       339.00000       229.00000
  -1707442.13706  -1330474.64905  24704159.95400  24704159.88700  24704157.73400
        17.00000        10.00000
 -26196436.34608 -20412806.04308  20512478.34200  20512478.02700  20512476.75100
       261.00000       195.00000
  -1656174.91505  -1290525.68304  24903667.04900  24903666.24700  24903667.08100
         5.00000         2.00000
 04  8 25  0  8 30.0000000  0 12G18G15G 9G 6G10G17G 8G29G26G22G21G 3
 -14113414.87708 -10997464.49307  21987096.90800  21987096.65700  21987095.88300
       151.00000        60.00000
  -7379442.19106  -5750215.57706  23646988.52200  23646988.14500  23646989.62500
        17.00000        16.00000
  -3723266.73106  -2901244.83706  24010993.76200  24010993.50300  24010995.17300
        13.00000        17.00000
  -8291331.23305  -6460784.97505  23821529.22600  23821530.32800  23821531.15800
         6.00000         6.00000
  -4718814.32307  -3676999.79206  23363893.30100  23363892.40900  23363893.29200
        45.00000        26.00000
  -4652429.68206  -3625274.95906  23726645.55600  23726646.82400  23726648.80000
        13.00000        14.00000
  -5758214.58706  -4486917.01706  24389322.54300  24389321.97900  24389323.45600
        15.00000        12.00000
 -17322004.40408 -13497663.77308  20987216.00500  20987215.86100  20987215.23000
       230.00000       158.00000
 -22274184.44409 -17356506.28808  20051030.23300  20051030.44800  20051029.70200
       337.00000       230.00000
  -1798481.06406  -1401414.06705  24686833.21600  24686833.82000  24686833.86900
        12.00000         9.00000
 -26234551.12708 -20442505.88008  20505225.70100  20505225.22700  20505223.54600
       261.00000       191.00000
  -1707917.76605  -1330844.82404  24893820.80100  24893820.63700  24893820.43200
         7.00000         3.00000
 04  8 25  0  9  0.0000000  0 12G18G15G 9G 6G10G17G 8G29G26G22G21G 3
 -14184608.20508 -11052939.79707  21973549.46300  21973549.34100  21973548.39400
       167.00000        62.00000
  -7486649.95406  -5833754.07306  23626587.60300  23626587.51200  23626588.37000
        16.00000        16.00000
  -3841462.38406  -2993345.27506  23988501.00400  23988500.89600  23988502.68200
        20.00000        16.00000
  -8196594.82805  -6386964.44105  23839556.96900  23839557.71500  23839559.46500
         6.00000         8.00000
  -4630541.86907  -3608216.10106  23380690.29900  23380689.36000  23380691.27100
        39.00000        27.00000
  -4542603.19906  -3539695.96206  23747547.19500  23747546.11500  23747548.32100
        11.00000        13.00000
  -5692908.33006  -4436029.06606  24401748.85000  24401748.71800  24401750.17800
        13.00000        13.00000
 -17269114.26008 -13456450.69808  20997280.73800  20997280.58700  20997279.62500
       225.00000       153.00000
 -22238799.80709 -17328933.85508  20057763.89700  20057763.98800  20057763.32700
       337.00000       234.00000
  -1889428.90106  -1472282.51305  24669527.41600  24669527.41700  24669526.85900
        13.00000        10.00000
 -26272106.46408 -20471769.79708  20498079.04800  20498078.85700  20498077.00700
       272.00000       190.00000
  -1759142.30105  -1370760.04604  24884072.45700  24884071.36100  24884072.56300
         5.00000         3.00000
 04  8 25  0  9 30.0000000  0 12G18G15G 9G 6G10G17G 8G29G26G22G21G 3
 -14255626.78508 -11108278.93707  21960035.19100  21960035.00000  21960033.81800
       173.00000        62.00000
  -7593722.94706  -5917187.56806  23606212.58600  23606212.14100  23606213.21900
        18.00000        16.00000
  -3959605.64706  -3085404.89506  23966019.72600  23966019.25000  23966020.47300
        20.00000        14.00000
  -8101750.48105  -6313059.83205  23857606.07900  23857605.56200  23857607.34600
         4.00000         8.00000
  -4542179.17407  -3539362.10506  23397505.21700  23397504.84700  23397505.58200
        44.00000        23.00000
  -4432594.06906  -3453974.62406  23768481.07300  23768480.66600  23768482.67500
        16.00000        15.00000
  -5627145.78706  -4384785.56706  24414264.54500  24414263.72900  24414264.59300
        14.00000        13.00000
 -17215855.45708 -13414950.34908  21007415.58100  21007415.39300  21007414.45400
       223.00000       150.00000
 -22202871.18809 -17300937.54108  20064600.71000  20064600.81800  20064600.41300
       331.00000       237.00000
  -1980346.45806  -1543127.34505  24652225.71100  24652226.08400  24652225.35500
        12.00000        10.00000
 -26309162.20708 -20500644.41208  20491027.58500  20491027.11400  20491025.49100
       262.00000       191.00000
  -1809908.67805  -1410318.26804  24874411.19100  24874411.54900  24874411.30500
         4.00000         2.00000
 04  8 25  0 10  0.0000000  0 12G18G15G 9G 6G10G17G 8G29G26G22G21G 3
 -14326472.79608 -11163483.59607  21946553.87900  21946553.57300  21946552.08400
       171.00000        61.00000
  -7700662.12706  -6000516.77006  23585861.88900  23585861.51700  23585863.02200
        14.00000        17.00000
  -4077696.79106  -3177423.90306  23943546.24200  23943546.48900  23943547.48800
        18.00000        13.00000
  -8006804.58805  -6239076.08805  23875672.12300  23875673.00300  23875674.05200
         8.00000         8.00000
  -4453730.55607  -3470441.15406  23414336.97000  23414335.94800  23414336.83400
        39.00000        23.00000
  -4322407.24006  -3368114.82406  23789448.56300  23789448.26400  23789450.54100
        11.00000        14.00000
  -5560932.66705  -4333190.97206  24426861.91100  24426862.10800  24426865.18000
        10.00000        13.00000
 -17162233.24308 -13373166.82908  21017619.67600  21017619.47600  21017618.49100
       228.00000       150.00000
 -22166403.87009 -17272521.46308  20071540.23500  20071540.31600  20071539.88100
       335.00000       235.00000
  -2071236.79306  -1613950.93005  24634930.48300  24634930.75100  24634929.07700
        13.00000        10.00000
 -26345719.85308 -20529130.90108  20484071.09000  20484070.60400  20484068.91400
       269.00000       193.00000
  -1860218.66805  -1449520.90505  24864838.78300  24864837.90600  24864838.27500
         4.00000         4.00000
 04  8 25  0 10 30.0000000  0 12G18G15G 9G 6G10G17G 8G29G26G22G21G 3
 -14397106.45308 -11218522.79307  21933112.67900  21933112.38400  21933110.92100
       171.00000        61.00000
  -7807426.09506  -6083709.43906  23565545.08400  23565545.12500  23565546.88000
        13.00000        20.00000
  -4195693.55606  -3269369.37306  23921093.76700  23921093.39100  23921093.76200
        26.00000        16.00000
  -7911720.95804  -6164985.00905  23893766.82700  23893766.34600  23893768.57200
         3.00000         8.00000
  -4365157.70207  -3401423.39606  23431191.15500  23431190.47100  23431191.80400
        39.00000        23.00000
  -4212006.05505  -3282088.00706  23810457.40700  23810456.72700  23810458.89400
        10.00000        12.00000
  -5494232.01406  -4281216.50306  24439554.98100  24439555.29400  24439556.50800
        11.00000        12.00000
 -17108210.66608 -13331071.33608  21027899.51800  21027899.62700  21027898.96000
       229.00000       152.00000
 -22129360.77209 -17243656.72308  20078589.31200  20078589.49000  20078588.81800
       337.00000       231.00000
  -2162060.15906  -1684722.35205  24617647.68500  24617647.49900  24617646.00000
        17.00000        10.00000
 -26381738.71108 -20557197.55108  20477217.24900  20477216.76100  20477214.75500
       280.00000       194.00000
  -1910031.74605  -1488336.34705  24855359.25400  24855359.19700  24855359.39200
         4.00000         4.00000
 04  8 25  0 11  0.0000000  0 12G18G15G 9G 6G10G17G 8G29G26G22G21G 3
 -14467573.61908 -11273432.25807  21919702.69900  21919702.48100  21919701.52100
       158.00000        63.00000
  -7914058.72306  -6166799.75506  23545253.97800  23545253.91900  23545255.07900
        12.00000        18.00000
  -4313639.08507  -3361274.91906  23898649.53900  23898649.40600  23898650.63400
        32.00000        20.00000
  -7816548.72104  -6090824.91505  23911878.48400  23911877.60800  23911878.98400
         3.00000         7.00000
  -4276507.58407  -3332345.42706  23448060.35500  23448059.68400  23448061.78400
        34.00000        23.00000
  -4101438.63406  -3195931.66006  23831497.45700  23831497.10300  23831499.76800
        14.00000        14.00000
  -5427092.28206  -4228899.84706  24452331.64300  24452332.34900  24452332.89200
        12.00000        12.00000
 -17053836.10108 -13288701.56408  21038246.63900  21038246.63000  21038246.04500
       221.00000       152.00000
 -22091790.27709 -17214381.02008  20085739.14700  20085739.07700  20085738.18400
       342.00000       229.00000
  -2252862.36606  -1755477.32905  24600369.30400  24600369.10900  24600367.70700
        25.00000         9.00000
 -26417263.26508 -20584879.02908  20470456.61700  20470456.37100  20470454.81600
       273.00000       199.00000
  -1959392.28005  -1526799.12505  24845965.73900  24845966.18400  24845967.37200
         4.00000         5.00000
 04  8 25  0 11 30.0000000  0 12G18G15G 9G 6G10G17G 8G29G26G22G21G 3
 -14537816.63708 -11328167.05707  21906335.76400  21906335.59800  21906334.63000
       152.00000        62.00000
  -8020500.81106  -6249741.62206  23524998.77400  23524998.51000  23525000.25200
        12.00000        21.00000
  -4431473.42306  -3453093.78906  23876224.95300  23876224.59100  23876226.50100
        18.00000        17.00000
  -7721234.27905  -6016554.02005  23930016.82800  23930016.50100  23930017.17900
         8.00000         8.00000
  -4187724.17107  -3263163.59806  23464955.33900  23464954.54600  23464956.49200
        33.00000        23.00000
  -3990650.18306  -3109603.02005  23852579.61400  23852579.43200  23852581.14000
        14.00000        10.00000
  -5359458.88006  -4176198.55806  24465201.83700  24465201.58800  24465203.90300
        14.00000        13.00000
 -16999054.79808 -13246014.85308  21048671.07500  21048671.05300  21048670.66300
       220.00000       151.00000
 -22053637.57409 -17184651.65508  20092999.02400  20092999.21400  20092998.61400
       339.00000       232.00000
  -2343586.15306  -1826171.19305  24583105.51900  24583105.72200  24583103.04800
        26.00000         9.00000
 -26452235.14908 -20612129.84808  20463802.00200  20463801.46100  20463799.82100
       270.00000       203.00000
  -2008242.24305  -1564864.05005  24836670.53200  24836669.67100  24836671.77500
         5.00000         5.00000
 04  8 25  0 12  0.0000000  0 12G18G15G 9G 6G10G17G 8G29G26G22G21G 3
 -14607850.01008 -11382738.49607  21893008.65100  21893008.59800  21893007.66500
       158.00000        61.00000
  -8126765.59806  -6332545.32706  23504778.15300  23504777.11000  23504778.22800
        12.00000        19.00000
  -4549209.05706  -3544835.76406  23853819.41200  23853819.82800  23853821.22900
        19.00000        13.00000
  -7625796.30005  -5942186.78705  23948176.54800  23948176.68700  23948178.94700
         9.00000         7.00000
  -4098823.50107  -3193890.40206  23481872.85300  23481872.36400  23481873.43400
        36.00000        23.00000
  -3879658.19105  -3023115.79206  23873700.91300  23873699.89000  23873702.99600
         9.00000        12.00000
  -5291349.91606  -4123126.66506  24478163.42100  24478163.25000  24478163.75600
        18.00000        12.00000
 -16943884.38608 -13203024.94108  21059169.44300  21059169.67300  21059169.23100
       221.00000       149.00000
 -22014920.45109 -17154482.48208  20100366.55500  20100366.67100  20100366.38300
       336.00000       233.00000
  -2434246.66706  -1896815.70905  24565853.94500  24565853.33400  24565850.40400
        16.00000         9.00000
 -26486668.09208 -20638960.72308  20457249.77400  20457249.32900  20457247.56200
       279.00000       207.00000
  -2056595.96605  -1602542.29605  24827470.49200  24827469.05800  24827470.11000
         6.00000         5.00000
 04  8 25  0 12 30.0000000  0 12G18G15G 9G 6G10G17G 8G29G26G22G21G 3
 -14677678.27908 -11437150.11707  21879721.06100  21879720.91300  21879720.05600
       169.00000        63.00000
  -8232855.94506  -6415213.09006  23484590.67700  23484589.66400  23484590.04700
        11.00000        20.00000
  -4666848.14706  -3636502.54606  23831434.28400  23831434.95800  23831435.91600
        26.00000        14.00000
  -7530243.08105  -5867729.79305  23966359.27600  23966360.05300  23966361.61100
         8.00000         7.00000
  -4009812.07107  -3124530.91906  23498811.27700  23498810.37600  23498812.33200
        32.00000        24.00000
  -3768470.23206  -2936475.91406  23894859.45000  23894858.80000  23894861.71200
        11.00000        13.00000
  -5222773.04306  -4069690.17706  24491212.02900  24491212.69300  24491213.51400
        17.00000        12.00000
 -16888332.23208 -13159737.57208  21069741.25700  21069741.07300  21069740.46000
       222.00000       149.00000
 -21975646.26909 -17123879.23708  20107840.53200  20107840.50500  20107839.91200
       343.00000       229.00000
  -2524848.77606  -1967414.72605  24548610.39300  24548610.77700  24548610.00400
        12.00000         9.00000
 -26520565.76608 -20665374.49908  20450798.78500  20450798.51200  20450796.92900
       270.00000       205.00000
  -2104457.29005  -1639836.84105  24818361.46900  24818360.81400  24818362.32900
         5.00000         6.00000
 04  8 25  0 13  0.0000000  0 12G18G15G 9G 6G10G17G 8G29G26G22G21G 3
 -14747314.82408 -11491412.35007  21866470.23600  21866469.76600  21866468.65900
       183.00000        64.00000
  -8338783.00206  -6497753.60606  23464432.33200  23464431.50700  23464433.20700
        12.00000        19.00000
  -4784401.24907  -3728102.33306  23809066.40200  23809065.98700  23809066.57600
        33.00000        14.00000
  -7434591.12805  -5793195.86505  23984563.57900  23984563.02400  23984563.00400
         7.00000         8.00000
  -3920704.09907  -3055096.21306  23515768.22000  23515767.36900  23515769.04400
        34.00000        23.00000
  -3657101.78206  -2849695.35706  23916052.09000  23916052.06300  23916053.79000
        14.00000        13.00000
  -5153744.01806  -4015901.38506  24504349.13700  24504349.27800  24504350.09400
        18.00000        13.00000
 -16832414.18908 -13116165.09008  21080382.40800  21080382.18000  21080381.36800
       227.00000       145.00000
 -21935830.92409 -17092854.30708  20115416.98400  20115417.15200  20115416.39300
       336.00000       224.00000
  -2615405.46906  -2037978.36105  24531377.84000  24531378.04700  24531377.67800
        13.00000         8.00000
 -26553940.18408 -20691380.54808  20444448.16700  20444447.80500  20444446.01000
       270.00000       205.00000
  -2151838.29805  -1676757.09805  24809344.04300  24809343.73800  24809345.98800
         4.00000         7.00000
 04  8 25  0 13 30.0000000  0 12G18G15G 9G 6G10G17G 8G29G26G22G21G 3
 -14816781.34708 -11545542.09507  21853250.99500  21853250.75400  21853249.15300
       195.00000        62.00000
  -8444567.07806  -6580182.73806  23444301.78900  23444301.78600  23444303.13500
        15.00000        22.00000
  -4901888.10606  -3819650.48306  23786708.68800  23786708.74200  23786710.17500
        19.00000        18.00000
  -7338866.15205  -5718605.03805  24002777.48300  24002778.02200  24002779.77200
         7.00000         8.00000
  -3831523.05107  -2985604.54106  23532738.64500  23532738.03900  23532739.60800
        32.00000        23.00000
  -3545577.59406  -2762793.39606  23937274.07200  23937273.69100  23937276.01700
        15.00000        12.00000
  -5084288.47006  -3961780.23006  24517566.19800  24517566.16700  24517566.57200
        16.00000        13.00000
 -16776154.86208 -13072326.67108  21091087.79400  21091087.96900  21091087.10100
       234.00000       144.00000
 -21895499.26709 -17061427.04908  20123091.65900  20123091.84700  20123091.08300
       328.00000       218.00000
  -2705939.19906  -2108524.10105  24514149.85900  24514150.21300  24514149.72600
        16.00000        10.00000
 -26586812.39308 -20716995.26308  20438192.78100  20438192.41100  20438190.53900
       273.00000       203.00000
  -2198760.23504  -1713319.64505  24800414.62900  24800415.25100  24800417.07100
         3.00000         7.00000
 04  8 25  0 14  0.0000000  0 12G18G15G 9G 6G10G17G 8G29G26G22G21G 3
 -14886026.52708 -11599499.36807  21840074.10700  21840073.86000  21840072.44100
       193.00000        63.00000
  -8550155.23506  -6662459.19306  23424209.03500  23424209.01500  23424209.94600
        22.00000        18.00000
  -5019255.22606  -3911105.26906  23764374.35500  23764374.07600  23764375.63500
        18.00000        18.00000
  -7243020.91105  -5643920.49305  24021015.62900  24021015.77600  24021018.48000
         7.00000         7.00000
  -3742219.47207  -2916017.41006  23549732.89200  23549732.11400  23549733.43000
        35.00000        24.00000
  -3433849.33706  -2675732.47206  23958535.77800  23958534.94800  23958538.31200
        11.00000        13.00000
  -5014357.73906  -3907288.79605  24530872.87900  24530873.57600  24530873.56700
        16.00000        10.00000
 -16719506.00508 -13028184.72408  21101867.74000  21101867.75600  21101867.16300
       226.00000       147.00000
 -21854602.74809 -17029559.64208  20130874.23600  20130874.21400  20130873.53000
       323.00000       220.00000
  -2796398.73206  -2179012.02405  24496937.38700  24496937.42000  24496935.91400
        17.00000        10.00000
 -26619130.33608 -20742178.09008  20432042.79200  20432042.45200  20432040.64200
       266.00000       204.00000
  -2245171.33405  -1749484.10005  24791583.90900  24791583.51200  24791585.27900
         5.00000         7.00000
 04  8 25  0 14 30.0000000  0 12G18G15G 9G 6G10G17G 8G29G26G22G21G 3
 -14955074.04708 -11653302.61607  21826934.65700  21826934.32800  21826933.11500
       181.00000        66.00000
  -8655569.34206  -6744600.05306  23404149.32600  23404149.06100  23404149.78900
        20.00000        15.00000
  -5136523.31207  -4002482.97405  23742058.90800  23742059.25700  23742058.20100
        32.00000        10.00000
  -7147082.09305  -5569163.05005  24039272.78200  24039272.90200  24039275.29200
         8.00000         8.00000
  -3652817.84007  -2846353.88006  23566745.97500  23566745.09200  23566746.65800
        37.00000        24.00000
  -3321943.02305  -2588532.78806  23979831.32800  23979830.38900  23979832.95700
        10.00000        12.00000
  -4943977.96706  -3852447.45406  24544266.85900  24544266.11000  24544267.22700
        16.00000        11.00000
 -16662493.69308 -12983759.56708  21112717.03400  21112716.94900  21112716.14900
       224.00000       145.00000
 -21813167.75709 -16997272.65208  20138758.78600  20138758.99200  20138758.46000
       329.00000       220.00000
  -2886807.79506  -2249460.62905  24479732.38200  24479732.24100  24479730.90700
        17.00000         8.00000
 -26650916.43608 -20766946.48808  20425993.97300  20425993.55600  20425991.98900
       256.00000       206.00000
  -2291094.14105  -1785268.10205  24782846.61100  24782845.73600  24782846.82900
         4.00000         9.00000
 04  8 25  0 15  0.0000000  0 12G18G29G15G 9G 6G10G17G 8G26G22G21G 3
 -15023887.17208 -11706923.21807  21813839.81000  21813839.54800  21813838.35900
       178.00000        65.00000
 -16605084.54308 -12939025.18108  21123641.41000  21123641.39600  21123640.77000
       214.00000       144.00000
  -8760771.37806  -6826575.64206  23384130.81800  23384130.20600  23384131.55200
        27.00000        19.00000
  -5253653.68506  -4093753.41306  23719770.42600  23719770.17800  23719769.96900
        29.00000        13.00000
  -7051017.47405  -5494307.58005  24057554.78100  24057553.79000  24057555.82300
         9.00000         6.00000
  -3563283.50106  -2776586.93806  23583783.12200  23583782.27300  23583783.97900
        31.00000        21.00000
  -3209825.35506  -2501168.40106  24001167.57300  24001166.52600  24001168.50100
        11.00000        12.00000
  -4873116.81506  -3797231.04606  24557751.41100  24557751.52400  24557752.66900
        17.00000        11.00000
 -21771161.09309 -16964540.19808  20146752.69600  20146752.69700  20146752.09400
       331.00000       219.00000
  -2977130.49806  -2319841.93305  24462546.37600  24462545.83000  24462542.26100
        14.00000         7.00000
 -26682133.73408 -20791271.66708  20420053.71100  20420053.28400  20420051.51700
       263.00000       209.00000
  -2336492.09604  -1820643.08305  24774205.23900  24774205.52100  24774208.64400
         1.00000         9.00000
 04  8 25  0 15 30.0000000  0 12G18G29G15G 9G 6G10G17G 8G26G22G21G 3
 -15092500.20308 -11760387.90507  21800782.96600  21800782.89300  21800781.76900
       178.00000        66.00000
 -16547315.72508 -12894010.53508  21134634.30500  21134634.28000  21134633.82300
       211.00000       144.00000
  -8865793.94506  -6908411.37406  23364145.44900  23364144.82800  23364146.06100
        30.00000        14.00000
  -5370678.66206  -4184941.61606  23697500.37000  23697500.33000  23697501.36300
        20.00000        22.00000
  -6954865.12005  -5419383.72905  24075851.17500  24075851.59300  24075851.81200
         6.00000         5.00000
  -3473652.35607  -2706744.55506  23600839.51700  23600839.19100  23600840.79200
        36.00000        24.00000
  -3097533.43705  -2413668.25406  24022534.50300  24022534.08600  24022536.84900
        10.00000        12.00000
  -4801811.69206  -3741668.65506  24571320.35500  24571320.18000  24571321.59700
        18.00000        11.00000
 -21728619.79609 -16931391.14808  20154847.98800  20154848.17000  20154847.37300
       331.00000       214.00000
  -3067401.22406  -2390182.70805  24445367.71600  24445367.12100  24445365.60200
        15.00000         8.00000
 -26712815.62608 -20815179.64408  20414214.89900  20414214.68500  20414213.13200
       264.00000       217.00000
  -2381398.91700  -1855635.36605  24765661.42300  24765661.25900  24765662.73400
          .00000         8.00000
 04  8 25  0 16  0.0000000  0 12G18G29G15G 9G 6G10G17G 8G26G22G21G 3
 -15160938.37208 -11813716.33607  21787759.40900  21787759.34700  21787758.63100
       181.00000        70.00000
 -16489215.18008 -12848737.40208  21145690.66400  21145690.65400  21145689.99800
       217.00000       142.00000
  -8970660.51307  -6990125.61306  23344189.98100  23344189.65600  23344190.12100
        32.00000        14.00000
  -5487620.45807  -4276065.00806  23675247.82300  23675247.92100  23675248.62300
        35.00000        24.00000
  -6858653.78005  -5344413.94205  24094159.08900  24094158.67600  24094161.03700
         4.00000         5.00000
  -3383950.62807  -2636847.21006  23617909.35300  23617909.01000  23617910.78700
        36.00000        24.00000
  -2985095.01705  -2326053.91706  24043929.99500  24043929.92900  24043933.41400
         9.00000        11.00000
  -4730090.40006  -3685781.98005  24584968.49200  24584967.58100  24584969.66500
        16.00000        10.00000
 -21685572.04409 -16897847.46108  20163039.29800  20163039.65500  20163039.03800
       323.00000       212.00000
  -3157645.30606  -2460502.76705  24428194.37200  24428193.92000  24428192.57100
        14.00000         9.00000
 -26742986.28108 -20838689.25408  20408473.65000  20408473.31400  20408471.86300
       262.00000       220.00000
  -2425838.78204  -1890263.83105  24757204.64500  24757203.90100  24757205.52200
         2.00000         5.00000
 04  8 25  0 16 30.0000000  0 12G18G29G15G 9G 6G10G17G 8G26G22G21G 3
 -15229159.86308 -11866875.93107  21774777.60800  21774777.40400  21774776.17500
       186.00000        72.00000
 -16430744.14008 -12803175.56508  21156817.20800  21156817.32900  21156816.59100
       213.00000       138.00000
  -9075327.83906  -7071684.54406  23324272.19200  23324272.06700  23324273.38400
        28.00000        16.00000
  -5604435.24906  -4367089.48406  23653018.57900  23653018.16000  23653019.02400
        30.00000        18.00000
  -6762345.63505  -5269368.69605  24112485.54400  24112484.95800  24112488.22500
         4.00000         5.00000
  -3294138.54207  -2566863.82206  23634999.90700  23634999.24400  23635001.20600
        32.00000        22.00000
  -2872471.38705  -2238295.29306  24065362.31400  24065363.00300  24065364.58000
        10.00000        11.00000
  -4657915.04406  -3629541.49605  24598703.36300  24598702.75000  24598703.82200
        18.00000        10.00000
 -21641979.18709 -16863879.01608  20171335.14900  20171335.21000  20171334.50500
       327.00000       212.00000
  -3247821.37306  -2530769.79905  24411034.50000  24411034.18700  24411032.74500
        15.00000        10.00000
 -26772603.46808 -20861767.59008  20402838.04200  20402837.60500  20402835.94600
       269.00000       220.00000
  -2469769.87305  -1924495.85205  24748844.31200  24748843.48800  24748846.85200
         6.00000         4.00000
 04  8 25  0 17  0.0000000  0 12G18G29G15G 9G 6G10G17G 8G26G22G21G 3
 -15297152.79508 -11919857.42407  21761838.92200  21761838.80300  21761837.65100
       191.00000        72.00000
 -16371893.35908 -12757317.83008  21168016.48200  21168016.32000  21168015.37000
       211.00000       134.00000
  -9179781.92006  -7153077.33806  23304395.29900  23304395.16100  23304396.29200
        31.00000        16.00000
  -5721108.31006  -4458003.54406  23630814.50100  23630814.85500  23630816.71400
        20.00000        14.00000
  -6665932.33704  -5194241.51405  24130834.07700  24130833.57800  24130833.86300
         3.00000         4.00000
  -3204205.56907  -2496786.24206  23652113.49400  23652112.76700  23652114.94800
        32.00000        23.00000
  -2759653.34006  -2150385.13906  24086831.71500  24086831.51500  24086832.87600
        11.00000        11.00000
  -4585276.09406  -3572939.76305  24612525.81200  24612525.05000  24612526.10300
        15.00000        10.00000
 -21597832.16209 -16829478.74408  20179736.11100  20179736.30100  20179735.63200
       339.00000       216.00000
  -3337917.66606  -2600974.68306  24393888.53900  24393889.04100  24393888.27400
        12.00000        12.00000
 -26801654.43608 -20884404.71508  20397309.57600  20397309.34500  20397307.68300
       269.00000       220.00000
  -2513179.46405  -1958321.49504  24740584.37100  24740583.76200  24740584.13600
         9.00000         3.00000
 04  8 25  0 17 30.0000000  0 12G18G29G15G 9G 6G10G17G 8G26G22G21G 3
 -15364960.09908 -11972694.26607  21748935.89300  21748935.53900  21748934.46900
       195.00000        73.00000
 -16312708.61108 -12711199.86208  21179278.71400  21179278.66300  21179278.14200
       211.00000       137.00000
  -9284064.04106  -7234336.12606  23284552.07900  23284551.23900  23284551.07100
        27.00000        16.00000
  -5837680.25306  -4548838.78906  23608633.00700  23608632.92000  23608634.67700
        31.00000        22.00000
  -6569460.25104  -5119068.54304  24149191.59400  24149192.59000  24149191.79300
         1.00000         3.00000
  -3114195.94206  -2426648.94606  23669241.25900  23669241.15500  23669243.16100
        31.00000        22.00000
  -2646686.44705  -2062359.02306  24108328.83900  24108328.58200  24108330.91700
         9.00000        12.00000
  -4512220.00406  -3516013.00105  24626428.58000  24626427.62100  24626428.66700
        14.00000         9.00000
 -21553176.61609 -16794682.22808  20188233.74000  20188233.92300  20188233.32300
       336.00000       218.00000
  -3427977.25405  -2671150.94106  24376750.33400  24376750.54700  24376750.34100
         8.00000        11.00000
 -26830180.73608 -20906633.01008  20391881.06300  20391880.75700  20391879.36000
       259.00000       220.00000
  -2556109.92005  -1991773.81405  24732416.24200  24732415.31900  24732414.88100
         8.00000         4.00000
 04  8 25  0 18  0.0000000  0 12G18G29G15G 9G 6G10G17G 8G26G22G21G 3
 -15432545.20808 -12025357.97607  21736074.80200  21736074.51600  21736073.21900
       195.00000        71.00000
 -16253156.05608 -12664795.29608  21190611.31200  21190611.23900  21190610.74200
       209.00000       138.00000
  -9388136.02206  -7315431.15506  23264746.85900  23264746.56700  23264747.95400
        24.00000        20.00000
  -5954112.16406  -4639564.89706  23586476.89600  23586476.36700  23586478.41300
        26.00000        25.00000
  -6472896.84300  -5043824.44004  24167568.15100  24167567.91900  24167567.23900
          .00000         3.00000
  -3024074.70306  -2356424.68206  23686391.58100  23686391.00900  23686392.68100
        30.00000        21.00000
  -2533537.02205  -1974190.69906  24129859.47700  24129859.27500  24129862.12600
        10.00000        13.00000
  -4438713.35506  -3458735.13405  24640415.04200  24640415.49800  24640416.64200
        15.00000        10.00000
 -21507979.22509 -16759463.50208  20196834.54400  20196834.55200  20196834.16000
       329.00000       216.00000
  -3517963.81705  -2741270.28905  24359626.67900  24359626.12700  24359625.88500
         9.00000        10.00000
 -26858145.63408 -20928423.84408  20386559.94700  20386559.44800  20386557.63900
       263.00000       218.00000
  -2598524.31105  -2024823.97705  24724343.44800  24724342.47600  24724343.21600
         4.00000         4.00000
 04  8 25  0 18 30.0000000  0 11G18G29G15G 9G10G17G 8G26G22G21G 3
 -15499925.64308 -12077862.19307  21723252.37700  21723252.31500  21723251.21200
       193.00000        74.00000
 -16193256.42408 -12618120.28108  21202009.66800  21202009.67700  21202009.08500
       203.00000       135.00000
  -9492013.84906  -7396374.89706  23244979.48100  23244979.12800  23244979.55500
        26.00000        18.00000
  -6070419.24006  -4730193.72306  23564343.72500  23564343.57400  23564345.11100
        27.00000        20.00000
  -2933860.55406  -2286128.00006  23703558.46800  23703557.69300  23703560.04000
        28.00000        22.00000
  -2420225.54605  -1885896.12506  24151421.32300  24151421.81400  24151425.10200
         9.00000        11.00000
  -4364776.63706  -3401122.18505  24654483.44300  24654484.15000  24654487.33000
        11.00000         9.00000
 -21462260.68109 -16723838.67508  20205534.75200  20205534.61400  20205534.06800
       328.00000       214.00000
  -3607895.38506  -2811346.82805  24342515.37700  24342515.04600  24342511.71900
        19.00000         8.00000
 -26885565.60908 -20949790.06508  20381341.98400  20381341.52500  20381339.82400
       262.00000       219.00000
  -2640439.71505  -2057485.30704  24716367.29400  24716367.06600  24716366.86200
         4.00000         3.00000
 04  8 25  0 19  0.0000000  0 12G18G29G15G 9G10G17G 8G26G22G21G 3G 6
 -15567106.86308 -12130211.17507  21710468.29900  21710468.15300  21710467.18900
       194.00000        74.00000
 -16133017.99308 -12571181.26808  21213472.67500  21213472.82000  21213472.27300
       207.00000       136.00000
  -9595701.28706  -7477170.27906  23225248.46100  23225247.98000  23225249.22600
        25.00000        23.00000
  -6186604.67106  -4820727.80306  23542232.87600  23542233.42800  23542235.78600
        20.00000        19.00000
  -2843560.78606  -2215764.61006  23720741.89800  23720741.25200  23720743.27900
        25.00000        20.00000
  -2306760.50905  -1797481.83205  24173014.21900  24173013.50800  24173015.66400
         8.00000         8.00000
  -4290419.49206  -3343181.62905  24668635.88700  24668634.66800  24668636.39900
        13.00000         9.00000
 -21416029.53809 -16687814.42508  20214331.86300  20214332.07500  20214331.58100
       336.00000       214.00000
  -3697777.54106  -2881384.86905  24325410.45300  24325410.53800  24325408.31300
        15.00000        10.00000
 -26912445.78608 -20970735.66708  20376226.54900  20376226.30400  20376224.62400
       261.00000       218.00000
  -2681861.35704  -2089761.91804  24708484.33800  24708483.42000  24708484.85700
         3.00000         3.00000
     32231.69600     25115.39204  24204355.79800  24204356.73200  24204356.06200
        -2.00000         1.00000
 04  8 25  0 19 30.0000000  0 11G18G29G15G 9G10G17G 8G26G22G21G 3
 -15634081.89508 -12182399.49807  21697723.70400  21697723.38700  21697722.00200
       194.00000        72.00000
 -16072436.93608 -12523975.25708  21225000.71200  21225000.93700  21225000.57900
       203.00000       137.00000
  -9699189.67506  -7557810.56606  23205554.52000  23205554.54300  23205555.83800
        23.00000        23.00000
  -6302659.19806  -4911159.83006  23520149.04400  23520149.22100  23520151.26100
        27.00000        20.00000
  -2753170.04006  -2145330.32206  23737943.28500  23737942.58100  23737944.68000
        27.00000        20.00000
  -2193137.97705  -1708944.85305  24194636.09800  24194635.88200  24194637.60600
        10.00000         8.00000
  -4215638.11606  -3284910.47905  24682864.45700  24682864.61800  24682866.91800
        14.00000         8.00000
 -21369281.97809 -16651387.76708  20223227.77300  20223227.94800  20223227.34500
       339.00000       213.00000
  -3787603.90105  -2951379.38706  24308316.83900  24308316.56700  24308315.08800
         8.00000        12.00000
 -26938778.57008 -20991254.72508  20371215.86700  20371215.50400  20371213.82200
       270.00000       225.00000
  -2722781.84804  -2121648.06005  24700699.41000  24700698.06300  24700699.37000
         1.00000         4.00000
 04  8 25  0 20  0.0000000  0 11G18G29G15G 9G10G17G 8G26G22G21G 3
 -15700850.22808 -12234426.76807  21685017.70500  21685017.65500  21685016.56800
       191.00000        74.00000
 -16011515.43208 -12476503.97708  21236594.06000  21236593.89000  21236593.63400
       197.00000       136.00000
  -9802476.54906  -7638293.81906  23185900.41300  23185900.13700  23185901.22200
        27.00000        25.00000
  -6418579.41307  -5001487.24706  23498091.33400  23498091.04600  23498092.27800
        33.00000        21.00000
  -2662689.29506  -2074825.92606  23755161.60200  23755160.82500  23755162.64200
        29.00000        21.00000
  -2079359.93005  -1620286.72505  24216287.78100  24216287.00000  24216289.10700
         9.00000        10.00000
  -4140434.91906  -3226310.64505  24697174.95900  24697175.27900  24697177.58200
        11.00000         8.00000
 -21322020.47809 -16614560.63308  20232221.51600  20232221.46100  20232220.91500
       330.00000       214.00000
  -3877374.01906  -3021330.05606  24291233.68900  24291233.99500  24291232.06600
        11.00000        11.00000
 -26964562.65108 -21011346.22408  20366309.38700  20366309.01900  20366307.40900
       271.00000       230.00000
  -2763200.28400  -2153142.95505  24693006.53700  24693006.23100  24693008.21100
          .00000         5.00000
 04  8 25  0 20 30.0000000  0 11G18G29G15G 9G10G17G 8G26G22G21G 3
 -15767379.70608 -12286267.90807  21672357.72600  21672357.49000  21672356.50700
       199.00000        78.00000
 -15950224.40808 -12428744.76108  21248257.31000  21248257.38400  21248256.78000
       205.00000       131.00000
  -9905528.52706  -7718594.03006  23166289.56800  23166288.97800  23166290.89100
        24.00000        25.00000
  -6534331.10806  -5091683.31206  23476063.52200  23476063.68200  23476066.20900
        22.00000        25.00000
  -2572088.19606  -2004227.72406  23772400.84200  23772400.26300  23772402.74000
        24.00000        18.00000
  -1965397.44105  -1531484.88906  24237973.84100  24237973.80300  24237975.39200
         9.00000        11.00000
  -4064781.23406  -3167359.76805  24711572.58600  24711572.05800  24711574.41300
        12.00000         8.00000
 -21274216.14609 -16577310.51408  20241317.80800  20241318.09600  20241317.79100
       324.00000       212.00000
  -3967056.33106  -3091212.35806  24274168.34700  24274167.92900  24274166.07800
        13.00000        13.00000
 -26989765.47008 -21030984.78908  20361513.64900  20361513.25600  20361511.44900
       274.00000       232.00000
  -2803084.20400  -2184221.34305  24685417.01900  24685416.86500  24685418.22900
          .00000         7.00000
 04  8 25  0 21  0.0000000  0 11G18G29G15G 9G10G17G 8G26G22G21G 3
 -15833703.04808 -12337948.42207  21659736.48800  21659736.49300  21659735.31400
       200.00000        77.00000
 -15888599.48508 -12380725.35708  21259984.32500  21259984.22700  21259983.35600
       202.00000       125.00000
 -10008376.43706  -7798735.23906  23146718.51700  23146717.78600  23146719.64700
        24.00000        27.00000
  -6649944.84706  -5181771.83406  23454062.85900  23454063.15300  23454065.01300
        26.00000        20.00000
  -2481401.10006  -1933562.55106  23789659.12900  23789658.49100  23789660.26000
        29.00000        20.00000
  -1851286.02505  -1442567.00406  24259687.39100  24259687.39300  24259690.47700
         8.00000        12.00000
  -3988713.42706  -3108086.21305  24726048.47700  24726047.50000  24726050.21000
        11.00000         7.00000
 -21225904.92109 -16539665.42408  20250511.19900  20250511.63200  20250511.08200
       328.00000       209.00000
  -4056683.59906  -3161051.75406  24257111.56000  24257111.86300  24257110.98200
        11.00000        13.00000
 -27014419.07608 -21050195.39708  20356821.93800  20356821.64700  20356820.10200
       270.00000       235.00000
  -2842466.21904  -2214908.60105  24677922.62200  24677922.22100  24677924.04700
         2.00000         7.00000
 04  8 25  0 21 30.0000000  0 11G18G29G15G 9G10G17G 8G26G22G21G 3
 -15899797.99808 -12389450.97907  21647159.42400  21647159.07400  21647157.95500
       203.00000        76.00000
 -15826621.11208 -12332430.54308  21271778.20500  21271778.25600  21271777.50700
       197.00000       125.00000
 -10110996.07406  -7878698.56106  23127190.81000  23127190.78400  23127192.15100
        25.00000        27.00000
  -6765395.61507  -5271733.45106  23432094.25200  23432094.23500  23432094.31100
        36.00000        17.00000
  -2390606.91406  -1862813.91406  23806937.09500  23806936.61300  23806938.06600
        27.00000        19.00000
  -1737006.31605  -1353518.03706  24281433.59800  24281433.05200  24281437.45500
         5.00000        13.00000
  -3912212.26905  -3048474.99705  24740604.30300  24740604.01100  24740607.05500
         9.00000         8.00000
 -21177067.46209 -16501610.27308  20259805.33600  20259805.27800  20259804.44900
       331.00000       205.00000
  -4146233.68206  -3230831.01806  24240070.00300  24240070.87000  24240069.51500
        13.00000        12.00000
 -27038500.55708 -21068960.19408  20352239.47100  20352238.98200  20352237.56100
       260.00000       237.00000
  -2881323.44705  -2245186.97205  24670528.04300  24670528.29700  24670529.79100
         4.00000         8.00000
 04  8 25  0 22  0.0000000  0 11G18G29G15G 9G10G17G 8G26G22G21G 3
 -15965661.92108 -12440773.50907  21634625.96300  21634625.65300  21634624.48500
       209.00000        80.00000
 -15764289.69708 -12283860.62908  21283639.68000  21283639.52100  21283638.94600
       195.00000       126.00000
 -10213383.24006  -7958480.73706  23107706.74300  23107706.69300  23107708.68000
        25.00000        29.00000
  -6880678.43306  -5361564.17206  23410155.68600  23410156.03900  23410157.28000
        30.00000        19.00000
  -2299704.41106  -1791980.86706  23824235.06400  23824234.34600  23824235.66700
        26.00000        18.00000
  -1622558.43705  -1264338.05306  24303214.60300  24303213.47500  24303216.90400
         7.00000        13.00000
  -3835278.17405  -2988526.38305  24755244.37900  24755246.05800  24755247.89600
         9.00000         5.00000
 -21127704.21409 -16463145.40908  20269198.88900  20269198.83300  20269197.96900
       334.00000       203.00000
  -4235703.97606  -3300548.10406  24223044.65500  24223045.06200  24223045.72600
        13.00000        17.00000
 -27062006.73308 -21087276.69808  20347766.33200  20347765.90300  20347764.40500
       258.00000       236.00000
  -2919652.87705  -2275054.07405  24663235.68200  24663234.61600  24663234.74800
        10.00000         6.00000
 04  8 25  0 22 30.0000000  0 11G18G29G15G 9G10G17G 8G26G22G21G 3
 -16031330.82508 -12491944.07107  21622129.52400  21622129.28200  21622128.21000
       208.00000        83.00000
 -15701644.12408 -12235045.91908  21295560.61800  21295560.35200  21295560.02100
       188.00000       125.00000
 -10315572.18406  -8038108.45706  23088261.63300  23088260.90600  23088262.06000
        29.00000        23.00000
  -6995826.88807  -5451290.19306  23388243.19100  23388243.75000  23388246.02300
        33.00000        26.00000
  -2208731.29006  -1721092.80506  23841546.64700  23841545.95500  23841548.21500
        26.00000        20.00000
  -1507981.53705  -1175057.52605  24325017.18500  24325016.71600  24325019.20400
         7.00000        10.00000
  -3757950.82905  -2928271.35105  24769959.68400  24769960.44600  24769962.78300
         8.00000         7.00000
 -21077854.53909 -16424301.51208  20278684.41100  20278684.61100  20278684.15200
       324.00000       203.00000
  -4325131.14406  -3370231.56706  24206028.62500  24206028.36500  24206027.81200
        15.00000        18.00000
 -27084972.99708 -21105172.49208  20343396.12800  20343395.62500  20343394.00900
       260.00000       235.00000
  -2957490.46006  -2304537.91605  24656034.17000  24656034.33400  24656034.06400
        14.00000         7.00000
 04  8 25  0 23  0.0000000  0 11G18G29G15G 9G10G17G 8G26G22G21G 3
 -16096807.15708 -12542964.56407  21609670.12200  21609669.71100  21609668.36100
       207.00000        85.00000
 -15638689.84608 -12185990.65508  21307540.44500  21307540.21000  21307539.82100
       183.00000       123.00000
 -10417563.75706  -8117582.38906  23068853.23900  23068852.12700  23068853.40000
        25.00000        22.00000
  -7110841.02407  -5540911.52206  23366357.87900  23366357.91600  23366359.56600
        34.00000        25.00000
  -2117691.30206  -1650152.64906  23858871.14000  23858870.74700  23858872.54900
        24.00000        19.00000
  -1393280.68805  -1085680.44005  24346845.50600  24346844.52600  24346846.29800
         4.00000        10.00000
  -3680235.95105  -2867714.36105  24784747.64800  24784747.56800  24784749.94000
         8.00000         6.00000
 -21027523.85509 -16385082.81508  20288262.02500  20288262.30500  20288262.00300
       321.00000       208.00000
  -4414518.00406  -3439883.60806  24189017.69400  24189017.89400  24189017.24700
        17.00000        18.00000
 -27107401.34808 -21122649.13208  20339128.10200  20339127.60700  20339126.02000
       257.00000       235.00000
  -2994838.08406  -2333639.99705  24648928.52100  24648927.91700  24648929.83300
        19.00000        10.00000
 04  8 25  0 23 30.0000000  0 11G18G29G15G 9G10G17G 8G26G22G21G 3
 -16162069.69208 -12593818.47807  21597250.60600  21597250.61400  21597249.18000
       208.00000        84.00000
 -15575408.22108 -12136680.32208  21319582.35400  21319582.35100  21319581.85400
       188.00000       122.00000
 -10519334.84706  -8196884.49606  23049485.71700  23049485.73100  23049487.46000
        28.00000        25.00000
  -7225697.24407  -5630409.84406  23344502.32700  23344501.94400  23344502.46900
        33.00000        21.00000
  -2026565.02906  -1579145.22706  23876212.66300  23876211.77300  23876213.17300
        26.00000        19.00000
  -1278437.62905   -996192.55506  24368697.82400  24368697.74900  24368700.59600
         5.00000        11.00000
  -3602115.85605  -2806841.58905  24799615.10800  24799614.25800  24799615.65600
         9.00000         6.00000
 -20976694.13109 -16345475.24708  20297935.28700  20297935.09600  20297934.59000
       322.00000       207.00000
  -4503843.27406  -3509487.70006  24172020.04600  24172020.05300  24172019.24300
        19.00000        18.00000
 -27129269.81108 -21139689.50008  20334966.58800  20334966.19900  20334964.55100
       261.00000       232.00000
  -3031674.45206  -2362343.68105  24641918.00900  24641917.60300  24641919.40300
        14.00000         8.00000
 04  8 25  0 24  0.0000000  0 11G18G29G15G 9G10G17G 8G26G22G21G 3
 -16227093.80208 -12644486.59407  21584877.13700  21584876.81300  21584875.85400
       204.00000        86.00000
 -15511778.25408 -12087098.55208  21331690.89300  21331690.97400  21331690.35100
       190.00000       122.00000
 -10620859.45506  -8275994.55406  23030166.49600  23030166.49200  23030167.52100
        28.00000        23.00000
  -7340368.84206  -5719764.27806  23322680.41200  23322680.13200  23322681.62100
        31.00000        24.00000
  -1935329.57206  -1508052.75606  23893572.80800  23893572.21000  23893574.97700
        20.00000        20.00000
  -1163431.18705   -906577.38706  24390583.10800  24390583.54500  24390585.89000
         8.00000        11.00000
  -3523569.46505  -2745636.66205  24814561.45900  24814561.42500  24814564.00400
         9.00000         6.00000
 -20925344.39309 -16305462.47208  20307706.22600  20307706.42000  20307706.04500
       326.00000       201.00000
  -4593083.08006  -3579025.16106  24155038.55800  24155038.63000  24155037.89900
        21.00000        22.00000
 -27150553.71808 -21156274.36708  20330916.47900  20330916.14700  20330914.38200
       267.00000       233.00000
  -3067975.35505  -2390630.10105  24635010.76000  24635010.19600  24635011.56500
        10.00000         7.00000
 04  8 25  0 24 30.0000000  0 11G18G29G15G 9G10G17G 8G26G22G21G 3
 -16291890.91308 -12694977.83707  21572546.75400  21572546.44200  21572545.26500
       211.00000        83.00000
 -15447813.76708 -12037256.11608  21343863.03000  21343862.76500  21343862.32000
       179.00000       118.00000
 -10722147.03506  -8354919.93406  23010892.32600  23010891.80900  23010893.15600
        30.00000        25.00000
  -7454864.36807  -5808981.53406  23300891.25500  23300891.84000  23300893.70300
        35.00000        26.00000
  -1843997.35006  -1436884.86506  23910954.00000  23910953.37800  23910955.50600
        26.00000        21.00000
  -1048275.18105   -816845.66705  24412497.13300  24412496.15800  24412499.66700
         8.00000        10.00000
  -3444611.54805  -2684111.05505  24829586.98200  24829586.06000  24829589.08200
         6.00000         6.00000
 -20873488.90809 -16265055.60808  20317574.03000  20317574.23900  20317573.56200
       333.00000       192.00000
  -4682248.62106  -3648504.77006  24138070.86900  24138071.07300  24138069.90700
        25.00000        20.00000
 -27171263.83208 -21172412.12308  20326975.64500  20326975.13400  20326973.34100
       263.00000       233.00000
  -3103751.46805  -2418507.60105  24628200.85500  24628201.00000  24628203.94100
         7.00000         7.00000
 04  8 25  0 25  0.0000000  0 11G18G29G15G 9G10G17G 8G26G22G21G 3
 -16356473.33408 -12745301.79207  21560256.70300  21560256.83100  21560255.44600
       219.00000        82.00000
 -15383530.11208 -11987164.97708  21356095.79500  21356095.57600  21356095.25700
       177.00000       117.00000
 -10823208.32606  -8433668.94606  22991660.99900  22991660.46200  22991661.84200
        30.00000        27.00000
  -7569193.83307  -5898069.38506  23279135.99300  23279136.05100  23279136.93400
        39.00000        25.00000
  -1752582.39606  -1365652.50206  23928349.71900  23928349.34000  23928350.48800
        25.00000        18.00000
   -932985.07205   -727009.44805  24434435.63300  24434435.98400  24434438.99500
         9.00000         9.00000
  -3365257.63605  -2622276.90005  24844688.04200  24844687.74900  24844688.95600
         6.00000         5.00000
 -20821143.32409 -16224266.84808  20327535.31900  20327535.41200  20327534.37800
       328.00000       187.00000
  -4771352.68406  -3717936.45906  24121115.74600  24121115.41100  24121113.67700
        26.00000        20.00000
 -27191412.12408 -21188112.10108  20323141.43000  20323141.00600  20323139.24500
       266.00000       234.00000
  -3139015.15305  -2445985.81905  24621490.81800  24621491.29200  24621492.41300
         5.00000         8.00000
 04  8 25  0 25 30.0000000  0 11G18G29G15G 9G10G17G 8G26G22G21G 3
 -16420831.58408 -12795451.07507  21548010.00300  21548009.77000  21548008.69000
       218.00000        84.00000
 -15318920.89808 -11936820.15308  21368390.55000  21368390.33900  21368390.10600
       177.00000       118.00000
 -10924032.02607  -8512232.86006  22972475.46200  22972474.91000  22972475.84100
        33.00000        26.00000
  -7683345.39107  -5987018.59806  23257414.05000  23257413.49800  23257414.82400
        33.00000        27.00000
  -1661076.82806  -1294349.52806  23945763.11100  23945761.53200  23945763.67100
        21.00000        18.00000
   -817554.18105   -637063.53805  24456401.66200  24456401.90700  24456404.62300
         8.00000         9.00000
  -3285501.54704  -2560129.33605  24859866.25200  24859865.98700  24859866.85200
         1.00000         6.00000
 -20768301.29909 -16183091.24108  20337591.00000  20337590.86100  20337590.10800
       321.00000       191.00000
  -4860386.27306  -3787313.24206  24104171.55000  24104171.74700  24104170.73800
        20.00000        16.00000
 -27210988.39808 -21203366.35108  20319416.16300  20319415.68000  20319414.04500
       263.00000       234.00000
  -3173756.81604  -2473057.24705  24614880.53500  24614879.74600  24614882.80200
         3.00000         7.00000
 04  8 25  0 26  0.0000000  0 11G18G29G15G 9G10G17G 8G26G22G21G 3
 -16484980.10908 -12845436.92607  21535802.53000  21535802.42800  21535801.36500
       218.00000        86.00000
 -15254003.60408 -11886235.27108  21380743.72200  21380743.71100  21380743.30300
       176.00000       118.00000
 -11024630.81207  -8590621.50506  22953332.59400  22953332.15000  22953333.02700
        36.00000        28.00000
  -7797331.35907  -6075838.79906  23235723.59800  23235723.22900  23235723.53600
        40.00000        23.00000
  -1569496.85306  -1222988.60706  23963188.81200  23963188.57300  23963191.35500
        21.00000        20.00000
   -702000.12105   -547021.64305  24478391.75200  24478390.59700  24478394.92900
        10.00000         8.00000
  -3205361.69400  -2497682.76104  24875112.38500  24875111.91500  24875113.90100
          .00000         3.00000
 -20714980.69009 -16141542.72708  20347737.27200  20347737.38100  20347736.86600
       320.00000       196.00000
  -4949363.91806  -3856646.44306  24087241.67100  24087241.10800  24087238.86300
        22.00000        16.00000
 -27230007.08808 -21218186.10908  20315796.80300  20315796.53700  20315794.95400
       261.00000       234.00000
  -3207990.85905  -2499733.10205  24608365.82100  24608365.50500  24608365.56600
         4.00000         7.00000
 04  8 25  0 26 30.0000000  0 11G18G29G15G 9G10G17G 8G26G22G21G 3
 -16548890.72808 -12895237.39907  21523641.07300  21523640.92000  21523639.54600
       225.00000        85.00000
 -15188752.80508 -11835390.51908  21393160.86100  21393160.88900  21393160.18700
       183.00000       117.00000
 -11124974.54507  -8668811.38606  22934238.05500  22934237.36200  22934238.11800
        38.00000        29.00000
  -7911120.82006  -6164505.88806  23214067.11400  23214067.70200  23214070.99700
        29.00000        26.00000
  -1477815.45706  -1151548.62306  23980635.94100  23980635.71700  23980637.71800
        25.00000        18.00000
   -586297.44305   -456863.93905  24500409.68700  24500409.06400  24500411.55400
         7.00000         8.00000
  -3124813.01300  -2434917.65204  24890442.96700  24890441.67900  24890444.01100
          .00000         3.00000
 -20661156.57508 -16099601.86908  20357979.46100  20357979.60200  20357979.49100
       316.00000       200.00000
  -5038257.75406  -3925914.32406  24070324.72800  24070324.56400  24070323.59000
        20.00000        19.00000
 -27248439.36508 -21232548.92608  20312289.33600  20312288.94200  20312287.43500
       262.00000       233.00000
  -3241688.77805  -2525991.20505  24601953.96700  24601953.38600  24601953.26900
         5.00000         6.00000
 04  8 25  0 27  0.0000000  0 11G18G29G15G 9G10G17G 8G26G22G21G 3
 -16612584.06808 -12944868.56307  21511520.75100  21511520.43000  21511519.26000
       224.00000        86.00000
 -15123192.03808 -11784304.22808  21405636.81500  21405636.60400  21405635.97300
       185.00000       114.00000
 -11225082.14506  -8746817.26806  22915187.34500  22915186.83100  22915187.92800
        30.00000        27.00000
  -8024732.05207  -6253034.07806  23192449.74400  23192449.55900  23192451.26400
        40.00000        28.00000
  -1386054.76306  -1080046.85706  23998098.51500  23998097.08400  23998099.40700
        19.00000        19.00000
   -470469.73805   -366608.78505  24522449.36400  24522450.18300  24522453.85600
         7.00000         9.00000
  -3043879.82404  -2371852.91304  24905844.20100  24905844.91100  24905845.59500
         2.00000         3.00000
 -20606852.59709 -16057287.10108  20368313.46400  20368313.61900  20368313.14800
       321.00000       197.00000
  -5127088.58906  -3995133.08306  24053420.53800  24053420.34200  24053419.55100
        16.00000        17.00000
 -27266305.70008 -21246470.75208  20308889.71900  20308889.21100  20308887.56600
       259.00000       234.00000
  -3274871.12406  -2551847.57305  24595640.39300  24595639.46600  24595639.65600
        11.00000         7.00000
 04  8 25  0 27 30.0000000  0 11G18G29G15G 9G10G17G 8G26G22G21G 3
 -16676057.29208 -12994328.21107  21499441.75500  21499441.90300  21499440.75400
       224.00000        88.00000
 -15057321.47608 -11732976.53708  21418171.45000  21418171.37500  21418170.69700
       182.00000       114.00000
 -11324949.25907  -8824635.77206  22896183.07100  22896183.07400  22896184.14500
        32.00000        28.00000
  -8138160.03707  -6341419.48706  23170866.13200  23170865.58100  23170866.87100
        39.00000        31.00000
  -1294213.65106  -1008482.42106  24015573.62400  24015573.30100  24015575.96800
        20.00000        17.00000
   -354517.30805   -276256.39905  24544515.21100  24544515.47100  24544518.78900
         7.00000         9.00000
  -2962562.89504  -2308489.10804  24921317.79900  24921317.55600  24921319.08200
         3.00000         3.00000
 -20552069.51109 -16014598.99408  20378738.29500  20378738.39200  20378737.88700
       319.00000       191.00000
  -5215853.98806  -4064300.89906  24036528.91300  24036529.32800  24036527.34800
        22.00000        16.00000
 -27283603.19908 -21259949.32908  20305598.04900  20305597.55400  20305596.00000
       258.00000       235.00000
  -3307535.67705  -2577300.48105  24589423.24700  24589423.19700  24589423.90300
         9.00000         9.00000
 04  8 25  0 28  0.0000000  0 11G18G29G15G 9G10G17G 8G26G22G21G 3
 -16739281.29208 -13043593.65107  21487411.20200  21487410.91700  21487409.48200
       227.00000        87.00000
 -14991115.11408 -11681387.18808  21430769.76500  21430769.79200  21430769.50400
       179.00000       115.00000
 -11424544.99006  -8902242.80006  22877229.98000  22877229.94400  22877231.66100
        29.00000        28.00000
  -8251373.06407  -6429637.40706  23149322.27000  23149321.99500  23149322.86400
        48.00000        31.00000
  -1202264.66306   -936833.93306  24033071.51400  24033071.06900  24033073.61700
        23.00000        19.00000
   -238413.76605   -185786.24605  24566610.27800  24566609.34200  24566613.10400
         6.00000         9.00000
  -2880836.51405  -2244806.27004  24936869.30200  24936868.83400  24936870.71400
         4.00000         2.00000
 -20496781.34508 -15971517.31808  20389259.41400  20389259.36400  20389258.79200
       313.00000       187.00000
  -5304524.96006  -4133395.12006  24019654.84300  24019654.52700  24019653.96500
        18.00000        17.00000
 -27300301.72508 -21272961.17208  20302420.39700  20302419.90300  20302418.28400
       257.00000       233.00000
  -3339652.99706  -2602326.96805  24583310.40600  24583311.61000  24583312.62800
        11.00000        10.00000
 04  8 25  0 28 30.0000000  0 11G18G29G15G 9G10G17G 8G26G22G21G 3
 -16802279.30808 -13092683.00207  21475422.75600  21475422.56500  21475421.25600
       231.00000        86.00000
 -14924599.11008 -11629556.55308  21443427.57000  21443427.51700  21443426.99300
       181.00000       110.00000
 -11523890.91907  -8979655.18606  22858325.87300  22858325.62700  22858326.34800
        33.00000        25.00000
  -8364391.83407  -6517703.95006  23127813.45500  23127813.84000  23127815.68200
        34.00000        28.00000
  -1110232.55306   -865120.66406  24050583.90000  24050584.22300  24050586.40200
        19.00000        18.00000
   -122185.49305    -95218.81705  24588727.33300  24588726.32300  24588729.90100
         5.00000         7.00000
  -2798726.92005  -2180824.81204  24952497.17700  24952496.01100  24952496.72400
         5.00000         3.00000
 -20441014.76708 -15928062.86208  20399871.33900  20399871.41100  20399870.81000
       312.00000       186.00000
  -5393125.08306  -4202434.14006  24002796.04200  24002795.81800  24002794.73800
        23.00000        18.00000
 -27316424.64608 -21285524.49608  20299352.57400  20299351.90400  20299350.14500
       257.00000       233.00000
  -3371246.07005  -2626944.98605  24577299.17200  24577299.09100  24577301.42600
        10.00000         9.00000
 04  8 25  0 29  0.0000000  0 11G18G29G15G 9G10G17G 8G26G22G21G 3
 -16865043.31608 -13141590.01207  21463479.53300  21463479.14800  21463477.80400
       241.00000        87.00000
 -14857768.27208 -11577480.59308  21456145.33400  21456145.16000  21456144.41700
       181.00000       108.00000
 -11622977.13407  -9056865.20606  22839470.01000  22839469.62100  22839471.02000
        36.00000        25.00000
  -8477206.04307  -6605611.09706  23106346.24700  23106346.16900  23106348.11300
        38.00000        26.00000
  -1018110.81206   -793337.57506  24068114.82600  24068114.51100  24068116.23800
        20.00000        16.00000
     -5827.21804     -4550.02805  24610868.62500  24610868.17200  24610872.70700
         2.00000         7.00000
  -2716230.11605  -2116541.64304  24968195.78900  24968194.51000  24968195.56000
         4.00000         3.00000
 -20384764.90808 -15884231.82508  20410575.16800  20410575.35300  20410574.93600
       306.00000       187.00000
  -5481646.61806  -4271411.91306  23985950.87700  23985950.82000  23985949.08400
        23.00000        17.00000
 -27331964.01508 -21297633.09808  20296395.19800  20296394.82200  20296393.27800
       259.00000       239.00000
  -3402307.01005  -2651148.34805  24571388.39900  24571388.07200  24571390.00500
        10.00000         8.00000
 04  8 25  0 29 30.0000000  0 11G18G29G15G 9G10G17G 8G26G22G21G 3
 -16927614.08308 -13190346.44707  21451572.50300  21451572.34000  21451570.80100
       247.00000        87.00000
 -14790666.17508 -11525193.26308  21468914.30100  21468914.21300  21468913.70500
       179.00000       111.00000
 -11721842.54507  -9133903.17606  22820656.59400  22820656.22100  22820657.56700
        38.00000        26.00000
  -8589854.12007  -6693388.81406  23084911.75200  23084911.34200  23084911.81900
        47.00000        27.00000
   -925941.58806   -721517.45206  24085654.46800  24085653.93400  24085655.82700
        21.00000        16.00000
    110617.19005     86185.90705  24633027.87800  24633027.24300  24633031.40000
         4.00000         8.00000
  -2633390.06104  -2051990.99604  24983959.06800  24983959.34900  24983958.95500
         2.00000         3.00000
 -20328075.83408 -15840058.53808  20421362.94200  20421363.02500  20421362.62500
       304.00000       190.00000
  -5570130.50006  -4340360.34906  23969113.05500  23969113.02700  23969110.81300
        30.00000        14.00000
 -27346959.79008 -21309318.12708  20293541.68300  20293541.22300  20293539.62600
       259.00000       242.00000
  -3432876.51606  -2674968.74505  24565571.61300  24565571.88500  24565573.14300
        13.00000         8.00000
 04  8 25  0 30  0.0000000  0 11G18G15G 9G10G17G 8G29G26G22G21G 3
 -16989953.03008 -13238922.24407  21439709.54700  21439709.42800  21439708.10500
       238.00000        89.00000
 -11820446.95807  -9210737.76806  22801892.94700  22801892.68000  22801893.74900
        41.00000        28.00000
  -8702295.08407  -6781005.11106  23063514.81900  23063514.36900  23063515.33000
        41.00000        30.00000
   -833687.93906   -649631.56506  24103209.21600  24103208.66800  24103211.41900
        18.00000        18.00000
    227183.27505    177016.68005  24655209.84800  24655208.70600  24655213.34700
         4.00000         8.00000
  -2550171.76300  -1987145.64305  24999792.15600  24999793.45300  24999796.59600
          .00000         4.00000
 -14723257.41108 -11472666.97108  21481741.96000  21481741.85400  21481741.45400
       179.00000       114.00000
 -20270912.36808 -15795515.59608  20432241.04600  20432241.00300  20432240.61900
       307.00000       192.00000
  -5658538.54906  -4409249.70606  23952289.89100  23952289.50500  23952287.68100
        26.00000        17.00000
 -27361373.16408 -21320549.33708  20290798.75500  20290798.30600  20290796.87300
       254.00000       242.00000
  -3462916.32406  -2698376.39005  24559855.88400  24559855.77100  24559856.36500
        14.00000         6.00000
 04  8 25  0 30 30.0000000  0 11G18G15G 9G10G17G 8G29G26G22G21G 3
 -17052010.77808 -13287278.92607  21427900.30000  21427900.09900  21427898.84200
       230.00000        90.00000
 -11918739.34907  -9287329.23006  22783188.69100  22783188.14400  22783188.99900
        40.00000        26.00000
  -8814477.01907  -6868419.56007  23042165.64100  23042165.60400  23042167.91100
        39.00000        33.00000
   -741302.17506   -577642.72906  24120789.85200  24120789.38700  24120791.60300
        19.00000        16.00000
    343917.33805    267978.34605  24677423.21000  24677423.15800  24677427.97800
         4.00000         6.00000
  -2466529.75700  -1921970.10805  25015709.80400  25015709.72400  25015712.60700
          .00000         4.00000
 -14655495.62408 -11419865.59308  21494636.47900  21494636.28500  21494636.14400
       171.00000       114.00000
 -20213228.71208 -15750567.31308  20443217.86900  20443217.75700  20443217.36500
       305.00000       187.00000
  -5746821.66206  -4478041.69206  23935490.12400  23935489.53500  23935488.14600
        22.00000        18.00000
 -27375155.02108 -21331288.45908  20288176.53400  20288176.03300  20288174.32600
       259.00000       245.00000
  -3492377.33206  -2721333.02005  24554249.50300  24554249.45500  24554249.35800
        14.00000         6.00000
 04  8 25  0 31  0.0000000  0 11G18G15G 9G10G17G 8G29G26G22G21G 3
 -17113849.06908 -13335464.59907  21416133.00100  21416132.76600  21416131.67900
       228.00000        95.00000
 -12016779.78907  -9363724.35306  22764532.32200  22764531.40600  22764532.77300
        34.00000        26.00000
  -8926459.23207  -6955678.41206  23020855.28400  23020855.80100  23020857.90100
        43.00000        28.00000
   -648847.71006   -505600.36206  24138382.76900  24138382.90600  24138385.62900
        16.00000        17.00000
    460754.57204    359020.38305  24699656.71700  24699656.39400  24699660.58300
         2.00000         5.00000
  -2382529.29600  -1856515.25504  25031697.62900  25031697.21700  25031698.99300
        -1.00000         3.00000
 -14587445.62108 -11366839.62708  21507585.66300  21507585.49000  21507585.44600
       164.00000       110.00000
 -20155089.93308 -15705264.38008  20454280.90300  20454281.04600  20454280.70400
       307.00000       182.00000
  -5835041.90506  -4546784.66606  23918702.66900  23918701.90400  23918700.44800
        18.00000        18.00000
 -27388366.71408 -21341583.29508  20285662.31300  20285661.84200  20285660.23400
       259.00000       248.00000
  -3521321.28705  -2743886.74205  24548740.76500  24548739.97000  24548741.40800
         8.00000         6.00000
 04  8 25  0 31 30.0000000  0 10G18G15G 9G10G17G29G26G22G21G 3
 -17175458.08108 -13383471.60907  21404409.08600  21404408.79900  21404407.85000
       218.00000        95.00000
 -12114556.60607  -9439914.06106  22745925.87500  22745925.50800  22745926.62500
        39.00000        29.00000
  -9038229.83807  -7042772.35806  22999588.19000  22999587.64700  22999588.21700
        50.00000        26.00000
   -556316.03406   -433497.83706  24155992.48900  24155991.49400  24155993.60800
        17.00000        17.00000
    577701.85004    450148.18505  24721911.31500  24721911.63800  24721914.96200
         2.00000         4.00000
 -14519100.51408 -11313583.71908  21520591.32000  21520591.40100  21520591.10000
       170.00000       106.00000
 -20096489.32408 -15659601.57708  20465432.19300  20465432.36500  20465431.97200
       302.00000       179.00000
  -5923189.61206  -4615471.13906  23901927.67800  23901927.68100  23901925.60900
        26.00000        15.00000
 -27400998.20308 -21351426.02408  20283258.38000  20283258.02400  20283256.73700
       255.00000       249.00000
  -3549738.64905  -2766030.15305  24543332.77800  24543333.05800  24543334.46500
         5.00000         7.00000
 04  8 25  0 32  0.0000000  0 10G18G15G 9G10G17G29G26G22G21G 3
 -17236862.93008 -13431319.53907  21392724.08000  21392723.79800  21392722.83000
       225.00000        96.00000
 -12212093.00707  -9515916.41606  22727364.49700  22727363.92900  22727364.98100
        32.00000        25.00000
  -9149811.16107  -7129718.82506  22978354.92500  22978354.63300  22978355.57400
        46.00000        31.00000
   -463733.87006   -361355.97306  24173609.45700  24173609.08900  24173611.37100
        20.00000        18.00000
    694730.91300    541339.65204  24744181.63300  24744179.99700  24744184.57800
          .00000         3.00000
 -14450488.15608 -11260119.56008  21533648.08000  21533647.96000  21533647.46700
       172.00000       102.00000
 -20037455.40808 -15613601.13608  20476666.35500  20476666.33800  20476665.77100
       305.00000       177.00000
  -6011290.10106  -4684120.83506  23885162.10900  23885162.79900  23885160.89200
        20.00000        17.00000
 -27413074.54208 -21360836.17308  20280960.54200  20280960.06000  20280958.47800
       254.00000       245.00000
  -3577654.43505  -2787782.72905  24538021.70900  24538020.26300  24538023.07600
         6.00000         7.00000
 04  8 25  0 32 30.0000000  0 10G18G15G 9G10G17G29G26G22G21G 3
 -17298060.29508 -13479005.79307  21381078.11100  21381078.25300  21381077.29900
       230.00000        96.00000
 -12309383.89907  -9591727.48806  22708851.11300  22708850.82300  22708852.06300
        40.00000        29.00000
  -9261197.57207  -7216513.38306  22957158.49500  22957158.40800  22957159.75400
        51.00000        31.00000
   -371099.32806   -289173.28106  24191236.77100  24191236.49400  24191238.85000
        18.00000        18.00000
    811842.41000    632595.44204  24766465.90900  24766469.28700  24766468.60000
        -1.00000         2.00000
 -14381608.22408 -11206446.90507  21546755.77300  21546755.49200  21546754.74400
       170.00000       100.00000
 -19977988.29608 -15567263.13808  20487982.49700  20487982.61800  20487982.06400
       309.00000       177.00000
  -6099340.39506  -4752731.38006  23868406.49100  23868406.08700  23868405.36100
        19.00000        17.00000
 -27424592.16108 -21369810.95108  20278768.25000  20278768.09500  20278766.76900
       250.00000       246.00000
  -3605065.51205  -2809142.01405  24532805.31100  24532805.56400  24532806.44200
         5.00000         8.00000
 04  8 25  0 33  0.0000000  0 10G18G15G 9G10G17G29G26G22G21G 3
 -17358983.05808 -13526478.07207  21369485.12800  21369484.96500  21369484.16500
       235.00000        96.00000
 -12406360.85607  -9667293.92406  22690397.08300  22690396.74400  22690397.66000
        40.00000        28.00000
  -9372319.73607  -7303102.06406  22936011.22200  22936011.78500  22936013.39500
        50.00000        30.00000
   -278347.07206   -216898.87406  24208887.13700  24208886.59100  24208889.06100
        17.00000        16.00000
    929099.99700    723964.97004  24788780.74600  24788777.32400  24788783.79800
        -2.00000         2.00000
 -14312396.83008 -11152515.96908  21559925.66000  21559925.90100  21559925.42800
       165.00000       101.00000
 -19918024.35108 -15520537.99308  20499393.55300  20499393.48900  20499392.86700
       309.00000       176.00000
  -6187273.98806  -4821251.02906  23851673.33900  23851673.05700  23851671.60400
        20.00000        15.00000
 -27435484.34808 -21378298.37608  20276695.93100  20276695.58000  20276694.21200
       248.00000       247.00000
  -3631905.41305  -2830056.24805  24527698.74900  24527697.78600  24527699.84200
         9.00000         8.00000
 04  8 25  0 33 30.0000000  0 11G18G15G 9G10G17G29G26G22G21G 3G 8
 -17419653.58108 -13573753.80607  21357939.95700  21357939.90900  21357938.92200
       243.00000        97.00000
 -12503044.01907  -9742631.43806  22671999.03000  22671998.54200  22671999.54800
        41.00000        27.00000
  -9483197.47407  -7389500.29206  22914913.00400  22914912.60100  22914913.28500
        48.00000        28.00000
   -185500.86006   -144551.23606  24226556.44300  24226554.94000  24226557.51500
        17.00000        18.00000
   1046478.59100    815428.67804  24811117.84000  24811117.23900  24811122.27400
        -3.00000         2.00000
 -14242879.27608 -11098346.46207  21573154.74900  21573154.75000  21573154.22600
       160.00000       100.00000
 -19857589.25408 -15473445.72108  20510893.80900  20510893.84300  20510893.36500
       303.00000       177.00000
  -6275113.23206  -4889697.14506  23834957.79200  23834957.89800  23834956.28700
        25.00000        16.00000
 -27445773.17108 -21386315.65008  20274737.89300  20274737.61600  20274736.22800
       248.00000       245.00000
  -3658196.56005  -2850542.85205  24522695.54400  24522695.19100  24522696.76200
         9.00000         8.00000
     28646.82400     22321.80204  25112636.98400  25112638.35800  25112638.04600
          .00000         2.00000
 04  8 25  0 34  0.0000000  0  9G18G15G 9G10G29G26G22G21G 3
 -17480078.30408 -13620838.00707  21346441.49900  21346441.46100  21346440.50100
       240.00000        98.00000
 -12599438.24607  -9817743.80206  22653655.69300  22653655.20700  22653656.49300
        47.00000        28.00000
  -9593834.63307  -7475711.01606  22893859.75700  22893859.50600  22893860.42500
        48.00000        31.00000
    -92568.54906    -72136.55706  24244239.98600  24244239.63600  24244242.50000
        17.00000        19.00000
 -14173064.84208 -11043945.62408  21586439.94800  21586439.90800  21586439.60700
       157.00000       102.00000
 -19796692.97108 -15425994.08108  20522481.93000  20522481.87400  20522481.55100
       292.00000       174.00000
  -6362864.77206  -4958074.93606  23818259.19100  23818259.28500  23818258.06400
        28.00000        18.00000
 -27455464.73908 -21393867.52908  20272893.66700  20272893.39200  20272892.04700
       247.00000       245.00000
  -3683945.71906  -2870607.11905  24517795.34200  24517794.74400  24517795.04100
        13.00000         7.00000
 04  8 25  0 34 30.0000000  0 10G18G15G 9G10G29G26G22G21G 3G 8
 -17540283.37308 -13667751.04508  21334985.34000  21334985.01700  21334983.89700
       240.00000       101.00000
 -12695568.03107  -9892650.11106  22635362.71400  22635362.30000  22635363.03100
        44.00000        26.00000
  -9704255.22607  -7561753.00807  22872847.06100  22872847.03300  22872848.55900
        53.00000        32.00000
       421.85516       323.42216  24261934.18800  24261934.36300  24261937.71900
        14.00000        16.00000
 -14102982.69708 -10989336.17808  21599776.37400  21599776.22300  21599775.80000
       151.00000       103.00000
 -19735365.06808 -15378206.11208  20534151.63000  20534151.83400  20534151.68400
       280.00000       172.00000
  -6450555.07307  -5026405.00106  23801573.05400  23801572.95300  23801571.50100
        36.00000        19.00000
 -27464585.53508 -21400974.65808  20271158.14400  20271157.93400  20271156.42800
       254.00000       245.00000
  -3709179.39606  -2890269.74605  24512993.35500  24512993.41400  24512994.44600
        11.00000         7.00000
     28869.12400     22494.88204  25145496.24900  25145497.67300  25145498.64400
        -1.00000         2.00000
 04  8 25  0 35  0.0000000  0  9G18G15G 9G10G29G26G22G21G 3
 -17600276.80208 -13714499.17308  21323568.52700  21323568.42500  21323567.57000
       237.00000       106.00000
 -12791439.54907  -9967355.18006  22617119.00800  22617118.71800  22617119.43900
        49.00000        29.00000
  -9814464.92907  -7647630.69106  22851873.53700  22851873.95400  22851874.92700
        50.00000        27.00000
     93460.82006     72821.25306  24279641.13500  24279640.19700  24279642.85400
        21.00000        19.00000
 -14032643.83208 -10934526.70708  21613161.24800  21613161.21300  21613160.92000
       150.00000       102.00000
 -19673616.82408 -15330090.60908  20545901.85300  20545902.21200  20545902.03600
       280.00000       171.00000
  -6538192.35607  -5094693.77106  23784896.23600  23784896.25200  23784895.10300
        40.00000        23.00000
 -27473143.38008 -21407643.12108  20269529.82400  20269529.27900  20269527.78700
       253.00000       244.00000
  -3733905.66505  -2909536.94505  24508288.02700  24508287.53900  24508288.50200
         6.00000         7.00000
 04  8 25  0 35 30.0000000  0  9G18G15G 9G10G29G26G22G21G 3
 -17660001.44008 -13761037.85008  21312203.45000  21312203.18700  21312202.33200
       235.00000       109.00000
 -12886993.82507 -10041813.05106  22598935.09400  22598935.22900  22598935.80800
        47.00000        29.00000
  -9924404.23607  -7733297.67906  22830953.57400  22830953.48100  22830954.72600
        49.00000        29.00000
    186603.78206    145400.10206  24297364.19700  24297364.32000  24297367.25700
        15.00000        19.00000
 -13961994.25408 -10879475.11207  21626605.44300  21626605.47000  21626604.88800
       151.00000        99.00000
 -19611394.67308 -15281605.82808  20557743.28200  20557743.14400  20557742.51000
       289.00000       169.00000
  -6625719.63907  -5162896.81306  23768240.96200  23768240.79200  23768238.89700
        44.00000        21.00000
 -27481081.35508 -21413828.56708  20268019.19400  20268018.87800  20268017.43400
       255.00000       248.00000
  -3758067.91705  -2928364.66805  24503689.11500  24503689.19500  24503689.94700
         4.00000         7.00000
 04  8 25  0 36  0.0000000  0  9G18G15G 9G10G29G26G22G21G 3
 -17719478.90608 -13807383.92508  21300885.46100  21300885.16200  21300884.03000
       242.00000       110.00000
 -12982250.65607 -10116039.12807  22580809.60600  22580808.55200  22580809.77900
        47.00000        35.00000
 -10034092.36707  -7818768.91106  22810081.97600  22810081.63100  22810081.83200
        53.00000        31.00000
    279827.89506    218042.16006  24315104.46500  24315104.47800  24315106.88100
        12.00000        16.00000
 -13891058.31508 -10824200.37307  21640104.38800  21640104.04000  21640103.81000
       148.00000       100.00000
 -19548723.59008 -15232771.22708  20569669.09000  20569669.10200  20569668.41600
       290.00000       168.00000
  -6713159.10107  -5231031.41606  23751601.41500  23751601.38700  23751599.52900
        38.00000        22.00000
 -27488421.18308 -21419547.92708  20266622.49000  20266622.18300  20266620.60100
       257.00000       249.00000
  -3781688.18405  -2946770.08105  24499194.50000  24499194.23600  24499195.83400
         4.00000         7.00000
 04  8 25  0 36 30.0000000  0  9G18G15G 9G10G29G26G22G21G 3
 -17778690.43308 -13853522.77708  21289617.56300  21289617.49200  21289616.62700
       250.00000       111.00000
 -13077189.70507 -10190017.58607  22562742.84500  22562742.49900  22562742.88500
        52.00000        34.00000
 -10143508.15807  -7904027.92807  22789259.20400  22789259.20200  22789260.95400
        52.00000        36.00000
    373150.17106    290760.72406  24332864.76500  24332863.57600  24332865.66100
        14.00000        14.00000
 -13819820.34708 -10768690.29607  21653660.39900  21653660.19000  21653659.97800
       150.00000       100.00000
 -19485588.31708 -15183574.91408  20581683.14400  20581683.10500  20581682.83100
       283.00000       166.00000
  -6800492.29507  -5299083.21906  23734981.34800  23734981.78700  23734980.94700
        35.00000        25.00000
 -27495144.02408 -21424786.51808  20265343.07300  20265342.70700  20265341.35400
       254.00000       249.00000
  -3804748.07505  -2964738.80305  24494809.00500  24494807.45900  24494808.36300
         9.00000         7.00000
 04  8 25  0 37  0.0000000  0  9G18G15G 9G10G29G26G22G21G 3
 -17837703.16408 -13899506.72308  21278388.02000  21278387.87200  21278386.58400
       259.00000       107.00000
 -13171876.08807 -10263799.15807  22544724.22500  22544724.16500  22544725.11600
        52.00000        39.00000
 -10252716.18907  -7989125.06207  22768476.96300  22768477.16000  22768479.37200
        49.00000        34.00000
    466502.01606    363502.35806  24350627.60800  24350626.90900  24350629.91400
        15.00000        15.00000
 -13748350.20108 -10712999.29207  21667261.05600  21667260.83200  21667260.31000
       153.00000        98.00000
 -19422059.21008 -15134071.72308  20593771.88600  20593772.16200  20593772.05400
       276.00000       165.00000
  -6887786.18107  -5367104.40106  23718370.94600  23718370.74200  23718368.65600
        39.00000        21.00000
 -27501316.99008 -21429596.63908  20264168.65200  20264168.26500  20264166.67300
       258.00000       251.00000
  -3827315.00105  -2982323.39905  24490512.54800  24490512.22900  24490514.34600
         7.00000         8.00000
 04  8 25  0 37 30.0000000  0  9G18G15G 9G10G29G26G22G21G 3
 -17896473.35908 -13945301.68408  21267204.46400  21267204.35400  21267203.05800
       262.00000       105.00000
 -13266264.32707 -10337348.41807  22526763.08700  22526762.69200  22526763.43300
        53.00000        36.00000
 -10361670.10507  -8074024.20407  22747744.61000  22747744.56700  22747746.26400
        51.00000        33.00000
    559925.65306    436299.89506  24368406.57000  24368406.14500  24368408.05200
        13.00000        16.00000
 -13676607.28808 -10657095.74807  21680913.45300  21680913.11800  21680912.50800
       147.00000        96.00000
 -19358096.13108 -15084230.37508  20605943.78200  20605943.88700  20605943.82300
       274.00000       167.00000
  -6974997.45606  -5435061.22306  23701774.00700  23701774.20900  23701773.08700
        28.00000        25.00000
 -27506896.56508 -21433944.37708  20263106.74500  20263106.38400  20263104.91800
       252.00000       250.00000
  -3849345.72606  -2999490.20405  24486320.62600  24486320.13800  24486322.32700
        12.00000        10.00000
 04  8 25  0 38  0.0000000  0  9G18G15G 9G10G29G26G22G21G 3
 -17954959.51308 -13990875.31408  21256074.86100  21256074.66300  21256073.50700
       259.00000       106.00000
 -13360311.25407 -10410631.71107  22508866.16000  22508865.96000  22508866.96200
        52.00000        36.00000
 -10470326.42407  -8158691.43507  22727069.64100  22727069.09400  22727069.34400
        63.00000        37.00000
    653460.84506    509184.34006  24386205.56600  24386205.00000  24386207.60600
        13.00000        16.00000
 -13604553.11108 -10600949.66407  21694624.38800  21694624.40600  21694623.90700
       144.00000        94.00000
 -19293661.05008 -15034021.24108  20618205.31000  20618205.51600  20618205.36100
       279.00000       165.00000
  -7062084.85607  -5502921.49806  23685202.69900  23685202.36300  23685201.29800
        34.00000        28.00000
 -27511841.42308 -21437797.53108  20262165.75800  20262165.41700  20262164.02400
       249.00000       251.00000
  -3870799.44005  -3016207.39405  24482238.07500  24482237.63200  24482239.02000
         7.00000         9.00000
 04  8 25  0 38 30.0000000  0  9G18G15G 9G10G29G26G22G21G 3
 -18013247.86008 -14036294.80908  21244983.25600  21244983.05700  21244981.79500
       264.00000       109.00000
 -13454101.41307 -10483714.93307  22491018.96700  22491018.09800  22491019.32000
        52.00000        36.00000
 -10578768.97407  -8243192.09007  22706431.28200  22706431.63300  22706433.59800
        56.00000        37.00000
    747019.64706    582087.21606  24404008.74600  24404008.37700  24404010.19800
        16.00000        12.00000
 -13532277.11708 -10544630.73007  21708378.53200  21708378.37300  21708377.38700
       147.00000        91.00000
 -19228843.87108 -14983514.35908  20630539.96000  20630540.04000  20630539.65900
       284.00000       162.00000
  -7149135.21406  -5570752.90806  23668636.95700  23668636.88600  23668635.85500
        31.00000        25.00000
 -27516238.21408 -21441223.62308  20261329.21200  20261328.88200  20261327.27300
       251.00000       250.00000
  -3891762.84805  -3032542.55005  24478248.25500  24478247.69900  24478249.96100
         4.00000        10.00000
 04  8 25  0 39  0.0000000  0  9G18G15G 9G10G29G26G22G21G 3
 -18071239.91708 -14081483.42408  21233947.37600  21233947.20600  21233946.14100
       257.00000       110.00000
 -13547534.39007 -10556519.82707  22473238.29800  22473237.72700  22473239.50700
        50.00000        34.00000
 -10686896.75207  -8327447.46507  22685854.82900  22685855.61900  22685857.02800
        58.00000        36.00000
    840699.16506    655084.17206  24421835.71200  24421835.70500  24421836.82700
        14.00000        12.00000
 -13459683.45608 -10488064.26307  21722191.81500  21722192.02900  21722191.59000
       146.00000        88.00000
 -19163549.35708 -14932635.53208  20642965.27100  20642965.27800  20642964.86900
       287.00000       163.00000
  -7236049.89606  -5638478.60606  23652097.23900  23652097.27400  23652095.71400
        26.00000        23.00000
 -27519988.46708 -21444145.91408  20260615.39100  20260615.14400  20260613.68200
       249.00000       250.00000
  -3912137.82705  -3048419.18805  24474371.19700  24474371.13900  24474372.26500
         7.00000        10.00000
 04  8 25  0 39 30.0000000  0  9G18G15G 9G10G29G26G22G21G 3
 -18129012.61308 -14126501.09808  21222953.88200  21222953.61800  21222952.37200
       256.00000       115.00000
 -13640685.61007 -10629105.18206  22455512.78000  22455512.77800  22455512.91900
        59.00000        31.00000
 -10794784.49407  -8411515.80707  22665326.29000  22665326.14600  22665327.05500
        68.00000        37.00000
    934420.62506    728113.76606  24439671.13400  24439670.01400  24439672.23300
        13.00000        14.00000
 -13386852.21508 -10431312.66507  21736051.23400  21736051.25700  21736051.12700
       142.00000        88.00000
 -19097858.14808 -14881447.59408  20655466.24200  20655466.09000  20655465.54000
       284.00000       161.00000
  -7322906.29507  -5706158.86406  23635569.77300  23635569.88800  23635567.98000
        33.00000        26.00000
 -27523169.51708 -21446624.67408  20260010.14900  20260009.81000  20260008.33800
       249.00000       247.00000
  -3932002.00005  -3063897.76205  24470591.88000  24470591.26200  24470592.12800
         7.00000         9.00000
 04  8 25  0 40  0.0000000  0  9G18G15G 9G10G29G26G22G21G 3
 -18186513.45508 -14171306.94708  21212011.75800  21212011.51400  21212010.47100
       258.00000       119.00000
 -13733500.52507 -10701428.46906  22437850.46100  22437850.19700  22437851.17600
        53.00000        31.00000
 -10902377.27407  -8495354.29307  22644852.44900  22644851.96700  22644852.86300
        70.00000        37.00000
   1028235.02606    801215.78706  24457523.21100  24457522.11100  24457524.53900
        13.00000        13.00000
 -13313733.93108 -10374337.39807  21749965.56100  21749965.40100  21749964.94600
       145.00000        88.00000
 -19031721.03708 -14829912.19708  20668051.43200  20668051.45900  20668050.86500
       281.00000       156.00000
  -7409652.22807  -5773753.07006  23619061.96500  23619062.71500  23619061.14100
        32.00000        25.00000
 -27525728.90208 -21448619.02308  20259522.90200  20259522.74100  20259521.26600
       248.00000       247.00000
  -3951303.29605  -3078937.77705  24466918.23800  24466918.52000  24466919.23500
         9.00000         8.00000
 04  8 25  0 40 30.0000000  0  9G18G15G 9G10G29G26G22G21G 3
 -18243806.06808 -14215950.53708  21201109.54900  21201109.15500  21201108.02400
       264.00000       120.00000
 -13826041.17007 -10773538.05806  22420240.64800  22420240.11900  22420240.88100
        50.00000        29.00000
 -11009736.33507  -8579010.67007  22624421.34300  22624421.67700  22624423.06300
        67.00000        36.00000
   1122077.18106    874339.46006  24475380.04300  24475380.18600  24475382.97700
        14.00000        12.00000
 -13240395.19408 -10317190.34407  21763921.00400  21763921.20200  21763920.88500
       144.00000        86.00000
 -18965205.21608 -14778081.69808  20680708.78100  20680708.79100  20680708.51500
       272.00000       157.00000
  -7496351.55107  -5841310.93606  23602565.36300  23602565.07300  23602562.58100
        34.00000        28.00000
 -27527730.87008 -21450179.00808  20259142.25000  20259141.82900  20259140.38200
       248.00000       248.00000
  -3970106.33005  -3093589.49905  24463340.62700  24463340.24600  24463341.06100
        10.00000         8.00000
 04  8 25  0 41  0.0000000  0  9G18G15G 9G10G29G26G22G21G 3
 -18300815.78508 -14260373.69408  21190260.53200  21190260.51100  21190259.55500
       269.00000       122.00000
 -13918231.13807 -10845374.37907  22402697.41100  22402697.02700  22402698.23600
        51.00000        32.00000
 -11116784.67007  -8662424.95707  22604050.96800  22604051.10800  22604051.56000
        68.00000        36.00000
   1216020.38306    947541.84306  24493258.57000  24493257.77000  24493259.43300
        13.00000        13.00000
 -13166764.16108 -10259815.53407  21777933.29400  21777932.97100  21777932.70100
       139.00000        87.00000
 -18898239.61608 -14725900.72708  20693451.68200  20693451.91000  20693451.70500
       272.00000       158.00000
  -7582929.67106  -5908774.36406  23586088.47500  23586088.64400  23586087.06800
        31.00000        26.00000
 -27529101.03708 -21451246.68308  20258881.24900  20258881.06300  20258879.71100
       251.00000       248.00000
  -3988336.89706  -3107795.15005  24459871.28600  24459871.06400  24459873.38600
        11.00000         8.00000
 04  8 25  0 41 30.0000000  0  9G18G15G 9G10G29G26G22G21G 3
 -18357562.12008 -14304591.61608  21179462.54200  21179461.98800  21179460.92900
       267.00000       121.00000
 -14010088.41507 -10916951.45307  22385217.33700  22385216.95900  22385218.15500
        53.00000        32.00000
 -11223539.68007  -8745610.61807  22583737.28300  22583736.90000  22583737.63600
        67.00000        39.00000
   1310043.31206   1020806.35205  24511149.52700  24511149.41600  24511150.99200
        14.00000        10.00000
 -13092863.53308 -10202230.64507  21791995.80600  21791995.63700  21791995.29000
       134.00000        85.00000
 -18830847.34408 -14673387.28108  20706276.41700  20706276.32700  20706275.92300
       269.00000       155.00000
  -7669406.71307  -5976159.04206  23569632.75200  23569632.75700  23569631.14300
        32.00000        26.00000
 -27529859.11908 -21451837.41308  20258737.29200  20258736.83500  20258735.38700
       248.00000       248.00000
  -4006015.31205  -3121570.54205  24456506.89200  24456507.37500  24456507.89700
         6.00000         7.00000
 04  8 25  0 42  0.0000000  0  9G18G15G 9G10G29G26G22G21G 3
 -18414073.05408 -14348626.11008  21168708.94600  21168708.52800  21168707.27700
       267.00000       120.00000
 -14101639.09907 -10988289.65207  22367796.15000  22367795.76000  22367796.77200
        56.00000        35.00000
 -11330026.99907  -8828587.72907  22563473.68200  22563473.36600  22563473.04700
        79.00000        33.00000
   1404116.49706   1094110.06706  24529051.40000  24529050.57300  24529053.31300
        14.00000        11.00000
 -13018724.42208 -10144459.93107  21806103.98700  21806103.80200  21806103.55100
       130.00000        85.00000
 -18763059.88808 -14620565.90008  20719175.88100  20719175.82700  20719175.39800
       266.00000       151.00000
  -7755810.84906  -6043486.92106  23553189.74000  23553189.93100  23553189.01200
        30.00000        24.00000
 -27530033.67408 -21451973.44808  20258703.92700  20258703.66700  20258702.23300
       250.00000       252.00000
  -4023170.10205  -3134937.91305  24453243.49700  24453242.48100  24453242.93900
         9.00000         7.00000
 04  8 25  0 42 30.0000000  0  9G18G15G 9G10G29G26G22G21G 3
 -18470349.89708 -14392478.19908  21157999.60000  21157999.20900  21157998.18000
       262.00000       119.00000
 -14192882.55007 -11059388.41507  22350433.63700  22350432.77400  22350433.79000
        55.00000        36.00000
 -11436245.18907  -8911355.14007  22543259.41500  22543259.33400  22543260.89800
        72.00000        37.00000
   1498237.21006   1167450.78006  24546961.91900  24546961.31600  24546964.31700
        12.00000        13.00000
 -12944350.73308 -10086506.43107  21820256.55100  21820256.64500  21820256.38200
       133.00000        84.00000
 -18694881.79108 -14567440.12108  20732149.55400  20732149.67600  20732149.26800
       270.00000       152.00000
  -7842143.24306  -6110758.89206  23536761.10800  23536761.19100  23536760.24300
        30.00000        24.00000
 -27529625.99008 -21451655.79008  20258781.57500  20258781.05400  20258779.97800
       246.00000       255.00000
  -4039803.08805  -3147898.72505  24450075.53200  24450076.73900  24450078.60700
        10.00000         8.00000
 04  8 25  0 43  0.0000000  0  9G18G15G 9G10G29G26G22G21G 3
 -18526334.46008 -14436102.53508  21147345.93700  21147345.66200  21147344.54400
       261.00000       120.00000
 -14283758.73207 -11130201.00307  22333140.18000  22333139.56300  22333140.45700
        55.00000        33.00000
 -11542133.75507  -8993865.69607  22523109.88100  22523110.26400  22523110.68700
        74.00000        40.00000
   1592461.93106   1240872.52806  24564893.19700  24564892.44400  24564895.05500
        13.00000        15.00000
 -12869687.24708 -10028327.11707  21834464.83400  21834464.69900  21834464.34700
       132.00000        83.00000
 -18626258.32008 -14513967.30208  20745208.20000  20745208.22000  20745208.00500
       262.00000       154.00000
  -7928346.03907  -6177929.88006  23520358.50800  23520358.45400  23520355.91100
        38.00000        20.00000
 -27528578.30808 -21450839.44108  20258980.84300  20258980.62200  20258979.21100
       249.00000       254.00000
  -4055856.91906  -3160408.23405  24447022.12200  24447022.26600  24447022.98200
        13.00000         7.00000
 04  8 25  0 43 30.0000000  0  9G18G15G 9G10G29G26G22G21G 3
 -18582093.78308 -14479551.35808  21136735.29700  21136735.02500  21136733.84300
       260.00000       121.00000
 -14374333.00107 -11200778.36107  22315904.04000  22315903.89900  22315904.61700
        58.00000        35.00000
 -11647757.46307  -9076169.84907  22503011.87600  22503011.25600  22503010.86100
        74.00000        39.00000
   1686721.90606   1314321.72706  24582830.06000  24582829.20900  24582832.14900
        14.00000        13.00000
 -12794804.09708  -9969976.63507  21848714.46900  21848714.44900  21848713.97200
       126.00000        82.00000
 -18557260.38108 -14460202.69008  20758337.93600  20758338.18600  20758337.93200
       262.00000       154.00000
  -8014486.66707  -6245052.39706  23503967.06600  23503966.96900  23503964.53000
        47.00000        21.00000
 -27526958.24208 -21449577.07308  20259289.24600  20259288.86000  20259287.57000
       244.00000       257.00000
  -4071399.51206  -3172519.37405  24444065.92100  24444065.54000  24444066.66000
        13.00000         7.00000
 04  8 25  0 44  0.0000000  0  9G18G15G 9G10G29G26G22G21G 3
 -18637585.06608 -14522791.32008  21126175.76500  21126175.46000  21126174.32900
       266.00000       124.00000
 -14464560.99707 -11271085.87507  22298734.59200  22298733.94900  22298734.69100
        58.00000        33.00000
 -11753071.02407  -9158232.34507  22482970.86900  22482970.46400  22482970.38200
        83.00000        37.00000
   1781058.36406   1387830.55106  24600780.67500  24600780.24500  24600783.39000
        13.00000        12.00000
 -12719661.48708  -9911423.96207  21863013.47000  21863013.45300  21863013.62100
       123.00000        82.00000
 -18487848.39708 -14406115.44308  20771546.72800  20771546.94500  20771546.54800
       265.00000       152.00000
  -8100522.63807  -6312093.37806  23487594.79900  23487594.90900  23487591.90600
        47.00000        21.00000
 -27524723.56008 -21447835.78408  20259714.34700  20259714.00200  20259712.90600
       240.00000       257.00000
  -4086388.67106  -3184199.24105  24441212.49700  24441212.25900  24441214.52900
        12.00000         8.00000
 04  8 25  0 44 30.0000000  0  9G18G15G 9G10G29G26G22G21G 3
 -18692803.40908 -14565818.60608  21115667.96300  21115667.83400  21115666.49700
       274.00000       124.00000
 -14554435.92307 -11341118.28107  22281631.85100  22281631.52800  22281631.86000
        65.00000        34.00000
 -11858067.49107  -9240047.77507  22462989.84400  22462989.99800  22462990.97100
        86.00000        43.00000
   1875474.60106   1461401.53705  24618747.79600  24618747.56000  24618750.10200
        13.00000        10.00000
 -12644257.43408  -9852667.58307  21877362.83800  21877362.71200  21877362.40600
       124.00000        80.00000
 -18418021.22708 -14351704.67508  20784834.75200  20784834.70100  20784834.36700
       262.00000       152.00000
  -8186449.19407  -6379049.09206  23471243.24600  23471243.23400  23471240.85600
        46.00000        20.00000
 -27521869.72608 -21445612.04108  20260257.85900  20260257.41000  20260255.85000
       243.00000       253.00000
  -4100820.35606  -3195444.69305  24438467.00100  24438466.32600  24438467.16800
        11.00000         9.00000
 04  8 25  0 45  0.0000000  0  9G18G15G 9G10G29G26G22G21G 3
 -18747773.36508 -14608652.34008  21105207.47200  21105207.34200  21105206.11300
       274.00000       128.00000
 -14643980.35207 -11410893.14307  22264592.61800  22264591.77700  22264592.76200
        67.00000        39.00000
 -11962769.02207  -9321633.37307  22443066.25400  22443065.98000  22443066.81300
        80.00000        43.00000
   1969944.53505   1535014.34506  24636723.97000  24636724.63800  24636727.57300
         8.00000        12.00000
 -12568619.46708  -9793728.92907  21891755.56600  21891755.87600  21891755.75500
       122.00000        79.00000
 -18347806.70808 -14296992.08008  20798195.73200  20798195.99600  20798195.65400
       262.00000       151.00000
  -8272290.96207  -6445938.78506  23454907.38100  23454907.41300  23454906.41200
        44.00000        26.00000
 -27518421.69308 -21442925.28408  20260913.61100  20260913.30800  20260912.06800
       243.00000       256.00000
  -4114719.76305  -3206275.43505  24435821.24900  24435821.04000  24435822.68900
        10.00000         9.00000
 04  8 25  0 45 30.0000000  0  9G18G15G 9G10G29G26G22G21G 3
 -18802462.28408 -14651267.07908  21094800.45900  21094800.19800  21094799.33000
       266.00000       133.00000
 -14733160.12607 -11480383.87207  22247622.10100  22247621.56200  22247622.11000
        73.00000        39.00000
 -12067140.80107  -9402962.00807  22423205.17500  22423204.83900  22423204.74100
        82.00000        40.00000
   2064499.23705   1608693.15006  24654718.84900  24654717.86800  24654721.41100
         9.00000        13.00000
 -12492717.75508  -9734584.76107  21906199.35000  21906199.54100  21906199.43200
       122.00000        78.00000
 -18277175.91708 -14241955.11108  20811636.55600  20811636.71400  20811636.31200
       264.00000       145.00000
  -8358015.72707  -6512737.26006  23438594.13400  23438594.07100  23438593.47900
        39.00000        27.00000
 -27514347.78708 -21439750.82808  20261689.08700  20261688.62400  20261687.40600
       247.00000       254.00000
  -4128055.27205  -3216666.74905  24433283.25000  24433283.35800  24433284.54200
         7.00000         8.00000
 04  8 25  0 46  0.0000000  0  9G18G15G 9G10G29G26G22G21G 3
 -18856881.69208 -14693671.81108  21084444.65700  21084444.44900  21084443.67500
       257.00000       136.00000
 -14821985.47007 -11549598.40807  22230719.42400  22230718.76900  22230719.05600
        78.00000        42.00000
 -12171191.99707  -9484040.86907  22403404.06000  22403403.71600  22403404.48100
        81.00000        39.00000
   2159125.21506   1682427.58606  24672724.81400  24672724.00100  24672727.31400
        12.00000        12.00000
 -12416567.29108  -9675246.75907  21920691.23200  21920690.90700  21920690.28100
       124.00000        76.00000
 -18206144.20408 -14186605.73608  20825153.31400  20825153.49700  20825153.00200
       257.00000       142.00000
  -8443635.46507  -6579453.91306  23422300.05300  23422300.76600  23422300.16200
        37.00000        24.00000
 -27509659.91908 -21436097.97108  20262581.22400  20262580.79600  20262579.36500
       253.00000       250.00000
  -4140839.52605  -3226628.54605  24430850.28200  24430850.61900  24430852.73200
         5.00000        10.00000
 04  8 25  0 46 30.0000000  0  9G18G15G 9G10G29G26G22G21G 3
 -18911067.03908 -14735894.15208  21074133.94600  21074133.35700  21074132.61600
       251.00000       139.00000
 -14910489.81207 -11618562.82107  22213877.31400  22213876.88100  22213877.41800
        79.00000        43.00000
 -12274955.62507  -9564895.66207  22383658.31300  22383658.14100  22383659.49300
        83.00000        44.00000
   2253785.53605   1756188.77105  24690738.09000  24690736.55000  24690741.51500
         8.00000        10.00000
 -12340206.19408  -9615744.62607  21935221.80600  21935222.00100  21935221.38600
       125.00000        76.00000
 -18134750.32708 -14130974.16008  20838739.19900  20838739.36600  20838739.06000
       258.00000       142.00000
  -8529185.70607  -6646116.41206  23406021.40000  23406021.80000  23406020.65000
        42.00000        26.00000
 -27504393.80108 -21431994.52408  20263583.03500  20263582.79500  20263581.56700
       256.00000       250.00000
  -4153108.83705  -3236189.03705  24428516.36200  24428516.19800  24428517.82000
         8.00000        10.00000
 04  8 25  0 47  0.0000000  0  9G18G15G 9G10G29G26G22G21G 3
 -18964995.67608 -14777916.46008  21063871.27700  21063871.12800  21063870.25700
       252.00000       139.00000
 -14998648.84407 -11687258.15907  22197101.25900  22197100.59900  22197101.83300
        73.00000        45.00000
 -12378406.90007  -9645507.03707  22363973.03300  22363972.95800  22363972.92600
        84.00000        41.00000
   2348501.44105   1829993.23806  24708761.19500  24708761.57300  24708764.60700
         5.00000        11.00000
 -12263614.85708  -9556063.08307  21949797.03700  21949796.74100  21949796.27900
       120.00000        75.00000
 -18062975.34408 -14075045.61308  20852397.72100  20852397.68200  20852397.44300
       256.00000       143.00000
  -8614644.28307  -6712707.47406  23389760.92000  23389760.30600  23389758.33400
        46.00000        22.00000
 -27498527.59908 -21427423.48008  20264699.99400  20264699.51700  20264697.92700
       266.00000       251.00000
  -4164841.43505  -3245331.36005  24426282.15000  24426283.37700  24426284.27400
        10.00000         7.00000
 04  8 25  0 47 30.0000000  0  9G18G15G 9G10G29G26G22G21G 3
 -19018668.83208 -14819739.68508  21053657.43000  21053657.31500  21053656.53600
       250.00000       138.00000
 -15086461.69307 -11755683.75507  22180390.84500  22180390.23200  22180390.95700
        69.00000        43.00000
 -12481544.13107  -9725873.70307  22344346.49200  22344346.38600  22344346.83500
        84.00000        45.00000
   2443270.05905   1903838.76006  24726796.47200  24726795.54500  24726799.78900
         7.00000        14.00000
 -12186797.25808  -9496205.24707  21964414.91200  21964414.85400  21964413.96300
       119.00000        72.00000
 -17990823.58208 -14018823.47408  20866127.14200  20866127.54600  20866127.35800
       246.00000       141.00000
  -8700011.99107  -6779227.73306  23373514.72100  23373514.59900  23373513.55700
        38.00000        26.00000
 -27492063.21108 -21422386.31508  20265929.80700  20265929.47600  20265928.07500
       267.00000       250.00000
  -4176039.15005  -3254056.85105  24424151.70800  24424152.45100  24424153.71200
         8.00000         9.00000
 04  8 25  0 48  0.0000000  0  9G18G15G 9G10G29G26G22G21G 3
 -19072044.73508 -14861331.29308  21043500.75100  21043500.45100  21043499.54500
       260.00000       140.00000
 -15173885.01607 -11823805.81707  22163754.60100  22163754.27900  22163754.94200
        70.00000        43.00000
 -12584323.64107  -9805961.63907  22324787.25600  22324787.43100  22324788.25900
        90.00000        43.00000
   2538131.51605   1977756.67206  24744848.77600  24744847.71700  24744850.51800
        10.00000        12.00000
 -12109714.75508  -9436140.98407  21979083.37600  21979083.17800  21979082.54900
       120.00000        74.00000
 -17918257.13408 -13962278.20408  20879936.31800  20879936.35600  20879936.31900
       235.00000       140.00000
  -8785247.65607  -6845645.09506  23357295.32900  23357294.97800  23357293.58600
        38.00000        27.00000
 -27484959.64108 -21416851.08408  20267281.59700  20267281.26500  20267279.81000
       270.00000       251.00000
  -4186661.80505  -3262334.26805  24422131.59500  24422131.23700  24422132.88000
         8.00000        10.00000
 04  8 25  0 48 30.0000000  0  9G18G15G 9G10G29G26G22G21G 3
 -19125182.89608 -14902737.65208  21033389.07100  21033388.69400  21033387.70000
       265.00000       139.00000
 -15260976.40307 -11891669.21707  22147181.79100  22147181.19500  22147182.06300
        69.00000        43.00000
 -12686802.57807  -9885815.37507  22305287.43500  22305287.17200  22305286.86100
        98.00000        44.00000
   2633024.86206   2051699.40706  24762905.53900  24762905.37700  24762908.70600
        12.00000        12.00000
 -12032429.75408  -9375918.92707  21993789.83000  21993789.86700  21993789.48400
       119.00000        73.00000
 -17845339.18208 -13905459.04108  20893812.22000  20893812.38200  20893812.12600
       239.00000       139.00000
  -8870410.95507  -6912006.08806  23341087.91100  23341088.26700  23341087.08000
        37.00000        27.00000
 -27477277.26708 -21410864.84408  20268743.68800  20268743.19500  20268741.97900
       265.00000       254.00000
  -4196769.60705  -3270210.49905  24420206.94300  24420206.84700  24420208.84700
         6.00000         8.00000
 04  8 25  0 49  0.0000000  0  9G18G15G 9G10G29G26G22G21G 3
 -19178061.20708 -14943941.52508  21023326.09000  21023326.05200  21023325.11500
       268.00000       138.00000
 -15347712.14507 -11959255.47907  22130675.67200  22130675.30500  22130676.55400
        66.00000        43.00000
 -12788956.42407  -9965415.76707  22285847.24600  22285847.28800  22285848.76800
        88.00000        49.00000
   2727970.50606   2125682.92406  24780972.52400  24780972.82700  24780976.18700
        11.00000        13.00000
 -11954922.99408  -9315524.07207  22008538.80800  22008538.79000  22008538.37100
       116.00000        70.00000
 -17772050.79808 -13848351.22808  20907758.60500  20907758.87800  20907758.51800
       243.00000       137.00000
  -8955480.13607  -6978293.72006  23324899.99100  23324899.99900  23324899.02900
        40.00000        28.00000
 -27468994.17508 -21404410.50608  20270319.40600  20270319.18200  20270318.03200
       261.00000       250.00000
  -4206341.17905  -3277668.87105  24418385.50100  24418386.83900  24418387.88100
         9.00000         9.00000
 04  8 25  0 49 30.0000000  0  9G18G15G 9G10G29G26G22G21G 3
 -19230630.60608 -14984904.69408  21013322.59400  21013322.41900  21013321.48400
       267.00000       141.00000
 -15434041.82807 -12026525.34007  22114248.37900  22114247.77300  22114248.75300
        72.00000        45.00000
 -12890734.39307 -10044723.27607  22266478.85700  22266479.30100  22266480.69400
        90.00000        49.00000
   2823015.64506   2199743.89506  24799060.94900  24799060.10000  24799062.98800
        12.00000        13.00000
 -11877148.56308  -9254920.64007  22023338.83400  22023338.73300  22023338.31300
       113.00000        69.00000
 -17698346.97708 -13790919.70308  20921783.97500  20921784.14200  20921783.78900
       235.00000       133.00000
  -9040406.37407  -7044469.97606  23308740.79700  23308740.43200  23308738.29500
        56.00000        29.00000
 -27460062.70708 -21397450.94408  20272019.31900  20272019.04400  20272017.67600
       264.00000       250.00000
  -4215329.02905  -3284672.36005  24416676.71900  24416676.51500  24416677.30200
         9.00000        10.00000
 04  8 25  0 50  0.0000000  0  9G18G15G 9G10G29G26G22G21G 3
 -19282908.74008 -15025640.89208  21003374.33500  21003374.09000  21003373.34300
       258.00000       143.00000
 -15519981.28107 -12093491.13107  22097894.87300  22097894.20700  22097894.75800
        77.00000        43.00000
 -12992151.72307 -10123749.78207  22247181.25300  22247180.70200  22247181.13900
        94.00000        46.00000
   2918141.15805   2273867.57105  24817160.64100  24817161.09100  24817165.32300
        10.00000         9.00000
 -11799127.28208  -9194124.85607  22038186.25000  22038185.78400  22038185.37600
       110.00000        69.00000
 -17624248.79908 -13733180.87008  20935884.65300  20935884.75800  20935884.20200
       238.00000       130.00000
  -9125207.69207  -7110548.90006  23292602.66300  23292602.69000  23292601.25100
        47.00000        31.00000
 -27450500.66708 -21390000.03308  20273838.81500  20273838.48400  20273837.31100
       261.00000       250.00000
  -4223751.79105  -3291235.56505  24415073.53600  24415073.59500  24415074.23800
        10.00000         9.00000
 04  8 25  0 50 30.0000000  0  9G18G15G 9G10G29G26G22G21G 3
 -19334954.54408 -15066196.05808  20993470.29900  20993470.14900  20993469.30400
       256.00000       143.00000
 -15605587.41307 -12160197.18807  22081604.05800  22081603.77400  22081604.43400
        79.00000        43.00000
 -13093264.74107 -10202539.15207  22227939.69400  22227939.63000  22227940.25800
        94.00000        47.00000
   3013286.58105   2348006.74005  24835268.33600  24835267.96400  24835269.58900
         9.00000         9.00000
 -11720920.67108  -9133184.65707  22053068.26100  22053067.99700  22053067.92400
       107.00000        71.00000
 -17549818.64208 -13675183.35808  20950048.12900  20950048.18900  20950047.84100
       229.00000       130.00000
  -9209943.09307  -7176576.43506  23276477.53300  23276477.76200  23276476.19800
        45.00000        30.00000
 -27440368.26808 -21382104.67508  20275767.10000  20275766.70500  20275765.38500
       264.00000       247.00000
  -4231669.28805  -3297405.03406  24413566.09900  24413566.33300  24413568.26300
         9.00000        11.00000
 04  8 25  0 51  0.0000000  0  9G18G15G 9G10G29G26G22G21G 3
 -19386733.57108 -15106543.34508  20983617.09100  20983616.87800  20983615.97500
       254.00000       143.00000
 -15690823.91507 -12226615.23207  22065384.93700  22065384.08000  22065384.69400
        80.00000        45.00000
 -13194036.93607 -10281062.94407  22208762.88000  22208762.88600  22208763.49100
        93.00000        47.00000
   3108484.46206   2422186.73405  24853384.59400  24853383.79000  24853385.08400
        11.00000        10.00000
 -11642497.18108  -9072075.47507  22067991.61200  22067991.61700  22067991.20900
       108.00000        69.00000
 -17475025.70808 -13616903.16808  20964280.38100  20964280.62200  20964280.54100
       224.00000       130.00000
  -9294578.13807  -7242525.79406  23260372.15300  23260372.08500  23260370.87600
        41.00000        31.00000
 -27429631.51308 -21373738.40308  20277810.34900  20277810.08300  20277808.62400
       273.00000       244.00000
  -4239048.40506  -3303155.00105  24412162.72700  24412162.42200  24412164.29100
        11.00000        10.00000
 04  8 25  0 51 30.0000000  0  9G18G15G 9G10G29G26G22G21G 3
 -19438253.28808 -15146688.57008  20973813.59200  20973813.21600  20973812.13400
       262.00000       141.00000
 -15775696.70307 -12292749.85407  22049232.94600  22049232.84500  22049234.22200
        79.00000        49.00000
 -13294473.45407 -10359325.17207  22189650.49300  22189650.70700  22189651.76500
        96.00000        52.00000
   3203725.81906   2496400.64005  24871508.02700  24871506.92800  24871508.89500
        12.00000         7.00000
 -11563867.18308  -9010805.38207  22082954.74400  22082954.69400  22082953.85200
       109.00000        69.00000
 -17399880.76808 -13558348.68708  20978580.30500  20978580.53700  20978580.24300
       230.00000       131.00000
  -9379120.54707  -7308402.97207  23244284.33100  23244284.35500  23244282.87900
        49.00000        32.00000
 -27418298.82408 -21364907.75408  20279966.73200  20279966.32600  20279965.13200
       267.00000       244.00000
  -4245897.39205  -3308491.90105  24410858.61400  24410858.36700  24410860.34100
         7.00000         8.00000
 04  8 25  0 52  0.0000000  0  9G18G15G 9G10G29G26G22G21G 3
 -19489477.97908 -15186603.91408  20964065.84200  20964065.60000  20964064.30400
       272.00000       139.00000
 -15860168.59007 -12358572.09007  22033159.30700  22033158.89600  22033159.60800
        82.00000        49.00000
 -13394536.35107 -10437296.25707  22170609.98800  22170609.54400  22170610.29700
        91.00000        53.00000
   3299044.72905   2570674.99905  24889644.97900  24889644.53900  24889647.70300
         6.00000         7.00000
 -11484998.21108  -8949349.07107  22097963.05500  22097962.87700  22097962.03200
       105.00000        67.00000
 -17324351.96008 -13499495.09408  20992953.40300  20992953.34500  20992952.95400
       235.00000       130.00000
  -9463534.93707  -7374180.39407  23228220.31500  23228220.58300  23228219.91400
        48.00000        36.00000
 -27406335.58108 -21355585.77208  20282243.54800  20282243.15800  20282241.57700
       274.00000       240.00000
  -4252181.99805  -3313389.00605  24409662.94300  24409662.68600  24409665.80200
         7.00000         8.00000
 04  8 25  0 52 30.0000000  0  9G18G15G 9G10G29G26G22G21G 3
 -19540419.07308 -15226298.26608  20954372.01700  20954371.80900  20954370.54000
       279.00000       141.00000
 -15944249.05907 -12424089.32307  22017159.20900  22017158.62900  22017159.48300
        78.00000        50.00000
 -13494234.64407 -10514983.22007  22151637.71200  22151637.59600  22151638.45400
        99.00000        53.00000
   3394428.37905   2644999.76205  24907797.75200  24907796.84500  24907799.34500
         6.00000         8.00000
 -11405904.50307  -8887717.64907  22113013.88300  22113013.60800  22113013.42700
       100.00000        67.00000
 -17248454.15508 -13440353.96008  21007395.84000  21007396.04000  21007395.74800
       231.00000       128.00000
  -9547833.03207  -7439867.18707  23212179.66400  23212179.40700  23212177.93700
        52.00000        32.00000
 -27393753.09708 -21345781.26108  20284637.84700  20284637.39600  20284636.03300
       272.00000       238.00000
  -4257914.84705  -3317856.17205  24408571.91600  24408571.53000  24408572.35800
         6.00000         6.00000
 04  8 25  0 53  0.0000000  0  9G18G15G 9G10G29G26G22G21G 3
 -19591093.39708 -15265784.75108  20944729.06200  20944728.88200  20944727.57900
       284.00000       144.00000
 -16027953.49707 -12489313.54007  22001230.24800  22001229.93400  22001231.20000
        80.00000        52.00000
 -13593583.08408 -10592397.59807  22132731.94200  22132731.87000  22132732.82200
       101.00000        52.00000
   3489857.98205   2719360.38105  24925956.50000  24925956.32200  24925957.88600
         7.00000         8.00000
 -11326605.83107  -8825926.50707  22128103.61300  22128103.52500  22128103.50000
       100.00000        66.00000
 -17172207.97308 -13380941.37608  21021904.74600  21021905.10200  21021905.06300
       229.00000       128.00000
  -9632031.76407  -7505476.56607  23196157.15200  23196156.88600  23196155.61900
        47.00000        32.00000
 -27380570.00208 -21335508.73708  20287146.54900  20287146.23100  20287144.78200
       274.00000       238.00000
  -4263114.21505  -3321907.63005  24407583.40800  24407583.07300  24407583.49700
        10.00000         7.00000
 04  8 25  0 53 30.0000000  0  9G18G15G 9G10G29G26G22G21G 3
 -19641497.45408 -15305060.63808  20935137.42500  20935137.22200  20935136.07200
       277.00000       147.00000
 -16111276.52007 -12554240.55607  21985374.93700  21985374.35400  21985374.99500
        80.00000        49.00000
 -13692575.90108 -10669534.85507  22113894.86400  22113894.48700  22113895.45400
       103.00000        54.00000
   3585335.50605   2793758.31605  24944126.61100  24944125.21700  24944127.54400
         7.00000         9.00000
 -11247101.67307  -8763975.24307  22143232.88900  22143232.79200  22143232.86900
        97.00000        64.00000
 -17095613.29908 -13321257.23408  21036480.51000  21036480.66200  21036480.31500
       229.00000       123.00000
  -9716128.01407  -7571006.06107  23180154.77400  23180154.67800  23180152.46200
        54.00000        32.00000
 -27366784.29308 -21324766.64808  20289769.58800  20289769.34000  20289768.14900
       270.00000       236.00000
  -4267777.50205  -3325541.39305  24406694.88300  24406695.46200  24406697.03900
        10.00000         8.00000
 04  8 25  0 54  0.0000000  0  9G18G15G 9G10G29G26G22G21G 3
 -19691586.09108 -15344090.74208  20925605.99700  20925605.61500  20925604.51600
       273.00000       151.00000
 -16194170.92207 -12618833.57507  21969599.93500  21969599.61800  21969600.77000
        75.00000        46.00000
 -13791165.54508 -10746357.95107  22095134.11700  22095133.60900  22095134.13300
       105.00000        52.00000
   3680904.50605   2868227.50205  24962310.94400  24962310.52000  24962314.17500
         5.00000         9.00000
 -11167349.54707  -8701830.75907  22158408.79300  22158409.11400  22158409.18900
        94.00000        63.00000
 -17018628.52608 -13261269.11508  21051130.28300  21051130.46600  21051130.00300
       229.00000       120.00000
  -9800076.45807  -7636420.41106  23164178.92900  23164179.15500  23164177.36400
        45.00000        31.00000
 -27352350.99408 -21313519.93708  20292516.39300  20292515.99500  20292514.62800
       269.00000       232.00000
  -4271860.92205  -3328723.31905  24405917.54000  24405918.10400  24405919.26000
         8.00000         9.00000
 04  8 25  0 54 30.0000000  0  9G18G15G 9G10G29G26G22G21G 3
 -19741429.09408 -15382929.44008  20916121.21700  20916120.79700  20916119.74600
       271.00000       155.00000
 -16276705.35007 -12683146.10507  21953894.17100  21953893.99000  21953894.99200
        81.00000        46.00000
 -13889419.95908 -10822919.82307  22076435.50600  22076435.70400  22076436.89600
       103.00000        53.00000
   3776493.49005   2942712.34005  24980500.83700  24980500.78500  24980505.24200
         6.00000         9.00000
 -11087422.51307  -8639549.98107  22173618.91600  22173618.76000  22173618.99500
        92.00000        63.00000
 -16941327.24408 -13201034.37808  21065840.00200  21065840.37500  21065840.21200
       228.00000       123.00000
  -9883947.30307  -7701774.27306  23148219.04200  23148218.86100  23148217.15300
        44.00000        29.00000
 -27337341.35608 -21301824.13408  20295372.96700  20295372.42100  20295371.07700
       271.00000       236.00000
  -4275435.93405  -3331509.04305  24405238.70100  24405238.39000  24405239.53500
         6.00000        10.00000
 04  8 25  0 55  0.0000000  0  9G18G15G 9G10G29G26G22G21G 3
 -19790993.74908 -15421551.24208  20906689.40900  20906689.00400  20906687.89200
       273.00000       156.00000
 -16358845.20307 -12747151.17507  21938264.00800  21938263.49600  21938264.27800
        87.00000        46.00000
 -13987303.92508 -10899193.04207  22057809.59700  22057809.42000  22057810.26900
       108.00000        57.00000
   3872133.55505   3017236.91006  24998702.60800  24998701.65100  24998705.56200
        10.00000        11.00000
 -11007290.61007  -8577109.57407  22188868.05700  22188867.69300  22188867.51600
        91.00000        63.00000
 -16863680.18308 -13140530.20108  21080616.04000  21080616.21700  21080616.20600
       230.00000       125.00000
  -9967708.04807  -7767042.35306  23132279.61100  23132279.71600  23132277.97300
        48.00000        30.00000
 -27321723.42008 -21289654.33008  20298344.33200  20298344.05800  20298342.90600
       262.00000       230.00000
  -4278470.91305  -3333873.98005  24404661.02600  24404661.22500  24404662.01400
         9.00000         9.00000
 04  8 25  0 55 30.0000000  0  9G18G15G 9G10G29G26G22G21G 3
 -19840253.81708 -15459935.70608  20897315.30300  20897315.17000  20897314.18500
       277.00000       160.00000
 -16440562.87107 -12810827.27007  21922713.44400  21922713.29000  21922713.95600
        93.00000        48.00000
 -14084789.18008 -10975155.56807  22039258.46900  22039258.42200  22039259.51600
       103.00000        54.00000
   3967849.38605   3091820.51605  25016915.66100  25016915.24000  25016919.05800
         6.00000        10.00000
 -10926930.57407  -8514491.39207  22204159.37100  22204159.44100  22204159.33900
        89.00000        60.00000
 -16785664.69508 -13079738.93508  21095461.59500  21095461.73700  21095462.05600
       215.00000       123.00000
 -10051332.81307  -7832204.47507  23116366.87800  23116366.74700  23116364.81600
        53.00000        32.00000
 -27305472.10508 -21276990.98408  20301437.28900  20301436.86900  20301435.55800
       268.00000       229.00000
  -4280940.99006  -3335798.78805  24404190.92100  24404191.38000  24404191.49200
        12.00000         9.00000
 04  8 25  0 56  0.0000000  0  9G18G15G 9G10G29G26G22G21G 3
 -19889287.38608 -15498143.67908  20887984.32600  20887984.27000  20887983.24200
       276.00000       158.00000
 -16521934.36507 -12874233.61607  21907229.58400  21907228.87200  21907229.76400
        91.00000        51.00000
 -14181951.41708 -11050866.39407  22020768.39100  22020768.72300  22020770.02100
       104.00000        56.00000
   4063561.30305   3166401.10805  25035128.07500  25035127.37300  25035132.33700
         5.00000         9.00000
 -10846423.14307  -8451758.35907  22219480.09300  22219479.70700  22219479.43700
        88.00000        58.00000
 -16707362.19708 -13018724.03408  21110361.87000  21110362.13700  21110362.39400
       211.00000       120.00000
 -10134899.66207  -7897321.46507  23100464.58300  23100464.63700  23100463.01900
        53.00000        35.00000
 -27288666.64908 -21263895.84508  20304635.13900  20304634.73400  20304633.47300
       267.00000       227.00000
  -4282925.27305  -3337345.03405  24403813.36400  24403813.13900  24403815.56600
         9.00000        10.00000
 04  8 25  0 56 30.0000000  0  9G18G15G 9G10G29G26G22G21G 3
 -19938015.39408 -15536113.55408  20878711.88000  20878711.69400  20878710.52600
       283.00000       158.00000
 -16602878.87507 -12937307.24507  21891826.06600  21891825.49200  21891826.10400
        90.00000        54.00000
 -14278709.50408 -11126262.30507  22002356.79000  22002356.78800  22002357.70900
       106.00000        61.00000
   4159346.74305   3241038.98605  25053356.50200  25053356.07400  25053360.36800
         6.00000         9.00000
 -10765692.46707  -8388851.36807  22234842.06200  22234842.10000  22234841.56300
        87.00000        56.00000
 -16628697.41808 -12957426.82508  21125331.55400  21125331.85300  21125331.73300
       217.00000       115.00000
 -10218329.54207  -7962331.73407  23084588.69200  23084588.55500  23084586.81000
        58.00000        33.00000
 -27271229.09008 -21250308.15108  20307953.49500  20307953.11000  20307951.77700
       268.00000       226.00000
  -4284346.33805  -3338452.39006  24403543.10600  24403541.88200  24403544.32400
         8.00000        11.00000
 04  8 25  0 57  0.0000000  0  9G18G15G 9G10G29G26G22G21G 3
 -19986430.90808 -15573839.92708  20869498.91000  20869498.54400  20869497.32200
       283.00000       157.00000
 -16683388.07007 -13000041.66407  21876505.46800  21876504.86700  21876505.77200
        90.00000        55.00000
 -14375054.35007 -11201336.18807  21984022.60500  21984022.51200  21984023.97000
        98.00000        60.00000
   4255210.66805   3315738.04605  25071599.57900  25071599.13400  25071602.19500
         7.00000         9.00000
 -10684734.35407  -8325767.14607  22250248.37300  22250248.00300  22250247.62900
        85.00000        55.00000
 -16549666.89808 -12895844.62608  21140370.92600  21140370.92200  21140370.58700
       216.00000       112.00000
 -10301616.23807  -8027230.44007  23068740.00800  23068739.82100  23068737.64500
        66.00000        33.00000
 -27253153.90908 -21236223.61608  20311393.33200  20311392.73100  20311391.39400
       267.00000       223.00000
  -4285198.91806  -3339116.75006  24403380.83800  24403379.95400  24403381.80000
        13.00000        11.00000
 04  8 25  0 57 30.0000000  0  9G18G15G 9G10G29G26G22G21G 3
 -20034579.14408 -15611358.03508  20860336.61400  20860336.26400  20860335.04100
       278.00000       158.00000
 -16763505.60107 -13062470.88907  21861259.45100  21861259.16300  21861260.21600
        95.00000        57.00000
 -14471028.75508 -11276121.43007  21965759.50200  21965759.55600  21965760.51200
       116.00000        61.00000
   4351106.51505   3390461.96705  25089848.26000  25089847.10500  25089852.12100
         7.00000         8.00000
 -10603597.00607  -8262543.26807  22265687.82300  22265687.93200  22265687.66100
        82.00000        57.00000
 -16470319.45408 -12834015.47208  21155469.99700  21155470.28300  21155469.97600
       212.00000       109.00000
 -10384804.80907  -8092052.68006  23052909.28500  23052909.10600  23052906.84300
        65.00000        30.00000
 -27234486.70808 -21221677.75708  20314945.14500  20314944.90300  20314943.49700
       268.00000       220.00000
  -4285529.44106  -3339374.35205  24403318.52100  24403317.85600  24403318.37000
        14.00000         9.00000
 04  8 25  0 58  0.0000000  0  9G18G15G 9G10G29G26G22G21G 3
 -20082426.42608 -15648641.63008  20851230.78400  20851230.92600  20851230.10300
       270.00000       162.00000
 -16843196.17007 -13124567.42507  21846095.33500  21846094.79500  21846095.23100
       100.00000        56.00000
 -14566597.12808 -11350590.27907  21947573.26100  21947573.23400  21947574.29900
       110.00000        61.00000
   4447066.10905   3465235.57705  25108106.00800  25108104.91500  25108110.35500
         5.00000         6.00000
 -10522249.73807  -8199155.81907  22281167.95300  22281167.99500  22281167.48800
        81.00000        57.00000
 -16390625.21908 -12771916.09308  21170635.58600  21170635.63800  21170635.39900
       209.00000       109.00000
 -10467861.90507  -8156772.49307  23037103.72400  23037103.63300  23037102.05800
        67.00000        34.00000
 -27215195.24808 -21206645.47408  20318616.29600  20318616.00500  20318614.80200
       271.00000       224.00000
  -4285305.86206  -3339200.14805  24403359.48100  24403359.98700  24403361.10700
        12.00000         9.00000
 04  8 25  0 58 30.0000000  0  9G18G15G 9G10G29G26G22G21G 3
 -20129996.96608 -15685709.54908  20842178.80700  20842178.66200  20842177.82600
       275.00000       166.00000
 -16922482.34707 -13186348.84807  21831007.39400  21831006.91900  21831007.48500
       100.00000        54.00000
 -14661781.84308 -11424760.16207  21929461.00600  21929460.64000  21929461.49300
       110.00000        64.00000
   4543063.50705   3540038.68405  25126376.75000  25126375.95300  25126378.34500
         6.00000         7.00000
 -10440719.74207  -8135625.99607  22296682.65100  22296682.30200  22296682.49300
        77.00000        59.00000
 -16310612.16708 -12709568.28008  21185861.20500  21185861.47100  21185861.28900
       203.00000       109.00000
 -10550811.98007  -8221408.89007  23021318.67000  23021318.59700  23021317.06000
        61.00000        34.00000
 -27195305.43208 -21191146.93008  20322401.10100  20322400.84600  20322399.68400
       271.00000       221.00000
  -4284554.13506  -3338614.38905  24403503.58100  24403503.04200  24403503.84300
        12.00000         9.00000
 04  8 25  0 59  0.0000000  0  9G18G15G 9G10G29G26G22G21G 3
 -20177293.15508 -15722563.71708  20833178.73900  20833178.58400  20833177.61900
       285.00000       170.00000
 -17001364.86907 -13247815.74207  21815996.71900  21815996.14300  21815996.69200
        96.00000        53.00000
 -14756583.08408 -11498631.23807  21911420.37700  21911420.27700  21911421.54700
       116.00000        65.00000
   4639094.71704   3614868.09305  25144651.34200  25144649.58900  25144653.40400
         3.00000         8.00000
 -10359012.36107  -8071957.93207  22312230.52300  22312230.61500  22312230.88700
        78.00000        61.00000
 -16230285.89508 -12646976.40108  21201147.07500  21201147.15700  21201146.94300
       197.00000       109.00000
 -10633657.57807  -8285963.89507  23005554.70600  23005554.31800  23005551.94000
        67.00000        35.00000
 -27174820.92308 -21175184.98708  20326299.55400  20326299.06500  20326297.65500
       270.00000       218.00000
  -4283277.77506  -3337619.85105  24403747.01500  24403746.48900  24403747.55600
        13.00000         8.00000
 04  8 25  0 59 30.0000000  0  9G18G15G 9G10G29G26G22G21G 3
 -20224284.28008 -15759180.17408  20824236.86500  20824236.53200  20824235.54500
       297.00000       175.00000
 -17079811.11307 -13308942.67407  21801068.34400  21801068.00700  21801068.91200
        91.00000        52.00000
 -14850967.49108 -11572177.52107  21893459.56400  21893459.35900  21893460.50400
       117.00000        63.00000
   4735189.10305   3689746.73805  25162937.26700  25162937.03100  25162939.78800
         5.00000         9.00000
 -10277099.30407  -8008129.61207  22327818.57700  22327818.54400  22327818.72700
        84.00000        62.00000
 -16149619.05208 -12584119.14408  21216497.46300  21216497.37900  21216497.59000
       189.00000       112.00000
 -10716367.82507  -8350413.40607  22989814.57800  22989814.70800  22989812.98500
        65.00000        37.00000
 -27153711.64108 -21158736.21708  20330316.38000  20330316.03000  20330314.74400
       273.00000       221.00000
  -4281447.44405  -3336193.61705  24404094.31400  24404093.96500  24404096.04700
         9.00000        10.00000
 04  8 25  1  0  0.0000000  0  9G15G 9G10G18G29G26G22G21G 3
 -17157826.72407 -13369734.04707  21786222.24700  21786222.00300  21786222.83800
        89.00000        51.00000
 -14944940.29508 -11645403.05807  21875577.51200  21875577.33600  21875578.23500
       120.00000        69.00000
   4831337.27604   3764667.29705  25181229.57700  25181231.94000  25181236.83500
         3.00000         9.00000
 -20270977.33808 -15795564.37708  20815351.62000  20815351.31500  20815350.07400
       299.00000       177.00000
 -10194991.04007  -7944149.17807  22343443.00800  22343443.07300  22343443.58200
        85.00000        63.00000
 -16068622.76008 -12521005.18208  21231910.40400  21231910.53800  21231910.66900
       188.00000       109.00000
 -10798950.14107  -8414763.25207  22974099.99100  22974099.91200  22974097.71400
        62.00000        35.00000
 -27131986.61108 -21141807.63708  20334450.46000  20334450.04100  20334448.78900
       269.00000       221.00000
  -4279072.13405  -3334342.72805  24404546.06400  24404546.20500  24404548.25600
        10.00000        10.00000
 04  8 25  1  0 30.0000000  0  9G15G 9G10G18G29G26G22G21G 3
 -17235410.04507 -13430188.56307  21771458.57000  21771458.27200  21771459.46500
        94.00000        53.00000
 -15038499.79908 -11718306.53707  21857773.51700  21857773.31500  21857774.26100
       121.00000        67.00000
   4927537.49405   3839628.43605  25199540.07100  25199539.73400  25199543.48200
         7.00000        10.00000
 -20317372.51308 -15831716.45508  20806522.73800  20806522.53200  20806521.37500
       297.00000       180.00000
 -10112690.53507  -7880018.94707  22359104.67400  22359104.48800  22359104.88300
        81.00000        61.00000
 -15987300.58208 -12457637.26908  21247385.43400  21247385.67100  21247385.64200
       189.00000       106.00000
 -10881404.97907  -8479013.74807  22958408.40000  22958408.66900  22958407.50100
        59.00000        37.00000
 -27109647.08708 -21124400.23408  20338701.72100  20338701.27600  20338699.99700
       272.00000       222.00000
  -4276153.86105  -3332068.78206  24405102.36900  24405101.87000  24405103.12600
         8.00000        11.00000
 04  8 25  1  1  0.0000000  0 10G15G 9G10G18G29G26G22G21G 3G28
 -17312574.24508 -13490316.50807  21756774.96300  21756774.68500  21756775.61600
       104.00000        54.00000
 -15131658.14608 -11790897.43707  21840046.06100  21840045.72100  21840046.73500
       124.00000        68.00000
   5023773.81305   3914617.67905  25217853.06300  25217852.13600  25217856.16100
         7.00000         9.00000
 -20363484.67908 -15867648.01208  20797747.52700  20797747.60100  20797746.58500
       292.00000       183.00000
 -10030215.09007  -7815752.41007  22374799.16600  22374798.90100  22374799.14800
        78.00000        58.00000
 -15905670.69008 -12394029.58108  21262919.04600  21262919.24100  21262919.41600
       187.00000       105.00000
 -10963747.05107  -8543176.37607  22942739.61900  22942739.52700  22942738.24200
        54.00000        40.00000
 -27086709.12008 -21106526.51108  20343066.48900  20343066.14600  20343065.12900
       268.00000       224.00000
  -4272708.36605  -3329384.01806  24405758.16600  24405757.51400  24405758.97100
         8.00000        12.00000
    -12824.80104     -9992.76405  25584984.96500  25584984.12000  25584982.88300
         3.00000         8.00000
 04  8 25  1  1 30.0000000  0 10G15G 9G10G18G29G26G22G21G 3G28
 -17389338.76908 -13550133.00907  21742167.38700  21742166.89900  21742167.74100
       106.00000        53.00000
 -15224434.37808 -11863190.56407  21822391.33500  21822391.38900  21822392.35700
       132.00000        72.00000
   5120023.59605   3989617.43105  25236168.63200  25236168.25600  25236171.85300
         8.00000         9.00000
 -20409334.87908 -15903375.42808  20789022.97300  20789022.61400  20789021.59000
       285.00000       184.00000
  -9947588.72307  -7751368.26507  22390521.74500  22390522.07600  22390522.15300
        75.00000        53.00000
 -15823757.66608 -12330201.27308  21278506.65400  21278506.90500  21278507.23600
       190.00000       106.00000
 -11045997.74007  -8607267.76507  22927087.43600  22927087.80700  22927086.36400
        60.00000        38.00000
 -27063194.99408 -21088203.83008  20347541.01100  20347540.70700  20347539.59000
       270.00000       221.00000
  -4268758.54706  -3326306.26105  24406508.85300  24406509.19200  24406510.31000
        11.00000         9.00000
    -51031.58204    -39764.28105  25577715.00000  25577714.49300  25577711.69900
         3.00000         6.00000
 04  8 25  1  2  0.0000000  0 10G15G 9G10G18G29G26G22G21G 3G28
 -17465656.40608 -13609601.29307  21727644.89000  21727644.37200  21727644.73400
       108.00000        55.00000
 -15316780.86408 -11935148.83107  21804818.55000  21804818.09500  21804818.96500
       128.00000        69.00000
   5216330.68905   4064661.86905  25254494.83000  25254493.48200  25254499.05000
         6.00000        10.00000
 -20454877.41208 -15938863.11208  20780356.50700  20780356.10300  20780355.07500
       284.00000       182.00000
  -9864768.61407  -7686833.14907  22406281.86100  22406281.98000  22406282.23000
        72.00000        49.00000
 -15741519.56608 -12266119.65208  21294156.16100  21294156.49100  21294156.50900
       191.00000       105.00000
 -11128111.43907  -8671252.43307  22911461.73200  22911462.15300  22911460.71000
        60.00000        40.00000
 -27039060.59708 -21069397.82208  20352133.72100  20352133.36800  20352132.43300
       265.00000       222.00000
  -4264260.62805  -3322801.38305  24407364.93900  24407364.42300  24407366.19300
        10.00000        10.00000
    -88805.57904    -69198.55405  25570525.73500  25570525.24900  25570524.03000
         3.00000         7.00000
 04  8 25  1  2 30.0000000  0 10G15G 9G10G18G29G26G22G21G 3G28
 -17541523.33808 -13668718.36507  21713207.87600  21713207.33700  21713207.70300
       109.00000        57.00000
 -15408693.14708 -12006768.76507  21787328.21000  21787327.95200  21787328.66300
       139.00000        70.00000
   5312695.57205   4139751.34106  25272832.40700  25272831.47800  25272837.94200
         7.00000        11.00000
 -20500110.00108 -15974109.27808  20771748.78600  20771748.55200  20771747.42600
       279.00000       180.00000
  -9781755.20607  -7622147.40307  22422079.01500  22422078.99000  22422079.39700
        69.00000        49.00000
 -15658957.45008 -12201785.56008  21309867.32200  21309867.43400  21309867.16000
       184.00000       101.00000
 -11210086.20807  -8735128.83307  22895862.88300  22895862.70000  22895861.14400
        60.00000        36.00000
 -27014305.18408 -21050107.91108  20356844.51100  20356844.09900  20356843.05600
       267.00000       216.00000
  -4259213.76206  -3318868.80606  24408325.64900  24408325.23600  24408327.19500
        11.00000        11.00000
   -126143.32905    -98292.91505  25563420.35300  25563420.71600  25563418.31400
         4.00000         7.00000
 04  8 25  1  3  0.0000000  0 10G15G 9G10G18G29G26G22G21G 3G28
 -17616931.59108 -13727478.02607  21698857.63600  21698857.41900  21698857.86100
       109.00000        56.00000
 -15500163.00408 -12078043.94407  21769921.99700  21769921.83200  21769922.62400
       143.00000        69.00000
   5409123.12805   4214889.60805  25291181.70100  25291181.49800  25291185.92900
         5.00000         8.00000
 -20545026.39108 -16009109.05908  20763201.53700  20763201.19300  20763200.10700
       271.00000       182.00000
  -9698545.51407  -7557308.72707  22437913.82400  22437913.68900  22437913.71700
        73.00000        49.00000
 -15576068.81508 -12137197.04507  21325640.74300  21325640.80600  21325640.49100
       181.00000       100.00000
 -11291915.82207  -8798892.14907  22880291.14100  22880291.12700  22880288.99300
        61.00000        35.00000
 -26988923.53608 -21030330.01908  20361674.51700  20361674.14400  20361672.83700
       273.00000       211.00000
  -4253613.63606  -3314505.08806  24409391.00700  24409391.04400  24409392.64900
        12.00000        11.00000
   -163038.26605   -127042.21905  25556398.71600  25556398.29400  25556397.86800
         5.00000         6.00000
 04  8 25  1  3 30.0000000  0 10G15G 9G10G18G29G26G22G21G 3G28
 -17691885.92008 -13785883.98407  21684594.86600  21684594.24600  21684594.59400
       109.00000        58.00000
 -15591194.53308 -12148977.57607  21752598.84300  21752598.76600  21752599.45200
       133.00000        67.00000
   5505605.34504   4290070.49005  25309540.91600  25309540.39500  25309544.84600
         3.00000         7.00000
 -20589632.81508 -16043867.30908  20754713.19200  20754712.95300  20754711.77600
       273.00000       183.00000
  -9615148.35207  -7492323.96607  22453784.18700  22453784.21200  22453784.14900
        78.00000        51.00000
 -15492863.35808 -12072361.65007  21341474.61000  21341474.36700  21341474.13900
       182.00000        98.00000
 -11373606.61407  -8862547.26707  22864746.39100  22864746.15400  22864743.95100
        64.00000        37.00000
 -26962923.54208 -21010070.29808  20366621.99600  20366621.68000  20366620.64500
       271.00000       212.00000
  -4247468.28605  -3309716.53705  24410560.11500  24410559.78000  24410561.96800
         8.00000        10.00000
   -199495.77905   -155450.63305  25549459.60200  25549459.63800  25549458.22400
         4.00000         6.00000
 04  8 25  1  4  0.0000000  0 10G15G 9G10G18G29G26G22G21G 3G28
 -17766409.94408 -13843954.64107  21670412.75100  21670412.34100  21670413.32900
       105.00000        59.00000
 -15681810.86608 -12219587.68407  21735355.48500  21735355.31000  21735355.68700
       143.00000        67.00000
   5602115.16405   4365272.86005  25327907.17500  25327906.23000  25327910.46600
         5.00000         6.00000
 -20633954.15408 -16078403.41408  20746279.29900  20746278.89100  20746277.84600
       276.00000       187.00000
  -9531591.74907  -7427214.96507  22469684.75900  22469684.70900  22469684.47500
        76.00000        51.00000
 -15409369.80108 -12007301.76007  21357362.44600  21357362.49900  21357362.46600
       179.00000        97.00000
 -11455183.89807  -8926113.95607  22849221.92100  22849222.03300  22849219.85000
        62.00000        36.00000
 -26936331.60708 -20989349.33108  20371682.55000  20371682.11300  20371680.87700
       278.00000       211.00000
  -4240804.41406  -3304523.91105  24411829.28800  24411829.09700  24411830.30700
        12.00000         8.00000
   -235540.34205   -183537.30005  25542601.49000  25542600.49700  25542598.99900
         6.00000         5.00000
 04  8 25  1  4 30.0000000  0 10G15G 9G10G18G29G26G22G21G 3G28
 -17840524.96808 -13901706.59207  21656309.09000  21656308.82900  21656309.62800
       103.00000        62.00000
 -15772033.01108 -12289890.62407  21718186.75500  21718186.53400  21718187.49200
       138.00000        73.00000
   5698627.83705   4440477.52305  25346273.71700  25346273.01400  25346274.62500
         7.00000         4.00000
 -20678013.70308 -16112735.52208  20737895.02600  20737894.67100  20737893.59600
       278.00000       188.00000
  -9447901.65807  -7362001.96007  22485610.87800  22485610.61200  22485609.94500
        75.00000        51.00000
 -15325614.81408 -11942038.15507  21373300.50600  21373300.50600  21373300.40000
       179.00000        94.00000
 -11536670.95607  -8989610.33407  22833715.49000  22833715.64000  22833714.44200
        68.00000        45.00000
 -26909172.87708 -20968186.69908  20376850.38000  20376850.11100  20376849.19600
       280.00000       212.00000
  -4233646.89505  -3298946.67105  24413190.49700  24413190.36400  24413191.21100
         7.00000         8.00000
   -271194.20105   -211319.46405  25535815.81000  25535816.52700  25535815.45200
         6.00000         4.00000
 04  8 25  1  5  0.0000000  0 10G15G 9G10G18G29G26G22G21G 3G28
 -17914199.28308 -13959115.13507  21642289.87800  21642289.18500  21642289.90000
       101.00000        63.00000
 -15861828.95508 -12359861.47007  21701098.63100  21701098.52000  21701099.46600
       134.00000        72.00000
   5795172.05805   4515706.71205  25364645.26600  25364645.00200  25364647.54100
         5.00000         5.00000
 -20721781.42608 -16146840.23608  20729566.46200  20729566.00500  20729564.66000
       273.00000       185.00000
  -9364050.82507  -7296663.69207  22501565.99100  22501566.34500  22501566.01400
        69.00000        48.00000
 -15241571.84908 -11876550.14307  21389293.62700  21389293.56800  21389293.51200
       181.00000        95.00000
 -11618037.90307  -9053013.11907  22818232.19600  22818232.26000  22818230.12900
        75.00000        43.00000
 -26881418.40808 -20946559.86308  20382132.19400  20382131.91800  20382130.68000
       289.00000       211.00000
  -4225967.64205  -3292962.88905  24414652.78700  24414651.72300  24414653.02800
         7.00000         9.00000
   -306426.83905   -238773.48105  25529111.48600  25529111.47000  25529110.73700
         6.00000         6.00000
 04  8 25  1  5 30.0000000  0 10G15G 9G10G18G29G26G22G21G 3G28
 -17987377.06608 -14016136.77707  21628363.92800  21628363.68200  21628365.27100
       104.00000        66.00000
 -15951142.09108 -12429456.11407  21684103.24800  21684103.24200  21684103.74700
       141.00000        74.00000
   5891800.34205   4591001.42705  25383032.83300  25383032.49800  25383036.66600
         6.00000         5.00000
 -20765203.04108 -16180675.25908  20721303.53700  20721303.19800  20721301.94900
       271.00000       190.00000
  -9279987.75007  -7231160.03707  22517563.05100  22517562.82000  22517562.73000
        66.00000        48.00000
 -15157189.88108 -11810797.98207  21405350.79300  21405350.90600  21405350.80800
       178.00000        94.00000
 -11699230.21007  -9116279.81907  22802781.97600  22802781.95600  22802780.12300
        80.00000        47.00000
 -26853015.27108 -20924427.56608  20387536.89900  20387536.65000  20387535.72700
       290.00000       212.00000
  -4217713.81505  -3286531.35005  24416222.83700  24416222.78000  24416224.59300
        10.00000        10.00000
   -341182.85605   -265856.06005  25522495.53800  25522496.06800  25522495.75300
         5.00000         5.00000
 04  8 25  1  6  0.0000000  0 10G15G 9G10G18G29G26G22G21G 3G28
 -18060087.90008 -14072794.56107  21614528.49800  21614527.71600  21614528.40900
       108.00000        62.00000
 -16040001.60108 -12498697.27407  21667193.79900  21667193.73700  21667194.77000
       142.00000        79.00000
   5988479.86805   4666336.09505  25401430.67200  25401430.34300  25401434.77800
         4.00000         6.00000
 -20808309.31808 -16214264.55908  20713100.48900  20713100.14400  20713099.03400
       267.00000       188.00000
  -9195746.15307  -7165517.28407  22533593.55600  22533593.60600  22533593.41300
        67.00000        46.00000
 -15072503.52008 -11744808.63907  21421465.81600  21421466.10400  21421465.91200
       172.00000        91.00000
 -11780279.14207  -9179434.79407  22787358.67000  22787358.82700  22787356.80700
        82.00000        45.00000
 -26823996.91408 -20901815.87808  20393059.43600  20393059.10300  20393057.69900
       298.00000       213.00000
  -4208918.36006  -3279677.76006  24417896.72200  24417896.58200  24417898.64000
        12.00000        12.00000
   -375492.83405   -292591.06405  25515967.04300  25515966.65600  25515966.10300
         6.00000         4.00000
 04  8 25  1  6 30.0000000  0 10G15G 9G10G18G29G26G22G21G 3G28
 -18132386.15008 -14129130.85807  21600770.23600  21600769.80300  21600770.44400
       114.00000        62.00000
 -16128461.54508 -12567627.08507  21650360.38300  21650360.03700  21650360.94800
       139.00000        76.00000
   6085153.01500   4741665.70005  25419827.46100  25419826.33400  25419831.27700
          .00000         4.00000
 -20851156.35108 -16247651.85208  20704946.70000  20704946.55500  20704945.51100
       267.00000       189.00000
  -9111384.81707  -7099781.22307  22549647.14500  22549647.36200  22549647.31800
        72.00000        47.00000
 -14987572.47108 -11678628.62607  21437627.98400  21437628.04200  21437627.70600
       171.00000        89.00000
 -11861240.94707  -9242521.88907  22771952.55200  22771952.39400  22771950.82000
        78.00000        49.00000
 -26794420.48208 -20878769.33108  20398687.43300  20398687.03900  20398685.96600
       295.00000       212.00000
  -4199639.20505  -3272447.28705  24419662.24900  24419661.89800  24419664.52800
         8.00000         9.00000
   -409412.47705   -319021.91104  25509513.19800  25509512.34800  25509510.21400
         6.00000         3.00000
 04  8 25  1  7  0.0000000  0 10G15G 9G10G18G29G26G22G21G 3G28
 -18204186.49008 -14185079.17507  21587106.78600  21587106.40100  21587107.28700
       117.00000        64.00000
 -16216436.01808 -12636178.59307  21633619.07600  21633619.18600  21633620.21200
       148.00000        80.00000
   6181902.17600   4817054.51305  25438239.19000  25438239.35700  25438241.20600
          .00000         4.00000
 -20893660.18808 -16280771.72508  20696858.71800  20696858.47000  20696857.29200
       267.00000       192.00000
  -9026822.87107  -7033888.83607  22565739.49500  22565739.29700  22565738.91200
        75.00000        46.00000
 -14902316.18108 -11612195.17107  21453851.68200  21453851.70100  21453851.44200
       167.00000        87.00000
 -11942031.73707  -9305475.72807  22756578.08200  22756577.77700  22756575.89100
        71.00000        45.00000
 -26764203.58608 -20855223.71508  20404437.56000  20404437.24800  20404436.03500
       295.00000       209.00000
  -4189794.46205  -3264776.10105  24421536.47900  24421535.94400  24421536.69100
         9.00000         7.00000
   -442857.19705   -345082.68005  25503146.84100  25503147.37800  25503147.84100
         7.00000         4.00000
 04  8 25  1  7 30.0000000  0 10G15G 9G10G18G29G26G22G21G 3G28
 -18275504.39808 -14240651.56507  21573535.38600  21573535.16500  21573536.17600
       119.00000        66.00000
 -16303940.16508 -12704363.61507  21616967.59900  21616967.61000  21616968.76800
       145.00000        82.00000
   6278708.61100   4892487.98504  25456660.49500  25456660.40500  25456660.45000
          .00000         3.00000
 -20935837.90508 -16313637.48008  20688832.43000  20688832.25100  20688831.14900
       263.00000       192.00000
  -8942080.02407  -6967855.50007  22581865.00200  22581865.01300  22581864.99500
        72.00000        47.00000
 -14816755.33608 -11545524.41207  21470133.36300  21470133.41700  21470133.26200
       165.00000        88.00000
 -12022668.75507  -9368309.74007  22741233.30300  22741233.20300  22741231.69400
        73.00000        46.00000
 -26733365.19008 -20831193.81608  20410306.15900  20410305.67300  20410304.45300
       294.00000       208.00000
  -4179403.25706  -3256679.09605  24423513.45200  24423513.12800  24423514.28100
        12.00000         8.00000
   -475843.27805   -370786.03305  25496870.22800  25496870.99500  25496871.78000
         9.00000         4.00000
 04  8 25  1  8  0.0000000  0 10G15G 9G10G18G29G26G22G21G 3G28
 -18346377.47508 -14295877.33307  21560048.74200  21560048.37200  21560049.59000
       117.00000        68.00000
 -16391011.01608 -12772211.00507  21600399.02600  21600398.71100  21600399.58700
       151.00000        80.00000
   6375531.45600   4967934.22904  25475085.26700  25475082.85500  25475085.74400
          .00000         3.00000
 -20977728.69108 -16346279.64408  20680860.67700  20680860.49800  20680859.60900
       259.00000       197.00000
  -8857198.22507  -6901713.87807  22598017.31000  22598017.18200  22598017.51300
        67.00000        46.00000
 -14730932.72908 -11478649.67707  21486464.48000  21486464.82800  21486464.77700
       161.00000        88.00000
 -12103191.26007  -9431054.51107  22725910.17200  22725910.07000  22725908.35500
        73.00000        43.00000
 -26701945.99508 -20806711.34708  20416284.83700  20416284.29500  20416283.27800
       289.00000       202.00000
  -4168506.55606  -3248188.19205  24425586.83400  24425586.24400  24425588.11000
        12.00000         7.00000
   -508409.37505   -396162.16505  25490674.13700  25490673.54100  25490674.25300
         8.00000         5.00000
 04  8 25  1  8 30.0000000  0 10G15G 9G10G18G29G26G22G21G 3G28
 -18416790.50308 -14350744.61707  21546649.84200  21546649.41800  21546650.20100
       122.00000        67.00000
 -16477632.71508 -12839708.42407  21583915.57500  21583915.40300  21583915.80600
       156.00000        81.00000
   6472382.94400   5043402.77904  25493515.33800  25493516.58000  25493516.34700
        -1.00000         2.00000
 -21019318.60308 -16378687.36708  20672946.48700  20672946.26900  20672945.41400
       258.00000       205.00000
  -8772166.54207  -6835455.46907  22614198.39200  22614198.16100  22614198.45900
        65.00000        47.00000
 -14644837.63008 -11411562.62107  21502848.11000  21502848.14300  21502848.37100
       153.00000        88.00000
 -12183585.40507  -9493699.27307  22710611.75100  22710611.73600  22710609.73700
        76.00000        41.00000
 -26669933.79708 -20781766.79808  20422376.54800  20422376.13900  20422374.95300
       293.00000       198.00000
  -4157092.32706  -3239294.05305  24427759.39300  24427758.98900  24427760.27900
        15.00000         7.00000
   -540541.03105   -421199.80704  25484558.13000  25484558.06900  25484559.26200
         9.00000         3.00000
 04  8 25  1  9  0.0000000  0 10G15G 9G10G18G29G26G22G21G 3G28
 -18486753.55208 -14405261.27607  21533336.64700  21533336.15200  21533336.34500
       128.00000        66.00000
 -16563814.89108 -12906863.33407  21567515.60300  21567515.38200  21567516.21900
       154.00000        85.00000
   6569249.73600   5118883.24104  25511947.48800  25511944.79300  25511950.14000
          .00000         3.00000
 -21060619.33808 -16410869.76508  20665087.17000  20665087.01300  20665086.15300
       257.00000       210.00000
  -8686999.33007  -6769091.45807  22630405.21000  22630405.10400  22630405.41300
        62.00000        47.00000
 -14558485.58008 -11344275.33607  21519280.11400  21519280.24100  21519280.74700
       150.00000        88.00000
 -12263862.93807  -9556253.17907  22695335.68500  22695335.63700  22695333.20500
        79.00000        39.00000
 -26637342.11708 -20756370.70808  20428578.38300  20428578.15600  20428576.78000
       298.00000       190.00000
  -4145174.09606  -3230007.15905  24430026.83400  24430026.84600  24430028.19000
        11.00000         8.00000
   -572249.69605   -445907.79804  25478525.65900  25478524.85600  25478525.46600
         9.00000         3.00000
 04  8 25  1  9 30.0000000  0 10G15G 9G10G18G29G26G22G21G 3G28
 -18556197.59708 -14459373.52507  21520121.74600  21520121.20500  21520121.93900
       128.00000        69.00000
 -16649488.07808 -12973621.63607  21551212.13200  21551211.96900  21551212.60500
       150.00000        80.00000
   6666197.48300   5194426.84404  25530398.12200  25530397.39100  25530399.67400
          .00000         1.00000
 -21101563.22808 -16442774.09808  20657295.87100  20657295.65400  20657294.87900
       257.00000       214.00000
  -8601631.93907  -6702571.46007  22646650.15900  22646650.00800  22646650.13500
        62.00000        46.00000
 -14471812.34708 -11276737.77807  21535773.74900  21535773.95100  21535774.27500
       155.00000        88.00000
 -12343956.44607  -9618663.66507  22680095.10500  22680094.68700  22680091.93500
        83.00000        40.00000
 -26604104.90108 -20730471.60208  20434903.40500  20434903.00600  20434901.83600
       297.00000       189.00000
  -4132686.64406  -3220276.73705  24432403.49800  24432402.84700  24432404.87100
        11.00000         8.00000
   -603467.01906   -470232.95504  25472584.47600  25472584.60800  25472585.17500
        11.00000         3.00000
 04  8 25  1 10  0.0000000  0  9G15G 9G18G29G26G22G21G 3G28
 -18625202.17808 -14513143.31907  21506990.28800  21506989.76400  21506990.79900
       126.00000        70.00000
 -16734731.62008 -13040045.15207  21534990.53100  21534990.62200  21534991.53300
       153.00000        80.00000
 -21142231.65708 -16474463.78008  20649557.14000  20649556.96400  20649555.93500
       265.00000       216.00000
  -8516148.10807  -6635960.73207  22662917.14500  22662917.16700  22662917.12600
        63.00000        46.00000
 -14384902.66608 -11209015.97307  21552312.67800  21552312.71700  21552312.56600
       161.00000        87.00000
 -12423947.35807  -9680994.21907  22664872.23600  22664872.52900  22664870.14200
        87.00000        40.00000
 -26570305.51408 -20704134.43808  20441335.29300  20441334.79600  20441333.43200
       293.00000       183.00000
  -4119713.13606  -3210167.50105  24434871.52000  24434871.60900  24434873.43900
        11.00000         7.00000
   -634273.79305   -494238.17905  25466723.18600  25466722.95000  25466727.10100
         8.00000         4.00000
 04  8 25  1 10 30.0000000  0  9G15G 9G18G29G26G22G21G 3G28
 -18693703.90408 -14566521.27907  21493954.75000  21493954.31800  21493955.31700
       124.00000        70.00000
 -16819481.85408 -13106084.27807  21518863.47200  21518863.22900  21518864.01400
       156.00000        81.00000
 -21182562.86808 -16505890.70808  20641882.48300  20641882.17400  20641881.14100
       269.00000       216.00000
  -8430488.88107  -6569213.33307  22679217.40800  22679217.56300  22679217.58400
        62.00000        44.00000
 -14297698.06708 -11141064.36107  21568907.31300  21568907.19700  21568906.81200
       159.00000        85.00000
 -12503773.81807  -9743196.61707  22649682.03200  22649682.13200  22649679.96200
        88.00000        42.00000
 -26535883.43808 -20677312.05908  20447885.56300  20447885.20800  20447883.92700
       294.00000       180.00000
  -4106193.58206  -3199632.81505  24437445.28900  24437444.67500  24437445.77400
        14.00000         9.00000
   -664607.63105   -517874.93705  25460949.99600  25460949.98500  25460954.10400
         7.00000         4.00000
 04  8 25  1 11  0.0000000  0  9G15G 9G18G29G26G22G21G 3G28
 -18761747.21408 -14619542.02607  21481006.44900  21481005.94400  21481007.22300
       127.00000        72.00000
 -16903782.72708 -13171773.23907  21502821.08600  21502821.10000  21502822.23900
       160.00000        82.00000
 -21222602.58708 -16537090.49308  20634262.99400  20634262.81100  20634261.77200
       270.00000       213.00000
  -8344702.98207  -6502367.23107  22695542.20100  22695542.15500  22695542.41600
        61.00000        43.00000
 -14210248.04808 -11072921.51507  21585548.20300  21585548.25900  21585548.04600
       153.00000        83.00000
 -12583481.47007  -9805306.46407  22634513.67400  22634513.94700  22634511.85700
        79.00000        42.00000
 -26500886.58208 -20650041.80108  20454545.21300  20454544.78300  20454543.64100
       291.00000       180.00000
  -4092176.00506  -3188710.05006  24440112.72700  24440112.09100  24440114.39400
        13.00000        12.00000
   -694514.03305   -541178.62705  25455260.29800  25455260.13600  25455262.27400
         7.00000         6.00000
 04  8 25  1 11 30.0000000  0  9G15G 9G18G29G26G22G21G 3G28
 -18829295.39408 -14672176.96707  21468152.61800  21468152.17300  21468153.10100
       134.00000        73.00000
 -16987596.74808 -13237082.84007  21486872.67700  21486872.25700  21486872.25900
       164.00000        80.00000
 -21262315.34208 -16568035.50208  20626705.85500  20626705.64500  20626704.58200
       269.00000       212.00000
  -8258757.29307  -6435396.61607  22711897.03000  22711896.87200  22711897.10700
        56.00000        42.00000
 -14122520.49408 -11004562.41207  21602242.25300  21602242.22600  21602242.10000
       150.00000        82.00000
 -12663035.34307  -9867296.47107  22619375.47200  22619375.28500  22619373.57400
        80.00000        45.00000
 -26465281.85208 -20622297.87508  20461320.46000  20461320.13600  20461319.03000
       291.00000       181.00000
  -4077626.89105  -3177373.09106  24442880.24800  24442880.09400  24442882.53800
         7.00000        11.00000
   -723957.21705   -564121.33905  25449658.38000  25449657.34100  25449659.85900
         5.00000         4.00000
 04  8 25  1 12  0.0000000  0  9G15G 9G18G29G26G22G21G 3G28
 -18896334.01408 -14724414.84007  21455395.44200  21455395.07100  21455396.08000
       131.00000        72.00000
 -17070909.23008 -13302001.63307  21471017.85200  21471017.91800  21471019.00500
       163.00000        85.00000
 -21301687.98208 -16598715.48808  20619213.78600  20619213.43900  20619212.16000
       271.00000       212.00000
  -8172641.94907  -6368293.78907  22728284.28300  22728284.02400  22728284.37900
        54.00000        40.00000
 -14034506.04808 -10935979.75307  21618990.68400  21618990.76800  21618990.54800
       146.00000        80.00000
 -12742422.42607  -9929156.51707  22604267.94500  22604268.01600  22604266.59900
        78.00000        46.00000
 -26429057.78008 -20594071.35308  20468213.89500  20468213.55000  20468212.05900
       296.00000       178.00000
  -4062535.53105  -3165613.64705  24445752.27100  24445751.51300  24445754.44900
         6.00000         9.00000
   -752923.76405   -586692.61405  25444146.09100  25444146.17600  25444145.56700
         6.00000         4.00000
 04  8 25  1 12 30.0000000  0  9G15G 9G18G29G26G22G21G 3G28
 -18962906.52508 -14776289.52407  21442727.25700  21442726.73600  21442727.64900
       133.00000        71.00000
 -17153763.05608 -13366563.01907  21455251.77300  21455251.58600  21455252.21900
       168.00000        84.00000
 -21340765.30308 -16629165.35508  20611777.55600  20611777.23700  20611776.01900
       269.00000       210.00000
  -8086404.58407  -6301095.88807  22744694.40000  22744694.43400  22744694.74400
        54.00000        39.00000
 -13946252.86308 -10867211.06207  21635784.70600  21635784.82000  21635784.39900
       143.00000        75.00000
 -12821687.45907  -9990921.44107  22589184.75400  22589184.72200  22589183.11600
        81.00000        47.00000
 -26392261.14708 -20565398.67508  20475215.81000  20475215.46400  20475214.52000
       289.00000       183.00000
  -4046948.95305  -3153468.28605  24448718.54000  24448718.43500  24448720.14300
         7.00000        10.00000
   -781457.87904   -608926.93505  25438718.00400  25438717.16300  25438718.10700
         3.00000         5.00000
 04  8 25  1 13  0.0000000  0  9G15G 9G18G29G26G22G21G 3G28
 -19028992.06508 -14827784.74207  21430151.89500  21430151.30300  21430151.87600
       135.00000        72.00000
 -17236137.24908 -13430750.67207  21439576.54700  21439576.29000  21439576.98400
       171.00000        89.00000
 -21379528.34608 -16659370.32608  20604400.92500  20604400.75500  20604399.65600
       264.00000       212.00000
  -8000028.63707  -6233789.99607  22761131.63200  22761131.60100  22761131.89700
        53.00000        39.00000
 -13857745.41008 -10798244.23907  21652627.17900  21652627.21500  21652627.44800
       144.00000        76.00000
 -12900811.44907 -10052576.47807  22574128.29100  22574128.03300  22574126.22200
        84.00000        47.00000
 -26354874.95208 -20536266.59508  20482330.18500  20482330.01200  20482328.79600
       288.00000       181.00000
  -4030849.94005  -3140923.63405  24451782.30100  24451782.09500  24451784.14000
         9.00000        10.00000
   -809540.08705   -630809.18505  25433371.51300  25433371.22600  25433374.79600
         4.00000         7.00000
 04  8 25  1 13 30.0000000  0  9G15G 9G18G29G26G22G21G 3G28
 -19094579.20508 -14878891.59007  21417670.83700  21417670.40400  21417671.39500
       138.00000        74.00000
 -17318019.69708 -13494555.14107  21423994.36200  21423994.32700  21423995.04700
       168.00000        89.00000
 -21417966.80608 -16689322.37208  20597086.70800  20597086.32700  20597085.18100
       267.00000       219.00000
  -7913506.58107  -6166370.26107  22777596.42200  22777596.13400  22777596.51100
        51.00000        37.00000
 -13768976.80808 -10729073.92007  21669519.14700  21669519.29600  21669519.64500
       142.00000        75.00000
 -12979784.37907 -10114113.79807  22559100.50900  22559100.30500  22559098.07400
        93.00000        49.00000
 -26316890.30008 -20506668.19308  20489558.53500  20489558.07400  20489557.26400
       286.00000       182.00000
  -4014230.74705  -3127973.63306  24454944.79400  24454944.45800  24454946.67800
        10.00000        11.00000
   -837159.99305   -652331.16805  25428115.54300  25428116.00000  25428117.69800
         5.00000         6.00000
 04  8 25  1 14  0.0000000  0  9G15G 9G18G29G26G22G21G 3G28
 -19159670.51808 -14929612.08807  21405284.32600  21405284.00000  21405284.71200
       139.00000        74.00000
 -17399412.53608 -13557978.10107  21408506.30100  21408506.11200  21408506.45200
       175.00000        88.00000
 -21456084.62608 -16719024.56508  20589833.11300  20589832.80300  20589831.75300
       269.00000       227.00000
  -7826845.07107  -6098841.86307  22794087.81700  22794087.50600  22794087.87600
        54.00000        38.00000
 -13679954.40608 -10659705.83907  21686459.79700  21686459.65000  21686459.79300
       135.00000        72.00000
 -13058610.05108 -10175536.36807  22544100.51300  22544100.32100  22544098.17000
       101.00000        50.00000
 -26278313.93608 -20476608.70708  20496898.95700  20496898.83600  20496897.98700
       285.00000       179.00000
  -3997097.16005  -3114622.82606  24458205.03800  24458203.88400  24458207.13300
         9.00000        12.00000
   -864320.85404   -673495.43405  25422947.43500  25422946.97500  25422948.34800
         2.00000         4.00000
 04  8 25  1 14 30.0000000  0  9G15G 9G18G29G26G22G21G 3G28
 -19224256.91308 -14979939.13907  21392993.94400  21392993.53500  21392994.35300
       139.00000        78.00000
 -17480306.44008 -13621012.28307  21393112.14300  21393112.22200  21393112.95900
       176.00000        91.00000
 -21493874.48408 -16748471.21108  20582641.91000  20582641.63000  20582640.45100
       270.00000       228.00000
  -7740039.42707  -6031201.15607  22810606.73700  22810606.46100  22810606.23500
        57.00000        36.00000
 -13590674.28008 -10590136.93607  21703448.77100  21703448.91100  21703449.33200
       134.00000        72.00000
 -13137281.13807 -10236838.48207  22529129.39400  22529129.37500  22529127.60300
        99.00000        52.00000
 -26239140.16408 -20446083.72308  20504354.09900  20504353.59300  20504352.64100
       290.00000       178.00000
  -3979444.47205  -3100867.53706  24461564.37300  24461563.90200  24461566.80600
         8.00000        13.00000
   -891015.15504   -694296.15805  25417864.00700  25417865.84300  25417866.33500
         1.00000         5.00000
 04  8 25  1 15  0.0000000  0  9G15G 9G28G18G29G26G22G21G 3
 -19288331.55208 -15029867.41407  21380801.06100  21380800.56800  21380801.49400
       140.00000        81.00000
 -17560694.07708 -13683651.97007  21377814.97300  21377814.88500  21377815.46900
       178.00000        88.00000
   -917236.79800   -714728.52405  25412874.34800  25412874.52100  25412875.27600
          .00000         4.00000
 -21531330.43308 -16777657.66408  20575514.33400  20575514.02300  20575512.90600
       271.00000       232.00000
  -7653086.75307  -5963445.87307  22827152.97900  22827153.00800  22827153.09200
        58.00000        38.00000
 -13501134.26908 -10520365.52107  21720487.88900  21720488.02100  21720488.22500
       136.00000        72.00000
 -13215791.92707 -10298015.68207  22514189.98800  22514189.52000  22514186.94500
        94.00000        49.00000
 -26199364.88108 -20415090.01508  20511922.90500  20511922.59400  20511921.18300
       291.00000       170.00000
  -3961269.04405  -3086704.85906  24465021.70100  24465022.33900  24465025.21700
         9.00000        13.00000
 04  8 25  1 15 30.0000000  0  9G15G 9G28G18G29G26G22G21G 3
 -19351909.93608 -15079409.00607  21368702.09200  21368701.80400  21368702.72900
       138.00000        77.00000
 -17640590.36308 -13745908.78707  21362611.68200  21362611.46100  21362611.79100
       184.00000        88.00000
   -943002.25500   -734805.52305  25407969.50600  25407970.73400  25407973.92100
          .00000         5.00000
 -21568469.55408 -16806597.23808  20568447.08600  20568446.70900  20568445.55000
       269.00000       232.00000
  -7566006.39007  -5895591.09307  22843723.73000  22843723.40800  22843723.97500
        54.00000        37.00000
 -13411354.43808 -10450407.23907  21737572.66900  21737572.61000  21737572.85800
       135.00000        73.00000
 -13294159.46007 -10359081.26207  22499276.36300  22499276.40900  22499274.47700
        99.00000        52.00000
 -26159007.19808 -20383642.48008  20519602.68400  20519602.41700  20519601.50100
       294.00000       176.00000
  -3942590.03106  -3072149.85406  24468578.65700  24468578.34900  24468579.10600
        14.00000        11.00000
 04  8 25  1 16  0.0000000  0  9G15G 9G28G18G29G26G22G21G 3
 -19414978.44008 -15128553.29007  21356701.06200  21356700.55300  21356700.94700
       141.00000        75.00000
 -17719981.45208 -13807771.95007  21347503.91600  21347503.67600  21347503.95200
       185.00000        87.00000
   -968299.33400   -754517.52505  25403154.65500  25403157.81800  25403161.90300
          .00000         5.00000
 -21605279.43608 -16835280.25908  20561442.11200  20561441.86900  20561440.80500
       265.00000       234.00000
  -7478788.99707  -5827629.53207  22860320.41100  22860320.49400  22860320.79900
        52.00000        37.00000
 -13321326.16408 -10380255.37507  21754704.57700  21754704.56200  21754704.70800
       135.00000        72.00000
 -13372371.59608 -10420025.75007  22484392.81900  22484392.86200  22484390.72100
       101.00000        53.00000
 -26118057.03108 -20351733.29308  20527395.29700  20527394.96800  20527393.94200
       294.00000       170.00000
  -3923397.16506  -3057194.40305  24472229.95000  24472230.13000  24472231.20900
        15.00000         9.00000
 04  8 25  1 16 30.0000000  0  9G15G 9G28G18G29G26G22G21G 3
 -19477569.85308 -15177325.82307  21344789.78100  21344789.32300  21344790.26400
       140.00000        77.00000
 -17798899.81008 -13869266.75307  21332486.09600  21332485.94600  21332486.78800
       186.00000        91.00000
   -993161.70800   -773890.81005  25398426.30900  25398425.40000  25398428.55000
          .00000         5.00000
 -21641794.21208 -16863733.33208  20554493.80000  20554493.36600  20554492.20500
       264.00000       234.00000
  -7391471.46207  -5759589.94407  22876935.67900  22876935.60600  22876936.97700
        47.00000        37.00000
 -13231086.95108 -10309939.13707  21771876.54300  21771876.54500  21771876.65600
       136.00000        71.00000
 -13450462.41508 -10480875.71607  22469532.86700  22469532.90500  22469531.03500
       102.00000        56.00000
 -26076550.91108 -20319390.88208  20535293.35000  20535293.12200  20535292.18400
       287.00000       166.00000
  -3903727.19306  -3041867.15806  24475973.54900  24475973.12800  24475974.98700
        17.00000        11.00000
 04  8 25  1 17  0.0000000  0  9G15G 9G28G18G29G26G22G21G 3
 -19539629.21608 -15225683.75807  21332980.33300  21332979.80700  21332981.01800
       137.00000        81.00000
 -17877290.02608 -13930350.02507  21317569.12100  21317568.83400  21317569.25600
       190.00000        91.00000
  -1017535.60000   -792883.44705  25393790.57900  25393790.83900  25393789.83400
          .00000         4.00000
 -21677960.65508 -16891914.98108  20547611.34500  20547611.12800  20547609.94800
       264.00000       233.00000
  -7304002.77807  -5691432.56007  22893580.49100  22893580.66200  22893581.47800
        45.00000        35.00000
 -13140586.70008 -10239419.48707  21789098.22500  21789098.30800  21789097.95900
       135.00000        68.00000
 -13528378.19208 -10541589.28307  22454705.75800  22454705.92200  22454704.25500
       101.00000        54.00000
 -26034437.02208 -20286574.88708  20543307.63700  20543307.49100  20543306.36200
       291.00000       166.00000
  -3883528.62006  -3026128.02705  24479816.14200  24479816.21600  24479818.07500
        11.00000         9.00000
 04  8 25  1 17 30.0000000  0  9G15G 9G28G18G29G26G22G21G 3
 -19601155.32708 -15273626.17207  21321272.52100  21321271.95900  21321273.02000
       146.00000        81.00000
 -17955150.57408 -13991020.57407  21302752.93000  21302752.60100  21302752.83400
       192.00000        89.00000
  -1041420.90804   -811495.37105  25389248.04500  25389247.62900  25389242.39900
         1.00000         5.00000
 -21713778.55508 -16919825.03908  20540795.26300  20540795.08000  20540794.14300
       257.00000       237.00000
  -7216385.79707  -5623159.64107  22910253.78700  22910253.70800  22910254.64300
        42.00000        37.00000
 -13049828.82508 -10168699.09707  21806368.80100  21806368.95700  21806368.85300
       133.00000        68.00000
 -13606119.11007 -10602166.59207  22439911.67300  22439911.86900  22439910.19400
       100.00000        53.00000
 -25991717.72908 -20253287.15408  20551436.81300  20551436.43600  20551435.60000
       282.00000       165.00000
  -3862804.04105  -3009979.03305  24483759.81900  24483759.25500  24483761.94500
        10.00000         8.00000
 04  8 25  1 18  0.0000000  0  9G15G 9G28G18G29G26G22G21G 3
 -19662185.67408 -15321182.27807  21309659.10400  21309658.54900  21309659.22200
       156.00000        79.00000
 -18032518.16808 -14051307.00107  21288029.89100  21288029.65900  21288030.69700
       188.00000        94.00000
  -1064856.15104   -829756.56305  25384788.89500  25384787.63500  25384783.93700
         2.00000         7.00000
 -21749286.67208 -16947493.69908  20534038.53800  20534038.27800  20534037.14400
       258.00000       240.00000
  -7128661.87307  -5554803.37507  22926947.16100  22926947.20800  22926948.22100
        43.00000        36.00000
 -12958855.57208 -10097810.87307  21823680.57300  21823680.58500  21823680.64700
       125.00000        67.00000
 -13683723.94407 -10662637.85507  22425144.41700  22425144.53400  22425143.05900
       100.00000        58.00000
 -25948434.12508 -20219559.68908  20559673.69300  20559673.33300  20559672.08900
       287.00000       159.00000
  -3841594.48906  -2993452.12605  24487796.71800  24487796.05600  24487797.71100
        13.00000         9.00000
 04  8 25  1 18 30.0000000  0  9G15G 9G28G18G29G26G22G21G 3
 -19722720.00908 -15368351.88807  21298139.83000  21298139.15500  21298139.37800
       157.00000        73.00000
 -18109392.79008 -14111209.28607  21273401.94600  21273401.60700  21273401.75800
       203.00000        97.00000
  -1087842.49300   -847668.01405  25380416.53100  25380415.63600  25380411.34400
          .00000         7.00000
 -21784486.18608 -16974921.90108  20527340.21000  20527340.00200  20527339.00400
       256.00000       246.00000
  -7040834.93907  -5486366.84807  22943660.86400  22943660.47300  22943661.07100
        44.00000        35.00000
 -12867671.51908 -10026758.39907  21841032.55400  21841032.31300  21841032.41800
       118.00000        67.00000
 -13761194.14908 -10723004.22207  22410402.02300  22410402.31700  22410400.29100
       101.00000        56.00000
 -25904589.41708 -20185395.00808  20568016.82300  20568016.49800  20568015.70500
       287.00000       162.00000
  -3819903.84606  -2976550.37805  24491924.84900  24491924.40300  24491926.54800
        14.00000        10.00000
 04  8 25  1 19  0.0000000  0 10G15G 9G28G18G29G26G22G21G 3G19
 -19782723.10008 -15415107.54007  21286721.65900  21286720.98100  21286721.44800
       154.00000        76.00000
 -18185738.51008 -14170699.43508  21258872.99000  21258872.80400  21258873.82900
       192.00000       101.00000
  -1110345.67400   -865202.98205  25376132.79500  25376130.62900  25376129.96100
          .00000         8.00000
 -21819343.17608 -17002083.19408  20520707.08900  20520706.84000  20520705.97600
       250.00000       251.00000
  -6952873.63507  -5417825.61707  22960398.58600  22960398.54100  22960399.73400
        44.00000        35.00000
 -12776245.94208  -9955517.72607  21858430.11300  21858429.98000  21858430.10700
       113.00000        68.00000
 -13838495.57907 -10783239.07307  22395692.25100  22395692.17700  22395690.51100
        99.00000        55.00000
 -25860151.85308 -20150768.36108  20576473.17700  20576472.88700  20576471.71500
       299.00000       160.00000
  -3797700.42306  -2959249.00605  24496150.02200  24496149.52800  24496151.57800
        13.00000        10.00000
         -.74615          .47715  25252251.92300  25252250.72500  25252249.14900
         6.00000         5.00000
 04  8 25  1 19 30.0000000  0 10G15G 9G28G18G29G26G22G21G 3G19
 -19842171.91808 -15461431.28907  21275408.08700  21275407.91700  21275408.81400
       157.00000        80.00000
 -18261531.82908 -14229759.15707  21244450.18500  21244450.05500  21244450.79700
       196.00000        99.00000
  -1132343.74900   -882344.37105  25371945.68500  25371944.40600  25371942.51200
          .00000         7.00000
 -21853835.77208 -17028960.54208  20514142.79000  20514142.99400  20514142.17400
       247.00000       251.00000
  -6864758.66707  -5349164.63407  22977166.89200  22977166.87600  22977167.40400
        47.00000        36.00000
 -12684560.48008  -9884074.54807  21875877.21200  21875877.11200  21875877.28900
       112.00000        67.00000
 -13915606.37208 -10843325.37507  22381018.38800  22381018.50800  22381017.06300
       102.00000        59.00000
 -25815101.86208 -20115664.49608  20585045.92000  20585045.63100  20585044.42000
       304.00000       158.00000
  -3774964.78105  -2941532.96705  24500475.48300  24500475.07000  24500477.88000
         9.00000        10.00000
    -45764.51205    -35659.57105  25243544.25500  25243541.86300  25243540.84800
        10.00000         6.00000
 04  8 25  1 20  0.0000000  0 10G15G 9G28G18G29G26G22G21G 3G19
 -19901104.14208 -15507352.49207  21264193.99200  21264193.51200  21264194.57500
       152.00000        85.00000
 -18336810.17308 -14288417.59008  21230125.18500  21230124.97900  21230125.89500
       194.00000       102.00000
  -1153875.52004   -899122.35605  25367848.81000  25367848.30600  25367846.50500
         1.00000         8.00000
 -21888003.07308 -17055584.41708  20507641.33900  20507641.21800  20507640.37000
       241.00000       250.00000
  -6776531.70407  -5280416.40407  22993955.71700  22993955.95200  22993956.29900
        50.00000        35.00000
 -12592657.59708  -9812461.94107  21893364.93200  21893365.32700  21893365.87900
       106.00000        65.00000
 -13992565.59308 -10903293.58607  22366374.03500  22366373.98600  22366371.67800
       107.00000        56.00000
 -25769480.92308 -20080115.73808  20593727.61400  20593727.17300  20593725.94200
       307.00000       161.00000
  -3751738.35305  -2923434.48505  24504895.84600  24504895.30800  24504897.18800
         6.00000         9.00000
    -91051.86406    -70948.33905  25234925.67400  25234924.56500  25234923.95400
        12.00000         9.00000
 04  8 25  1 20 30.0000000  0 10G15G 9G28G18G29G26G22G21G 3G19
 -19959491.25608 -15552848.94107  21253083.29500  21253082.80900  21253083.75400
       151.00000        86.00000
 -18411544.61908 -14346652.21808  21215903.50100  21215903.49400  21215904.13700
       201.00000       102.00000
  -1174913.43900   -915515.58505  25363841.18100  25363841.54100  25363843.81400
        -1.00000         8.00000
 -21921817.69008 -17081933.47108  20501206.67500  20501206.46600  20501205.61200
       239.00000       250.00000
  -6688168.24307  -5211561.78507  23010771.59200  23010771.15400  23010771.27200
        50.00000        35.00000
 -12500513.26808  -9740661.20607  21910899.54100  21910899.79700  21910900.24800
       106.00000        61.00000
 -14069345.89208 -10963122.35507  22351763.66800  22351763.40900  22351760.79100
       109.00000        56.00000
 -25723263.69808 -20044102.34508  20602522.39800  20602522.07800  20602520.94100
       315.00000       162.00000
  -3727996.24605  -2904934.22805  24509413.27300  24509413.17600  24509414.78500
         9.00000        10.00000
   -135835.25905   -105844.43705  25226402.56800  25226402.19200  25226400.81200
         7.00000         7.00000
 04  8 25  1 21  0.0000000  0 10G15G 9G28G18G29G26G22G21G 3G19
 -20017365.12608 -15597945.45907  21242070.50900  21242069.76800  21242070.76100
       152.00000        86.00000
 -18485766.74608 -14404487.63308  21201779.88200  21201779.58000  21201780.22100
       203.00000       104.00000
  -1195490.84400   -931550.03405  25359925.24100  25359924.06300  25359927.99500
        -1.00000         9.00000
 -21955312.78708 -17108033.55608  20494833.00200  20494832.68600  20494831.82900
       245.00000       254.00000
  -6599704.03907  -5142628.69107  23027606.19500  23027605.82600  23027605.51200
        50.00000        35.00000
 -12408163.97008  -9668700.74607  21928473.25200  21928473.45500  21928473.87900
       104.00000        60.00000
 -14145980.41408 -11022837.53407  22337179.57800  22337179.90300  22337178.16500
       110.00000        60.00000
 -25676486.03208 -20007652.23808  20611423.64600  20611423.28000  20611422.34700
       304.00000       160.00000
  -3703774.21505  -2886059.92806  24514022.16700  24514022.17300  24514024.84800
         9.00000        12.00000
   -180147.42905   -140373.39105  25217969.56000  25217968.01100  25217969.81500
         8.00000        10.00000
 04  8 25  1 21 30.0000000  0 10G15G 9G28G18G29G26G22G21G 3G19
 -20074706.44308 -15642627.00507  21231158.96100  21231158.36000  21231159.12800
       157.00000        87.00000
 -18559456.81908 -14461908.45508  21187756.89500  21187756.85800  21187757.72800
       212.00000       107.00000
  -1215589.64200   -947211.51905  25356098.72200  25356103.29800  25356105.57100
          .00000         5.00000
 -21988470.18308 -17133870.48808  20488523.28200  20488522.98400  20488522.19300
       242.00000       257.00000
  -6511123.60107  -5073605.00807  23044462.44600  23044462.07900  23044461.80100
        46.00000        34.00000
 -12315595.25108  -9596569.31107  21946088.79000  21946088.75400  21946088.98200
       101.00000        57.00000
 -14222451.12508 -11082425.08307  22322628.06900  22322628.24900  22322625.98000
       114.00000        61.00000
 -25629132.68508 -19970753.55308  20620434.79100  20620434.61600  20620433.52900
       310.00000       161.00000
  -3679056.71705  -2866799.56806  24518725.43400  24518725.68300  24518728.50600
        10.00000        14.00000
   -223969.95806   -174520.78005  25209630.28400  25209629.75500  25209629.49400
        13.00000         9.00000
 04  8 25  1 22  0.0000000  0 10G15G 9G28G18G29G26G22G21G 3G19
 -20131520.01708 -15686897.32007  21220347.56000  21220347.02000  21220347.76400
       158.00000        90.00000
 -18632619.16908 -14518918.06208  21173834.73100  21173834.46100  21173834.98400
       206.00000       106.00000
  -1235215.77400   -962504.64805  25352365.03400  25352366.76600  25352370.39000
          .00000        10.00000
 -22021296.24008 -17159449.24208  20482276.69200  20482276.50200  20482275.49300
       246.00000       254.00000
  -6422435.54007  -5004497.47007  23061338.24800  23061338.29400  23061338.93800
        43.00000        34.00000
 -12222816.16907  -9524273.95807  21963744.20000  21963744.06500  21963744.19000
        99.00000        55.00000
 -14298764.11008 -11141889.72007  22308106.01700  22308106.04600  22308104.17400
       112.00000        61.00000
 -25581211.44808 -19933412.34908  20629553.78900  20629553.57200  20629552.55900
       299.00000       157.00000
  -3653852.08306  -2847159.62706  24523523.29500  24523522.60300  24523525.62400
        11.00000        14.00000
   -267308.51006   -208291.04405  25201383.20100  25201383.15800  25201383.38300
        15.00000        10.00000
 04  8 25  1 22 30.0000000  0 10G15G 9G28G18G29G26G22G21G 3G19
 -20187769.78108 -15730728.30107  21209643.61300  21209642.97100  21209643.92600
       156.00000        91.00000
 -18705217.38508 -14575488.08208  21160019.98600  21160019.71500  21160020.11900
       214.00000       109.00000
  -1254333.89500   -977401.98105  25348729.01700  25348726.42800  25348731.88700
          .00000        10.00000
 -22053755.70108 -17184742.33308  20476099.95500  20476099.69400  20476098.67500
       249.00000       252.00000
  -6333607.39207  -4935280.76307  23078240.75200  23078240.81700  23078242.20500
        37.00000        34.00000
 -12129795.13207  -9451790.06407  21981445.90500  21981445.62700  21981445.88500
        98.00000        57.00000
 -14374884.35008 -11201204.15907  22293621.10900  22293621.00400  22293619.21800
       116.00000        63.00000
 -25532689.13408 -19895602.77408  20638787.50400  20638787.14900  20638785.97700
       293.00000       155.00000
  -3628128.00106  -2827114.95606  24528417.88200  24528417.95400  24528419.85900
        12.00000        11.00000
   -310127.94606   -241656.81105  25193236.45700  25193234.80700  25193234.86600
        15.00000        10.00000
 04  8 25  1 23  0.0000000  0 10G15G 9G28G18G29G26G22G21G 3G19
 -20243497.34808 -15774152.36407  21199038.60900  21199038.08400  21199039.35600
       152.00000        89.00000
 -18777292.85308 -14631650.76008  21146303.96500  21146303.68400  21146304.86500
       209.00000       112.00000
  -1272987.18800   -991937.08005  25345182.03300  25345180.48200  25345180.88300
          .00000         8.00000
 -22085891.58408 -17209783.28908  20469984.69000  20469984.49000  20469983.30300
       251.00000       248.00000
  -6244684.85907  -4865990.50506  23095161.79900  23095162.10000  23095163.11300
        35.00000        30.00000
 -12036578.61508  -9379153.84807  21999184.18400  21999183.95200  21999184.01700
       102.00000        58.00000
 -14450854.57708 -11260401.72407  22279164.24400  22279164.25000  22279162.18300
       118.00000        61.00000
 -25483611.54408 -19857360.52708  20648126.62300  20648126.15300  20648125.34900
       279.00000       155.00000
  -3601930.19406  -2806701.13206  24533403.50600  24533402.89700  24533405.31600
        11.00000        11.00000
   -352470.93206   -274651.33505  25185178.37000  25185177.02000  25185176.91400
        16.00000         9.00000
 04  8 25  1 23 30.0000000  0 10G15G 9G28G18G29G26G22G21G 3G19
 -20298687.91908 -15817157.99807  21188535.78800  21188535.68800  21188536.72900
       160.00000        84.00000
 -18848830.38108 -14687394.25708  21132690.71100  21132690.67400  21132691.46000
       215.00000       112.00000
  -1291161.92300  -1006099.23206  25341722.60000  25341721.69000  25341722.79700
          .00000        11.00000
 -22117690.26608 -17234561.48808  20463933.45500  20463933.24700  20463932.13700
       246.00000       249.00000
  -6155656.89607  -4796618.09606  23112104.13500  23112103.85100  23112104.68300
        34.00000        29.00000
 -11943156.07408  -9306357.09007  22016962.03500  22016961.87000  22016962.42800
       107.00000        60.00000
 -14526661.09608 -11319471.71007  22264738.64900  22264738.78700  22264736.63400
       118.00000        62.00000
 -25433967.41008 -19818676.80708  20657573.17600  20657573.07400  20657572.39800
       279.00000       154.00000
  -3575247.43006  -2785909.39605  24538480.14400  24538480.26800  24538482.85800
        11.00000        10.00000
   -394323.61106   -307263.80005  25177212.84500  25177212.39400  25177213.17200
        14.00000         9.00000
 04  8 25  1 24  0.0000000  0 10G15G 9G28G18G29G26G22G21G 3G19
 -20353328.21108 -15859734.85507  21178138.41000  21178138.18200  21178138.87700
       164.00000        83.00000
 -18919816.17408 -14742707.83508  21119182.52800  21119182.47100  21119183.11800
       220.00000       113.00000
  -1308846.00204  -1019879.06805  25338359.41300  25338360.15000  25338356.89900
         1.00000        10.00000
 -22149139.27108 -17259067.20708  20457948.90000  20457948.71700  20457947.69900
       245.00000       253.00000
  -6066513.74507  -4727155.93406  23129068.10500  23129068.07300  23129067.84500
        39.00000        26.00000
 -11849518.57908  -9233392.84307  22034780.71800  22034780.83100  22034781.20200
       114.00000        60.00000
 -14602291.80908 -11378404.70007  22250346.80500  22250346.48500  22250344.88000
       112.00000        64.00000
 -25383747.23808 -19779544.23008  20667129.96300  20667129.55300  20667128.78100
       270.00000       147.00000
  -3548069.95905  -2764732.16006  24543651.36800  24543651.48200  24543655.40200
         9.00000        12.00000
   -435673.61206   -339484.59305  25169344.40000  25169343.93000  25169343.95900
        15.00000         8.00000
 04  8 25  1 24 30.0000000  0 10G15G 9G28G18G29G26G22G21G 3G19
 -20407415.14208 -15901880.51907  21167846.57300  21167846.05800  21167846.52500
       167.00000        86.00000
 -18990246.89808 -14797588.88608  21105780.48200  21105780.10300  21105780.76800
       221.00000       114.00000
  -1326037.58404  -1033275.07305  25335085.19900  25335086.96700  25335086.73700
         2.00000        10.00000
 -22180236.93208 -17283299.15408  20452031.25200  20452031.07700  20452030.02500
       241.00000       258.00000
  -5977255.98607  -4657604.46406  23146054.31000  23146054.02500  23146053.50200
        45.00000        27.00000
 -11755667.65008  -9160262.28907  22052640.43000  22052640.30200  22052640.21400
       112.00000        57.00000
 -14677744.63408 -11437199.08407  22235988.63600  22235988.47100  22235986.40200
       112.00000        64.00000
 -25332951.31908 -19739963.02308  20676796.83700  20676796.23800  20676795.08900
       274.00000       148.00000
  -3520398.69206  -2743170.17705  24548918.82700  24548918.49700  24548920.16100
        17.00000        10.00000
   -476518.63306   -371311.85705  25161572.31900  25161570.95500  25161572.05500
        15.00000         7.00000
 04  8 25  1 25  0.0000000  0 10G15G 9G28G18G29G26G22G21G 3G19
 -20460977.57108 -15943617.46807  21157653.77900  21157653.28400  21157653.96600
       168.00000        88.00000
 -19060151.13808 -14852059.69708  21092477.71500  21092477.79300  21092478.29700
       230.00000       112.00000
  -1342766.62700  -1046310.69205  25331904.11800  25331903.61800  25331901.86800
          .00000         9.00000
 -22211013.36908 -17307280.78708  20446174.82500  20446174.59300  20446173.53300
       245.00000       261.00000
  -5887916.59007  -4587989.39106  23163054.80300  23163054.76300  23163054.08400
        44.00000        25.00000
 -11661636.58408  -9086991.36807  22070533.69400  22070533.62800  22070533.54100
       105.00000        56.00000
 -14753049.69608 -11495878.31507  22221658.25100  22221658.18700  22221656.26200
       116.00000        63.00000
 -25281612.24208 -19699958.56708  20686565.53600  20686565.31700  20686564.62100
       275.00000       145.00000
  -3492266.22906  -2721248.81606  24554272.01900  24554271.95900  24554273.74700
        19.00000        12.00000
   -516888.25006   -402768.69805  25153890.27700  25153888.99100  25153889.86200
        14.00000         8.00000
 04  8 25  1 25 30.0000000  0 10G15G 9G28G18G29G26G22G21G 3G19
 -20514014.73208 -15984945.11407  21147561.11400  21147560.71900  21147561.30000
       177.00000        87.00000
 -19129527.82408 -14906119.42408  21079276.20400  21079275.78900  21079276.09800
       226.00000       110.00000
  -1359033.50100  -1058986.18105  25328807.65500  25328805.55600  25328806.52200
          .00000         9.00000
 -22241468.77508 -17331012.26608  20440379.42500  20440379.14100  20440378.12200
       244.00000       267.00000
  -5798498.07407  -4518312.65406  23180070.22000  23180070.01100  23180070.47800
        41.00000        28.00000
 -11567428.99807  -9013582.90007  22088459.90500  22088460.51900  22088460.48200
       100.00000        54.00000
 -14828207.18608 -11554442.56207  22207356.27600  22207356.24600  22207354.53700
       120.00000        65.00000
 -25229732.64008 -19659532.92908  20696438.60200  20696438.03200  20696436.92400
       277.00000       143.00000
  -3463675.63806  -2698970.43806  24559712.18200  24559712.20700  24559714.39500
        13.00000        11.00000
   -556783.09806   -433855.58105  25146299.00000  25146297.76100  25146297.87300
        14.00000         6.00000
 04  8 25  1 26  0.0000000  0 10G15G 9G28G18G29G26G22G21G 3G19
 -20566459.89708 -16025811.47307  21137581.29200  21137580.79100  21137581.20300
       179.00000        84.00000
 -19198309.80508 -14959715.74008  21066187.27900  21066187.14500  21066187.35300
       236.00000       113.00000
  -1374772.79304  -1071250.53505  25325812.14200  25325810.38700  25325811.36900
         2.00000         8.00000
 -22271537.65008 -17354442.55308  20434657.56900  20434657.29400  20434656.14600
       246.00000       269.00000
  -5708937.51107  -4448525.22406  23197111.96900  23197112.00000  23197113.25700
        35.00000        28.00000
 -11472982.45607  -8939988.22507  22106433.03100  22106433.02400  22106433.17100
        99.00000        53.00000
 -14903151.30208 -11612840.54507  22193094.79000  22193094.82400  22193092.80200
       126.00000        63.00000
 -25177249.80208 -19618637.23108  20706425.39900  20706425.04300  20706424.05900
       275.00000       143.00000
  -3434563.79206  -2676285.94205  24565252.33600  24565251.90400  24565253.89700
        12.00000        10.00000
   -596137.28706   -464521.19105  25138809.73600  25138809.16800  25138809.63800
        12.00000         7.00000
 04  8 25  1 26 30.0000000  0 10G15G 9G28G18G29G26G22G21G 3G19
 -20618341.73408 -16066238.87407  21127708.36300  21127707.90700  21127708.46100
       173.00000        86.00000
 -19266525.42308 -15012870.74808  21053205.91300  21053205.88700  21053206.45200
       232.00000       115.00000
  -1390014.27300  -1083126.99305  25322909.78000  25322910.19400  25322910.27300
          .00000         9.00000
 -22301249.49708 -17377594.63508  20429003.66500  20429003.28700  20429002.02500
       246.00000       264.00000
  -5619267.14107  -4378652.23806  23214175.25700  23214175.15600  23214176.83500
        32.00000        28.00000
 -11378329.94807  -8866233.05907  22124444.68800  22124444.82600  22124445.14300
        97.00000        52.00000
 -14977911.79708 -11671095.45707  22178868.68500  22178868.52800  22178866.16300
       126.00000        63.00000
 -25124195.55008 -19577296.28008  20716521.18300  20716520.90600  20716520.19500
       274.00000       144.00000
  -3404963.23805  -2653220.61906  24570884.73200  24570884.13500  24570887.13000
        10.00000        12.00000
   -634980.32805   -494788.49605  25131417.80400  25131418.20500  25131417.39600
         9.00000         6.00000
 04  8 25  1 27  0.0000000  0 10G15G 9G28G18G29G26G22G21G 3G19
 -20669679.51708 -16106242.32307  21117938.81600  21117938.44900  21117939.36100
       170.00000        88.00000
 -19334193.46208 -15065599.06008  21040329.43800  21040329.12500  21040329.78600
       232.00000       119.00000
  -1404778.49700  -1094631.55205  25320100.10200  25320099.66900  25320101.52000
          .00000        10.00000
 -22330624.62608 -17400484.33708  20423413.65900  20423413.29100  20423412.07100
       244.00000       261.00000
  -5529509.75406  -4308711.43506  23231255.72500  23231255.73300  23231257.10200
        29.00000        30.00000
 -11283495.09907  -8792335.80507  22142491.91700  22142491.59900  22142491.82700
        97.00000        55.00000
 -15052508.74308 -11729222.91407  22164672.33000  22164672.72400  22164670.84500
       124.00000        65.00000
 -25070592.97908 -19535528.07008  20726721.66400  20726721.39500  20726720.21100
       275.00000       140.00000
  -3374896.86206  -2629792.31005  24576606.48900  24576606.98300  24576607.87000
        14.00000        10.00000
   -673332.22805   -524673.11505  25124120.18300  25124118.97600  25124118.85100
         8.00000         6.00000
 04  8 25  1 27 30.0000000  0 10G15G 9G28G18G29G26G22G21G 3G19
 -20720453.22508 -16145806.24507  21108276.74200  21108276.60500  21108277.31900
       174.00000        91.00000
 -19401293.68808 -15117884.92508  21027560.21800  21027560.19100  21027560.43700
       232.00000       115.00000
  -1419046.61000  -1105749.59405  25317384.26800  25317383.95600  25317384.75400
          .00000         8.00000
 -22359644.50808 -17423097.23108  20417891.46400  20417891.09500  20417889.73200
       245.00000       261.00000
  -5439649.04406  -4238690.14806  23248355.95400  23248355.98300  23248357.14800
        30.00000        30.00000
 -11188462.44407  -8718284.42907  22160574.69100  22160575.33400  22160576.12500
        95.00000        57.00000
 -15126923.28908 -11787208.24407  22150512.24300  22150512.41000  22150510.44300
       127.00000        68.00000
 -25016426.02108 -19493320.07708  20737028.74700  20737028.53000  20737027.96800
       265.00000       139.00000
  -3344349.06206  -2605988.88006  24582420.52400  24582420.08800  24582422.26600
        19.00000        11.00000
   -711174.22205   -554160.42905  25116918.97800  25116917.80100  25116917.29700
        10.00000         5.00000
 04  8 25  1 28  0.0000000  0 10G15G 9G28G18G29G26G22G21G 3G19
 -20770683.09008 -16184946.38907  21098718.91000  21098718.29300  21098718.94000
       172.00000        89.00000
 -19467845.99908 -15169743.85208  21014895.54300  21014895.58900  21014896.49700
       225.00000       120.00000
  -1432840.24200  -1116497.83605  25314758.67900  25314760.14600  25314762.77100
          .00000         9.00000
 -22388330.14508 -17445449.67308  20412432.75300  20412432.29800  20412431.07000
       241.00000       263.00000
  -5349708.88507  -4168606.94006  23265472.04500  23265471.86500  23265471.90500
        32.00000        29.00000
 -11093256.19007  -8644097.78007  22178692.65400  22178692.84200  22178693.30500
        92.00000        57.00000
 -15201176.62208 -11845067.95707  22136383.01900  22136382.72800  22136380.41500
       131.00000        67.00000
 -24961718.37408 -19450690.77008  20747439.59600  20747439.51800  20747438.24900
       273.00000       131.00000
  -3313343.27506  -2581828.54905  24588320.55400  24588320.60100  24588322.32800
        16.00000        10.00000
   -748527.35405   -583266.77905  25109810.10000  25109809.63800  25109809.99700
        10.00000         4.00000
 04  8 25  1 28 30.0000000  0 10G15G 9G28G18G29G26G22G21G 3G19
 -20820342.64208 -16223642.14307  21089268.94200  21089268.41300  21089269.00200
       177.00000        91.00000
 -19533823.50908 -15221154.86808  21002340.18300  21002340.31200  21002341.35300
       221.00000       119.00000
  -1446133.83604  -1126856.50205  25312231.94600  25312232.45900  25312230.71100
         2.00000         8.00000
 -22416655.81408 -17467521.62408  20407042.52400  20407042.09300  20407041.04500
       239.00000       271.00000
  -5259665.98507  -4098443.68506  23282607.45000  23282607.07400  23282606.91600
        35.00000        29.00000
 -10997854.08107  -8569758.52007  22196846.85200  22196847.18400  22196847.75900
        86.00000        56.00000
 -15275243.15608 -11902782.11107  22122288.33600  22122288.18800  22122285.94300
       131.00000        69.00000
 -24906447.00908 -19407622.20608  20757957.58800  20757957.13300  20757956.18000
       262.00000       131.00000
  -3281856.74406  -2557293.61505  24594312.81800  24594312.28300  24594313.62900
        14.00000         9.00000
   -785365.99406   -611972.23905  25102800.56500  25102799.21800  25102799.78300
        13.00000         4.00000
 04  8 25  1 29  0.0000000  0 10G15G 9G28G18G29G26G22G21G 3G19
 -20869400.05808 -16261868.69807  21079933.47100  21079933.09500  21079933.76900
       191.00000        95.00000
 -19599194.33608 -15272093.15208  20989901.02700  20989900.66900  20989901.39100
       221.00000       117.00000
  -1458897.01404  -1136801.81005  25309802.84400  25309803.68400  25309803.54600
         2.00000         9.00000
 -22444590.94008 -17489289.24908  20401726.45500  20401726.20600  20401725.19700
       237.00000       277.00000
  -5169492.35707  -4028178.55306  23299766.49300  23299766.40100  23299766.38500
        39.00000        28.00000
 -10902228.69407  -8495245.27507  22215043.48800  22215044.01700  22215044.22300
        83.00000        52.00000
 -15349091.91108 -11960326.57207  22108235.51200  22108235.43800  22108233.11400
       138.00000        69.00000
 -24850583.79608 -19364092.45708  20768588.20700  20768587.63600  20768586.65700
       259.00000       129.00000
  -3249861.53005  -2532362.29905  24600399.58200  24600399.32300  24600401.60800
         9.00000         8.00000
   -821659.42806   -640252.83105  25095894.43800  25095893.06500  25095894.70900
        17.00000         4.00000
 04  8 25  1 29 30.0000000  0 10G15G 9G28G18G29G26G22G21G 3G19
 -20917963.68508 -16299710.48007  21070692.05300  21070691.73700  21070692.48900
       194.00000        99.00000
 -19664066.26108 -15322642.67808  20977556.37000  20977556.11900  20977556.77600
       223.00000       119.00000
  -1471239.16404  -1146419.04905  25307456.27200  25307456.53900  25307454.07400
         1.00000         9.00000
 -22472244.96208 -17510837.83008  20396464.00200  20396463.80000  20396462.78900
       235.00000       278.00000
  -5079299.67307  -3957898.58006  23316930.22800  23316929.90800  23316929.27800
        40.00000        25.00000
 -10806492.67607  -8420645.81107  22233262.23500  22233261.93400  22233262.50700
        79.00000        52.00000
 -15422832.11708 -12017786.45107  22094202.99000  22094202.94200  22094200.75800
       141.00000        69.00000
 -24794240.35708 -19320188.50108  20779310.05700  20779309.46800  20779308.47900
       260.00000       127.00000
  -3217469.86905  -2507122.07505  24606563.94600  24606563.65100  24606565.49100
         8.00000         8.00000
   -857516.80206   -668193.68305  25089071.26900  25089070.08300  25089070.53300
        21.00000         5.00000
 04  8 25  1 30  0.0000000  0 10G15G29G26G22G 9G28G19G18G21G 3
 -20965893.73608 -16337058.55907  21061571.38200  21061570.91900  21061571.61700
       193.00000        98.00000
  -4988951.62907  -3887497.54806  23334122.43800  23334122.11700  23334122.23600
        37.00000        25.00000
 -10710510.09307  -8345854.22907  22251526.88100  22251526.84200  22251527.50000
        81.00000        49.00000
 -15496325.05808 -12075053.65007  22080217.46800  22080217.56900  22080215.37200
       143.00000        69.00000
 -19728299.03508 -15372694.16208  20965332.76200  20965332.78400  20965333.64400
       220.00000       121.00000
  -1483021.74304  -1155600.29806  25305211.64700  25305212.54400  25305212.47400
         2.00000        11.00000
   -892799.19606   -695686.44805  25082357.34300  25082356.55800  25082355.94700
        24.00000         5.00000
 -22499479.02408 -17532059.16908  20391281.50900  20391281.30300  20391280.26000
       233.00000       279.00000
 -24737281.53508 -19275805.03308  20790148.58500  20790148.24300  20790147.26200
       260.00000       124.00000
  -3184545.75206  -2481466.95205  24612830.33800  24612829.88800  24612832.01400
        13.00000         9.00000
 04  8 25  1 30 30.0000000  0 10G15G29G26G22G 9G28G19G18G21G 3
 -21013257.66808 -16373965.51407  21052558.51600  21052558.07300  21052558.35700
       197.00000        97.00000
  -4898519.27807  -3817030.80406  23351329.99000  23351329.85800  23351330.74500
        32.00000        22.00000
 -10614352.86207  -8270926.56107  22269824.72100  22269824.84600  22269826.00300
        81.00000        50.00000
 -15569638.96908 -12132181.34607  22066266.10900  22066266.20700  22066264.11400
       140.00000        68.00000
 -19791960.07708 -15422300.15108  20953218.84300  20953218.74400  20953219.16500
       234.00000       120.00000
  -1494313.57405  -1164399.12906  25303063.14800  25303063.49600  25303063.89900
         4.00000        11.00000
   -927575.47506   -722784.84505  25075739.67700  25075738.18400  25075738.64200
        21.00000         5.00000
 -22526361.64508 -17553006.66308  20386166.00400  20386165.73400  20386164.63600
       233.00000       279.00000
 -24679778.07708 -19230997.18008  20801091.57300  20801091.13900  20801090.04100
       268.00000       126.00000
  -3151160.40906  -2455452.44205  24619182.02500  24619182.04900  24619183.46600
        13.00000         9.00000
 04  8 25  1 31  0.0000000  0 10G15G29G26G22G 9G28G19G18G21G 3
 -21060003.88308 -16410391.13007  21043662.57800  21043662.36600  21043662.91700
       200.00000        98.00000
  -4807954.56206  -3746460.92006  23368562.76300  23368563.39700  23368564.78300
        30.00000        23.00000
 -10517973.67507  -8195825.93307  22288165.69500  22288165.64700  22288166.24800
        84.00000        49.00000
 -15642723.11708 -12189130.01007  22052358.81800  22052358.86200  22052356.74800
       145.00000        70.00000
 -19854997.63608 -15471420.30708  20941223.32100  20941223.09600  20941223.60900
       236.00000       123.00000
  -1505064.38905  -1172776.39005  25301019.09800  25301018.35200  25301017.79600
         6.00000         9.00000
   -961795.06106   -749449.46805  25069227.90100  25069226.97400  25069226.18600
        20.00000         4.00000
 -22552842.25308 -17573640.89608  20381126.86000  20381126.61800  20381125.61600
       233.00000       284.00000
 -24621682.03008 -19185727.56108  20812146.62100  20812146.31500  20812145.51600
       269.00000       127.00000
  -3117266.23206  -2429041.46405  24625633.23400  24625632.96300  24625634.57100
        12.00000        10.00000
 04  8 25  1 31 30.0000000  0 10G15G29G26G22G 9G28G19G18G21G 3
 -21106217.71508 -16446401.90408  21034868.41600  21034868.15200  21034868.91300
       191.00000       101.00000
  -4717345.91706  -3675856.80006  23385804.60300  23385805.09900  23385806.89200
        26.00000        22.00000
 -10421461.81207  -8120621.91807  22306530.60500  22306530.95900  22306531.69400
        80.00000        47.00000
 -15715663.62208 -12245966.75507  22038478.87900  22038478.90800  22038476.51400
       149.00000        72.00000
 -19917496.67308 -15520120.83708  20929330.63500  20929330.24200  20929330.40000
       242.00000       122.00000
  -1515360.78505  -1180799.53905  25299058.88800  25299058.71600  25299059.24900
         6.00000         9.00000
   -995543.98806   -775747.32405  25062805.16900  25062804.65500  25062805.96200
        18.00000         4.00000
 -22579007.03308 -17594029.03308  20376148.01100  20376147.69100  20376146.58800
       234.00000       282.00000
 -24563082.47308 -19140065.60208  20823297.96600  20823297.53900  20823296.63700
       270.00000       127.00000
  -3082952.11005  -2402303.20805  24632162.56800  24632162.20400  24632164.47100
         8.00000        10.00000
 04  8 25  1 32  0.0000000  0 10G15G29G26G22G 9G28G19G18G21G 3
 -21151885.99308 -16481987.56708  21026178.32700  21026177.73200  21026178.62100
       186.00000       102.00000
  -4626683.52606  -3605210.81806  23403057.85800  23403058.39500  23403059.28900
        26.00000        23.00000
 -10324807.93607  -8045307.24607  22324923.48000  22324923.58400  22324924.36100
        78.00000        47.00000
 -15788447.80108 -12302681.67807  22024628.91200  22024628.63200  22024626.29200
       148.00000        74.00000
 -19979443.50808 -15568391.08008  20917542.28700  20917542.03300  20917542.39100
       248.00000       124.00000
  -1525190.60205  -1188459.14105  25297186.95800  25297187.26600  25297188.07100
         4.00000        10.00000
  -1028810.02606   -801668.94804  25056475.37500  25056473.80000  25056475.84500
        15.00000         3.00000
 -22604843.88408 -17614161.64108  20371231.43500  20371231.16300  20371229.86700
       235.00000       278.00000
 -24503969.65608 -19094003.70108  20834546.89100  20834546.52600  20834545.31500
       269.00000       124.00000
  -3048208.69605  -2375230.47905  24638773.55500  24638772.33100  24638776.11300
         4.00000        10.00000
 04  8 25  1 32 30.0000000  0 10G15G29G26G22G 9G28G19G18G21G 3
 -21196956.05608 -16517107.09407  21017601.66200  21017601.14200  21017601.80700
       189.00000        97.00000
  -4535917.97406  -3534484.46406  23420331.12800  23420331.27400  23420331.41400
        28.00000        24.00000
 -10227963.45107  -7969844.05607  22343352.66800  22343352.74200  22343353.22500
        79.00000        47.00000
 -15861023.84008 -12359234.40407  22010817.62600  22010817.65900  22010815.46700
       153.00000        75.00000
 -20040784.76408 -15616189.44708  20905869.17400  20905869.02000  20905869.35000
       249.00000       123.00000
  -1534502.33404  -1195715.05106  25295414.72600  25295414.18500  25295417.33600
         3.00000        11.00000
  -1061541.30106   -827173.80404  25050246.46500  25050245.70500  25050244.98100
        14.00000         3.00000
 -22630300.68308 -17633998.10608  20366387.26600  20366386.87800  20366385.61400
       232.00000       282.00000
 -24444294.55708 -19047503.66008  20845902.88300  20845902.33100  20845901.24800
       272.00000       126.00000
  -3012986.76005  -2347784.79805  24645476.79500  24645476.86500  24645479.22000
         5.00000         8.00000
 04  8 25  1 33  0.0000000  0 10G15G29G26G22G 9G28G19G18G21G 3
 -21241442.64608 -16551771.97107  21009136.07800  21009135.56700  21009136.16000
       183.00000        97.00000
  -4445067.55306  -3463691.99806  23437619.38000  23437619.49900  23437620.26400
        27.00000        25.00000
 -10130947.35407  -7894247.14507  22361814.21100  22361814.29400  22361814.38400
        81.00000        45.00000
 -15933407.36708 -12415637.12807  21997043.51500  21997043.61200  21997041.44800
       160.00000        76.00000
 -20101535.42308 -15663527.60308  20894308.84100  20894308.72600  20894308.95600
       254.00000       123.00000
  -1543312.20405  -1202579.91706  25293738.11600  25293737.93900  25293740.16200
         4.00000        11.00000
  -1093753.88205   -852274.48104  25044116.76600  25044114.77200  25044116.64400
         9.00000         3.00000
 -22655393.37008 -17653550.84908  20361612.04900  20361611.79400  20361610.73000
       228.00000       285.00000
 -24384076.18608 -19000580.28508  20857361.41600  20857361.23600  20857360.73600
       262.00000       125.00000
  -2977305.27104  -2319981.09205  24652267.04200  24652266.62500  24652268.09100
         3.00000         8.00000
 04  8 25  1 33 30.0000000  0 10G15G29G26G22G 9G28G19G18G21G 3
 -21285352.00308 -16585987.04508  21000780.12000  21000779.71400  21000780.65000
       176.00000       102.00000
  -4354141.81006  -3392840.81606  23454922.15700  23454922.43800  23454923.06600
        27.00000        25.00000
 -10033769.95007  -7818524.54007  22380307.01400  22380306.97600  22380306.99700
        85.00000        47.00000
 -16005605.47808 -12471895.37207  21983304.95100  21983304.83400  21983302.48500
       159.00000        76.00000
 -20161701.49208 -15710410.24208  20882859.13000  20882859.14600  20882859.81700
       250.00000       126.00000
  -1551627.65605  -1209059.49305  25292156.75400  25292156.27000  25292157.71400
         6.00000        10.00000
  -1125454.91205   -876976.61704  25038083.97500  25038083.13400  25038083.05600
         7.00000         2.00000
 -22680129.04208 -17672825.40008  20356905.05600  20356904.65800  20356903.83000
       224.00000       291.00000
 -24323324.02808 -18953240.97908  20868922.47800  20868922.09900  20868921.11500
       266.00000       119.00000
  -2941174.09005  -2291827.00305  24659142.27800  24659142.34800  24659143.24800
         5.00000         7.00000
 04  8 25  1 34  0.0000000  0 10G15G29G26G22G 9G28G19G18G21G 3
 -21328672.13608 -16619742.98808  20992537.01200  20992536.47000  20992537.21800
       182.00000       105.00000
  -4263131.89806  -3321924.07306  23472240.64000  23472240.57600  23472241.53500
        26.00000        25.00000
  -9936423.05807  -7742669.86307  22398830.98000  22398831.33100  22398831.96600
        84.00000        48.00000
 -16077606.68908 -12528000.19607  21969603.44000  21969603.36400  21969601.04600
       159.00000        78.00000
 -20221270.63608 -15756827.74408  20871523.71500  20871523.84000  20871524.04000
       259.00000       126.00000
  -1559438.01505  -1215145.46705  25290670.02600  25290670.07600  25290671.72900
         5.00000        10.00000
  -1156633.30605   -901271.44404  25032150.64100  25032149.58100  25032149.69600
         6.00000         3.00000
 -22704496.35908 -17691812.92108  20352268.19800  20352267.86300  20352266.80600
       226.00000       294.00000
 -24262029.68608 -18905479.18608  20880586.29200  20880585.92400  20880585.24100
       261.00000       117.00000
  -2904585.09705  -2263316.18805  24666105.49500  24666104.81000  24666106.28600
         4.00000         8.00000
 04  8 25  1 34 30.0000000  0 10G15G29G26G22G 9G28G19G18G21G 3
 -21371383.98808 -16653024.95108  20984409.19600  20984408.69600  20984409.51600
       184.00000       107.00000
  -4172022.24306  -3250929.58006  23489577.98000  23489577.55900  23489579.35300
        24.00000        25.00000
  -9838891.81107  -7666671.53507  22417390.73700  22417390.89500  22417391.77700
        83.00000        48.00000
 -16149392.71008 -12583937.33207  21955942.68400  21955942.67400  21955940.73100
       156.00000        79.00000
 -20280223.46508 -15802764.99808  20860305.48500  20860305.43400  20860305.56000
       261.00000       123.00000
  -1566725.48904  -1220823.99705  25289281.60900  25289282.98500  25289285.34100
         1.00000         8.00000
  -1187271.19905   -925145.14805  25026321.29200  25026320.25800  25026319.73300
         7.00000         4.00000
 -22728477.41208 -17710499.46308  20347704.49600  20347704.29600  20347703.32800
       228.00000       292.00000
 -24200177.99508 -18857283.09408  20892356.25100  20892355.97000  20892355.25700
       264.00000       116.00000
  -2867523.22005  -2234436.83805  24673156.41700  24673156.13600  24673158.37700
         6.00000         8.00000
 04  8 25  1 35  0.0000000  0 10G15G29G26G22G 9G28G19G18G21G 3
 -21413541.60208 -16685875.03908  20976386.55700  20976386.11300  20976387.04400
       179.00000       105.00000
  -4080869.96506  -3179901.87606  23506923.75300  23506923.42500  23506925.26700
        24.00000        25.00000
  -9741234.01007  -7590574.58507  22435974.53500  22435974.32400  22435975.50600
        77.00000        45.00000
 -16221018.16108 -12639749.34407  21942313.14300  21942312.99000  21942310.66200
       163.00000        76.00000
 -20338613.75308 -15848263.91108  20849194.53300  20849194.30500  20849194.57200
       261.00000       129.00000
  -1573545.34805  -1226138.16905  25287985.96100  25287986.04700  25287986.88700
         4.00000         9.00000
  -1217423.58705   -948640.56905  25020583.61500  25020582.66300  25020580.95900
         4.00000         4.00000
 -22752126.94008 -17728927.66908  20343204.35500  20343204.03600  20343202.96100
       225.00000       291.00000
 -24137826.68508 -18808697.69008  20904221.52800  20904221.10200  20904219.91400
       262.00000       109.00000
  -2830046.10305  -2205233.91205  24680288.87300  24680288.37200  24680289.60000
         9.00000         7.00000
 04  8 25  1 35 30.0000000  0 10G15G29G26G22G 9G28G19G18G21G 3
 -21455086.39908 -16718247.60708  20968480.75500  20968480.30400  20968481.48400
       185.00000       109.00000
  -3989619.36906  -3108797.54306  23524287.24200  23524287.28800  23524289.48700
        23.00000        23.00000
  -9643394.76207  -7514336.24507  22454592.35300  22454592.40400  22454593.27400
        74.00000        43.00000
 -16292424.91308 -12695390.95607  21928724.63700  21928724.66900  21928722.38400
       165.00000        76.00000
 -20396382.35508 -15893278.39008  20838201.40600  20838201.08500  20838201.31700
       260.00000       128.00000
  -1579840.08005  -1231043.10105  25286788.54700  25286788.76800  25286789.05700
         5.00000        10.00000
  -1247032.78304   -971712.70505  25014947.23000  25014948.25100  25014948.54700
         3.00000         4.00000
 -22775386.96808 -17747052.37108  20338777.95100  20338777.66000  20338776.65800
       222.00000       288.00000
 -24074920.74608 -18759680.10608  20916191.91000  20916191.55200  20916191.08800
       258.00000       113.00000
  -2792098.87605  -2175664.65905  24687509.44300  24687508.94400  24687511.40300
         6.00000         7.00000
 04  8 25  1 36  0.0000000  0 10G15G29G26G22G 9G28G19G18G21G 3
 -21496017.64608 -16750142.09208  20960692.11200  20960691.64500  20960692.28900
       193.00000       106.00000
  -3898273.14706  -3037618.71106  23541671.20500  23541670.58900  23541672.07200
        24.00000        22.00000
  -9545377.33007  -7437959.06307  22473244.45000  22473244.57400  22473245.29900
        70.00000        41.00000
 -16363613.10308 -12750862.25307  21915177.76000  21915177.83400  21915175.79100
       159.00000        80.00000
 -20453528.58208 -15937807.90508  20827326.33300  20827326.32500  20827326.91600
       257.00000       130.00000
  -1585610.12505  -1235539.21405  25285692.69100  25285691.32200  25285691.44600
         5.00000         9.00000
  -1276098.94404   -994361.68305  25009416.54000  25009417.01800  25009416.89900
         1.00000         4.00000
 -22798257.69908 -17764873.72308  20334426.09600  20334425.70400  20334424.48000
       223.00000       288.00000
 -24011463.09908 -18710232.61808  20928267.92300  20928267.50300  20928266.60000
       265.00000       110.00000
  -2753684.39806  -2145731.33005  24694821.31100  24694820.83500  24694822.02600
        14.00000         6.00000
 04  8 25  1 36 30.0000000  0 10G15G29G26G22G 9G28G19G18G21G 3
 -21536369.49808 -16781585.09708  20953013.55400  20953012.93200  20953013.39000
       195.00000       101.00000
  -3806868.50106  -2966394.37206  23559065.18600  23559065.11000  23559064.95200
        30.00000        21.00000
  -9447219.72407  -7361472.66207  22491923.48900  22491923.35600  22491924.00700
        70.00000        40.00000
 -16434617.17408 -12806190.08207  21901666.24900  21901666.27900  21901664.28800
       164.00000        81.00000
 -20510086.34708 -15981878.87808  20816564.15500  20816563.92000  20816564.32500
       261.00000       132.00000
  -1590891.26704  -1239654.35605  25284686.91700  25284685.66000  25284685.47900
         3.00000         8.00000
  -1304657.29905  -1016614.93505  25003983.52300  25003981.01200  25003979.83600
         5.00000         4.00000
 -22820774.20408 -17782419.05108  20330141.07100  20330140.79200  20330139.74400
       221.00000       286.00000
 -23947491.85608 -18660384.92608  20940441.08300  20940440.75400  20940439.65100
       257.00000       108.00000
  -2714840.98105  -2115463.76605  24702212.57500  24702211.84400  24702213.78800
         9.00000         8.00000
 04  8 25  1 37  0.0000000  0 10G15G29G26G22G 9G28G19G18G21G 3
 -21576129.78508 -16812567.13707  20945447.32500  20945446.79400  20945447.12700
       204.00000        99.00000
  -3715396.14106  -2895117.26006  23576471.54100  23576471.75000  23576472.14000
        29.00000        21.00000
  -9348913.52107  -7284870.46307  22510630.58000  22510630.83600  22510630.63900
        73.00000        37.00000
 -16505425.41708 -12861365.31907  21888192.15600  21888191.97300  21888189.73200
       163.00000        81.00000
 -20566042.71808 -16025481.23308  20805915.69300  20805915.54600  20805916.10800
       257.00000       133.00000
  -1595672.24404  -1243379.74405  25283773.79100  25283775.97600  25283775.96600
         1.00000         8.00000
  -1332696.37805  -1038463.59705  24998646.44200  24998646.31400  24998646.12000
         7.00000         5.00000
 -22842924.72508 -17799679.19308  20325926.22500  20325925.76600  20325924.56000
       217.00000       285.00000
 -23882997.92708 -18610129.95108  20952713.90200  20952713.62300  20952712.88500
       258.00000       112.00000
  -2675560.08105  -2084855.32405  24709686.02900  24709686.00600  24709689.78500
         5.00000         9.00000
 04  8 25  1 37 30.0000000  0 10G15G29G26G22G 9G28G19G18G21G 3
 -21615300.50508 -16843089.78508  20937993.81300  20937993.26000  20937993.52100
       216.00000       102.00000
  -3623861.52706  -2823791.63606  23593889.90100  23593889.74200  23593890.21900
        26.00000        19.00000
  -9250464.46607  -7208156.94907  22529364.99700  22529365.11000  22529365.50500
        74.00000        38.00000
 -16576040.64308 -12916390.15507  21874754.61200  21874754.42000  21874752.17300
       163.00000        81.00000
 -20621399.78708 -16068616.60408  20795381.25200  20795381.26500  20795382.06100
       252.00000       134.00000
  -1599956.48204  -1246718.09705  25282957.04100  25282956.41800  25282959.48800
         1.00000         7.00000
  -1360219.40705  -1059910.11805  24993410.11300  24993409.05100  24993409.04600
        10.00000         6.00000
 -22864712.33708 -17816656.55508  20321780.03400  20321779.68900  20321778.46500
       216.00000       286.00000
 -23817987.32808 -18559472.37308  20965085.24200  20965084.75100  20965083.94300
       253.00000       110.00000
  -2635847.48104  -2053910.49105  24717243.28300  24717243.38800  24717246.00000
         1.00000         8.00000
 04  8 25  1 38  0.0000000  0 10G15G29G26G22G 9G28G19G18G21G 3
 -21653852.51508 -16873130.31408  20930657.27800  20930656.83000  20930657.46400
       208.00000       104.00000
  -3532238.46206  -2752397.09006  23611325.78700  23611325.10500  23611326.29400
        26.00000        20.00000
  -9151847.26607  -7131312.41307  22548131.58900  22548131.26600  22548131.73700
        73.00000        38.00000
 -16646434.08708 -12971242.17307  21861359.13300  21861358.99800  21861356.66500
       164.00000        81.00000
 -20676128.09708 -16111262.02308  20784967.27100  20784967.09400  20784967.58100
       258.00000       134.00000
  -1603716.11305  -1249647.62005  25282243.27900  25282243.63700  25282245.26400
         4.00000         7.00000
  -1387198.26605  -1080932.64105  24988275.89800  24988274.50000  24988275.32500
         8.00000         7.00000
 -22886108.41908 -17833328.82608  20317708.43700  20317708.18400  20317707.04200
       219.00000       293.00000
 -23752434.65808 -18508392.39808  20977559.35000  20977559.01000  20977558.24100
       251.00000       110.00000
  -2595677.66900  -2022609.37105  24724885.40700  24724884.99500  24724887.81200
          .00000         7.00000
 04  8 25  1 38 30.0000000  0 10G15G29G26G22G 9G28G19G18G21G 3
 -21691807.69208 -16902705.77708  20923434.27200  20923433.86400  20923434.78000
       202.00000       102.00000
  -3440551.70806  -2680952.90306  23628771.82200  23628771.62600  23628772.84500
        20.00000        18.00000
  -9053087.52607  -7054356.81707  22566924.92800  22566924.70800  22566925.70300
        70.00000        39.00000
 -16716628.15808 -13025938.83507  21848001.35700  21848001.37800  21847998.95700
       161.00000        81.00000
 -20730249.35808 -16153434.42908  20774667.92700  20774667.85400  20774668.57000
       257.00000       134.00000
  -1606974.31405  -1252186.42305  25281624.26300  25281623.38900  25281623.81700
         4.00000         6.00000
  -1413656.00705  -1101549.04605  24983241.87500  24983240.06600  24983240.58900
        10.00000        10.00000
 -22907135.65908 -17849713.68708  20313707.07300  20313706.86400  20313705.77600
       222.00000       299.00000
 -23686365.46608 -18456909.94108  20990131.96800  20990131.60000  20990130.76600
       250.00000       111.00000
  -2555076.18804  -1990971.90905  24732612.55000  24732613.86000  24732615.17500
         2.00000         6.00000
 04  8 25  1 39  0.0000000  0 10G15G29G26G22G 9G28G19G18G21G 3
 -21729189.80408 -16931834.69607  20916321.17700  20916320.57500  20916320.97600
       207.00000        99.00000
  -3348827.92406  -2609479.86606  23646227.59800  23646227.13700  23646227.43100
        24.00000        18.00000
  -8954212.50407  -6977311.37707  22585739.67600  22585739.54100  22585740.63000
        64.00000        38.00000
 -16786646.60908 -13080498.64907  21834677.53200  21834677.32100  21834674.95200
       166.00000        79.00000
 -20783786.78008 -16195151.89108  20764480.99600  20764480.50900  20764480.76200
       265.00000       134.00000
  -1609755.79404  -1254353.75205  25281095.93700  25281093.09200  25281095.83300
         2.00000         8.00000
  -1439616.81506  -1121778.23805  24978301.02400  24978300.26000  24978300.70600
        11.00000        10.00000
 -22927818.49808 -17865830.18608  20309771.38700  20309771.07300  20309770.01700
       219.00000       302.00000
 -23619806.95208 -18405046.20408  21002797.78200  21002797.37000  21002796.65000
       246.00000       111.00000
  -2514070.49405  -1959019.48105  24740417.69100  24740417.66300  24740419.26500
         6.00000         7.00000
 04  8 25  1 39 30.0000000  0 10G15G29G26G22G 9G28G19G18G21G 3
 -21765955.34108 -16960483.16508  20909324.35700  20909324.01400  20909324.78800
       201.00000       102.00000
  -3257026.57806  -2537946.40506  23663696.51400  23663696.15800  23663696.99200
        24.00000        19.00000
  -8855182.41307  -6900145.10507  22604583.92700  22604584.25700  22604585.37300
        60.00000        39.00000
 -16856446.62808 -13134888.26307  21821394.82400  21821394.75200  21821392.58000
       167.00000        83.00000
 -20836696.64008 -16236380.33708  20754412.04100  20754411.77500  20754412.08900
       263.00000       132.00000
  -1612018.34404  -1256116.79105  25280664.06200  25280665.33400  25280665.52200
         3.00000         8.00000
  -1465038.44305  -1141587.31105  24973462.36700  24973461.29400  24973462.64600
         9.00000        10.00000
 -22948113.97508 -17881644.84008  20305909.15400  20305908.93900  20305907.88400
       218.00000       307.00000
 -23552719.45408 -18352770.27108  21015563.96400  21015563.56300  21015563.01600
       248.00000       111.00000
  -2472620.86406  -1926721.07105  24748306.39900  24748306.15400  24748306.83700
        15.00000         6.00000
 04  8 25  1 40  0.0000000  0 10G15G29G26G22G 9G28G19G18G21G 3
 -21802088.44908 -16988638.82508  20902448.65300  20902448.22700  20902448.94200
       200.00000       105.00000
  -3165135.04806  -2466342.67806  23681183.91300  23681183.29400  23681183.94000
        26.00000        20.00000
  -8755985.19707  -6822848.61007  22623461.07300  22623461.24900  22623461.77600
        58.00000        38.00000
 -16926013.21708 -13189095.97607  21808156.63300  21808156.69500  21808154.59800
       169.00000        83.00000
 -20888963.14508 -16277107.47408  20744465.78000  20744465.70800  20744466.31700
       266.00000       136.00000
  -1613747.88705  -1257464.47805  25280334.65400  25280335.21400  25280336.41800
         4.00000         7.00000
  -1489906.38605  -1160964.91805  24968731.91100  24968730.88700  24968730.61900
         9.00000        10.00000
 -22968006.95808 -17897145.86808  20302123.59400  20302123.37600  20302122.39800
       215.00000       306.00000
 -23485090.79408 -18300072.64908  21028433.16000  21028432.90300  21028432.21200
       243.00000       109.00000
  -2430715.56005  -1894067.65305  24756280.16800  24756279.33500  24756280.73600
         9.00000         6.00000
 04  8 25  1 40 30.0000000  0 10G15G29G26G22G 9G28G19G18G21G 3
 -21837622.72008 -17016327.86808  20895687.16600  20895686.63200  20895687.10600
       215.00000       107.00000
  -3073189.84406  -2394697.14506  23698680.52700  23698680.08000  23698680.12700
        24.00000        19.00000
  -8656658.14807  -6745450.94807  22642362.37900  22642362.76200  22642363.11500
        54.00000        38.00000
 -16995380.07308 -13243148.05507  21794956.95500  21794956.76200  21794954.33900
       175.00000        84.00000
 -20940619.47008 -16317359.14608  20734636.27700  20734636.23300  20734636.34500
       276.00000       135.00000
  -1614979.04605  -1258423.81205  25280102.16800  25280102.08300  25280101.32000
         7.00000         6.00000
  -1514255.05905  -1179937.92805  24964096.66200  24964096.10400  24964097.09400
         5.00000        10.00000
 -22987531.86308 -17912360.08108  20298408.31600  20298407.92500  20298406.94700
       208.00000       305.00000
 -23416958.28408 -18246982.41808  21041398.67200  21041398.23900  21041397.33400
       240.00000       103.00000
  -2388391.82205  -1861088.11905  24764332.95100  24764332.58700  24764336.41900
         4.00000         6.00000
 04  8 25  1 41  0.0000000  0 10G15G29G26G22G 9G28G19G18G21G 3
 -21872554.01008 -17043547.06108  20889039.81200  20889039.25900  20889039.77900
       208.00000       108.00000
  -2981189.45706  -2323008.60106  23716186.89100  23716186.58700  23716187.86300
        21.00000        20.00000
  -8557200.45407  -6667951.49407  22661289.29300  22661288.99400  22661289.18800
        54.00000        38.00000
 -17064543.34108 -13297041.49607  21781795.53000  21781795.50300  21781793.00300
       180.00000        88.00000
 -20991661.18708 -16357131.90108  20724922.97900  20724922.96200  20724923.33200
       274.00000       135.00000
  -1615708.77305  -1258992.36705  25279964.25800  25279963.51700  25279963.27000
         6.00000         6.00000
  -1538081.30105  -1198503.83006  24959561.97300  24959561.60300  24959563.54900
         5.00000        12.00000
 -23006685.12708 -17927284.70508  20294763.31400  20294763.09500  20294762.15800
       207.00000       305.00000
 -23348321.72608 -18193499.41508  21054459.65900  21054459.19100  21054458.65400
       234.00000       103.00000
  -2345649.09104  -1827782.14304  24772465.49800  24772464.99200  24772467.50300
         2.00000         3.00000
 04  8 25  1 41 30.0000000  0 10G15G29G26G22G 9G28G19G18G21G 3
 -21906869.51108 -17070286.41408  20882509.26600  20882508.81300  20882510.03800
       203.00000       115.00000
  -2889124.12706  -2251269.45306  23733705.69500  23733705.87500  23733707.40300
        18.00000        21.00000
  -8457602.86007  -6590343.04307  22680241.66300  22680241.60000  22680242.05300
        53.00000        36.00000
 -17133490.41108 -13350766.46807  21768675.33500  21768675.19800  21768672.70800
       182.00000        90.00000
 -21042075.27408 -16396415.59408  20715330.01400  20715329.74200  20715329.89900
       276.00000       138.00000
  -1615925.66404  -1259161.36005  25279920.85600  25279921.22100  25279921.25400
         3.00000         7.00000
  -1561373.17605  -1216653.33805  24955131.20000  24955130.39800  24955130.43000
         8.00000        10.00000
 -23025454.69208 -17941910.34108  20291191.78600  20291191.39600  20291190.38100
       208.00000       304.00000
 -23279171.49508 -18139616.15908  21067618.38500  21067618.21100  21067617.37500
       238.00000       101.00000
  -2302478.15504  -1794142.45105  24780681.12300  24780680.47100  24780682.92800
         2.00000         4.00000
 04  8 25  1 42  0.0000000  0 10G15G29G26G22G 9G28G19G18G21G 3
 -21940561.38908 -17096539.83108  20876098.47700  20876097.92300  20876098.78800
       214.00000       120.00000
  -2796988.65206  -2179475.63306  23751237.57000  23751238.24600  23751240.31500
        18.00000        20.00000
  -8357860.96907  -6512622.13007  22699221.60200  22699221.67400  22699222.63400
        54.00000        36.00000
 -17202213.63708 -13404317.00907  21755597.85000  21755597.56200  21755595.32000
       184.00000        93.00000
 -21091853.68508 -16435203.95008  20705856.88900  20705856.79400  20705857.32800
       267.00000       137.00000
  -1615623.01100  -1258925.58305  25279977.15700  25279976.48200  25279979.22800
          .00000         6.00000
  -1584123.74905  -1234381.04506  24950802.65100  24950801.86800  24950801.36700
         7.00000        11.00000
 -23043833.08008 -17956231.16908  20287694.64500  20287694.18500  20287693.07600
       207.00000       303.00000
 -23209503.31008 -18085329.29708  21080875.89300  21080875.47300  21080874.94600
       229.00000       101.00000
  -2258875.00805  -1760166.05005  24788979.72500  24788979.75500  24788982.02600
         8.00000         6.00000
 04  8 25  1 42 30.0000000  0 10G15G29G26G22G 9G28G19G18G21G 3
 -21973630.83208 -17122308.23208  20869805.06000  20869804.63100  20869805.87200
       204.00000       123.00000
  -2704786.98106  -2107630.22706  23768783.36200  23768783.79200  23768785.09600
        20.00000        18.00000
  -8257979.56307  -6434792.50107  22718228.04800  22718228.43600  22718229.44600
        54.00000        35.00000
 -17270714.51708 -13457694.30107  21742562.31300  21742562.27500  21742560.00800
       187.00000        91.00000
 -21140997.19208 -16473497.58508  20696505.52700  20696505.26600  20696505.67400
       270.00000       138.00000
  -1614803.31604  -1258286.89005  25280133.95700  25280134.42200  25280135.10700
         3.00000         7.00000
  -1606335.33004  -1251688.73206  24946575.49400  24946573.32100  24946575.22900
         3.00000        13.00000
 -23061821.97108 -17970248.49108  20284271.26600  20284270.91500  20284269.94600
       207.00000       308.00000
 -23139322.04608 -18030642.63607  21094230.42500  21094230.38300  21094229.93900
       227.00000       100.00000
  -2214844.49805  -1725856.57805  24797359.85900  24797359.34500  24797360.84400
         9.00000         6.00000
 04  8 25  1 43  0.0000000  0 11G15G29G26G22G 9G28G19G18G21G 3G14
 -22006062.60908 -17147579.74908  20863633.88700  20863633.28200  20863634.24600
       197.00000       120.00000
  -2612506.72606  -2035723.59306  23786345.01000  23786345.16700  23786345.56900
        22.00000        18.00000
  -8157946.75007  -6356844.90207  22737264.67700  22737264.47400  22737265.18000
        55.00000        34.00000
 -17338978.26408 -13510886.81607  21729571.86700  21729571.98700  21729569.78500
       187.00000        92.00000
 -21189490.38908 -16511284.48408  20687277.87200  20687277.68300  20687277.58000
       283.00000       139.00000
  -1613452.67705  -1257234.50505  25280392.18700  25280391.52200  25280393.71600
         4.00000         8.00000
  -1627993.70704  -1268565.35906  24942452.74500  24942452.65400  24942454.45300
         3.00000        12.00000
 -23079406.89008 -17983951.02808  20280925.06100  20280924.63800  20280923.77300
       207.00000       315.00000
 -23068616.34208 -17975547.31607  21107685.52800  21107685.30900  21107684.93600
       223.00000        98.00000
  -2170374.97006  -1691205.11305  24805823.57300  24805822.90200  24805822.82400
        17.00000         7.00000
    -32238.60004    -25121.27404  24157536.00600  24157534.51000  24157538.38100
         1.00000         2.00000
 04  8 25  1 43 30.0000000  0 11G15G29G26G22G 9G28G19G18G21G 3G14
 -22037896.17008 -17172385.12708  20857576.13400  20857575.65600  20857576.48500
       207.00000       118.00000
  -2520189.87506  -1963788.45806  23803913.24000  23803913.32500  23803912.57100
        23.00000        18.00000
  -8057805.32907  -6278812.67207  22756320.68900  22756320.60600  22756321.90800
        59.00000        35.00000
 -17407044.19508 -13563925.18207  21716619.74700  21716619.56000  21716617.20600
       188.00000        93.00000
 -21237372.31008 -16548595.05708  20678165.86600  20678165.82900  20678166.08500
       277.00000       142.00000
  -1611611.58705  -1255799.93205  25280742.51200  25280742.14900  25280742.69000
         5.00000         6.00000
  -1649139.24505  -1285042.35605  24938429.77500  24938427.88700  24938430.28600
         4.00000         8.00000
 -23096627.59808 -17997369.76909  20277647.86700  20277647.67100  20277646.86500
       206.00000       322.00000
 -22997429.11308 -17920076.77707  21121232.30000  21121231.97900  21121231.53600
       224.00000       100.00000
  -2125509.58305  -1656245.11205  24814358.28800  24814357.75100  24814361.06000
         7.00000         7.00000
   -128837.18204   -100392.79904  24139155.54500  24139155.12700  24139157.14800
         1.00000         3.00000
 04  8 25  1 44  0.0000000  0 11G15G29G26G22G 9G28G19G18G21G 3G14
 -22069131.87808 -17196724.64408  20851631.90800  20851631.42500  20851632.32400
       199.00000       116.00000
  -2427839.51006  -1891827.18806  23821486.76100  23821486.75800  23821486.22200
        23.00000        17.00000
  -7957559.14207  -6200698.80007  22775396.98000  22775397.22000  22775397.70700
        61.00000        34.00000
 -17474913.15208 -13616810.06707  21703704.47000  21703704.48600  21703702.13400
       192.00000        90.00000
 -21284643.31108 -16585429.59508  20669170.55600  20669170.50200  20669170.76000
       286.00000       145.00000
  -1609281.80305  -1253984.58405  25281184.20100  25281185.33900  25281187.35000
         4.00000         7.00000
  -1669773.27805  -1301120.84905  24934503.28500  24934502.83100  24934502.87100
         5.00000         6.00000
 -23113484.84008 -18010505.29109  20274440.29800  20274439.91000  20274439.02700
       205.00000       322.00000
 -22925764.25808 -17864234.06407  21134869.41700  21134869.06700  21134868.88400
       216.00000        99.00000
  -2080252.42205  -1620979.83305  24822970.09900  24822969.66900  24822971.88200
         8.00000         6.00000
   -225315.37400   -175570.54604  24120795.13700  24120795.43400  24120795.96900
          .00000         3.00000
 04  8 25  1 44 30.0000000  0 11G15G29G26G22G 9G28G19G18G21G 3G14
 -22099745.10708 -17220579.11408  20845806.45700  20845806.03500  20845806.85700
       212.00000       113.00000
  -2335433.71906  -1819822.75606  23839070.55100  23839070.57400  23839070.88700
        19.00000        17.00000
  -7857186.85407  -6122486.68607  22794497.37600  22794497.43900  22794498.33200
        62.00000        38.00000
 -17542560.43108 -13669522.21807  21690831.55600  21690831.52100  21690829.21400
       190.00000        90.00000
 -21331278.53208 -16621768.70908  20660296.00000  20660296.01200  20660296.37600
       278.00000       146.00000
  -1606439.79904  -1251770.07605  25281726.90600  25281725.17600  25281726.08600
         2.00000         4.00000
  -1689872.19205  -1316782.34905  24930678.20400  24930678.39900  24930678.02900
         9.00000         4.00000
 -23129954.68008 -18023338.94209  20271306.16600  20271305.75500  20271304.90300
       202.00000       321.00000
 -22853601.08808 -17808003.05507  21148602.22000  21148601.83200  21148601.06000
       228.00000        96.00000
  -2034582.50205  -1585392.90605  24831660.10500  24831659.68500  24831663.88400
         8.00000         9.00000
   -321649.00704   -250635.60204  24102463.82100  24102464.07300  24102464.44200
         2.00000         2.00000
 04  8 25  1 45  0.0000000  0 11G22G21G26G15G 9G28G19G18G14G29G 3
 -17609997.65708 -13722070.68907  21677999.10400  21677998.73400  21677996.42500
       187.00000        90.00000
 -22780954.30108 -17751395.20807  21162426.37100  21162425.86600  21162425.29500
       222.00000        93.00000
  -7756703.14807  -6044187.72707  22813618.61200  22813618.35400  22813619.67900
        55.00000        36.00000
 -22129747.13808 -17243957.32708  20840097.81800  20840097.38400  20840097.54000
       236.00000       112.00000
 -21377289.06108 -16657621.06108  20651540.72300  20651540.48200  20651540.85200
       274.00000       152.00000
  -1603098.09405  -1249166.22605  25282362.76900  25282361.86000  25282363.97300
         4.00000         6.00000
  -1709448.48805  -1332036.64705  24926954.46100  24926953.46500  24926951.31200
         9.00000         4.00000
 -23146049.16508 -18035880.10809  20268243.31300  20268243.11500  20268242.10200
       200.00000       319.00000
   -417850.05004   -325597.42604  24084157.56000  24084156.54400  24084157.26400
         1.00000         2.00000
  -2242986.53006  -1747786.04806  23856662.99300  23856663.07000  23856662.67600
        18.00000        15.00000
  -1988514.79305  -1549496.03905  24840426.57100  24840425.76800  24840429.33800
         9.00000         6.00000
 04  8 25  1 45 30.0000000  0 10G22G21G26G15G 9G28G19G18G29G 3
 -17677209.59508 -13774443.61707  21665208.81500  21665208.63000  21665206.33200
       186.00000        87.00000
 -22707812.19908 -17694401.38707  21176344.19500  21176344.14600  21176343.80300
       217.00000        94.00000
  -7656095.96407  -5965792.56807  22832762.95700  22832762.99600  22832764.61500
        54.00000        35.00000
 -22159122.64208 -17266847.33308  20834507.88600  20834507.21700  20834507.65800
       228.00000       116.00000
 -21422659.31908 -16692974.49008  20642907.17200  20642906.85700  20642907.30500
       272.00000       153.00000
  -1599242.76105  -1246162.15805  25283095.78400  25283095.96100  25283095.84700
         6.00000         5.00000
  -1728487.55905  -1346872.33805  24923329.45700  24923330.15300  24923328.46700
         5.00000         4.00000
 -23161753.00408 -18048116.87709  20265255.20900  20265254.86100  20265253.80700
       204.00000       318.00000
  -2150485.39606  -1675707.29906  23874264.48700  23874264.93000  23874265.77900
        18.00000        17.00000
  -1942037.60306  -1513280.08505  24849272.44600  24849272.06500  24849273.90200
        11.00000         8.00000
 04  8 25  1 46  0.0000000  0 11G22G21G26G15G 9G28G19G18G29G 3G14
 -17744160.74308 -13826613.33307  21652468.05700  21652468.13600  21652466.00500
       187.00000        88.00000
 -22634143.40908 -17636997.17607  21190363.40500  21190363.04500  21190362.53800
       226.00000        92.00000
  -7555333.15707  -5887276.14407  22851937.60600  22851937.92700  22851938.97700
        52.00000        32.00000
 -22187836.29208 -17289221.60608  20829043.77600  20829043.25000  20829043.68100
       233.00000       117.00000
 -21467353.51408 -16727801.12108  20634401.22100  20634401.37200  20634402.14500
       266.00000       150.00000
  -1594839.73705  -1242731.30405  25283933.56300  25283934.13200  25283933.54000
         8.00000         6.00000
  -1746955.04004  -1361262.56205  24919815.86400  24919814.72700  24919814.68900
         2.00000         5.00000
 -23177031.46308 -18060022.17509  20262347.69900  20262347.36000  20262346.36100
       201.00000       318.00000
  -2057897.28606  -1603560.79606  23891883.35900  23891883.13900  23891885.27500
        17.00000        18.00000
  -1895119.18505  -1476720.35205  24858200.62700  24858200.38200  24858202.59100
        10.00000         8.00000
         -.51614         -.85114  24047634.79600  24047635.74200  24047634.94900
         1.00000         2.00000
 04  8 25  1 46 30.0000000  0 11G22G21G26G15G 9G28G19G18G29G 3G14
 -17810889.68908 -13878609.89907  21639770.27200  21639770.08700  21639767.61400
       184.00000        86.00000
 -22559989.21708 -17579214.72007  21204474.50200  21204474.10700  21204473.65600
       220.00000        91.00000
  -7454456.40707  -5808670.94206  22871134.06400  22871134.42100  22871134.74700
        52.00000        30.00000
 -22215926.37708 -17311109.98308  20823698.16000  20823697.75200  20823698.38800
       232.00000       117.00000
 -21511409.82608 -16762130.70208  20626018.27600  20626018.05500  20626018.68200
       274.00000       154.00000
  -1589928.56205  -1238904.52005  25284868.76700  25284868.08700  25284870.27500
         5.00000         5.00000
  -1764890.52004  -1375238.25905  24916402.85100  24916402.35100  24916403.64300
         3.00000         8.00000
 -23191923.43808 -18071626.32009  20259513.85200  20259513.54900  20259512.53700
       203.00000       317.00000
  -1965263.36206  -1531378.57106  23909511.34400  23909510.94400  23909513.25700
        18.00000        18.00000
  -1847801.55105  -1439849.53805  24867205.54600  24867205.29500  24867206.69300
         8.00000         9.00000
    -95728.36800    -74593.89704  24029418.77200  24029417.66500  24029418.58900
          .00000         2.00000
 04  8 25  1 47  0.0000000  0 11G22G21G26G15G 9G28G19G18G29G 3G14
 -17877417.67808 -13930449.87907  21627110.10100  21627110.18000  21627107.69700
       186.00000        89.00000
 -22485374.74008 -17521073.60407  21218673.10800  21218672.87500  21218672.62300
       220.00000        92.00000
  -7353490.01807  -5729995.88006  22890347.68600  22890347.75200  22890348.10300
        51.00000        28.00000
 -22243414.20108 -17332529.06308  20818466.93100  20818466.67200  20818467.49600
       212.00000       113.00000
 -21554849.33208 -16795979.64708  20617752.06700  20617751.84400  20617752.30100
       280.00000       153.00000
  -1584531.75604  -1234699.27305  25285895.01100  25285894.87500  25285895.06800
         3.00000         4.00000
  -1782315.78304  -1388816.41705  24913087.02600  24913083.48400  24913088.41100
         1.00000        10.00000
 -23206450.16408 -18082945.85509  20256749.65300  20256749.33600  20256748.22200
       206.00000       318.00000
  -1872607.09706  -1459178.95006  23927143.16700  23927143.24800  23927145.48400
        20.00000        19.00000
  -1800109.63505  -1402687.09705  24876279.87300  24876279.53800  24876282.25600
         7.00000         8.00000
   -191334.41700   -149092.05904  24011223.44100  24011223.44500  24011225.30200
        -1.00000         2.00000
 04  8 25  1 47 30.0000000  0 11G22G21G26G15G 9G28G19G18G29G 3G14
 -17943718.01708 -13982112.46807  21614493.72500  21614493.65400  21614491.23700
       191.00000        91.00000
 -22410276.84708 -17462555.79207  21232963.94500  21232963.63900  21232962.85700
       221.00000        83.00000
  -7252410.56307  -5651232.72406  22909582.76000  22909582.60700  22909582.81200
        51.00000        27.00000
 -22270273.09608 -17353458.07608  20813356.26900  20813355.79500  20813356.44500
       213.00000       113.00000
 -21597645.22808 -16829327.08608  20609608.09600  20609607.93800  20609608.54900
       289.00000       155.00000
  -1578623.62004  -1230095.65404  25287018.81900  25287018.28400  25287020.63100
         2.00000         3.00000
  -1799205.80204  -1401977.45006  24909872.23100  24909872.01500  24909872.77500
         3.00000        12.00000
 -23220585.52208 -18093960.42709  20254059.56400  20254059.46700  20254058.40000
       206.00000       323.00000
  -1779904.29206  -1386943.03606  23944782.85400  23944782.57700  23944785.37500
        16.00000        17.00000
  -1752020.09205  -1365214.74805  24885431.10000  24885430.14000  24885434.26300
         5.00000        10.00000
   -286792.25700   -223474.76304  23993061.01800  23993064.27200  23993061.71400
          .00000         3.00000
 04  8 25  1 48  0.0000000  0 11G22G21G26G15G 9G28G19G18G29G 3G14
 -18009756.52508 -14033571.03007  21601926.71000  21601926.92000  21601924.37500
       194.00000        90.00000
 -22334665.20208 -17403637.65507  21247352.71000  21247352.12700  21247351.27400
       217.00000        83.00000
  -7151186.82907  -5572357.12206  22928844.86300  22928844.75200  22928845.06800
        51.00000        26.00000
 -22296468.78308 -17373870.30808  20808371.52100  20808371.10000  20808371.48400
       218.00000       112.00000
 -21639763.01008 -16862146.11708  20601593.50400  20601593.51800  20601593.73200
       297.00000       154.00000
  -1572171.47905  -1225068.08505  25288248.48000  25288249.11100  25288245.89600
         5.00000         4.00000
  -1815526.95204  -1414695.25506  24906767.12300  24906766.62400  24906767.45600
         3.00000        12.00000
 -23234295.72908 -18104643.71209  20251450.86900  20251450.52000  20251449.38900
       203.00000       322.00000
  -1687123.29706  -1314646.21806  23962439.30300  23962439.18000  23962441.62200
        17.00000        17.00000
  -1703502.63704  -1327408.91305  24894663.55100  24894663.05000  24894666.80100
         2.00000         9.00000
   -382068.46300   -297715.85104  23974932.44600  23974929.84700  23974932.16700
        -1.00000         3.00000
 04  8 25  1 48 30.0000000  0 11G22G21G26G15G 9G28G19G18G29G 3G14
 -18075600.07808 -14084877.68107  21589397.42000  21589397.35100  21589394.92200
       199.00000        93.00000
 -22258610.43508 -17344374.23007  21261825.13900  21261824.76800  21261824.15800
       211.00000        81.00000
  -7049889.12107  -5493423.87606  22948121.07900  22948121.18200  22948121.54400
        52.00000        24.00000
 -22322068.48208 -17393818.13508  20803499.93200  20803499.35800  20803499.92500
       206.00000       113.00000
 -21681269.55208 -16894488.85708  20593695.03300  20593694.73800  20593695.09200
       289.00000       153.00000
  -1565243.51705  -1219669.70404  25289565.75800  25289566.91000  25289566.71400
         5.00000         3.00000
  -1831347.11504  -1427022.64706  24903756.13300  24903755.75600  24903756.45600
         1.00000        12.00000
 -23247648.21808 -18115048.25509  20248909.62100  20248909.47600  20248908.44800
       199.00000       323.00000
  -1594333.71106  -1242342.69206  23980097.35900  23980097.42700  23980098.41900
        20.00000        16.00000
  -1654627.81305  -1289324.71605  24903964.75700  24903965.00900  24903967.49200
         7.00000         7.00000
   -477230.25300   -371867.86304  23956821.67100  23956818.95600  23956822.22700
        -1.00000         3.00000
 04  8 25  1 49  0.0000000  0 11G22G21G26G15G 9G28G19G18G29G 3G14
 -18141203.21608 -14135996.99307  21576913.15300  21576913.45500  21576911.18300
       200.00000        96.00000
 -22182070.00708 -17284732.37807  21276390.39300  21276389.87000  21276389.13800
       203.00000        77.00000
  -6948474.83207  -5414399.78406  22967419.41400  22967419.56800  22967419.75100
        52.00000        24.00000
 -22347026.69008 -17413266.09308  20798750.26500  20798749.82900  20798750.71100
       207.00000       117.00000
 -21722119.15008 -16926319.69408  20585921.40600  20585921.45800  20585921.75100
       294.00000       155.00000
  -1557795.49705  -1213866.09605  25290983.82700  25290984.05600  25290984.80900
         4.00000         4.00000
  -1846622.21905  -1438925.34706  24900851.29600  24900849.95600  24900849.23600
         9.00000        11.00000
 -23260597.84308 -18125138.87909  20246445.38200  20246445.17500  20246444.33200
       199.00000       325.00000
  -1501492.26606  -1169998.77806  23997765.93900  23997765.19500  23997765.31800
        20.00000        15.00000
  -1605353.77905  -1250929.43505  24913342.22300  24913341.83000  24913342.79800
        10.00000         7.00000
   -572232.77900   -445895.73505  23938740.44700  23938737.91700  23938744.46000
        -1.00000         4.00000
 04  8 25  1 49 30.0000000  0 11G22G21G26G15G 9G28G19G18G29G 3G14
 -18206554.21608 -14186919.83707  21564478.01700  21564477.71300  21564475.27700
       203.00000        95.00000
 -22105036.05308 -17224705.95007  21291049.36000  21291048.85500  21291048.56100
       204.00000        82.00000
  -6846935.67307  -5335278.38906  22986741.29300  22986741.48900  22986742.23700
        47.00000        24.00000
 -22371331.68308 -17432205.04808  20794125.04900  20794124.74500  20794125.81200
       213.00000       124.00000
 -21762300.05508 -16957629.47208  20578275.27100  20578275.11100  20578275.68100
       290.00000       157.00000
  -1549817.04404  -1207649.11705  25292501.94900  25292501.81900  25292500.94800
         2.00000         4.00000
  -1861341.30905  -1450394.76506  24898048.53200  24898048.57500  24898047.55300
         9.00000        11.00000
 -23273133.25308 -18134906.73709  20244060.09000  20244059.84500  20244058.95900
       198.00000       328.00000
  -1408589.97206  -1097607.44406  24015444.50000  24015444.47400  24015443.78000
        24.00000        14.00000
  -1555672.30305  -1212216.67705  24922795.57100  24922795.40000  24922797.75800
         7.00000         7.00000
   -667064.57000   -519790.59205  23920696.22000  23920696.29700  23920697.49000
          .00000         4.00000
 04  8 25  1 50  0.0000000  0 11G22G21G26G15G 9G28G19G18G29G 3G14
 -18271695.46908 -14237679.24607  21552081.65400  21552081.60400  21552079.09000
       200.00000        94.00000
 -22027554.83508 -17164331.00407  21305793.70200  21305793.26100  21305792.74700
       195.00000        78.00000
  -6745316.90607  -5256094.98106  23006079.43000  23006079.42000  23006079.38600
        47.00000        24.00000
 -22395025.91208 -17450668.08508  20789616.13100  20789615.79400  20789617.08300
       208.00000       127.00000
 -21801854.54008 -16988451.13108  20570748.34000  20570748.15000  20570748.61200
       290.00000       155.00000
  -1541351.80304  -1201052.88205  25294110.97000  25294112.51000  25294112.82600
         2.00000         4.00000
  -1875547.94105  -1461464.88906  24895344.99700  24895344.42500  24895346.55700
         9.00000        12.00000
 -23285297.36408 -18144385.26909  20241745.35800  20241745.08700  20241744.18300
       199.00000       330.00000
  -1315671.37106  -1025203.40706  24033125.33100  24033125.62300  24033125.84400
        23.00000        15.00000
  -1505629.50805  -1173222.37605  24932318.41800  24932317.36000  24932319.61400
        10.00000         5.00000
   -761768.45400   -593585.82805  23902676.76500  23902677.70700  23902674.70500
          .00000         5.00000
 04  8 25  1 50 30.0000000  0 11G22G21G26G15G 9G28G19G18G29G 3G14
 -18336626.58608 -14288274.90107  21539725.33800  21539725.52400  21539723.23300
       202.00000        97.00000
 -21949630.13008 -17103610.49507  21320622.34500  21320622.07100  21320621.36600
       198.00000        79.00000
  -6643621.36507  -5176851.74206  23025431.29800  23025431.19300  23025431.95000
        40.00000        26.00000
 -22418109.30408 -17468655.14208  20785224.34500  20785223.70700  20785224.27900
       223.00000       126.00000
 -21840782.30608 -17018784.43708  20563340.86400  20563340.67000  20563340.71200
       297.00000       156.00000
  -1532401.10104  -1194078.34004  25295813.99800  25295814.45000  25295814.78400
         2.00000         3.00000
  -1889243.14306  -1472136.48605  24892740.19500  24892738.80700  24892739.94700
        13.00000         8.00000
 -23297090.12808 -18153574.44309  20239501.56500  20239501.09900  20239500.11400
       197.00000       327.00000
  -1222738.77306   -952788.44706  24050809.99000  24050809.99200  24050810.29600
        21.00000        13.00000
  -1455228.93505  -1133949.21705  24941909.40000  24941909.05000  24941911.44300
        10.00000         7.00000
   -856344.83100   -667281.62005  23884677.21600  23884678.52600  23884677.88400
          .00000         5.00000
 04  8 25  1 51  0.0000000  0 11G22G21G26G15G 9G28G19G18G29G 3G14
 -18401262.27508 -14338640.36007  21527425.37400  21527425.73500  21527423.43200
       201.00000        96.00000
 -21871179.50408 -17042480.16907  21335550.69400  21335550.25600  21335550.16500
       182.00000        79.00000
  -6541767.00407  -5097484.76706  23044814.15400  23044813.88700  23044814.39900
        41.00000        28.00000
 -22440496.96308 -17486100.08308  20780964.05300  20780963.57100  20780964.15700
       231.00000       128.00000
 -21878998.14408 -17048562.99408  20556068.23000  20556068.11600  20556068.63500
       289.00000       157.00000
  -1522880.82804  -1186659.94904  25297629.00800  25297629.07100  25297628.68300
         3.00000         3.00000
  -1902342.71006  -1482343.98005  24890247.60600  24890246.49800  24890247.55400
        13.00000         8.00000
 -23308427.12708 -18162408.47309  20237344.13700  20237343.68300  20237342.63900
       194.00000       322.00000
  -1129709.51606   -880298.16306  24068513.72400  24068513.03000  24068512.80600
        18.00000        14.00000
  -1404388.95806  -1094333.74205  24951584.75400  24951584.38200  24951586.22300
        12.00000         5.00000
   -950708.87000   -740812.02705  23866718.00900  23866716.32500  23866721.95400
          .00000         4.00000
 04  8 25  1 51 30.0000000  0 11G22G21G26G15G 9G28G19G18G29G 3G14
 -18465665.49908 -14388824.67607  21515170.61700  21515170.45300  21515167.79600
       204.00000        97.00000
 -21792270.02408 -16980992.30507  21350567.07900  21350566.61400  21350566.14200
       189.00000        78.00000
  -6439819.93307  -5018045.53506  23064212.87400  23064213.20000  23064214.97800
        39.00000        29.00000
 -22462252.19908 -17503052.21508  20776823.87600  20776823.38400  20776824.37200
       226.00000       129.00000
 -21916564.90308 -17077835.77708  20548919.82100  20548919.66000  20548919.77300
       297.00000       156.00000
  -1512855.46105  -1178847.92705  25299533.85600  25299533.88000  25299534.25000
         4.00000         4.00000
  -1914910.73206  -1492137.29305  24887854.94000  24887854.65700  24887856.08900
        12.00000        10.00000
 -23319371.28008 -18170936.38909  20235261.36500  20235261.06700  20235260.12700
       195.00000       328.00000
  -1036648.81406   -807783.38906  24086220.78500  24086221.43100  24086222.30400
        18.00000        14.00000
  -1353176.26305  -1054427.80605  24961329.24300  24961329.85500  24961330.03900
         6.00000         4.00000
  -1044923.82404   -814226.19105  23848791.40400  23848792.22200  23848792.86700
         1.00000         5.00000
 04  8 25  1 52  0.0000000  0 11G22G21G26G15G 9G28G19G18G29G 3G14
 -18529828.47508 -14438821.78007  21502960.57100  21502960.47800  21502957.98700
       203.00000        96.00000
 -21712897.49708 -16919143.61407  21365670.55700  21365670.39600  21365670.24200
       182.00000        75.00000
  -6337775.28007  -4938530.27006  23083631.54100  23083631.35800  23083633.86400
        36.00000        30.00000
 -22483367.12008 -17519505.40408  20772806.05100  20772805.48500  20772806.13000
       235.00000       125.00000
 -21953474.90008 -17106596.79108  20541895.84100  20541895.79000  20541896.13100
       297.00000       158.00000
  -1502318.80004  -1170637.48704  25301540.29200  25301540.74400  25301539.04500
         2.00000         3.00000
  -1926940.64206  -1501511.25006  24885567.01100  24885565.50100  24885566.47700
        12.00000        12.00000
 -23329915.29808 -18179152.51509  20233254.92200  20233254.62200  20233253.79200
       194.00000       336.00000
   -943551.31206   -735239.94606  24103937.13100  24103937.11000  24103937.99400
        16.00000        15.00000
  -1301586.69505  -1014228.20205  24971146.72600  24971145.74300  24971148.17700
         7.00000         7.00000
  -1138982.43104   -887518.54705  23830896.54700  23830895.90300  23830892.59100
         1.00000         5.00000
 04  8 25  1 52 30.0000000  0 11G22G21G26G15G 9G28G19G18G29G 3G14
 -18593779.69208 -14488653.87807  21490791.11900  21490790.98800  21490788.53500
       205.00000        98.00000
 -21633094.46108 -16856959.47007  21380857.21000  21380856.73500  21380856.26700
       184.00000        75.00000
  -6235664.61107  -4858963.55006  23103062.46500  23103062.79600  23103064.84000
        40.00000        29.00000
 -22503870.57508 -17535482.12608  20768903.82500  20768903.51000  20768904.37900
       233.00000       122.00000
 -21989756.51108 -17134868.16508  20534991.98800  20534991.61200  20534992.07500
       295.00000       161.00000
  -1491300.56600  -1162051.80104  25303636.73100  25303636.07000  25303636.80800
          .00000         3.00000
  -1938462.02805  -1510488.99005  24883372.62000  24883372.54600  24883373.59000
         6.00000         8.00000
 -23340088.26008 -18187079.50409  20231319.24500  20231318.79800  20231317.93300
       193.00000       339.00000
   -850447.91206   -662691.89706  24121654.52900  24121654.52900  24121655.92800
        16.00000        16.00000
  -1249652.35606   -973759.93505  24981029.45600  24981029.33600  24981031.13500
        11.00000         7.00000
  -1232913.69204   -960711.65805  23813017.80200  23813017.97300  23813018.57400
         2.00000         5.00000
 04  8 25  1 53  0.0000000  0 11G22G21G26G15G 9G28G19G18G29G 3G14
 -18657473.30608 -14538285.25107  21478671.04400  21478670.66600  21478668.11300
       209.00000        99.00000
 -21552819.04108 -16794407.23607  21396132.96600  21396132.78100  21396132.57000
       188.00000        76.00000
  -6133445.44007  -4779312.29506  23122514.79800  23122514.79700  23122516.57200
        40.00000        28.00000
 -22523717.18708 -17550947.01708  20765127.12600  20765126.88100  20765127.83400
       231.00000       123.00000
 -22025364.23008 -17162614.42408  20528216.06900  20528215.74000  20528215.90600
       299.00000       162.00000
  -1479756.59404  -1153056.51805  25305834.10600  25305833.46500  25305833.06400
         1.00000         4.00000
  -1949430.73305  -1519036.06205  24881285.83500  24881284.24500  24881284.14800
         5.00000         7.00000
 -23349844.83008 -18194682.03009  20229462.61100  20229462.19500  20229461.37300
       191.00000       339.00000
   -757295.43406   -590105.61506  24139379.33000  24139380.48700  24139381.66200
        13.00000        16.00000
  -1197331.45105   -932990.46905  24990985.39600  24990984.80000  24990989.36300
         9.00000         6.00000
  -1326672.40104  -1033770.34205  23795176.40400  23795174.41000  23795178.06400
         3.00000         6.00000
 04  8 25  1 53 30.0000000  0 11G22G21G26G15G 9G28G19G18G29G 3G14
 -18720912.15208 -14587718.10108  21466598.29500  21466598.41400  21466596.14900
       214.00000       101.00000
 -21472077.86808 -16731492.07007  21411498.03500  21411497.48800  21411496.93900
       189.00000        71.00000
  -6031123.40807  -4699580.89406  23141986.24300  23141986.46300  23141987.61400
        45.00000        27.00000
 -22542909.95608 -17565902.41808  20761475.49700  20761474.93800  20761475.52500
       238.00000       125.00000
 -22060300.93208 -17189837.80908  20521567.27500  20521567.21900  20521567.85700
       291.00000       166.00000
  -1467691.34304  -1143655.05005  25308130.13000  25308130.26900  25308130.12300
         2.00000         4.00000
  -1959850.61105  -1527155.46905  24879303.36900  24879303.35400  24879301.02400
         9.00000         6.00000
 -23359188.50508 -18201962.81609  20227684.58400  20227684.12300  20227683.23200
       191.00000       335.00000
   -664099.13806   -517485.20206  24157114.49600  24157114.96200  24157116.87100
        12.00000        16.00000
  -1144630.56605   -891924.89105  25001013.51000  25001012.93400  25001017.78400
         4.00000         6.00000
  -1420261.88205  -1106697.13505  23777368.08800  23777367.87100  23777368.81400
         4.00000         5.00000
 04  8 25  1 54  0.0000000  0 11G22G21G26G15G 9G28G19G18G29G 3G14
 -18784086.70808 -14636945.01508  21454577.05400  21454576.84700  21454574.41700
       217.00000       106.00000
 -21390864.48308 -16668208.94707  21426951.14700  21426951.17300  21426951.14300
       176.00000        70.00000
  -5928692.45507  -4619764.61506  23161477.96700  23161478.22400  23161478.90900
        41.00000        24.00000
 -22561439.88408 -17580341.33208  20757949.39900  20757948.85200  20757949.24100
       232.00000       122.00000
 -22094557.45108 -17216531.18808  20515048.68600  20515048.54400  20515049.04600
       296.00000       167.00000
  -1455096.92805  -1133841.19705  25310527.14200  25310527.36900  25310526.86100
         4.00000         4.00000
  -1969713.61205  -1534840.93505  24877428.02800  24877426.00000  24877425.06500
         9.00000         8.00000
 -23368110.12508 -18208914.73609  20225986.47400  20225986.33200  20225985.51500
       191.00000       336.00000
   -570851.92405   -444825.07506  24174858.25000  24174858.65100  24174861.49200
         9.00000        15.00000
  -1091544.16904   -850558.93704  25011116.67800  25011116.76300  25011119.28100
         3.00000         3.00000
  -1513673.23205  -1179485.11505  23759590.55200  23759591.52600  23759592.01800
         5.00000         6.00000
 04  8 25  1 54 30.0000000  0 11G22G21G26G15G 9G28G19G18G29G 3G14
 -18847025.87008 -14685988.50008  21442599.42500  21442599.60500  21442597.64700
       216.00000       111.00000
 -21309212.11208 -16604583.76807  21442489.94300  21442489.56700  21442489.41800
       185.00000        71.00000
  -5826184.22307  -4539888.11706  23180984.55300  23180984.82000  23180985.37000
        39.00000        23.00000
 -22579335.96808 -17594286.33608  20754543.30600  20754542.92700  20754543.85500
       222.00000       122.00000
 -22128162.81408 -17242717.17908  20508653.87000  20508653.69600  20508654.09600
       296.00000       169.00000
  -1442003.66205  -1123638.59704  25313018.52200  25313018.31700  25313018.09400
         4.00000         3.00000
  -1979049.78805  -1542115.85306  24875650.43100  24875649.46000  24875649.53500
         5.00000        11.00000
 -23376639.15508 -18215560.74009  20224363.33400  20224363.23100  20224362.45000
       187.00000       334.00000
   -477585.01406   -372149.63306  24192608.16700  24192608.45600  24192608.64400
        12.00000        14.00000
  -1038104.85705   -808918.00704  25021287.01800  25021286.34200  25021287.37900
        10.00000         3.00000
  -1606935.70104  -1252157.09905  23741841.95700  23741843.89000  23741845.29900
         3.00000         6.00000
 04  8 25  1 55  0.0000000  0 11G22G21G26G15G 9G28G19G18G29G 3G14
 -18909732.96508 -14734851.14808  21430666.64900  21430666.90900  21430664.81800
       219.00000       114.00000
 -21227127.77108 -16540621.98507  21458109.88300  21458109.77900  21458109.08200
       183.00000        66.00000
  -5723605.29607  -4459956.53606  23200504.40900  23200504.77700  23200505.25600
        36.00000        21.00000
 -22596602.53308 -17607740.80308  20751257.65200  20751257.18800  20751258.23600
       224.00000       124.00000
 -22161120.72108 -17268398.65108  20502382.09900  20502381.90400  20502382.49300
       291.00000       171.00000
  -1428416.50304  -1113051.19104  25315604.47200  25315604.62000  25315603.88800
         1.00000         3.00000
  -1987864.13505  -1548984.22006  24873974.31700  24873973.29800  24873973.44400
        10.00000        12.00000
 -23384779.48408 -18221903.85809  20222814.53300  20222814.16900  20222813.43100
       187.00000       336.00000
   -384304.51306   -299463.58706  24210359.36700  24210359.29100  24210359.65300
        12.00000        16.00000
   -984319.77905   -767007.58205  25031522.51500  25031522.17600  25031521.79600
        10.00000         4.00000
  -1700053.45805  -1324716.33405  23724125.25700  23724124.18700  23724125.86000
         6.00000         8.00000
 04  8 25  1 55 30.0000000  0 11G22G21G26G15G 9G28G19G18G29G 3G14
 -18972227.84508 -14783548.43608  21418774.68500  21418774.63000  21418772.33000
       222.00000       112.00000
 -21144635.65108 -16476342.44607  21473807.76300  21473807.28900  21473807.13500
       178.00000        70.00000
  -5620978.42907  -4379987.60306  23220033.14100  23220033.73800  23220035.28800
        33.00000        24.00000
 -22613259.71508 -17620720.41908  20748087.74500  20748087.37300  20748088.38100
       219.00000       119.00000
 -22193451.13208 -17293591.17208  20496230.31200  20496229.81200  20496230.23500
       293.00000       171.00000
  -1414356.97400  -1102095.64804  25318279.75400  25318279.44500  25318278.86300
          .00000         2.00000
  -1996177.91205  -1555462.48406  24872391.26100  24872390.31500  24872391.71700
        10.00000        15.00000
 -23392551.10208 -18227959.67009  20221335.72500  20221335.44800  20221334.47600
       190.00000       330.00000
   -291032.33306   -226784.06506  24228107.95100  24228107.80600  24228109.34100
        13.00000        16.00000
   -930212.43205   -724846.11105  25041817.06400  25041817.43100  25041818.47300
         4.00000         6.00000
  -1793046.68905  -1397178.49305  23706429.37000  23706429.25200  23706428.36100
        10.00000         7.00000
 04  8 25  1 56  0.0000000  0 11G22G21G26G15G 9G28G19G18G29G 3G14
 -19034419.96108 -14832009.81308  21406939.63300  21406939.81800  21406937.46800
       222.00000       114.00000
 -21061648.68708 -16411677.32607  21489599.89900  21489599.40300  21489599.24400
       179.00000        69.00000
  -5518216.40407  -4299913.35206  23239588.89700  23239588.87900  23239589.59500
        36.00000        22.00000
 -22629217.16608 -17633154.80308  20745051.63000  20745051.00500  20745051.64200
       227.00000       117.00000
 -22225064.02608 -17318224.59008  20490213.77200  20490213.85200  20490214.49200
       292.00000       172.00000
  -1399736.08300  -1090702.77504  25321062.90400  25321063.68500  25321062.18800
          .00000         3.00000
  -2003901.84005  -1561481.15906  24870921.81600  24870920.33900  24870920.98300
         9.00000        11.00000
 -23399864.48008 -18233658.41309  20219944.07100  20219943.76600  20219942.69700
       192.00000       327.00000
   -197680.50606   -154042.44806  24245872.17900  24245872.33400  24245873.46000
        12.00000        15.00000
   -875696.62304   -682366.32905  25052190.69400  25052189.90200  25052193.61200
         2.00000         4.00000
  -1885825.49005  -1469473.57405  23688773.17900  23688772.60900  23688773.95500
         8.00000         7.00000
 04  8 25  1 56 30.0000000  0 11G22G21G26G15G 9G28G19G18G29G 3G14
 -19096351.91008 -14880268.45608  21395154.58600  21395154.55800  21395152.36100
       222.00000       115.00000
 -20978213.47508 -16346662.91607  21505477.03500  21505476.74500  21505475.97700
       178.00000        65.00000
  -5415364.69007  -4219769.19506  23259161.24100  23259161.47100  23259162.34400
        39.00000        24.00000
 -22644518.09308 -17645077.61308  20742140.10000  20742139.65300  20742140.01400
       238.00000       117.00000
 -22256002.28708 -17342332.32008  20484326.96300  20484326.71000  20484327.10400
       298.00000       174.00000
  -1384598.34804  -1078907.13204  25323941.72500  25323940.98300  25323943.37300
         1.00000         3.00000
  -2011080.05005  -1567074.59005  24869554.83100  24869554.21000  24869554.58000
         7.00000        10.00000
 -23406762.54508 -18239033.54209  20218631.24200  20218631.08100  20218630.08500
       192.00000       326.00000
   -104294.21306    -81273.98806  24263643.89700  24263643.29500  24263644.99500
        13.00000        17.00000
   -820818.59904   -639604.26305  25062633.05900  25062633.33200  25062634.86300
         1.00000         4.00000
  -1978433.11405  -1541635.23505  23671149.26700  23671149.89800  23671151.04800
         8.00000         8.00000
 04  8 25  1 57  0.0000000  0 11G22G21G26G15G 9G28G19G18G29G 3G14
 -19158042.15008 -14928338.75108  21383415.44100  21383415.38300  21383413.16200
       228.00000       114.00000
 -20894352.71408 -16281316.91607  21521435.06300  21521434.65000  21521434.81100
       165.00000        72.00000
  -5312444.80707  -4139571.95806  23278745.55100  23278746.37200  23278747.52700
        39.00000        24.00000
 -22659181.51508 -17656503.66308  20739349.55300  20739349.07800  20739349.72500
       226.00000       116.00000
 -22286284.74308 -17365929.02808  20478564.17200  20478564.07700  20478564.71700
       296.00000       175.00000
  -1368963.88104  -1066724.39505  25326917.97700  25326918.03700  25326918.77000
         2.00000         4.00000
  -2017732.43505  -1572258.29505  24868289.81800  24868287.70500  24868287.20500
         6.00000         8.00000
 -23413264.26008 -18244099.82009  20217394.23900  20217393.99500  20217392.98200
       193.00000       332.00000
    -10893.99006     -8494.66806  24281416.73500  24281416.90300  24281418.87000
        13.00000        15.00000
   -765600.54604   -596577.32405  25073141.71600  25073141.04600  25073144.29400
         2.00000         5.00000
  -2070888.55805  -1613678.35705  23653556.10300  23653555.36500  23653557.64000
        10.00000         7.00000
 04  8 25  1 57 30.0000000  0 11G22G21G26G15G 9G28G19G18G29G 3G14
 -19219473.55308 -14976207.36608  21371725.76900  21371725.48200  21371723.02300
       234.00000       116.00000
 -20810052.46408 -16215628.46707  21537476.69400  21537476.70600  21537476.11600
       167.00000        65.00000
  -5209442.76107  -4059310.67606  23298347.03800  23298346.98900  23298348.65300
        38.00000        26.00000
 -22673191.13608 -17667420.25308  20736683.75900  20736683.04400  20736683.61400
       223.00000       115.00000
 -22315894.66108 -17389001.68408  20472929.75700  20472929.47900  20472929.86100
       294.00000       172.00000
  -1352817.27804  -1054142.62704  25329990.79000  25329989.24100  25329990.90700
         2.00000         3.00000
  -2023843.52805  -1577020.16105  24867126.59300  24867125.46000  24867124.88800
        10.00000         7.00000
 -23419353.21908 -18248844.47409  20216235.44400  20216235.32600  20216234.38300
       197.00000       337.00000
     82534.44606     64306.65306  24299195.54300  24299195.67800  24299197.46600
        15.00000        14.00000
   -710029.34604   -553275.18605  25083716.42900  25083714.69800  25083719.33700
         1.00000         5.00000
  -2163175.13406  -1685589.86505  23635993.87600  23635994.07300  23635994.01500
        11.00000         5.00000
 04  8 25  1 58  0.0000000  0 11G22G21G26G15G 9G28G19G18G29G 3G14
 -19280678.54808 -15023899.55608  21360078.45800  21360078.40600  21360076.08200
       236.00000       117.00000
 -20725349.44608 -16149626.15907  21553595.65300  21553594.96800  21553594.89300
       151.00000        64.00000
  -5106393.83107  -3979012.86206  23317956.26400  23317956.69800  23317958.16000
        36.00000        26.00000
 -22686579.85208 -17677853.03108  20734136.00700  20734135.44400  20734135.97800
       229.00000       117.00000
 -22344864.69008 -17411575.72608  20467416.77100  20467416.59900  20467416.83800
       293.00000       168.00000
  -1336192.58800  -1041188.29204  25333153.05200  25333153.51500  25333153.27900
          .00000         2.00000
  -2029447.12406  -1581386.61705  24866061.05000  24866060.13500  24866059.27200
        11.00000         7.00000
 -23425062.47208 -18253293.25309  20215149.13400  20215148.89400  20215147.85200
       194.00000       336.00000
    175956.56606    137103.02806  24316972.13700  24316972.91500  24316974.87000
        13.00000        12.00000
   -654141.41904   -509726.14205  25094352.37600  25094351.46000  25094354.15000
         1.00000         5.00000
  -2255325.74106  -1757395.48605  23618457.54500  23618457.73400  23618459.00700
        11.00000         6.00000
