     2.10           OBSERVATION DATA    G (GPS)             RINEX VERSION / TYPE
teqc  2002Mar14     gpsodc(auto)        20040824 01:11:05UTCPGM / RUN BY / DATE
OBSERVATION MODE: IGS-Net                                   COMMENT
ULAB Ulaanbataar (ULAB)                                     MARKER NAME
24201M001                                                   MARKER NUMBER
287-U               AOA SNR-8000 ACT     3.30               REC # / TYPE / VERS
340-U               AOAD/M_T        NONE                    ANT # / TYPE
        0.0460        0.0000        0.0000                  ANTENNA: DELTA H/E/N
  -1257408.5223  4099404.3482  4707992.6225                 APPROX POSITION XYZ
  107.05232506  47.86506789  1575.5238  LonLatAlt  S/W      COMMENT
unknown             IVTAN                                   OBSERVER / AGENCY
     1     1                                                WAVELENGTH FACT L1/2
     7    L1    L2    C1    P1    P2    S1    S2            # / TYPES OF OBSERV
    30.0000                                                 INTERVAL
Linux 2.0.36|Pentium II|gcc -static|Linux|486/DX+           COMMENT
bx2rxo      unknown * Tue Aug 24 02:31:45 2004              COMMENT
  2004     8    24     0     0    0.0000000     GPS         TIME OF FIRST OBS
  2004     8    24    23    59   30.0000000     GPS         TIME OF LAST OBS
                                                            END OF HEADER
 04  8 24  0  0  0.0000000  0 10G15G 9G 6G29G18G 8G17G10G26G21
  -1925821.38505  -1500639.72105  24169906.03800  24169905.05600  24169907.22200
         8.00000         6.00000
   -277634.22505   -216338.22304  24579306.91500  24579306.80700  24579307.36400
         4.00000         3.00000
 -10208816.76806  -7954928.90806  23379153.51500  23379153.24500  23379155.26500
        30.00000        13.00000
 -18517087.24708 -14428896.44108  20760698.85800  20760698.45300  20760698.01800
       234.00000       175.00000
 -12087612.29008  -9418917.14206  22339338.67600  22339338.13400  22339336.91500
       115.00000        31.00000
  -7016441.79006  -5467354.11005  24105938.05500  24105937.22200  24105939.04000
        21.00000         7.00000
  -6407046.35306  -4992509.03706  23213851.77400  23213851.31600  23213853.76600
        24.00000        17.00000
  -6877253.48807  -5358901.18906  22952653.81000  22952653.34200  22952655.26900
        54.00000        31.00000
 -22730768.75309 -17712284.65008  19918834.05600  19918833.88900  19918833.24700
       341.00000       234.00000
 -25140627.23908 -19590098.01608  20716358.92800  20716358.33600  20716356.76500
       259.00000       139.00000
 04  8 24  0  0 30.0000000  0 10G15G 9G 6G29G18G 8G17G10G26G21
  -2036172.59705  -1586627.68005  24148906.05600  24148906.36600  24148907.80100
         6.00000         8.00000
   -396635.11005   -309066.16204  24556661.53000  24556660.55300  24556661.66400
         7.00000         3.00000
 -10118260.18606  -7884365.39305  23396386.20700  23396385.77100  23396386.89500
        24.00000         8.00000
 -18474568.49408 -14395764.95708  20768789.73800  20768789.43400  20768788.91900
       235.00000       168.00000
 -12163460.58908  -9478019.68207  22324905.76700  22324905.08300  22324903.38100
       117.00000        32.00000
  -6963857.40306  -5426379.29005  24115943.30500  24115943.25900  24115945.56200
        22.00000         7.00000
  -6302955.30906  -4911399.22506  23233660.55300  23233659.84400  23233662.71600
        23.00000        22.00000
  -6791962.17807  -5292440.49606  22968885.03900  22968883.95400  22968885.39900
        53.00000        28.00000
 -22710149.32809 -17696217.57208  19922757.77500  19922757.61500  19922757.03200
       338.00000       231.00000
 -25190629.94408 -19629061.16508  20706843.70900  20706843.25100  20706841.69800
       262.00000       143.00000
 04  8 24  0  1  0.0000000  0 11G15G 9G 6G29G18G 8G17G10G26G21G 3
  -2146403.23805  -1672521.65905  24127930.77000  24127930.33900  24127931.60900
        10.00000        10.00000
   -515616.91505   -401779.21905  24534019.46100  24534019.38800  24534020.41300
         8.00000         5.00000
 -10027477.33406  -7813625.57206  23413662.56300  23413662.31600  23413663.87000
        26.00000        11.00000
 -18431589.00808 -14362274.46608  20776967.49300  20776968.02300  20776967.57000
       237.00000       165.00000
 -12239109.47708  -9536966.83707  22310509.50800  22310509.15600  22310508.16800
       114.00000        35.00000
  -6910722.37706  -5384975.40205  24126055.12100  24126054.78700  24126056.42200
        20.00000         8.00000
  -6198590.62006  -4830076.15906  23253520.68200  23253520.35200  23253521.75800
        30.00000        16.00000
  -6706518.58807  -5225861.13806  22985144.89500  22985144.08200  22985144.80600
        59.00000        29.00000
 -22688897.97409 -17679658.07808  19926801.52700  19926801.50800  19926801.06400
       337.00000       232.00000
 -25240138.69408 -19667639.42208  20697422.89000  20697422.28400  20697420.51000
       276.00000       144.00000
    -41457.77600    -32304.21804  25144545.87300  25144549.73100  25144547.55200
          .00000         2.00000
 04  8 24  0  1 30.0000000  0 10G15G 9G 6G29G18G 8G17G10G26G21
  -2256586.74705  -1758378.93405  24106962.48100  24106962.27500  24106963.76800
         8.00000         7.00000
   -634651.88705   -494533.70105  24511366.84300  24511367.13600  24511370.03100
         8.00000         6.00000
  -9936546.74406  -7742770.65805  23430964.82100  23430964.34500  23430966.83300
        18.00000         8.00000
 -18388226.09108 -14328485.19608  20785220.17600  20785219.97300  20785219.26700
       241.00000       166.00000
 -12314633.76808  -9595816.92207  22296137.91600  22296137.43700  22296136.32900
       119.00000        37.00000
  -6857114.43606  -5343203.01905  24136257.55600  24136255.99600  24136258.23100
        17.00000         7.00000
  -6094029.59706  -4748600.11005  23273417.72700  23273417.13800  23273417.86600
        26.00000        10.00000
  -6620998.97507  -5159222.54406  23001417.61500  23001417.31100  23001418.80000
        56.00000        29.00000
 -22667091.74309 -17662666.21208  19930951.41700  19930951.28700  19930950.63300
       338.00000       231.00000
 -25289226.47808 -19705889.65608  20688081.71000  20688081.11900  20688079.28000
       272.00000       146.00000
 04  8 24  0  2  0.0000000  0 11G15G 9G 6G29G18G 8G17G10G26G21G 3
  -2366609.02906  -1844110.58505  24086026.52200  24086026.44400  24086027.28700
        13.00000         8.00000
   -753625.20505   -587240.15205  24488728.40700  24488728.88800  24488730.23300
        10.00000         6.00000
  -9845359.46606  -7671715.69005  23448317.27000  23448316.77000  23448319.04100
        18.00000         6.00000
 -18344369.71408 -14294311.40408  20793566.39300  20793565.76300  20793565.07800
       239.00000       170.00000
 -12389920.93408  -9654482.22907  22281810.01200  22281810.41200  22281809.93900
       113.00000        38.00000
  -6802923.15506  -5300976.09805  24146567.67300  24146568.14700  24146569.98100
        17.00000         6.00000
  -5989162.14706  -4666885.25206  23293373.35500  23293372.49600  23293374.87200
        20.00000        16.00000
  -6535292.40307  -5092438.27806  23017727.00600  23017726.26800  23017728.60400
        51.00000        31.00000
 -22644620.34109 -17645156.02808  19935227.44900  19935227.35300  19935226.85200
       339.00000       232.00000
 -25337779.66708 -19743723.31208  20678841.80200  20678841.39000  20678839.88100
       262.00000       145.00000
         -.74110         -.66714  25121098.80100  25121097.53200  25121097.17100
        -1.00000         3.00000
 04  8 24  0  2 30.0000000  0 10G15G 9G 6G29G18G 8G17G10G26G21
  -2476548.79506  -1929777.93305  24065105.85200  24065105.57700  24065106.59700
        15.00000         9.00000
   -872615.13406   -679959.55105  24466087.06400  24466086.01400  24466087.32500
        11.00000         5.00000
  -9753999.67206  -7600526.28505  23465702.81900  23465703.09200  23465703.21800
        21.00000         7.00000
 -18300102.74808 -14259817.67408  20801990.00400  20801989.52200  20801988.84800
       232.00000       170.00000
 -12465051.10908  -9713025.21307  22267513.42300  22267513.35900  22267512.78100
       107.00000        38.00000
  -6748231.62906  -5258359.34505  24156976.32700  24156975.65900  24156977.98800
        19.00000         6.00000
  -5884071.16906  -4584996.28606  23313372.07800  23313371.58100  23313373.29700
        26.00000        17.00000
  -6449480.65707  -5025572.03206  23034057.18600  23034056.37000  23034058.11000
        52.00000        29.00000
 -22621566.44009 -17627191.94808  19939614.39900  19939614.28600  19939613.72600
       332.00000       229.00000
 -25385877.28608 -19781201.98008  20669689.74400  20669688.98700  20669687.23200
       265.00000       147.00000
 04  8 24  0  3  0.0000000  0 10G15G 9G 6G29G18G 8G17G10G26G21
  -2586411.54706  -2015385.28505  24044199.71700  24044199.54700  24044200.90000
        17.00000         9.00000
   -991626.35305   -772695.55305  24443438.68600  24443438.58400  24443439.94900
         9.00000         5.00000
  -9662477.73106  -7529210.58905  23483120.20200  23483119.10400  23483120.63500
        12.00000        10.00000
 -18255434.68608 -14225011.40308  20810489.28700  20810489.14300  20810488.92400
       232.00000       170.00000
 -12540031.25808  -9771451.29207  22253245.24300  22253245.15300  22253244.45500
       113.00000        36.00000
  -6693048.92406  -5215359.86105  24167477.11800  24167476.65000  24167479.40100
        18.00000         6.00000
  -5778766.13306  -4502940.48206  23333411.24200  23333410.11200  23333412.38700
        22.00000        18.00000
  -6363572.22007  -4958630.46806  23050405.91700  23050405.18000  23050405.55000
        58.00000        28.00000
 -22597939.22709 -17608781.13708  19944110.59000  19944110.42200  19944109.81100
       334.00000       228.00000
 -25433524.74108 -19818329.87808  20660622.69400  20660622.00700  20660620.29200
       272.00000       149.00000
 04  8 24  0  3 30.0000000  0 10G15G 9G 6G29G18G 8G17G10G26G21
  -2696159.57906  -2100903.23305  24023315.69200  24023315.47300  24023316.60900
        16.00000        10.00000
  -1110620.42506   -865418.19405  24420794.11700  24420793.49300  24420796.03100
        11.00000         5.00000
  -9570761.48406  -7457743.47405  23500570.98900  23500571.00200  23500574.00900
        11.00000        10.00000
 -18210332.08908 -14189866.54008  20819071.80700  20819071.91000  20819071.58200
       241.00000       167.00000
 -12614825.05208  -9829732.16007  22239013.00200  22239012.61900  22239011.96400
       119.00000        37.00000
  -6637341.62606  -5171951.59905  24178078.04400  24178077.51200  24178079.61500
        15.00000         5.00000
  -5673213.39306  -4420691.64505  23353493.95000  23353494.81000  23353496.83900
        17.00000         9.00000
  -6277532.21607  -4891586.36506  23066777.68500  23066776.85600  23066778.67700
        48.00000        28.00000
 -22573704.82109 -17589897.18708  19948722.10900  19948722.16700  19948721.54200
       339.00000       228.00000
 -25480684.59108 -19855077.81808  20651647.85900  20651647.40600  20651646.07000
       259.00000       150.00000
 04  8 24  0  4  0.0000000  0 11G15G 9G 6G29G18G 8G17G10G26G21G22
  -2805837.95106  -2186366.87805  24002444.48400  24002444.35900  24002445.60400
        17.00000        10.00000
  -1229641.61306   -958161.98805  24398144.78000  24398144.96000  24398146.72800
        11.00000         4.00000
  -9478900.92106  -7386163.86905  23518052.01500  23518051.67700  23518054.15100
        13.00000         8.00000
 -18164844.03408 -14154421.31508  20827728.31900  20827728.24600  20827727.56400
       242.00000       164.00000
 -12689479.11908  -9887904.14407  22224807.23000  22224806.56900  22224805.19000
       122.00000        36.00000
  -6581159.17806  -5128173.09605  24188770.55700  24188769.20700  24188771.49300
        13.00000         6.00000
  -5567462.12906  -4338288.11806  23373620.26200  23373619.14500  23373621.94600
        19.00000        13.00000
  -6191408.77107  -4824477.24706  23083166.48600  23083165.86100  23083167.85900
        49.00000        27.00000
 -22548912.16909 -17570578.23608  19953440.33500  19953440.04300  19953439.45800
       328.00000       229.00000
 -25527402.34808 -19891481.26208  20642758.02500  20642757.37100  20642756.04000
       255.00000       153.00000
         -.96814         -.02214  24985330.26700  24985329.91000  24985328.72900
         1.00000         1.00000
 04  8 24  0  4 30.0000000  0 11G15G 9G 6G29G18G 8G17G10G26G21G 3
  -2915386.02906  -2271728.99906  23981598.15100  23981597.46100  23981599.26600
        15.00000        11.00000
  -1348628.52506  -1050879.07305  24375502.97900  24375501.94400  24375504.56800
        12.00000         5.00000
  -9386840.95006  -7314428.88405  23535571.80500  23535571.48200  23535572.38300
        14.00000         8.00000
 -18118914.06808 -14118631.74008  20836468.70800  20836468.42200  20836467.79300
       238.00000       162.00000
 -12763934.45308  -9945921.26407  22210639.36700  22210638.41400  22210636.72900
       122.00000        36.00000
  -6524444.99206  -5083980.25505  24199561.06300  24199561.19900  24199564.32300
        12.00000         7.00000
  -5461455.85906  -4255685.90906  23393792.64500  23393792.12900  23393794.44900
        23.00000        19.00000
  -6105144.39507  -4757258.31906  23099583.15200  23099582.01600  23099583.26900
        52.00000        27.00000
 -22523504.67709 -17550780.20108  19958274.94000  19958274.92400  19958274.29400
       329.00000       230.00000
 -25573617.43008 -19927493.02008  20633963.74300  20633963.27600  20633961.51200
       271.00000       154.00000
        -1.01114         -.61014  25063917.17600  25063915.63900  25063918.31700
         1.00000         2.00000
 04  8 24  0  5  0.0000000  0 10G15G 9G 6G29G18G 8G17G10G26G21
  -3024788.69206  -2356977.81306  23960780.40300  23960779.86600  23960780.98700
        14.00000        11.00000
  -1467565.17406  -1143557.00505  24352869.91100  24352869.75600  24352872.69500
        15.00000         9.00000
  -9294571.39406  -7242530.60005  23553129.39300  23553129.24300  23553130.26300
        15.00000         6.00000
 -18072531.49108 -14082489.48408  20845295.22200  20845294.64800  20845294.06200
       230.00000       162.00000
 -12838177.33708 -10003772.85607  22196510.15600  22196509.81400  22196508.92200
       119.00000        38.00000
  -6467188.15806  -5039364.61605  24210459.11500  24210457.81500  24210459.79400
        12.00000         7.00000
  -5355183.52106  -4172876.40706  23414014.96500  23414014.71900  23414017.57300
        19.00000        16.00000
  -6018726.89707  -4689920.07306  23116026.68500  23116025.76500  23116027.33000
        47.00000        24.00000
 -22497471.14909 -17530494.33708  19963229.21400  19963228.93600  19963228.45800
       331.00000       233.00000
 -25619315.10008 -19963101.60408  20625267.63100  20625267.29400  20625265.63700
       274.00000       160.00000
 04  8 24  0  5 30.0000000  0 11G15G 9G 6G29G18G 8G17G10G26G21G22
  -3134043.06905  -2442111.06705  23939989.67800  23939988.97200  23939990.21400
        10.00000         8.00000
  -1586448.00606  -1236192.95105  24330245.20200  24330245.69900  24330249.70500
        12.00000        10.00000
  -9202094.89006  -7170471.06006  23570727.26400  23570726.80100  23570728.82800
        16.00000        11.00000
 -18025697.25808 -14045995.28808  20854207.06100  20854206.86100  20854206.33300
       232.00000       160.00000
 -12912206.31908 -10061457.75107  22182422.46400  22182422.48300  22182422.44900
       115.00000        43.00000
  -6409390.13706  -4994327.22905  24221457.14000  24221456.51800  24221457.92500
        12.00000         7.00000
  -5248646.38206  -4089860.53205  23434287.73000  23434287.13900  23434289.33700
        14.00000         9.00000
  -5932156.48607  -4622462.64906  23132500.63800  23132499.77700  23132501.63400
        45.00000        27.00000
 -22470812.46509 -17509721.34108  19968301.89800  19968301.83700  19968301.48900
       330.00000       234.00000
 -25664492.43708 -19998304.72008  20616670.66800  20616670.15200  20616668.65600
       261.00000       159.00000
          .15115         -.21414  24932980.28600  24932980.15900  24932979.78300
         4.00000         2.00000
 04  8 24  0  6  0.0000000  0 12G15G 9G 6G29G18G 8G17G10G26G21G22G 3
  -3243212.29305  -2527177.97005  23919216.03700  23919215.15400  23919215.29000
        10.00000         6.00000
  -1705339.36106  -1328835.52906  24307621.07600  24307621.90500  24307625.70300
        11.00000        11.00000
  -9109479.48405  -7098303.32505  23588351.55800  23588350.58400  23588353.09900
         9.00000         9.00000
 -17978478.94208 -14009201.81008  20863192.61500  20863192.45600  20863191.76900
       237.00000       161.00000
 -12986086.11708 -10119026.41407  22168363.78500  22168363.51900  22168363.55400
       109.00000        46.00000
  -6351118.34806  -4948920.68205  24232546.62300  24232546.18800  24232547.18400
        15.00000         6.00000
  -5141911.69406  -4006690.69405  23454599.76800  23454599.13800  23454601.08400
        21.00000         8.00000
  -5845498.94307  -4554937.35806  23148991.35300  23148990.76800  23148991.41600
        50.00000        22.00000
 -22443595.79909 -17488513.55408  19973480.92700  19973480.78300  19973480.61100
       320.00000       233.00000
 -25709212.88008 -20033151.82008  20608161.01700  20608160.34100  20608158.69000
       268.00000       160.00000
    -91617.74805    -71390.80104  24915544.82400  24915544.67600  24915544.38300
         4.00000         2.00000
         -.63215         -.99610  25030647.15500  25030646.72900  25030647.23500
         7.00000          .00000
 04  8 24  0  6 30.0000000  0 11G15G 9G 6G29G18G 8G17G10G26G21G22
  -3352288.42705  -2612172.33505  23898458.12000  23898457.69200  23898458.76300
         9.00000         7.00000
  -1824230.31806  -1421477.79105  24284999.19800  24284999.22800  24285001.09300
        13.00000         7.00000
  -9016722.41806  -7026025.17305  23606002.80700  23606002.72500  23606004.56100
        14.00000         7.00000
 -17930872.30208 -13972105.74108  20872251.63800  20872251.65900  20872251.05000
       243.00000       160.00000
 -13059810.26508 -10176473.78607  22154334.61600  22154334.78400  22154334.18100
       117.00000        48.00000
  -6292368.43406  -4903141.54105  24243725.65800  24243725.44500  24243726.92600
        14.00000         7.00000
  -5034975.38306  -3923363.72106  23474949.47900  23474948.57400  23474951.40600
        17.00000        14.00000
  -5758749.48707  -4487340.42506  23165499.45300  23165498.23100  23165499.76500
        43.00000        22.00000
 -22415817.00509 -17466867.75008  19978767.14900  19978767.01800  19978766.76000
       325.00000       234.00000
 -25753468.79008 -20067636.94908  20599738.94700  20599738.62000  20599736.91400
       272.00000       159.00000
   -183221.03405   -142770.05004  24898115.63100  24898115.56300  24898113.64200
         6.00000         2.00000
 04  8 24  0  7  0.0000000  0 11G15G 9G 6G29G18G 8G17G10G26G21G22
  -3461225.60405  -2697058.38905  23877729.54600  23877728.34700  23877728.05800
         8.00000         4.00000
  -1943074.62806  -1514083.73005  24262383.76400  24262383.44100  24262385.37100
        14.00000         7.00000
  -8923783.47206  -6953605.30805  23623690.03700  23623689.26400  23623689.44300
        16.00000         4.00000
 -17882836.21308 -13934675.03208  20881392.69400  20881392.54900  20881392.17700
       237.00000       162.00000
 -13133334.62708 -10233765.47207  22140343.81500  22140343.40000  22140342.81100
       121.00000        45.00000
  -6233099.18206  -4856957.73505  24255004.53600  24255004.66800  24255004.99800
        12.00000         6.00000
  -4927796.11206  -3839847.53206  23495344.37300  23495343.93300  23495347.44000
        16.00000        19.00000
  -5671865.62407  -4419638.77606  23182032.22500  23182031.51400  23182032.90000
        42.00000        21.00000
 -22387434.79009 -17444751.74108  19984168.24600  19984168.16800  19984167.70600
       334.00000       232.00000
 -25797214.93908 -20101724.86108  20591414.18500  20591413.75700  20591412.31200
       252.00000       161.00000
   -274766.27605   -214104.00404  24880695.18900  24880694.91400  24880693.66600
         7.00000         3.00000
 04  8 24  0  7 30.0000000  0 11G15G 9G 6G29G18G 8G17G10G26G21G22
  -3570003.63406  -2781820.50805  23857028.68200  23857027.84400  23857028.96500
        12.00000         5.00000
  -2061851.14206  -1606636.82105  24239781.11800  24239780.85900  24239783.16400
        17.00000         8.00000
  -8830647.53406  -6881031.91004  23641411.08400  23641411.25900  23641411.98600
        13.00000         3.00000
 -17834354.80208 -13896897.31708  20890618.39500  20890618.16400  20890617.93800
       229.00000       162.00000
 -13206640.47008 -10290886.89707  22126394.13200  22126393.74400  22126393.29700
       131.00000        49.00000
  -6173294.78805  -4810356.95805  24266384.81200  24266385.45800  24266385.60500
        10.00000         7.00000
  -4820357.90806  -3756129.57006  23515790.40200  23515789.31500  23515791.52800
        17.00000        15.00000
  -5584830.30107  -4351819.10706  23198594.91000  23198594.34900  23198595.83000
        45.00000        24.00000
 -22358432.83409 -17422152.81908  19989686.91600  19989686.96800  19989686.57600
       328.00000       231.00000
 -25840431.39608 -20135400.01808  20583190.29900  20583189.74700  20583188.42400
       249.00000       160.00000
   -366234.50305   -285377.94205  24863288.70900  24863288.67000  24863287.12300
         8.00000         4.00000
 04  8 24  0  8  0.0000000  0 11G15G 9G 6G29G18G 8G17G10G26G21G22
  -3678706.86506  -2866524.28605  23836342.92600  23836342.48000  23836343.79700
        15.00000         6.00000
  -2180643.44406  -1699202.20105  24217176.65400  24217176.15900  24217177.32900
        21.00000         7.00000
  -8737404.64806  -6808375.18805  23659154.89300  23659154.78600  23659156.44400
        13.00000         5.00000
 -17785516.58108 -13858841.57208  20899911.99500  20899911.75900  20899911.49900
       223.00000       160.00000
 -13279813.64108 -10347904.93007  22112470.21800  22112469.80100  22112468.69400
       134.00000        48.00000
  -6113044.27605  -4763408.56405  24277848.57300  24277849.07900  24277851.06100
         7.00000         9.00000
  -4712749.21006  -3672278.71605  23536266.17900  23536265.18700  23536267.75200
        11.00000         8.00000
  -5497730.54007  -4283949.23106  23215169.33600  23215168.63900  23215169.82200
        39.00000        21.00000
 -22328899.58209 -17399139.90408  19995307.18800  19995307.05100  19995306.55100
       328.00000       227.00000
 -25883202.92308 -20168728.48808  20575051.85900  20575051.14400  20575049.31600
       264.00000       163.00000
   -457711.85905   -356658.98905  24845881.57700  24845881.47200  24845880.22400
         7.00000         5.00000
 04  8 24  0  8 30.0000000  0 11G15G 9G 6G29G18G 8G17G10G26G21G22
  -3787268.61206  -2951117.83705  23815684.05900  23815684.25500  23815684.27000
        13.00000         5.00000
  -2299384.39806  -1791727.58805  24194580.62200  24194579.96300  24194581.43700
        22.00000         6.00000
  -8643992.95006  -6735586.93605  23676932.25300  23676931.29400  23676932.82200
        17.00000         5.00000
 -17736259.09508 -13820459.12808  20909286.16800  20909285.57500  20909284.78100
       228.00000       158.00000
 -13352789.04908 -10404768.86107  22098582.91200  22098582.56600  22098581.93500
       135.00000        49.00000
  -6052284.84005  -4716063.59405  24289413.51600  24289412.70400  24289412.87500
        10.00000         8.00000
  -4604907.50106  -3588246.26605  23556788.69000  23556787.87700  23556789.59700
        13.00000         8.00000
  -5410502.97007  -4215979.72606  23231768.05800  23231767.74200  23231768.52900
        42.00000        20.00000
 -22298772.53609 -17375664.29208  20001040.52900  20001040.22600  20001039.47200
       332.00000       227.00000
 -25925463.05708 -20201658.46908  20567009.74900  20567009.22400  20567007.38900
       264.00000       163.00000
   -549133.70005   -427896.78805  24828483.79400  24828483.76700  24828482.42400
         5.00000         6.00000
 04  8 24  0  9  0.0000000  0 12G15G 9G 6G29G18G 8G17G10G26G21G22G 3
  -3895687.46106  -3035600.04305  23795053.41300  23795052.82300  23795053.69000
        18.00000         6.00000
  -2418071.44106  -1884210.99105  24171994.84700  24171995.00600  24171996.16400
        25.00000         5.00000
  -8550416.40206  -6662670.20304  23694737.54300  23694736.97600  23694739.14900
        11.00000         3.00000
 -17686585.11408 -13781752.14308  20918738.09000  20918737.96500  20918737.28400
       230.00000       155.00000
 -13425566.81308 -10461478.81007  22084734.84700  22084733.90300  22084732.04900
       144.00000        43.00000
  -5991019.24705  -4668324.21805  24301069.67000  24301070.00600  24301072.17000
         9.00000         9.00000
  -4496835.54806  -3504034.41206  23577353.06700  23577352.85800  23577356.18400
        15.00000        11.00000
  -5323149.14407  -4147911.88406  23248390.79300  23248389.95400  23248392.49600
        37.00000        24.00000
 -22268054.06809 -17351727.82608  20006885.75600  20006885.64700  20006885.11600
       330.00000       226.00000
 -25967210.66908 -20234189.08008  20559065.21500  20559064.69600  20559063.34000
       260.00000       170.00000
   -640500.19404   -499091.41505  24811096.20500  24811095.13600  24811096.19800
         3.00000         7.00000
         -.85715         -.93810  24966418.08900  24966416.50000  24966418.44800
         6.00000        -1.00000
 04  8 24  0  9 30.0000000  0 11G15G 9G 6G29G18G 8G17G10G26G21G22
  -4003975.29406  -3119980.16205  23774448.29400  23774446.61400  23774446.59400
        13.00000         4.00000
  -2536715.78806  -1976661.12305  24149417.95100  24149417.74100  24149419.42900
        21.00000        10.00000
  -8456692.20605  -6589638.43504  23712572.70200  23712573.45700  23712574.27700
         8.00000         3.00000
 -17636510.78208 -13742733.19508  20928266.64900  20928266.68600  20928266.11900
       231.00000       153.00000
 -13498160.41408 -10518045.23507  22070920.25100  22070919.85900  22070918.03600
       140.00000        42.00000
  -5929263.99106  -4620203.28905  24312821.61500  24312821.96400  24312822.85800
        12.00000         7.00000
  -4388549.57806  -3419655.85806  23597958.81200  23597959.78500  23597963.04600
        16.00000        16.00000
  -5235684.17407  -4079757.41206  23265035.19900  23265034.19500  23265036.36600
        36.00000        24.00000
 -22236760.56109 -17327343.28308  20012840.25100  20012840.35000  20012839.98500
       318.00000       222.00000
 -26008458.30608 -20266330.10108  20551216.42800  20551215.86700  20551214.11200
       276.00000       171.00000
   -731825.25405   -570253.77705  24793715.97700  24793717.91800  24793717.81700
         4.00000         8.00000
 04  8 24  0 10  0.0000000  0 11G15G 9G 6G29G18G 8G17G10G26G21G22
  -4112097.43806  -3204231.17005  23753873.49300  23753871.96300  23753871.93600
        14.00000         8.00000
  -2655282.01806  -2069050.31906  24126854.45400  24126853.90600  24126857.30000
        18.00000        14.00000
  -8362790.79405  -6516468.62704  23730442.61000  23730442.06500  23730442.66600
         6.00000         2.00000
 -17586005.68208 -13703378.58008  20937877.78000  20937877.46000  20937877.04100
       223.00000       152.00000
 -13570536.48708 -10574442.14807  22057146.36600  22057146.49500  22057145.26100
       127.00000        43.00000
  -5866989.09406  -4571677.41605  24324673.62600  24324673.39800  24324673.92000
        11.00000         5.00000
  -4280018.93206  -3335086.63506  23618613.41600  23618612.86900  23618615.05500
        13.00000        11.00000
  -5148076.09207  -4011491.44006  23281706.38200  23281706.05000  23281707.67200
        42.00000        23.00000
 -22204861.25708 -17302486.68608  20018910.79800  20018910.47800  20018910.21000
       312.00000       222.00000
 -26049171.54508 -20298054.70908  20543468.61100  20543468.30600  20543466.63900
       278.00000       175.00000
   -823075.88405   -641358.14405  24776352.74400  24776351.96900  24776352.87200
         4.00000         7.00000
 04  8 24  0 10 30.0000000  0 11G15G 9G 6G29G18G 8G17G10G26G21G22
  -4220067.68606  -3288363.79105  23733325.00200  23733324.75300  23733325.69100
        15.00000         7.00000
  -2773783.17006  -2161388.78406  24104303.35600  24104303.80400  24104306.75900
        14.00000        13.00000
  -8268731.53705  -6443175.76404  23748339.62600  23748340.95900  23748342.32500
         8.00000         2.00000
 -17535088.07808 -13663702.53508  20947567.14700  20947566.67400  20947566.45800
       219.00000       153.00000
 -13642710.69208 -10630681.76107  22043412.99300  22043412.23800  22043411.11300
       126.00000        44.00000
  -5804212.48605  -4522760.61605  24336619.34000  24336618.46100  24336620.18700
         9.00000         7.00000
  -4171261.71306  -3250340.79805  23639307.87000  23639307.90500  23639310.77400
        14.00000         9.00000
  -5060341.66207  -3943127.00406  23298402.00600  23298401.15100  23298403.20500
        39.00000        24.00000
 -22172374.29209 -17277172.17608  20025092.62400  20025092.67100  20025092.38600
       322.00000       223.00000
 -26089364.59308 -20329373.96708  20535820.53000  20535819.73000  20535818.20700
       262.00000       175.00000
   -914267.58905   -712416.60105  24759000.34200  24758999.98900  24758999.44700
         7.00000         5.00000
 04  8 24  0 11  0.0000000  0 11G15G 9G 6G29G18G 8G17G10G26G21G22
  -4327944.04406  -3372423.30005  23712796.52700  23712796.67800  23712797.33000
        16.00000         7.00000
  -2892276.55806  -2253721.23905  24081755.84100  24081755.77600  24081757.67200
        20.00000         7.00000
  -8174577.78605  -6369809.28105  23766258.62600  23766258.10400  23766259.48800
         7.00000         4.00000
 -17483820.16208 -13623753.52408  20957322.84100  20957322.73700  20957322.50900
       222.00000       154.00000
 -13714742.41408 -10686810.36407  22029705.33700  22029705.12600  22029704.13400
       133.00000        44.00000
  -5740996.66505  -4473501.58605  24348649.13000  24348648.11400  24348649.31400
         8.00000         7.00000
  -4062340.33705  -3165467.09806  23660036.80300  23660034.60400  23660038.59500
         9.00000        12.00000
  -4972542.39707  -3874712.04406  23315109.43400  23315108.90800  23315111.58200
        40.00000        26.00000
 -22139361.99409 -17251448.31408  20031374.67800  20031374.80800  20031374.42200
       326.00000       221.00000
 -26129096.02608 -20360333.52908  20528259.95000  20528259.28500  20528257.57200
       267.00000       176.00000
  -1005460.44405   -783475.96305  24741645.83100  24741645.88300  24741645.55200
         7.00000         4.00000
 04  8 24  0 11 30.0000000  0 11G15G 9G 6G29G18G 8G17G10G26G21G22
  -4435663.70206  -3456360.64805  23692298.96400  23692298.20200  23692299.62300
        16.00000        10.00000
  -3010698.47006  -2345998.06805  24059220.65700  24059220.66300  24059223.51100
        18.00000         9.00000
  -8080271.91505  -6296324.25705  23784205.49700  23784204.70300  23784205.01500
         5.00000         4.00000
 -17432143.56808 -13583486.05908  20967157.00800  20967156.66000  20967156.12500
       223.00000       151.00000
 -13786570.62308 -10742780.38307  22016037.08500  22016036.80400  22016036.00400
       132.00000        46.00000
  -5677283.50905  -4423855.00005  24360771.58200  24360771.54700  24360772.92500
        10.00000         6.00000
  -3953196.18006  -3080419.79105  23680804.77500  23680805.25800  23680807.88300
        15.00000         9.00000
  -4884618.34507  -3806199.86506  23331841.73300  23331840.56200  23331842.18300
        38.00000        20.00000
 -22105765.66109 -17225269.36708  20037768.02700  20037768.10100  20037767.51000
       322.00000       219.00000
 -26168303.52608 -20390884.83508  20520799.06800  20520798.35000  20520796.54200
       266.00000       176.00000
  -1096593.38306   -854488.64005  24724307.31600  24724306.78600  24724304.36900
        14.00000         6.00000
 04  8 24  0 12  0.0000000  0 11G15G 9G 6G29G18G 8G17G10G26G21G22
  -4543246.72006  -3540191.55406  23671826.56400  23671826.07300  23671827.22200
        18.00000        11.00000
  -3129068.31805  -2438234.25206  24036696.73000  24036695.11500  24036698.52900
         8.00000        11.00000
  -7985839.13405  -6222740.37504  23802173.75400  23802172.73100  23802174.51500
         4.00000         3.00000
 -17380082.68808 -13542919.15008  20977063.49800  20977063.34800  20977063.04700
       223.00000       151.00000
 -13858216.73308 -10798608.51907  22002403.19000  22002402.64500  22002402.21000
       133.00000        50.00000
  -5613097.27606  -4373839.81705  24372987.58800  24372986.27700  24372988.31300
        11.00000         7.00000
  -3843853.61606  -2995217.89806  23701614.71600  23701612.85600  23701615.55900
        12.00000        12.00000
  -4796592.85507  -3737608.61906  23348590.98100  23348590.87100  23348593.46300
        36.00000        24.00000
 -22071609.68109 -17198654.32708  20044267.57500  20044267.58500  20044267.14600
       321.00000       217.00000
 -26207007.65508 -20421043.90008  20513433.25000  20513432.70100  20513431.58400
       251.00000       181.00000
  -1187688.37006   -925471.67705  24706971.37000  24706971.73400  24706970.46700
        18.00000         5.00000
 04  8 24  0 12 30.0000000  0 11G15G 9G 6G29G18G 8G17G10G26G21G22
  -4650672.83906  -3623900.20106  23651383.28500  23651382.77000  23651384.55400
        18.00000        13.00000
  -3247365.12406  -2530413.51306  24014185.55500  24014185.03200  24014186.94200
        13.00000        11.00000
  -7891264.70705  -6149046.11505  23820170.90800  23820170.52600  23820172.20600
        10.00000         4.00000
 -17327621.58808 -13502040.38108  20987047.01600  20987046.52800  20987046.05200
       217.00000       148.00000
 -13929662.28108 -10854280.36007  21988807.61900  21988807.24200  21988806.47600
       149.00000        52.00000
  -5548422.20106  -4323443.69305  24385294.53700  24385293.43300  24385295.42900
        13.00000         8.00000
  -3734296.69606  -2909848.95505  23722459.13300  23722460.02300  23722463.37300
        13.00000        10.00000
  -4708448.50607  -3668924.78406  23365365.81000  23365364.96400  23365366.27200
        41.00000        20.00000
 -22036878.03209 -17171590.71008  20050876.89000  20050876.84100  20050876.43600
       319.00000       218.00000
 -26245188.65508 -20450795.33008  20506167.92000  20506167.31500  20506165.78800
       248.00000       179.00000
  -1278726.69306   -996410.62805  24689645.52800  24689645.53900  24689644.98000
        13.00000         5.00000
 04  8 24  0 13  0.0000000  0 12G15G 9G 6G29G18G 8G17G10G26G21G22G 3
  -4757929.04906  -3707476.43506  23630973.53500  23630972.85300  23630974.48000
        16.00000        13.00000
  -3365574.90806  -2622525.01205  23991689.97500  23991689.98600  23991692.37100
        19.00000        10.00000
  -7796541.38405  -6075235.80305  23838196.33500  23838196.35800  23838198.01300
         9.00000         4.00000
 -17274751.63508 -13460843.02608  20997107.75700  20997107.27400  20997106.70600
       213.00000       144.00000
 -14000895.53808 -10909786.78307  21975252.72200  21975252.20500  21975251.52200
       157.00000        56.00000
  -5483249.93206  -4272660.12905  24397694.31700  24397694.69700  24397696.84400
        13.00000         7.00000
  -3624516.66606  -2824306.16305  23743351.08700  23743350.40300  23743352.92900
        11.00000         7.00000
  -4620175.44707  -3600140.65406  23382163.62500  23382162.04900  23382164.59200
        36.00000        22.00000
 -22001562.20808 -17144071.89408  20057597.29600  20057597.30600  20057596.88300
       316.00000       219.00000
 -26282834.21408 -20480129.53708  20499004.22700  20499003.74700  20499002.12800
       258.00000       179.00000
  -1369697.43506  -1067296.92505  24672334.80000  24672335.04300  24672333.97900
        14.00000         6.00000
         -.60815         -.63110  24885751.19300  24885751.85600  24885751.11400
         6.00000        -2.00000
 04  8 24  0 13 30.0000000  0 11G15G 9G 6G29G18G 8G17G10G26G21G22
  -4865043.50806  -3790942.25606  23610590.77700  23610589.91300  23610591.13100
        17.00000        11.00000
  -3483725.55106  -2714590.43405  23969207.31600  23969207.11900  23969208.76600
        18.00000         9.00000
  -7701702.17705  -6001335.22104  23856244.84800  23856243.75800  23856246.11700
         8.00000         3.00000
 -17221505.68708 -13419352.68508  21007240.02600  21007239.68700  21007238.97900
       214.00000       141.00000
 -14071946.84608 -10965151.42407  21961731.41600  21961731.36200  21961730.44500
       159.00000        54.00000
  -5417613.56406  -4221514.96305  24410186.89600  24410185.67400  24410186.60900
        13.00000         8.00000
  -3514546.37406  -2738615.11906  23764279.33400  23764278.59400  23764280.48200
        15.00000        11.00000
  -4531805.26007  -3531280.83106  23398980.05200  23398979.11900  23398980.45200
        41.00000        19.00000
 -21965694.93808 -17116123.38208  20064422.40200  20064422.44300  20064422.29800
       313.00000       222.00000
 -26319973.27408 -20509069.06808  20491936.79400  20491936.20400  20491934.65300
       250.00000       179.00000
  -1460630.83406  -1138154.10505  24655030.11300  24655030.08500  24655030.37700
        11.00000         6.00000
 04  8 24  0 14  0.0000000  0 11G15G 9G 6G29G18G 8G17G10G26G21G22
  -4971999.43606  -3874284.53106  23590236.92600  23590236.20700  23590238.14300
        15.00000        13.00000
  -3601799.54106  -2806596.11405  23946737.82400  23946737.19700  23946739.86300
        16.00000         9.00000
  -7606736.25405  -5927335.88504  23874313.58900  23874314.57100  23874315.83500
         7.00000         3.00000
 -17167871.44408 -13377559.78508  21017446.08000  21017445.90800  21017445.24600
       217.00000       141.00000
 -14142800.98908 -11020362.42607  21948248.68800  21948248.40000  21948247.60600
       162.00000        56.00000
  -5351500.91006  -4169998.64405  24422765.72800  24422765.79400  24422768.24500
        13.00000         8.00000
  -3404373.34506  -2652766.10805  23785244.15800  23785243.14200  23785245.21100
        12.00000         8.00000
  -4443324.35707  -3462334.74406  23415816.78000  23415815.90200  23415817.42600
        35.00000        19.00000
 -21929263.72708 -17087735.43608  20071355.13500  20071355.05600  20071354.97600
       315.00000       222.00000
 -26356589.44808 -20537601.15608  20484968.91900  20484968.50100  20484966.99100
       256.00000       183.00000
  -1551512.13106  -1208970.63405  24637736.74900  24637737.26200  24637734.92000
        13.00000         5.00000
 04  8 24  0 14 30.0000000  0 11G15G 9G 6G29G18G 8G17G10G26G21G22
  -5078802.01806  -3957507.29106  23569912.05200  23569912.66400  23569914.27300
        13.00000        14.00000
  -3719801.18506  -2898545.42606  23924284.03500  23924283.65100  23924284.42200
        27.00000        11.00000
  -7511653.97904  -5853245.86805  23892408.93200  23892408.00000  23892410.53200
         3.00000         4.00000
 -17113858.24708 -13335471.59108  21027724.40800  21027724.42600  21027723.89200
       220.00000       143.00000
 -14213464.53808 -11075424.91607  21934802.51600  21934802.07000  21934800.68600
       163.00000        58.00000
  -5284921.66106  -4118118.79305  24435434.18700  24435435.09700  24435437.07600
        11.00000         8.00000
  -3294006.98105  -2566766.43105  23806246.20200  23806244.92300  23806246.66900
        10.00000         7.00000
  -4354740.87807  -3393308.73606  23432673.27600  23432673.03300  23432674.96600
        36.00000        18.00000
 -21892278.19809 -17058915.55108  20078393.05200  20078393.27800  20078392.95000
       319.00000       219.00000
 -26392688.61908 -20565730.38108  20478099.77200  20478099.24400  20478097.47000
       267.00000       183.00000
  -1642348.06006  -1279751.81404  24620451.86400  24620451.12900  24620449.65400
        18.00000         3.00000
 04  8 24  0 15  0.0000000  0 11G29G18G15G 9G 6G 8G17G10G26G22G21
 -17059461.12208 -13293084.23408  21038075.63200  21038075.67400  21038075.29500
       212.00000       141.00000
 -14283929.58608 -11130332.73207  21921392.36100  21921392.29200  21921391.34300
       149.00000        57.00000
  -5185441.92805  -4040603.28106  23549619.71300  23549619.22600  23549621.37300
        10.00000        13.00000
  -3837720.51106  -2990430.62006  23901844.96600  23901844.52100  23901845.94600
        31.00000        15.00000
  -7416451.12305  -5779061.97105  23910526.44700  23910525.23300  23910527.49800
         6.00000         4.00000
  -5217870.99906  -4065871.54005  24448195.99600  24448194.65400  24448196.36100
        12.00000         7.00000
  -3183442.39206  -2480612.30705  23827285.47200  23827284.68700  23827288.03900
        13.00000         9.00000
  -4266048.46507  -3324197.84206  23449551.35600  23449550.44200  23449552.30800
        32.00000        19.00000
 -21854733.34409 -17029659.82608  20085538.08700  20085538.02200  20085537.35500
       323.00000       215.00000
  -1733131.14606  -1350491.86305  24603176.64000  24603176.01200  24603174.82000
        25.00000         4.00000
 -26428262.28908 -20593450.13308  20471330.17300  20471329.64600  20471328.20100
       261.00000       187.00000
 04  8 24  0 15 30.0000000  0 12G29G18G15G 9G 6G 8G17G10G26G22G21G 3
 -17004664.49708 -13250385.57908  21048503.27900  21048503.03700  21048502.76500
       211.00000       140.00000
 -14354177.72208 -11185071.52207  21908024.72000  21908024.54900  21908023.79400
       145.00000        56.00000
  -5291898.98906  -4123556.82706  23529362.73400  23529361.97200  23529363.65300
        12.00000        15.00000
  -3955536.46806  -3082235.23306  23879424.19700  23879423.92100  23879425.77600
        19.00000        12.00000
  -7321113.17005  -5704772.72904  23928667.73500  23928667.28300  23928669.17300
         8.00000         1.00000
  -5150333.51306  -4013244.98405  24461046.55100  24461045.81300  24461048.58600
        13.00000         7.00000
  -3072663.69006  -2394291.32005  23848365.40300  23848365.46100  23848366.80400
        16.00000         5.00000
  -4177230.27707  -3254988.94406  23466453.17300  23466452.13800  23466454.24600
        32.00000        18.00000
 -21816613.50909 -16999956.06608  20092791.92900  20092791.94900  20092791.53500
       321.00000       219.00000
  -1823843.12206  -1421176.52504  24585915.20600  24585914.96200  24585912.82400
        29.00000         3.00000
 -26463290.57908 -20620744.90408  20464664.64000  20464664.00000  20464662.53300
       258.00000       190.00000
          .24315          .32114  24838281.61400  24838279.49200  24838280.97100
         5.00000         2.00000
 04  8 24  0 16  0.0000000  0 11G29G18G15G 9G 8G17G10G26G22G21G 3
 -16949532.44308 -13207425.55108  21058994.40900  21058994.28900  21058994.20000
       209.00000       141.00000
 -14424270.25908 -11239689.06907  21894686.22400  21894686.24200  21894685.43200
       152.00000        56.00000
  -5398233.28706  -4206414.69506  23509127.65700  23509126.98100  23509128.57400
        13.00000        15.00000
  -4073308.14206  -3174005.35605  23857012.30000  23857011.96800  23857014.64600
        20.00000         9.00000
  -5082373.76606  -3960289.39305  24473980.61200  24473979.73300  24473981.22300
        18.00000         7.00000
  -2961735.13506  -2307853.54905  23869477.58900  23869475.83000  23869476.57600
        11.00000         6.00000
  -4088349.22607  -3185731.05106  23483366.95700  23483366.19000  23483367.57400
        35.00000        18.00000
 -21777982.83309 -16969854.25008  20100143.06400  20100142.98900  20100142.86700
       318.00000       221.00000
  -1914545.69106  -1491853.83205  24568654.60200  24568654.16100  24568652.23700
        21.00000         4.00000
 -26497834.14308 -20647661.97308  20458091.08700  20458090.72400  20458089.15200
       265.00000       192.00000
    -48471.75405    -37770.09004  24829056.38000  24829055.57000  24829056.91500
         6.00000         3.00000
 04  8 24  0 16 30.0000000  0 12G29G18G15G 9G 8G17G10G26G22G21G 3G 6
 -16894022.77808 -13164171.28408  21069557.79800  21069557.59200  21069557.27400
       211.00000       139.00000
 -14494162.36508 -11294150.43707  21881386.72400  21881386.42000  21881385.83600
       160.00000        59.00000
  -5504397.80805  -4289140.26406  23488926.43100  23488924.74300  23488925.71800
         9.00000        15.00000
  -4190988.02906  -3265703.97305  23834618.75000  23834619.23700  23834620.91400
        25.00000        10.00000
  -5013949.65106  -3906971.91205  24487000.34700  24487000.55500  24487000.64800
        16.00000         6.00000
  -2850614.19005  -2221265.91805  23890620.87700  23890620.20700  23890622.81500
         9.00000         8.00000
  -3999361.55306  -3116390.09206  23500300.11000  23500299.66600  23500301.64500
        31.00000        19.00000
 -21738798.98509 -16939321.39108  20107599.55600  20107599.53300  20107599.24800
       325.00000       219.00000
  -2005194.10106  -1562488.92905  24551403.70300  24551403.63500  24551402.42500
        16.00000         5.00000
 -26531846.81008 -20674165.35508  20451618.42500  20451618.04100  20451616.64300
       257.00000       190.00000
    -96455.81605    -75160.23104  24819924.07200  24819923.96100  24819925.26700
         5.00000         2.00000
     31846.65305     24816.05605  23964999.49000  23964999.34600  23965001.82600
         8.00000         4.00000
 04  8 24  0 17  0.0000000  0 12G29G18G15G 9G 8G17G10G26G22G21G 3G 6
 -16838120.81508 -13120611.32408  21080195.98100  21080195.65700  21080195.07800
       216.00000       137.00000
 -14563836.22508 -11348441.74707  21868128.58800  21868128.01500  21868127.16500
       171.00000        58.00000
  -5610373.29206  -4371718.51106  23468758.98900  23468757.87600  23468759.57200
        11.00000        14.00000
  -4308556.11007  -3357315.49705  23812247.56200  23812247.46300  23812249.16000
        32.00000        10.00000
  -4945046.82306  -3853281.44905  24500112.48500  24500111.56300  24500112.31200
        16.00000         8.00000
  -2739286.29906  -2134517.00705  23911805.63500  23911805.29200  23911807.72800
        12.00000         9.00000
  -3910251.17907  -3046953.51606  23517258.03500  23517256.84800  23517259.31500
        34.00000        17.00000
 -21699047.37809 -16908346.11908  20115163.99600  20115164.06800  20115163.62300
       322.00000       211.00000
  -2095771.09506  -1633068.36605  24534166.87100  24534167.07100  24534166.43100
        12.00000         5.00000
 -26565310.26008 -20700240.77208  20445250.92600  20445250.42800  20445248.73900
       255.00000       192.00000
   -143933.35504   -112155.70104  24810890.07700  24810889.82200  24810890.93000
         3.00000         3.00000
    127491.65205     99344.52504  23983201.53500  23983200.96700  23983201.90900
         7.00000         2.00000
 04  8 24  0 17 30.0000000  0 11G29G18G15G 9G 8G17G10G26G22G21G 3
 -16781800.26108 -13076725.19008  21090913.25400  21090913.17500  21090912.47100
       223.00000       136.00000
 -14633262.97308 -11402540.50407  21854916.97700  21854916.70400  21854915.19300
       188.00000        54.00000
  -5716128.86706  -4454125.44206  23448633.67000  23448633.72200  23448635.28800
        15.00000        15.00000
  -4425981.00206  -3448815.41606  23789901.20500  23789900.82900  23789903.60500
        17.00000        11.00000
  -4875638.98106  -3799197.46705  24513320.19900  24513320.21900  24513321.12900
        18.00000         8.00000
  -2627724.98406  -2047586.18005  23933034.69900  23933033.96500  23933037.57000
        14.00000         7.00000
  -3820990.73007  -2977399.98406  23534243.17700  23534242.58600  23534244.80100
        32.00000        19.00000
 -21658701.93608 -16876908.11708  20122841.34400  20122841.39300  20122840.83400
       312.00000       205.00000
  -2186247.72006  -1703569.60105  24516949.06400  24516949.61100  24516949.32500
        14.00000         6.00000
 -26598194.62308 -20725864.95108  20438993.25600  20438992.78200  20438991.07000
       261.00000       191.00000
   -190874.94504   -148733.53405  24801956.51900  24801956.33000  24801957.88900
         3.00000         4.00000
 04  8 24  0 18  0.0000000  0 12G29G18G15G 9G 8G17G10G26G22G21G 3G 6
 -16725167.42608 -13032595.72008  21101690.19600  21101689.95200  21101689.42300
       215.00000       136.00000
 -14702546.06408 -11456527.31707  21841732.56800  21841732.38500  21841731.33400
       183.00000        56.00000
  -5821766.51006  -4536440.43306  23428532.01600  23428531.42700  23428532.70900
        20.00000        14.00000
  -4543363.86506  -3540282.52406  23767564.86800  23767564.02900  23767566.76000
        16.00000        13.00000
  -4805832.83506  -3744803.12705  24526603.80100  24526603.62100  24526604.48800
        15.00000         6.00000
  -2516036.86005  -1960556.57405  23954288.46400  23954288.02200  23954291.38000
        10.00000         8.00000
  -3731685.12607  -2907811.29506  23551237.40500  23551237.01800  23551239.14100
        33.00000        21.00000
 -21617869.04608 -16845090.28608  20130611.77900  20130611.69900  20130611.17700
       307.00000       205.00000
  -2276727.70606  -1774073.46105  24499733.29300  24499733.16300  24499731.38800
        21.00000         5.00000
 -26630602.27008 -20751117.67608  20432826.23300  20432825.70300  20432824.03400
       256.00000       192.00000
   -237383.49805   -184973.92604  24793107.45500  24793107.28300  24793107.46900
         4.00000         3.00000
     31957.92505     24901.77704  24019666.63700  24019667.02900  24019668.22100
        10.00000         3.00000
 04  8 24  0 18 30.0000000  0 12G29G18G15G 9G 8G17G10G26G22G21G 3G 6
 -16668168.31308 -12988180.84208  21112536.74300  21112536.50400  21112535.88000
       214.00000       135.00000
 -14771628.50008 -11510357.76607  21828586.76200  21828586.23000  21828585.51900
       172.00000        59.00000
  -5927227.63506  -4618617.93005  23408462.90400  23408462.28600  23408463.45600
        18.00000        10.00000
  -4660645.44106  -3631670.77205  23745246.39500  23745247.15200  23745246.58800
        28.00000         5.00000
  -4735574.80306  -3690056.65705  24539973.86000  24539973.12500  24539974.38900
        16.00000         7.00000
  -2404167.48405  -1873385.72505  23975576.45600  23975576.36600  23975579.42700
        10.00000         7.00000
  -3642278.87307  -2838144.15006  23568251.56500  23568250.81300  23568252.53400
        36.00000        20.00000
 -21576494.70708 -16812850.55308  20138484.74300  20138484.89100  20138484.45600
       314.00000       206.00000
  -2367154.52206  -1844535.88404  24482525.52900  24482525.05800  24482523.05400
        19.00000         3.00000
 -26662475.54908 -20775954.00208  20426760.71300  20426760.12700  20426758.83100
       244.00000       197.00000
   -283401.40405   -220831.99605  24784350.48200  24784350.28500  24784350.80300
         5.00000         4.00000
    127892.98405     99656.29704  24037923.13000  24037923.24600  24037924.62500
         9.00000         3.00000
 04  8 24  0 19  0.0000000  0 12G29G18G15G 9G 8G17G10G26G22G21G 3G 6
 -16610798.47908 -12943477.08508  21123453.70500  21123453.45700  21123453.11000
       205.00000       135.00000
 -14840502.85708 -11564026.07807  21815480.38900  21815480.02300  21815479.05300
       168.00000        58.00000
  -6032503.38806  -4700650.95606  23388430.48800  23388429.62100  23388431.65800
        24.00000        15.00000
  -4777815.88606  -3722972.46805  23722950.76100  23722950.67200  23722951.32900
        29.00000        10.00000
  -4664860.55606  -3634954.68005  24553430.80700  24553430.12500  24553431.64000
        16.00000         6.00000
  -2292112.42006  -1786070.19905  23996901.71500  23996900.98600  23996902.71600
        11.00000         7.00000
  -3552766.10807  -2768394.00606  23585284.71200  23585283.94100  23585286.38900
        32.00000        17.00000
 -21534574.50709 -16780185.47108  20146462.09400  20146462.22500  20146461.76000
       318.00000       206.00000
  -2457520.92506  -1914951.24705  24465329.60900  24465329.25300  24465326.76800
        17.00000         4.00000
 -26693806.30908 -20800367.58608  20420798.89200  20420798.34500  20420796.77200
       249.00000       199.00000
   -328920.84504   -256301.63005  24775687.26900  24775687.62600  24775689.48300
         1.00000         6.00000
    223928.02505    174488.67805  24056199.36500  24056198.65100  24056200.21400
         7.00000         4.00000
 04  8 24  0 19 30.0000000  0 11G29G18G15G 9G 8G17G10G26G22G21G 3
 -16553050.63308 -12898478.78108  21134442.74200  21134442.45900  21134442.21400
       199.00000       135.00000
 -14909158.85208 -11617524.23707  21802415.28700  21802415.05500  21802414.23400
       168.00000        60.00000
  -6137581.98106  -4782530.34505  23368434.92900  23368434.07500  23368435.09300
        28.00000         9.00000
  -4894862.87406  -3814177.87506  23700677.57900  23700676.81900  23700678.35400
        20.00000        16.00000
  -4593683.12906  -3579491.81105  24566976.04200  24566975.31600  24566976.35200
        19.00000         6.00000
  -2179864.66106  -1698604.48605  24018261.44400  24018260.26200  24018263.14200
        11.00000         7.00000
  -3463138.44207  -2698554.33706  23602341.02000  23602339.91300  23602342.22300
        35.00000        19.00000
 -21492101.26008 -16747089.44308  20154544.85900  20154544.75300  20154544.18600
       313.00000       204.00000
  -2547817.33306  -1985312.03104  24448146.97400  24448146.92100  24448146.06500
        16.00000         3.00000
 -26724583.80208 -20824350.05708  20414942.05100  20414941.56700  20414940.12400
       249.00000       201.00000
   -373931.16004   -291374.55905  24767123.91600  24767123.06600  24767125.61400
         1.00000         4.00000
 04  8 24  0 20  0.0000000  0 12G29G18G15G 9G 8G17G10G26G22G21G 3G 6
 -16494944.89808 -12853201.60308  21145499.87200  21145499.66800  21145499.29300
       205.00000       133.00000
 -14977614.04908 -11670865.94007  21789388.85000  21789388.45900  21789387.75500
       171.00000        63.00000
  -6242479.05306  -4864268.34705  23348473.16500  23348472.75400  23348472.76000
        31.00000         8.00000
  -5011801.25706  -3905298.61706  23678424.67300  23678424.52800  23678425.75700
        31.00000        19.00000
  -4522062.97806  -3523683.93705  24580605.02900  24580603.69900  24580604.79900
        17.00000         5.00000
  -2067444.03505  -1611004.08705  24039653.54200  24039652.78300  24039655.79900
        10.00000         8.00000
  -3373414.58307  -2628639.72606  23619414.46800  23619414.03000  23619416.35500
        33.00000        20.00000
 -21449095.45708 -16713578.43708  20162727.75200  20162728.09900  20162727.81900
       308.00000       201.00000
  -2638061.31306  -2055631.99405  24430973.49900  24430972.86700  24430971.98000
        17.00000         5.00000
 -26754824.35008 -20847914.12908  20409187.23400  20409186.84400  20409185.50000
       247.00000       205.00000
   -418448.96404   -326063.75104  24758653.45100  24758652.58700  24758652.93200
         2.00000         2.00000
         -.66315         -.11814  24092804.48700  24092803.86100  24092806.02300
         5.00000         1.00000
 04  8 24  0 20 30.0000000  0 10G29G18G15G 9G 8G17G10G26G22G21
 -16436470.99708 -12807637.53808  21156626.68200  21156626.85400  21156626.50900
       203.00000       129.00000
 -15045855.29308 -11724040.92507  21776403.05700  21776402.82000  21776401.67100
       180.00000        65.00000
  -6347179.70906  -4945853.24505  23328549.23300  23328548.82100  23328549.75300
        28.00000        10.00000
  -5128615.33306  -3996322.55006  23656194.81600  23656194.66900  23656196.57500
        26.00000        12.00000
  -4449990.31706  -3467523.46805  24594318.68900  24594318.51100  24594320.52000
        19.00000         6.00000
  -1954840.28605  -1523261.02605  24061079.98700  24061080.79200  24061084.08300
         9.00000         7.00000
  -3283582.61507  -2558640.87106  23636509.10600  23636508.33600  23636510.92700
        32.00000        18.00000
 -21405546.65408 -16679644.31808  20171015.19000  20171015.18000  20171014.97400
       311.00000       203.00000
  -2728239.77906  -2125900.90405  24413813.09700  24413813.16500  24413811.34100
        17.00000         6.00000
 -26784513.83808 -20871048.80308  20403537.75800  20403537.34300  20403535.93900
       256.00000       209.00000
 04  8 24  0 21  0.0000000  0 10G29G18G15G 9G 8G17G10G26G22G21
 -16377640.49708 -12761795.60708  21167822.45000  21167822.09200  21167821.54300
       202.00000       127.00000
 -15113891.31108 -11777055.98907  21763456.10500  21763455.77200  21763454.94200
       179.00000        66.00000
  -6451691.08207  -5027290.65906  23308662.13000  23308661.26100  23308662.39000
        32.00000        11.00000
  -5245311.57406  -4087254.69405  23633986.93000  23633987.82400  23633989.63000
        22.00000        10.00000
  -4377477.00506  -3411019.62605  24608118.13100  24608117.16300  24608119.28000
        15.00000         6.00000
  -1842064.96206  -1435384.26305  24082542.54900  24082541.98100  24082543.97700
        11.00000         7.00000
  -3193653.09806  -2488565.99606  23653622.25900  23653621.22400  23653624.08100
        30.00000        19.00000
 -21361466.58109 -16645296.20708  20179403.79700  20179403.65200  20179403.22200
       319.00000       205.00000
  -2818361.84906  -2196125.87905  24396663.17700  24396663.50000  24396661.49000
        13.00000         8.00000
 -26813660.20708 -20893760.26508  20397991.31800  20397990.92600  20397989.52300
       255.00000       208.00000
 04  8 24  0 21 30.0000000  0 11G29G18G15G 9G 8G17G10G26G22G21G 3
 -16318474.03308 -12715691.88208  21179081.28800  21179081.04300  21179080.65100
       201.00000       129.00000
 -15181739.74708 -11829924.88707  21750544.92800  21750544.66900  21750543.76400
       186.00000        67.00000
  -6556028.98806  -5108592.90806  23288807.03800  23288806.30300  23288806.93600
        27.00000        12.00000
  -5361905.19506  -4178106.86406  23611801.96100  23611801.33900  23611803.88300
        28.00000        17.00000
  -4304543.99006  -3354188.76605  24621996.80300  24621996.38500  24621997.04500
        15.00000         6.00000
  -1729138.52805  -1347389.72905  24104032.17000  24104031.09800  24104033.71400
         8.00000         7.00000
  -3103645.23306  -2418430.08106  23670749.76300  23670749.38800  23670752.31500
        29.00000        17.00000
 -21316876.12209 -16610550.39908  20187888.77900  20187888.91600  20187888.51400
       323.00000       205.00000
  -2908445.35205  -2266320.77905  24379520.98000  24379520.20100  24379520.03300
         9.00000         9.00000
 -26842280.61208 -20916061.88708  20392544.96200  20392544.43200  20392543.25100
       245.00000       207.00000
         -.15515          .28810  24733807.23100  24733807.70200  24733806.87600
         9.00000          .00000
 04  8 24  0 22  0.0000000  0 10G29G18G15G 9G 8G17G10G26G22G21
 -16258934.50908 -12669297.46308  21190411.09400  21190410.99300  21190410.69200
       198.00000       129.00000
 -15249360.73908 -11882616.55207  21737677.03100  21737676.75300  21737675.99200
       186.00000        66.00000
  -6660151.76406  -5189727.51806  23268992.60900  23268992.14600  23268993.23900
        25.00000        16.00000
  -5478353.92506  -4268846.09406  23589642.17100  23589641.46100  23589643.79300
        26.00000        20.00000
  -4231154.51706  -3297002.19205  24635962.94200  24635961.74400  24635963.23200
        13.00000         4.00000
  -1616024.04605  -1259248.71405  24125556.92300  24125555.84800  24125558.96100
         9.00000         9.00000
  -3013520.54406  -2348203.14006  23687900.56800  23687899.96000  23687901.94700
        28.00000        18.00000
 -21271738.23108 -16575378.03408  20196478.14600  20196478.21600  20196477.93700
       313.00000       204.00000
  -2998450.51105  -2336454.62005  24362392.50600  24362392.02500  24362391.68400
         9.00000         6.00000
 -26870334.48308 -20937922.04808  20387206.71100  20387206.18400  20387204.64400
       250.00000       207.00000
 04  8 24  0 22 30.0000000  0 11G29G18G15G 9G 8G17G10G26G22G21G 3
 -16199031.37108 -12622619.71208  21201810.08500  21201810.09300  21201809.77900
       194.00000       127.00000
 -15316760.70508 -11935135.99407  21724851.08700  21724850.89400  21724850.18000
       181.00000        66.00000
  -6764064.57206  -5270698.50506  23249218.62900  23249218.46500  23249219.11600
        26.00000        15.00000
  -5594662.01406  -4359475.71606  23567509.03700  23567508.71400  23567510.46600
        25.00000        17.00000
  -4157318.59706  -3239467.77005  24650012.31500  24650011.72900  24650014.47000
        13.00000         5.00000
  -1502730.68505  -1170968.31505  24147114.07300  24147114.58100  24147118.63600
         9.00000         8.00000
  -2923287.04906  -2277891.39306  23705071.39500  23705070.65000  23705073.81200
        26.00000        19.00000
 -21226062.57408 -16539786.62408  20205170.16900  20205170.04300  20205169.75000
       312.00000       202.00000
  -3088384.42506  -2406532.97505  24345280.43200  24345279.71700  24345277.76500
        16.00000         6.00000
 -26897827.43208 -20959345.12708  20381974.70700  20381974.29900  20381972.92400
       248.00000       209.00000
         -.01215         -.00914  24717726.48900  24717725.79000  24717726.48500
         5.00000         1.00000
 04  8 24  0 23  0.0000000  0 10G29G18G15G 9G 8G17G10G26G22G21
 -16138806.89508 -12575691.56808  21213270.45200  21213270.62200  21213270.23000
       198.00000       127.00000
 -15383978.76508 -11987513.68107  21712059.93600  21712059.78500  21712059.12000
       183.00000        66.00000
  -6867805.07406  -5351535.23906  23229477.05300  23229476.50700  23229478.16500
        22.00000        17.00000
  -5710866.24806  -4450024.44506  23545394.68500  23545394.87000  23545397.71600
        23.00000        14.00000
  -4083078.69406  -3181618.56605  24664138.91100  24664138.92500  24664141.83300
        12.00000         5.00000
  -1389300.87005  -1082581.54205  24168700.80800  24168700.00800  24168702.56400
         9.00000         5.00000
  -2832985.56106  -2207526.67906  23722255.13200  23722253.97000  23722256.44400
        25.00000        16.00000
 -21179891.51809 -16503809.18708  20213955.97700  20213956.07500  20213955.79400
       318.00000       199.00000
  -3178286.46206  -2476586.50905  24328172.51000  24328171.98200  24328170.00100
        14.00000         7.00000
 -26924798.09008 -20980361.22808  20376842.38100  20376841.93100  20376840.52200
       249.00000       209.00000
 04  8 24  0 23 30.0000000  0 10G29G18G15G 9G 8G17G10G26G22G21
 -16078245.13708 -12528500.60308  21224795.13200  21224795.07900  21224794.90200
       193.00000       128.00000
 -15450996.42308 -12039735.21407  21699307.23800  21699306.96100  21699305.80600
       183.00000        63.00000
  -6971352.49306  -5432221.52706  23209772.64400  23209772.13900  23209773.19300
        24.00000        17.00000
  -5826945.46906  -4540475.74206  23523306.27100  23523305.92100  23523309.02900
        28.00000        16.00000
  -4008418.98806  -3123442.22904  24678348.25700  24678347.29000  24678348.89100
        13.00000         3.00000
  -1275718.47005   -994075.86605  24190315.87200  24190314.26200  24190317.25300
         9.00000         5.00000
  -2742598.66606  -2137095.40706  23739455.29200  23739454.31100  23739457.45300
        25.00000        18.00000
 -21133209.43209 -16467433.54508  20222839.34800  20222839.54000  20222839.13000
       324.00000       200.00000
  -3268138.22805  -2546600.85305  24311073.71700  24311072.98500  24311071.25300
         9.00000         7.00000
 -26951227.21408 -21000955.35208  20371813.14500  20371812.80500  20371811.32200
       256.00000       213.00000
 04  8 24  0 24  0.0000000  0 10G29G18G15G 9G 8G17G10G26G22G21
 -16017309.12608 -12481018.01508  21236390.65300  21236390.69200  21236390.72900
       187.00000       127.00000
 -15517773.57208 -12091769.34507  21686600.01300  21686599.64600  21686598.71100
       182.00000        68.00000
  -7074665.31006  -5512724.99406  23190113.87100  23190112.95500  23190113.98500
        26.00000        21.00000
  -5942857.39706  -4630796.71206  23501249.45200  23501248.79000  23501250.94400
        31.00000        14.00000
  -3933303.34806  -3064910.57705  24692640.29800  24692640.79600  24692642.47000
        11.00000         4.00000
  -1161946.87105   -905422.79705  24211966.16700  24211964.14600  24211967.39800
         8.00000         6.00000
  -2652088.24206  -2066567.89006  23756680.17600  23756678.67500  23756681.06700
        26.00000        16.00000
 -21085979.60809 -16430631.09008  20231827.30300  20231827.10200  20231826.62000
       318.00000       200.00000
  -3357900.19406  -2616545.15505  24293993.20100  24293993.15600  24293991.01400
        11.00000         6.00000
 -26977074.13708 -21021095.82308  20366895.03300  20366894.45300  20366892.86300
       257.00000       215.00000
 04  8 24  0 24 30.0000000  0 11G29G18G15G 9G 8G17G10G26G22G21G 3
 -15956028.95608 -12433267.25408  21248052.48400  21248052.21700  21248051.79600
       194.00000       121.00000
 -15584337.64408 -12143637.43907  21673933.07400  21673932.92000  21673931.95300
       190.00000        71.00000
  -7177769.09806  -5593065.58706  23170491.89400  23170491.79400  23170493.67100
        23.00000        21.00000
  -6058626.82506  -4721006.62706  23479219.41300  23479218.76100  23479221.46600
        23.00000        18.00000
  -3857761.86406  -3006047.17805  24707015.62300  24707015.11100  24707017.65300
        13.00000         4.00000
  -1048015.87905   -816645.53405  24233644.78500  24233644.90600  24233647.22200
         9.00000         6.00000
  -2561483.06006  -1995966.49606  23773919.40000  23773918.81300  23773921.81600
        21.00000        13.00000
 -21038232.15708 -16393425.28708  20240912.73900  20240912.88400  20240912.78500
       310.00000       202.00000
  -3447599.58906  -2686440.77105  24276924.05400  24276923.27200  24276920.83300
        13.00000         7.00000
 -27002365.36708 -21040803.28008  20362082.28700  20362081.68400  20362080.13100
       259.00000       219.00000
         -.30110         -.97714  24686706.00900  24686703.61900  24686708.10200
          .00000         3.00000
 04  8 24  0 25  0.0000000  0 11G29G18G15G 9G 8G17G10G26G22G21G 3
 -15894401.00708 -12385245.48608  21259779.86300  21259779.55000  21259779.06400
       192.00000       116.00000
 -15650681.90308 -12195334.25707  21661308.01200  21661307.77300  21661306.78200
       194.00000        71.00000
  -7280655.41806  -5673236.72906  23150914.01900  23150913.61200  23150915.25800
        25.00000        22.00000
  -6174244.84306  -4811098.52406  23457216.99600  23457217.31800  23457219.43100
        25.00000        16.00000
  -3781791.96706  -2946849.89705  24721472.66800  24721472.24100  24721475.34500
        11.00000         4.00000
   -933921.72305   -727741.11405  24255356.06300  24255356.04300  24255358.65300
         8.00000         6.00000
  -2470778.02906  -1925287.33906  23791180.58400  23791180.00900  23791182.81300
        26.00000        16.00000
 -20989963.59308 -16355813.43908  20250097.87000  20250098.15700  20250097.96200
       314.00000       197.00000
  -3537230.22606  -2756282.77905  24259866.31100  24259866.54000  24259864.78400
        11.00000        10.00000
 -27027093.83408 -21060072.22008  20357376.36400  20357375.97000  20357374.57900
       260.00000       222.00000
    -39465.25604    -30752.82104  24679194.64000  24679194.45200  24679196.94200
         1.00000         3.00000
 04  8 24  0 25 30.0000000  0 11G29G18G15G 9G 8G17G10G26G22G21G 3
 -15832444.88508 -12336968.00908  21271569.86800  21271569.52600  21271568.98500
       189.00000       117.00000
 -15716823.14008 -12246872.87507  21648722.07600  21648721.61900  21648720.75600
       195.00000        72.00000
  -7383339.44106  -5753250.23006  23131374.28400  23131373.73300  23131375.17200
        25.00000        22.00000
  -6289725.89507  -4901083.74806  23435243.03200  23435242.83300  23435244.07900
        36.00000        13.00000
  -3705413.04505  -2887333.92304  24736007.71500  24736007.04500  24736009.78900
         9.00000         3.00000
   -819684.17405   -638724.96005  24277094.47000  24277095.13800  24277098.15600
         6.00000         8.00000
  -2379991.33706  -1854544.55306  23808457.96300  23808457.00400  23808458.59100
        25.00000        13.00000
 -20941193.96608 -16317811.14408  20259379.00400  20259378.98400  20259378.42400
       315.00000       194.00000
  -3626809.14506  -2826084.49105  24242819.70100  24242820.11400  24242818.55700
        13.00000         8.00000
 -27051275.55808 -21078915.13408  20352774.76000  20352774.20800  20352772.84900
       248.00000       221.00000
    -78431.05005    -61115.72004  24671781.23800  24671780.03500  24671780.24900
         5.00000         2.00000
 04  8 24  0 26  0.0000000  0 11G29G18G15G 9G 8G17G10G26G22G21G 3
 -15770139.67108 -12288418.50808  21283426.05200  21283425.78300  21283425.39000
       188.00000       120.00000
 -15782737.59008 -12298234.77607  21636178.96100  21636178.50600  21636177.49800
       199.00000        75.00000
  -7485795.55606  -5833086.14306  23111877.39900  23111876.75900  23111878.55300
        21.00000        24.00000
  -6405043.61506  -4990941.68206  23413297.56000  23413297.55000  23413300.50500
        26.00000        15.00000
  -3628604.91705  -2827483.49504  24750622.35700  24750622.51600  24750624.68600
         8.00000         3.00000
   -705282.17005   -549580.70705  24298865.43200  24298863.79900  24298868.48400
         7.00000         7.00000
  -2289100.68106  -1783720.74106  23825753.55900  23825752.65600  23825754.46700
        24.00000        12.00000
 -20891902.56108 -16279402.26608  20268759.29300  20268758.98400  20268758.19900
       315.00000       191.00000
  -3716312.90306  -2895827.65205  24225787.94600  24225787.33500  24225787.27500
        12.00000        10.00000
 -27074886.44308 -21097313.22708  20348281.66300  20348281.21400  20348279.78100
       246.00000       221.00000
   -116873.44505    -91070.83204  24664465.90200  24664465.00400  24664465.61500
        10.00000         3.00000
 04  8 24  0 26 30.0000000  0 10G29G18G15G 9G17G10G26G22G21G 3
 -15707508.34908 -12239614.90008  21295344.10900  21295343.89500  21295343.76000
       180.00000       117.00000
 -15848445.22008 -12349435.51107  21623675.46700  21623674.81400  21623673.93400
       197.00000        77.00000
  -7588042.29506  -5912758.90306  23092420.55700  23092419.98100  23092421.39600
        28.00000        19.00000
  -6520215.61907  -5080686.09006  23391381.16000  23391381.32800  23391383.78500
        33.00000        18.00000
   -590738.87105   -460326.33205  24320663.60900  24320662.77500  24320665.58400
         7.00000         6.00000
  -2198127.56406  -1712832.69506  23843064.47500  23843064.03300  23843066.82100
        23.00000        15.00000
 -20842112.52908 -16240604.84608  20278233.06300  20278233.26300  20278232.92800
       311.00000       191.00000
  -3805761.68906  -2965527.97906  24208766.88200  24208766.78200  24208766.33600
        16.00000        12.00000
 -27097945.87708 -21115281.62308  20343893.72600  20343893.19200  20343891.79100
       248.00000       224.00000
   -154812.24206   -120633.53404  24657246.40900  24657245.38300  24657245.04000
        13.00000         3.00000
 04  8 24  0 27  0.0000000  0 10G29G18G15G 9G17G10G26G22G21G 3
 -15644530.46808 -12190541.24008  21307328.41500  21307328.12100  21307327.95200
       177.00000       116.00000
 -15913922.68908 -12400456.88907  21611215.02800  21611214.81100  21611213.93700
       198.00000        78.00000
  -7690054.40106  -5992248.85706  23073008.07100  23073006.93500  23073008.64300
        23.00000        16.00000
  -6635215.93107  -5170296.68406  23369497.81200  23369497.30100  23369499.55800
        32.00000        19.00000
   -476033.81005   -370945.90605  24342491.45700  24342489.90000  24342492.66900
         6.00000         6.00000
  -2107050.26706  -1641863.47906  23860397.15300  23860396.49300  23860397.98600
        25.00000        15.00000
 -20791803.75608 -16201403.22108  20287806.43000  20287806.65900  20287806.63900
       306.00000       195.00000
  -3895132.36306  -3035167.41506  24191759.30800  24191758.91700  24191758.96100
        18.00000        13.00000
 -27120429.68308 -21132801.47808  20339615.21400  20339614.54000  20339613.28300
       244.00000       224.00000
   -192223.79806   -149785.40305  24650127.38300  24650126.69300  24650127.83800
        19.00000         5.00000
 04  8 24  0 27 30.0000000  0 11G29G18G15G 9G17G10G26G22G21G 3G 8
 -15581230.40208 -12141216.53708  21319374.08200  21319373.84100  21319373.63700
       179.00000       117.00000
 -15979191.31308 -12451315.54207  21598794.95300  21598794.82800  21598793.38400
       198.00000        76.00000
  -7791851.53606  -6071571.29106  23053636.39300  23053635.92200  23053637.86100
        28.00000        20.00000
  -6750063.84907  -5259788.53706  23347644.50000  23347643.81500  23347644.50900
        34.00000        15.00000
   -361191.16905   -281458.28105  24364345.31900  24364343.76700  24364347.54100
         6.00000         7.00000
  -2015891.65106  -1570830.84506  23877744.99200  23877743.62300  23877744.90100
        22.00000        15.00000
 -20741000.70108 -16161816.44208  20297474.49600  20297474.41500  20297474.12600
       307.00000       194.00000
  -3984446.66306  -3104762.94006  24174763.31900  24174763.53000  24174762.54300
        20.00000        13.00000
 -27142359.16608 -21149889.39408  20335441.99500  20335441.55800  20335440.17500
       246.00000       223.00000
   -229129.43906   -178543.04605  24643102.98000  24643103.02100  24643104.29200
        16.00000         4.00000
         -.53015         -.52514  24794942.09700  24794941.48400  24794942.55400
        10.00000         1.00000
 04  8 24  0 28  0.0000000  0 10G29G18G15G 9G17G10G26G22G21G 3
 -15517600.56608 -12091634.86908  21331482.42900  21331482.40700  21331481.96800
       182.00000       114.00000
 -16044240.37608 -12502003.10707  21586416.71700  21586416.06600  21586415.45200
       194.00000        79.00000
  -7893421.36206  -6150716.60506  23034308.36700  23034307.96500  23034309.13800
        29.00000        17.00000
  -6864746.40306  -5349151.53606  23325820.60000  23325820.10100  23325821.35100
        27.00000        18.00000
   -246203.35905   -191857.52205  24386225.81500  24386225.27000  24386228.43000
         8.00000         8.00000
  -1924642.59506  -1499727.78006  23895107.84100  23895106.57200  23895109.56200
        21.00000        16.00000
 -20689696.04908 -16121838.80608  20307237.68500  20307237.43200  20307237.07000
       311.00000       189.00000
  -4073694.29806  -3174306.54006  24157780.65700  24157780.63000  24157779.84900
        23.00000        15.00000
 -27163723.05908 -21166536.59208  20331376.60400  20331376.27500  20331374.78200
       253.00000       224.00000
   -265518.50606   -206898.17205  24636180.31200  24636179.63600  24636181.00100
        11.00000         4.00000
 04  8 24  0 28 30.0000000  0 10G29G18G15G 9G17G10G26G22G21G 3
 -15453651.00508 -12041804.06108  21343651.54400  21343651.38100  21343651.15300
       174.00000       111.00000
 -16109077.51608 -12552525.53907  21574078.49600  21574078.30900  21574077.11700
       202.00000        76.00000
  -7994769.53806  -6229689.20806  23015022.73400  23015022.02100  23015023.22300
        29.00000        20.00000
  -6979268.23607  -5438389.29906  23304026.08800  23304026.30700  23304029.12100
        35.00000        22.00000
   -131080.49805   -102151.56005  24408132.66400  24408131.78800  24408135.15400
         9.00000         5.00000
  -1833312.03606  -1428561.19706  23912487.86800  23912486.77000  23912489.87100
        23.00000        17.00000
 -20637900.25009 -16081478.45308  20317093.63900  20317093.77300  20317093.27800
       319.00000       182.00000
  -4162882.71506  -3243803.97106  24140808.12300  24140808.23500  24140807.97600
        22.00000        16.00000
 -27184528.13008 -21182748.34308  20327417.92300  20327417.22600  20327415.65200
       252.00000       222.00000
   -301398.06805   -234856.34104  24629351.50800  24629350.33300  24629353.26300
         8.00000         3.00000
 04  8 24  0 29  0.0000000  0 10G29G18G15G 9G17G10G26G22G21G 3
 -15389355.43208 -11991703.63608  21355886.65800  21355886.40500  21355886.27900
       173.00000       109.00000
 -16173673.44308 -12602860.02407  21561786.01400  21561785.82400  21561784.83000
       210.00000        75.00000
  -8095865.11406  -6308464.94206  22995784.97000  22995784.17000  22995785.72500
        30.00000        21.00000
  -7093597.72307  -5527477.17206  23282270.08600  23282270.51300  23282272.65700
        39.00000        21.00000
    -15796.29605    -12319.84205  24430070.45300  24430070.31700  24430072.92500
         9.00000         6.00000
  -1741872.10606  -1357309.38406  23929888.28400  23929887.96400  23929889.60100
        24.00000        13.00000
 -20585587.26108 -16040715.10208  20327048.40400  20327048.64800  20327048.02400
       316.00000       179.00000
  -4251982.96006  -3313232.70106  24123854.86400  24123854.31600  24123852.23500
        28.00000        16.00000
 -27204744.49808 -21198501.36708  20323570.62800  20323570.08200  20323568.62300
       255.00000       221.00000
   -336738.12405   -262394.06404  24622625.49500  24622625.43900  24622627.43100
         6.00000         3.00000
 04  8 24  0 29 30.0000000  0 11G29G18G15G 9G17G10G26G22G21G 3G 8
 -15324771.79008 -11941378.73408  21368176.83500  21368176.39700  21368176.13900
       168.00000       110.00000
 -16238082.89708 -12653049.20207  21549529.41500  21549529.02100  21549528.25900
       205.00000        78.00000
  -8196761.03307  -6387085.13506  22976585.07200  22976584.80700  22976585.72300
        33.00000        21.00000
  -7207787.33807  -5616456.05006  23260541.78100  23260540.89600  23260543.20400
        33.00000        23.00000
     99591.45405     77592.56205  24452028.37400  24452028.81000  24452030.52800
        10.00000         4.00000
  -1650379.33106  -1286016.40106  23947299.35400  23947298.04000  23947300.60800
        20.00000        15.00000
 -20532815.35408 -15999594.15308  20337090.84000  20337090.82500  20337090.25400
       306.00000       180.00000
  -4341050.21506  -3382635.73106  24106904.54900  24106904.07100  24106903.15900
        21.00000        12.00000
 -27224426.83808 -21213838.26708  20319825.46800  20319824.78200  20319823.14100
       252.00000       220.00000
   -371593.92005   -289554.43505  24615992.45300  24615991.89500  24615994.72500
         4.00000         4.00000
         -.71815         -.24010  24855115.31400  24855114.12700  24855114.28100
         4.00000          .00000
 04  8 24  0 30  0.0000000  0 10G29G18G15G 9G 3G17G10G26G22G21
 -15259866.33508 -11890803.08008  21380527.56500  21380527.47000  21380527.26100
       167.00000       110.00000
 -16302269.23208 -12703064.51707  21537315.44100  21537314.82200  21537313.71200
       206.00000        79.00000
  -8297418.92807  -6465519.84106  22957431.91800  22957430.92600  22957431.42700
        35.00000        22.00000
  -7321798.20807  -5705295.63406  23238846.10600  23238845.78500  23238846.55200
        41.00000        16.00000
   -405928.97605   -316309.02404  24609458.72300  24609458.89800  24609459.86500
         4.00000         2.00000
    215116.19605    167611.70105  24474012.59900  24474012.29700  24474015.33700
         9.00000         5.00000
  -1558798.76106  -1214655.01806  23964724.65700  23964724.42800  23964728.17600
        22.00000        16.00000
 -20479551.11208 -15958089.55908  20347226.60900  20347226.58400  20347226.34100
       301.00000       184.00000
  -4430048.22106  -3451984.79806  24089967.86900  24089968.04600  24089967.06200
        20.00000        11.00000
 -27243538.22708 -21228730.26308  20316188.32300  20316187.90100  20316186.36600
       247.00000       219.00000
 04  8 24  0 30 30.0000000  0  9G29G18G15G 9G17G10G26G22G21
 -15194615.12608 -11839958.01108  21392944.89700  21392944.75200  21392944.15300
       177.00000       110.00000
 -16366205.65008 -12752885.09607  21525148.61300  21525148.20500  21525147.10700
       213.00000        79.00000
  -8397810.30307  -6543746.85206  22938327.39500  22938326.40500  22938328.02800
        33.00000        25.00000
  -7435601.13906  -5793973.20006  23217187.27000  23217187.88400  23217191.69100
        29.00000        21.00000
    330801.85905    257756.24105  24496027.81900  24496026.19700  24496029.72000
         9.00000         6.00000
  -1467104.84906  -1143205.28606  23982173.92400  23982174.06400  23982176.84400
        22.00000        15.00000
 -20425770.90108 -15916182.91408  20357460.37900  20357460.53500  20357460.50500
       301.00000       188.00000
  -4518950.17606  -3521259.01406  24073052.32100  24073051.84100  24073049.66600
        20.00000        13.00000
 -27262051.44808 -21243156.15508  20312665.24900  20312664.80900  20312663.49300
       248.00000       220.00000
 04  8 24  0 31  0.0000000  0 10G29G18G15G 9G17G10G26G22G21G 3
 -15129033.96708 -11788855.83508  21405424.54400  21405424.35000  21405423.78800
       178.00000       106.00000
 -16429904.69208 -12802520.70607  21513027.06900  21513026.65300  21513025.63500
       211.00000        81.00000
  -8497946.14407  -6621774.76406  22919272.14300  22919271.14800  22919272.34000
        32.00000        22.00000
  -7549206.35507  -5882496.67606  23195570.29300  23195570.57500  23195572.78500
        38.00000        23.00000
    446632.91405    348014.06705  24518067.36600  24518067.13800  24518071.79200
         8.00000         5.00000
  -1375312.01706  -1071678.50806  23999643.47900  23999642.20500  23999644.90300
        18.00000        16.00000
 -20371490.82608 -15873886.77508  20367789.99500  20367789.87900  20367789.63900
       306.00000       185.00000
  -4607769.30706  -3590468.67806  24056147.94600  24056148.78900  24056148.82700
        17.00000        14.00000
 -27279978.81508 -21257125.54208  20309254.17100  20309253.53000  20309252.06800
       247.00000       222.00000
        -1.11216         -.29314  24596703.30700  24596702.58100  24596703.26500
        11.00000         2.00000
 04  8 24  0 31 30.0000000  0 11G29G18G15G 9G17G10G26G22G21G 3G 8
 -15063140.39108 -11737510.21208  21417963.68100  21417963.35800  21417962.89400
       174.00000       105.00000
 -16493381.04808 -12851982.79107  21500947.60800  21500947.45300  21500946.50200
       212.00000        82.00000
  -8597839.25106  -6699613.52206  22900262.51700  22900262.11700  22900263.46800
        28.00000        22.00000
  -7662625.79007  -5970875.40106  23173988.73000  23173988.01400  23173989.56200
        36.00000        23.00000
    562591.93105    438371.60505  24540133.54100  24540134.05300  24540138.74800
         4.00000         6.00000
  -1283436.05406  -1000086.90006  24017126.22200  24017125.58700  24017127.92300
        21.00000        14.00000
 -20316728.65808 -15831214.96908  20378211.06800  20378210.88400  20378210.35700
       307.00000       179.00000
  -4696520.12306  -3659625.13605  24039261.74000  24039261.23000  24039259.31400
        22.00000        10.00000
 -27297334.30608 -21270649.30908  20305951.23200  20305950.84200  20305949.39800
       247.00000       222.00000
    -32732.18805    -25505.02605  24590474.87700  24590474.15800  24590474.63900
         9.00000         4.00000
         -.41514         -.31710  24916500.55000  24916500.83600  24916501.32600
         3.00000          .00000
 04  8 24  0 32  0.0000000  0 10G29G18G15G 9G17G10G26G22G21G 3
 -14996980.72508 -11685957.24808  21430553.08300  21430553.04700  21430552.90500
       169.00000       106.00000
 -16556678.33408 -12901305.33907  21488903.18800  21488902.67000  21488901.35100
       216.00000        80.00000
  -8697531.52306  -6777295.79206  22881291.63100  22881291.25000  22881292.34600
        31.00000        23.00000
  -7775900.77307  -6059141.56306  23152433.87600  23152433.46100  23152434.47800
        48.00000        23.00000
    678632.18605    528792.43105  24562217.34600  24562215.50900  24562220.56300
         7.00000         7.00000
  -1191522.30006   -928465.88006  24034616.60000  24034616.11000  24034619.02600
        22.00000        14.00000
 -20261531.17208 -15788203.95308  20388714.83900  20388714.61000  20388714.04400
       300.00000       176.00000
  -4785246.76606  -3728762.77206  24022377.36400  24022376.28700  24022375.02700
        19.00000        12.00000
 -27314161.56808 -21283761.47208  20302749.48500  20302748.88400  20302747.21100
       249.00000       221.00000
    -64985.99006    -50637.85505  24584335.72000  24584336.17100  24584337.19200
        12.00000         5.00000
 04  8 24  0 32 30.0000000  0 10G29G18G15G 9G17G10G26G22G21G 3
 -14930483.30508 -11634141.09508  21443207.38500  21443207.17200  21443206.74100
       175.00000       103.00000
 -16619721.58908 -12950429.94207  21476906.09300  21476905.64000  21476904.42600
       219.00000        79.00000
  -8796946.58607  -6854762.04006  22862373.95300  22862373.13500  22862374.20800
        32.00000        20.00000
  -7888954.07207  -6147234.97106  23130918.09400  23130918.06100  23130920.78700
        32.00000        24.00000
    794825.41805    619332.46705  24584327.59400  24584327.02500  24584330.78600
         5.00000         5.00000
  -1099497.60206   -856758.40306  24052128.02700  24052127.47300  24052129.91000
        20.00000        13.00000
 -20205826.96808 -15744798.09508  20399314.91000  20399314.69700  20399314.18400
       299.00000       175.00000
  -4873874.75006  -3797823.50606  24005511.66600  24005511.41100  24005510.05000
        19.00000        11.00000
 -27330385.47208 -21296403.48308  20299662.08400  20299661.42900  20299659.84100
       246.00000       221.00000
    -96687.98106    -75340.72305  24578303.64400  24578303.34900  24578304.94400
        12.00000         5.00000
 04  8 24  0 33  0.0000000  0 10G29G18G15G 9G17G10G26G22G21G 3
 -14863686.67408 -11582091.79107  21455918.58600  21455918.35200  21455917.65600
       174.00000       100.00000
 -16682546.64208 -12999384.52607  21464951.02600  21464950.69500  21464949.37300
       232.00000        80.00000
  -8896118.23107  -6932038.63806  22843502.09000  22843501.36300  22843502.54400
        34.00000        22.00000
  -8001818.94407  -6235181.55206  23109440.26800  23109440.78600  23109443.58400
        35.00000        23.00000
    911133.14704    709961.76304  24606460.14800  24606459.04900  24606462.91000
         3.00000         2.00000
  -1007399.11806   -784993.45206  24069654.57400  24069653.60000  24069655.99500
        21.00000        13.00000
 -20149654.90908 -15701027.67408  20410003.49400  20410003.71100  20410003.55400
       292.00000       176.00000
  -4962439.87006  -3866835.26106  23988657.95400  23988657.73500  23988656.46000
        21.00000        11.00000
 -27346041.25808 -21308602.80408  20296682.61200  20296682.18000  20296680.87300
       248.00000       226.00000
   -127873.81405    -99641.38705  24572368.68100  24572368.53300  24572370.06600
        10.00000         4.00000
 04  8 24  0 33 30.0000000  0 11G29G18G15G 9G17G10G26G22G21G 3G 8
 -14796572.93808 -11529795.39408  21468690.06500  21468689.69000  21468689.28700
       172.00000       104.00000
 -16745132.80808 -13048152.96007  21453041.21000  21453040.77400  21453039.46100
       232.00000        80.00000
  -8995023.78407  -7009107.89306  22824681.45700  22824680.47800  22824681.40700
        38.00000        20.00000
  -8114472.04007  -6322963.15406  23088004.90100  23088004.57000  23088005.55300
        43.00000        19.00000
   1027573.27204    800694.17604  24628618.46500  24628618.22800  24628620.45700
         1.00000         2.00000
   -915207.50906   -713155.91206  24087197.75200  24087197.38800  24087199.27300
        23.00000        13.00000
 -20092997.61308 -15656879.15008  20420785.08700  20420785.36100  20420785.19400
       290.00000       179.00000
  -5050921.60906  -3935782.04705  23971820.97000  23971820.84000  23971818.72400
        26.00000        10.00000
 -27361107.80808 -21320342.98508  20293815.85800  20293815.30500  20293813.80400
       251.00000       229.00000
   -158522.72406   -123523.64605  24566537.66600  24566536.73600  24566538.11800
        12.00000         4.00000
         -.98714         -.22010  24979054.43000  24979053.28000  24979054.56000
         3.00000          .00000
 04  8 24  0 34  0.0000000  0 10G29G18G15G 9G17G10G26G22G21G 3
 -14729132.24408 -11477244.22408  21481523.64600  21481523.22600  21481523.03600
       170.00000       106.00000
 -16807466.82408 -13096724.91707  21441179.14900  21441178.78700  21441177.75500
       222.00000        80.00000
  -9093648.57707  -7085958.36206  22805913.20900  22805912.71900  22805913.69900
        40.00000        22.00000
  -8226898.14407  -6410567.83606  23066611.21500  23066610.72500  23066612.12300
        41.00000        25.00000
   1144155.59705    891537.44404  24650802.86100  24650803.70800  24650805.63400
         4.00000         3.00000
   -822911.45106   -641237.00106  24104761.31200  24104760.53600  24104763.14300
        18.00000        13.00000
 -20035845.50308 -15612345.05308  20431661.38300  20431661.23700  20431661.04700
       294.00000       181.00000
  -5139307.32506  -4004654.01306  23955001.94800  23955001.58700  23954999.45900
        23.00000        11.00000
 -27375572.32008 -21331614.04408  20291063.29100  20291062.69100  20291061.26000
       249.00000       230.00000
   -188621.86006   -146977.50604  24560810.11500  24560809.53100  24560809.81400
        14.00000         2.00000
 04  8 24  0 34 30.0000000  0 10G29G18G15G 9G17G10G26G22G21G 3
 -14661412.80108 -11424475.84808  21494410.10500  21494409.69400  21494409.59700
       165.00000       106.00000
 -16869594.37208 -13145135.98607  21429356.79500  21429356.46700  21429355.12200
       222.00000        83.00000
  -9192036.26507  -7162624.08306  22787190.54800  22787190.04000  22787191.43800
        40.00000        23.00000
  -8339140.35607  -6498029.21506  23045250.67500  23045250.33400  23045253.17400
        35.00000        28.00000
   1260831.78505    982453.81004  24673005.78900  24673006.69000  24673008.45000
         5.00000         3.00000
   -730557.82906   -569273.21306  24122336.05500  24122335.04300  24122337.06600
        20.00000        12.00000
 -19978247.22708 -15567463.29508  20442621.66200  20442621.72700  20442621.49900
       294.00000       177.00000
  -5227642.65706  -4073486.70406  23938191.63200  23938191.74500  23938189.99600
        23.00000        14.00000
 -27389479.68808 -21342450.96308  20288416.87200  20288416.30800  20288414.78700
       249.00000       231.00000
   -218216.64506   -170038.38904  24555177.23200  24555178.17100  24555176.88700
        14.00000         1.00000
 04  8 24  0 35  0.0000000  0  9G29G18G15G 9G17G10G26G22G21
 -14593377.57908 -11371461.41108  21507356.55900  21507356.06900  21507356.12200
       157.00000       101.00000
 -16931475.09808 -13193354.72307  21417581.81700  21417581.14900  21417579.88700
       217.00000        87.00000
  -9290144.98507  -7239072.42706  22768520.94300  22768519.95300  22768521.37800
        32.00000        22.00000
  -8451156.14907  -6585314.20506  23023934.96300  23023934.64500  23023936.75300
        44.00000        24.00000
   1377638.82804   1073472.13704  24695234.25200  24695233.18400  24695236.84700
         2.00000         1.00000
   -638108.08806   -497234.52906  24139926.65200  24139926.80200  24139930.05700
        17.00000        13.00000
 -19920166.04708 -15522205.25008  20453674.27900  20453674.17500  20453673.85800
       294.00000       171.00000
  -5315887.62406  -4142248.95506  23921400.46700  23921399.81800  23921398.19400
        17.00000        13.00000
 -27402789.53108 -21352822.28008  20285884.18000  20285883.61200  20285882.02600
       251.00000       234.00000
 04  8 24  0 35 30.0000000  0  9G29G18G15G 9G10G26G22G21G 3
 -14525035.22008 -11318207.64707  21520361.37900  21520361.47900  21520361.24500
       163.00000        99.00000
 -16993114.85808 -13241385.69807  21405851.12300  21405851.01100  21405850.23800
       211.00000        88.00000
  -9387978.87107  -7315306.61106  22749903.47600  22749903.05000  22749904.47800
        36.00000        22.00000
  -8562948.95307  -6672425.42706  23002661.77800  23002661.34100  23002663.19800
        45.00000        21.00000
   -545569.43806   -425126.56406  24157538.07700  24157536.90000  24157539.50000
        18.00000        13.00000
 -19861611.15908 -15476578.08008  20464816.69700  20464816.75800  20464816.38100
       292.00000       168.00000
  -5404048.42006  -4210945.63206  23904623.59800  23904623.34000  23904621.22200
        25.00000        11.00000
 -27415507.54708 -21362732.42908  20283463.51300  20283463.01200  20283461.98900
       243.00000       234.00000
         -.27815         -.38414  24544223.53500  24544222.73800  24544223.35100
         8.00000         2.00000
 04  8 24  0 36  0.0000000  0  8G29G18G15G 9G10G26G22G21
 -14456432.53908 -11264751.03107  21533416.42600  21533416.19800  21533415.77100
       164.00000        95.00000
 -17054557.39108 -13289262.98707  21394159.56700  21394159.12200  21394158.14300
       218.00000        89.00000
  -9485580.00106  -7391359.41506  22731330.45700  22731329.78300  22731330.64300
        31.00000        20.00000
  -8674559.99507  -6759395.02406  22981423.74200  22981423.38300  22981424.72900
        46.00000        24.00000
   -452987.22106   -352984.66306  24175155.18200  24175154.87400  24175157.70800
        20.00000        14.00000
 -19802629.68508 -15430618.50608  20476040.39600  20476040.51800  20476040.21000
       291.00000       166.00000
  -5492169.21306  -4279611.17306  23887854.00900  23887854.04400  23887852.18200
        21.00000        11.00000
 -27427677.21408 -21372215.30108  20281148.04600  20281147.52400  20281146.07000
       245.00000       233.00000
 04  8 24  0 36 30.0000000  0  9G29G18G15G 9G10G26G22G21G 3
 -14387526.57708 -11211058.09307  21546528.86700  21546528.66300  21546528.06900
       163.00000        93.00000
 -17115756.81408 -13336950.84307  21382513.00900  21382512.94200  21382512.22300
       218.00000        89.00000
  -9582900.51507  -7467193.56806  22712811.18900  22712810.61700  22712812.09400
        37.00000        23.00000
  -8785940.82807  -6846185.20306  22960228.06900  22960227.62300  22960229.96100
        46.00000        26.00000
   -360317.10306   -280774.25706  24192789.73700  24192788.55400  24192792.15700
        16.00000        13.00000
 -19743179.03408 -15384293.34208  20487353.64100  20487353.78400  20487353.36900
       295.00000       167.00000
  -5580204.09506  -4348209.70806  23871100.88700  23871100.73000  23871099.36200
        18.00000        13.00000
 -27439253.03208 -21381235.42608  20278945.09000  20278944.59500  20278943.26200
       240.00000       231.00000
         -.64415          .48714  24533663.80600  24533663.02800  24533664.80400
         6.00000         3.00000
 04  8 24  0 37  0.0000000  0  9G29G18G15G 9G10G26G22G21G 3
 -14318320.73208 -11157131.48007  21559698.06400  21559698.06500  21559697.67800
       160.00000        94.00000
 -17176713.38608 -13384449.46107  21370913.56400  21370913.34000  21370912.55200
       223.00000        89.00000
  -9679938.90807  -7542807.88906  22694344.57700  22694344.62500  22694346.10500
        39.00000        23.00000
  -8897089.49607  -6932794.51806  22939076.43100  22939076.54400  22939078.30300
        49.00000        23.00000
   -267560.99006   -208496.83906  24210440.47200  24210440.05100  24210443.01700
        18.00000        12.00000
 -19683263.14908 -15337605.65008  20498755.67600  20498755.48400  20498755.06600
       295.00000       167.00000
  -5668153.91906  -4416742.00905  23854363.22500  23854364.00000  23854362.69800
        21.00000        10.00000
 -27450234.66808 -21389792.55408  20276855.49900  20276854.98500  20276853.67200
       241.00000       233.00000
    -26938.68905    -20990.21704  24528536.48000  24528536.66100  24528538.29800
         9.00000         3.00000
 04  8 24  0 37 30.0000000  0  9G29G18G15G 9G10G26G22G21G 3
 -14248803.06608 -11102961.89207  21572927.08400  21572926.84600  21572926.59200
       155.00000        94.00000
 -17237412.51508 -13431747.48007  21359363.07000  21359362.77700  21359361.92600
       231.00000        90.00000
  -9776678.73407  -7618189.56506  22675937.44500  22675936.47600  22675937.15800
        41.00000        23.00000
  -9007988.98507  -7019209.68006  22917973.11100  22917972.66400  22917974.08900
        44.00000        21.00000
   -174705.73206   -136142.14506  24228110.79000  24228109.79700  24228113.17000
        17.00000        13.00000
 -19622870.48308 -15290546.44508  20510248.01700  20510247.91600  20510247.42400
       290.00000       165.00000
  -5756004.07406  -4485196.64506  23837647.73300  23837647.57700  23837645.33200
        24.00000        11.00000
 -27460607.84308 -21397875.55708  20274881.62500  20274881.11200  20274879.60400
       242.00000       231.00000
    -53322.31805    -41548.89705  24523516.59100  24523516.51400  24523518.59300
         9.00000         4.00000
 04  8 24  0 38  0.0000000  0  9G29G18G15G 9G10G26G22G21G 3
 -14178999.05608 -11048569.17707  21586210.57200  21586210.13300  21586209.93900
       151.00000        95.00000
 -17297876.39208 -13478862.18407  21347856.89700  21347856.76600  21347855.88800
       229.00000        91.00000
  -9873140.79907  -7693354.78606  22657580.74800  22657580.26300  22657580.98200
        46.00000        23.00000
  -9118659.31407  -7105446.22806  22896913.57100  22896913.06100  22896915.22400
        44.00000        29.00000
    -81775.42906    -63729.02606  24245794.16600  24245793.55100  24245797.23500
        16.00000        16.00000
 -19562026.80808 -15243135.80408  20521825.91700  20521825.94200  20521825.71000
       284.00000       164.00000
  -5843777.16706  -4553591.23006  23820944.30500  23820944.39700  23820942.71700
        29.00000        13.00000
 -27470394.68008 -21405501.67308  20273018.88100  20273018.45200  20273017.34400
       240.00000       232.00000
    -79174.62106    -61693.55404  24518598.04700  24518597.83000  24518597.74400
        13.00000         3.00000
 04  8 24  0 38 30.0000000  0  9G29G18G15G 9G10G26G22G21G 3
 -14108936.98608 -10993975.37307  21599542.82300  21599542.58200  21599542.31900
       145.00000        96.00000
 -17358130.51708 -13525813.44607  21336391.41500  21336390.96200  21336390.07200
       233.00000        94.00000
  -9969348.44207  -7768321.76206  22639272.62600  22639272.09600  22639273.14400
        43.00000        22.00000
  -9229123.08207  -7191521.83906  22875892.95600  22875892.86600  22875894.55900
        51.00000        27.00000
     11203.29306      8721.85706  24263486.81300  24263486.44200  24263490.07600
        16.00000        12.00000
 -19500760.78808 -15195396.06408  20533483.95300  20533484.09800  20533484.07000
       270.00000       162.00000
  -5931498.79307  -4621945.71206  23804251.40300  23804251.52700  23804250.03100
        33.00000        14.00000
 -27479620.34108 -21412690.50708  20271263.52700  20271263.12900  20271261.71600
       248.00000       231.00000
   -104521.18206    -81444.13604  24513774.83500  24513774.18200  24513774.61200
        11.00000         3.00000
 04  8 24  0 39  0.0000000  0  9G29G18G15G 9G10G26G22G21G 3
 -14038581.18508 -10939152.70407  21612930.81200  21612930.65000  21612930.65400
       144.00000        94.00000
 -17418136.09708 -13572571.03407  21324972.53800  21324972.26100  21324971.47200
       233.00000        99.00000
 -10065261.47507  -7843059.17606  22621021.48700  22621020.90400  22621021.49700
        45.00000        23.00000
  -9339339.55807  -7277404.77806  22854917.93300  22854918.61300  22854920.07200
        50.00000        22.00000
    104267.48306     81239.35306  24281198.35200  24281197.44300  24281200.43400
        19.00000        14.00000
 -19439037.36008 -15147299.90308  20545229.47700  20545229.69300  20545229.63900
       269.00000       159.00000
  -6019130.58507  -4690230.18906  23787576.93900  23787576.64700  23787575.19200
        40.00000        17.00000
 -27488246.36608 -21419412.09408  20269622.13000  20269621.53800  20269620.18500
       245.00000       232.00000
   -129323.59005   -100770.66905  24509054.04800  24509053.02000  24509054.29700
         7.00000         4.00000
 04  8 24  0 39 30.0000000  0  9G29G18G15G 9G10G26G22G21G 3
 -13967928.77008 -10884098.89807  21626375.65800  21626375.54700  21626375.12900
       146.00000        92.00000
 -17477887.34908 -13619130.44308  21313602.21000  21313601.84300  21313601.17300
       225.00000       101.00000
 -10160871.98307  -7917560.86306  22602827.00000  22602826.83400  22602827.32300
        47.00000        24.00000
  -9449300.27807  -7363088.43306  22833994.20600  22833994.03500  22833995.35300
        51.00000        23.00000
    197421.34806    153826.70806  24298924.25500  24298923.48500  24298926.69600
        14.00000        14.00000
 -19376854.13508 -15098845.46308  20557063.17200  20557063.15000  20557062.73700
       277.00000       159.00000
  -6106666.97607  -4758440.32906  23770919.52100  23770919.14700  23770916.83800
        41.00000        16.00000
 -27496266.99208 -21425661.94308  20268095.63500  20268095.29500  20268094.02100
       246.00000       233.00000
   -153576.57305   -119669.08004  24504438.22600  24504437.76600  24504439.12700
         5.00000         3.00000
 04  8 24  0 40  0.0000000  0  9G29G18G15G 9G10G26G22G21G 3
 -13896986.90708 -10828819.54507  21639875.74200  21639875.25800  21639875.17400
       142.00000        92.00000
 -17537388.48008 -13665494.95208  21302279.75700  21302279.30300  21302278.37700
       229.00000       102.00000
 -10256182.56907  -7991828.82706  22584690.34200  22584689.63900  22584690.73900
        47.00000        28.00000
  -9559007.24407  -7448574.32306  22813118.78800  22813118.18900  22813119.25000
        49.00000        26.00000
    290658.93606    226479.26706  24316666.54800  24316665.61100  24316668.91300
        12.00000        12.00000
 -19314218.57308 -15050038.54708  20568982.35000  20568982.40300  20568981.91900
       278.00000       158.00000
  -6194112.44807  -4826579.62706  23754278.89000  23754278.55000  23754276.81300
        37.00000        16.00000
 -27503686.31508 -21431443.24308  20266683.82900  20266683.56800  20266682.08800
       248.00000       234.00000
   -177284.80705   -138143.04104  24499926.91800  24499925.85500  24499928.00900
         4.00000         3.00000
 04  8 24  0 40 30.0000000  0  9G29G18G15G 9G10G26G22G21G 3
 -13825807.03008 -10773354.73207  21653420.48200  21653420.34800  21653420.23900
       143.00000        91.00000
 -17596687.96108 -13711702.32908  21290995.34500  21290994.95900  21290994.07000
       233.00000       101.00000
 -10351239.71407  -8065899.29906  22566602.04300  22566601.22800  22566601.80500
        50.00000        29.00000
  -9668506.36007  -7533898.27306  22792280.69000  22792280.50300  22792282.46100
        54.00000        30.00000
    383930.48906    299158.30506  24334415.43300  24334414.84700  24334417.73300
        14.00000        11.00000
 -19251182.69408 -15000919.69408  20580977.89200  20580977.63000  20580977.40600
       271.00000       156.00000
  -6281515.60607  -4894685.95406  23737645.61700  23737645.97100  23737644.75300
        33.00000        19.00000
 -27510552.96708 -21436793.89108  20265377.48300  20265376.82000  20265375.42500
       244.00000       235.00000
   -200497.05205   -156230.49605  24495510.37000  24495510.93600  24495511.14300
         8.00000         4.00000
 04  8 24  0 41  0.0000000  0  9G29G18G15G 9G10G26G22G21G 3
 -13754338.32508 -10717664.85407  21667020.98200  21667020.83300  21667020.33200
       148.00000        91.00000
 -17655731.83808 -13757710.53307  21279759.99200  21279759.39500  21279758.34300
       244.00000        99.00000
 -10445988.02807  -8139729.12807  22548571.58500  22548571.08200  22548571.99000
        52.00000        33.00000
  -9777741.35407  -7619016.41706  22771492.96700  22771493.18800  22771496.33900
        48.00000        30.00000
    477288.33706    371904.61805  24352180.16800  24352180.41100  24352183.33200
        15.00000        10.00000
 -19187696.07008 -14951449.61008  20593058.65500  20593058.59300  20593058.58900
       267.00000       156.00000
  -6368822.98307  -4962717.63206  23721030.98200  23721031.56200  23721029.86700
        36.00000        17.00000
 -27516813.43908 -21441672.19308  20264186.20000  20264185.66000  20264184.08000
       247.00000       236.00000
   -223159.56605   -173889.57905  24491198.79400  24491197.41400  24491198.82600
         8.00000         4.00000
 04  8 24  0 41 30.0000000  0  9G29G18G15G 9G10G26G22G21G 3
 -13682582.52108 -10661751.26907  21680675.59600  21680675.48900  21680675.05600
       143.00000        89.00000
 -17714519.07508 -13803518.77207  21268572.61500  21268572.61400  21268571.40700
       254.00000        97.00000
 -10540424.63107  -8213316.06606  22530600.47900  22530600.11400  22530601.26800
        52.00000        30.00000
  -9886709.03507  -7703926.27206  22750757.95200  22750757.81000  22750760.03300
        49.00000        29.00000
    570731.91906    444717.70906  24369963.43900  24369963.15800  24369965.33800
        13.00000        11.00000
 -19123761.22708 -14901630.26908  20605224.94800  20605224.97900  20605225.00600
       267.00000       158.00000
  -6456033.72906  -5030674.03706  23704435.12100  23704435.18500  23704434.41300
        26.00000        19.00000
 -27522466.40608 -21446077.11508  20263110.30300  20263109.83400  20263108.33600
       243.00000       235.00000
   -245271.77906   -191119.87505  24486990.55400  24486990.01000  24486991.50100
        11.00000         5.00000
 04  8 24  0 42  0.0000000  0  9G29G18G15G 9G10G26G22G21G 3
 -13610537.28508 -10605612.15507  21694385.46400  21694385.21800  21694384.72000
       138.00000        88.00000
 -17773044.10908 -13849122.68807  21257435.91400  21257435.59200  21257434.52200
       250.00000        98.00000
 -10634542.25807  -8286654.45506  22512691.03400  22512690.23200  22512691.09700
        50.00000        29.00000
  -9995401.30507  -7788621.51206  22730075.44300  22730075.15000  22730076.10200
        60.00000        29.00000
    664265.36606    517600.80405  24387763.34000  24387762.21600  24387764.29200
        15.00000        10.00000
 -19059375.99908 -14851459.98408  20617476.88100  20617477.03100  20617477.14200
       267.00000       155.00000
  -6543142.60807  -5098551.03006  23687860.26500  23687859.43500  23687858.79100
        32.00000        24.00000
 -27527506.49808 -21450004.47008  20262151.26800  20262150.70200  20262149.32400
       239.00000       236.00000
   -266828.70305   -207917.48905  24482887.71400  24482887.85000  24482889.23700
         9.00000         6.00000
 04  8 24  0 42 30.0000000  0  9G29G18G15G 9G10G26G22G21G 3
 -13538253.06808 -10549286.81707  21708140.84700  21708140.49800  21708139.80500
       141.00000        84.00000
 -17831354.59408 -13894559.42408  21246340.12300  21246339.62900  21246338.51600
       252.00000       103.00000
 -10728386.78307  -8359780.04106  22494832.55400  22494831.65800  22494833.15900
        49.00000        30.00000
 -10103863.34007  -7873137.35106  22709434.94800  22709434.87400  22709436.34100
        58.00000        30.00000
    757839.22506    590515.43505  24405568.93200  24405567.83200  24405570.63300
        13.00000         9.00000
 -18994591.36408 -14800978.46708  20629805.00900  20629805.24200  20629805.11800
       271.00000       153.00000
  -6630197.28806  -5166385.78906  23671292.58500  23671292.93100  23671292.20200
        28.00000        21.00000
 -27531981.76108 -21453491.70008  20261299.64400  20261299.15700  20261297.57400
       241.00000       233.00000
   -287878.69405   -224320.12605  24478881.04900  24478881.77200  24478882.93700
         5.00000         5.00000
 04  8 24  0 43  0.0000000  0  9G29G18G15G 9G10G26G22G21G 3
 -13465673.18308 -10492731.08707  21721951.74900  21721951.62200  21721951.45300
       138.00000        82.00000
 -17889390.96208 -13939782.55908  21235295.77500  21235295.32100  21235294.36800
       241.00000       103.00000
 -10821896.66707  -8432644.87206  22477038.36400  22477037.55500  22477038.20500
        50.00000        28.00000
 -10212033.18707  -7957425.51906  22688850.01000  22688850.43200  22688852.39100
        59.00000        31.00000
    851511.60506    663506.83705  24423394.07400  24423394.07600  24423395.65600
        13.00000         8.00000
 -18929351.18008 -14750141.98108  20642220.33300  20642220.22700  20642220.01100
       273.00000       152.00000
  -6717138.45106  -5234132.12706  23654749.30200  23654748.82000  23654747.08200
        27.00000        20.00000
 -27535832.60808 -21456492.37208  20260566.72800  20260566.33900  20260564.94800
       241.00000       236.00000
   -308362.31005   -240281.39905  24474984.28900  24474983.88300  24474985.19000
         8.00000         6.00000
 04  8 24  0 43 30.0000000  0  9G29G18G15G 9G10G26G22G21G 3
 -13392820.59208 -10435962.85807  21735814.95400  21735814.83200  21735814.98000
       136.00000        81.00000
 -17947172.92408 -13984807.44808  21224300.55300  21224300.11600  21224298.89200
       242.00000       107.00000
 -10915089.96007  -8505263.00106  22459304.15800  22459303.88400  22459304.13600
        55.00000        25.00000
 -10319928.11607  -8041499.46207  22668320.05700  22668319.63300  22668320.81900
        64.00000        33.00000
    945261.21206    736558.37205  24441234.94300  24441234.30000  24441235.84200
        16.00000         9.00000
 -18863678.73208 -14698968.66708  20654717.60200  20654717.46800  20654717.06800
       275.00000       149.00000
  -6803986.16206  -5301805.60006  23638223.31700  23638222.84200  23638220.92600
        30.00000        21.00000
 -27539079.02408 -21459022.06008  20259948.88200  20259948.54400  20259947.21100
       242.00000       236.00000
   -328299.88605   -255817.15905  24471190.09200  24471189.72100  24471190.81100
         9.00000         6.00000
 04  8 24  0 44  0.0000000  0  9G29G18G15G 9G10G26G22G21G 3
 -13319717.05208 -10378999.08207  21749726.88000  21749726.42900  21749726.06700
       139.00000        80.00000
 -18004719.31208 -14029648.78108  21213349.59400  21213349.24800  21213348.34100
       245.00000       111.00000
 -11007984.12407  -8577648.04906  22441626.55700  22441625.87200  22441627.29600
        49.00000        27.00000
 -10427564.99507  -8125372.31007  22647837.68400  22647837.15100  22647838.22900
        68.00000        32.00000
   1039067.03006    809653.72905  24459085.67300  24459084.42600  24459086.75700
        14.00000         6.00000
 -18797596.54008 -14647476.07008  20667292.54300  20667292.47800  20667291.98900
       271.00000       147.00000
  -6890759.72906  -5369421.33706  23621709.74200  23621710.16200  23621708.81400
        31.00000        21.00000
 -27541740.36808 -21461095.85108  20259442.45500  20259442.05600  20259440.68300
       239.00000       233.00000
   -347711.32705   -270942.98405  24467497.56900  24467496.95800  24467496.40900
         8.00000         4.00000
 04  8 24  0 44 30.0000000  0  9G29G18G15G 9G10G26G22G21G 3
 -13246352.35108 -10321831.80207  21763686.80900  21763687.02600  21763686.94900
       137.00000        81.00000
 -18062016.93608 -14074296.26908  21202446.35900  21202445.86300  21202444.84600
       253.00000       111.00000
 -11100563.74807  -8649788.01606  22424009.58400  22424008.81500  22424009.70500
        48.00000        24.00000
 -10534928.16807  -8209031.88806  22627405.82000  22627405.91000  22627407.66200
        65.00000        29.00000
   1132941.46906    882802.57505  24476948.91700  24476948.51600  24476951.10300
        15.00000         9.00000
 -18731094.81608 -14595656.55608  20679946.88400  20679946.97000  20679946.84100
       260.00000       147.00000
  -6977446.08907  -5436969.08906  23605214.96400  23605215.05400  23605213.05100
        34.00000        25.00000
 -27543803.54508 -21462703.53508  20259050.14000  20259049.51800  20259048.17400
       240.00000       235.00000
   -366583.64806   -285648.69205  24463904.60000  24463904.07800  24463904.68800
        11.00000         4.00000
 04  8 24  0 45  0.0000000  0  9G15G 9G 3G29G18G10G26G22G21
 -11192834.49507  -8721687.28006  22406451.17200  22406450.29800  22406451.68500
        50.00000        27.00000
 -10642022.17207  -8292481.77406  22607026.57300  22607026.43300  22607027.60900
        66.00000        31.00000
   -384924.62306   -299940.38105  24460414.53600  24460414.78700  24460415.81300
        11.00000         4.00000
 -13172736.50808 -10264468.83507  21777696.35400  21777695.79600  21777695.83200
       133.00000        81.00000
 -18119073.04308 -14118755.56308  21191588.73100  21191588.53500  21191587.46100
       258.00000       112.00000
   1226875.41506    955997.75905  24494824.83900  24494823.54800  24494825.59100
        13.00000         8.00000
 -18664184.29708 -14543518.50408  20692679.54600  20692679.65000  20692679.65500
       261.00000       149.00000
  -7064052.71807  -5504454.73106  23588733.78200  23588733.70300  23588732.08300
        32.00000        23.00000
 -27545276.34808 -21463851.18608  20258769.61500  20258769.27600  20258768.00800
       243.00000       235.00000
 04  8 24  0 45 30.0000000  0  9G15G 9G 3G29G18G10G26G22G21
 -11284774.79307  -8793329.05406  22388954.27700  22388954.37500  22388955.79200
        51.00000        28.00000
 -10748825.22907  -8375704.87507  22586703.56400  22586703.06300  22586704.26800
        64.00000        32.00000
   -402715.32505   -313803.24705  24457029.40500  24457029.18500  24457030.39800
         6.00000         4.00000
 -13098852.92008 -10206897.23307  21791755.68400  21791755.42100  21791755.16000
       130.00000        78.00000
 -18175867.89008 -14163011.27708  21180781.21600  21180780.74500  21180779.79700
       257.00000       112.00000
   1320887.09706   1029253.51605  24512713.23900  24512713.05300  24512715.19900
        14.00000         7.00000
 -18596848.59208 -14491049.13708  20705493.41800  20705493.33300  20705493.23600
       260.00000       146.00000
  -7150560.19306  -5571863.11506  23572271.85500  23572271.69600  23572270.24000
        29.00000        19.00000
 -27546139.14608 -21464523.51008  20258605.63100  20258605.07800  20258603.63600
       238.00000       233.00000
 04  8 24  0 46  0.0000000  0  9G15G 9G 3G29G18G10G26G22G21
 -11376384.22807  -8864713.02106  22371522.71100  22371522.19000  22371522.81100
        56.00000        28.00000
 -10855336.11107  -8458700.35406  22566435.45300  22566435.11900  22566435.32800
        74.00000        30.00000
   -419957.63605   -327238.82405  24453748.81400  24453747.80300  24453749.34000
         7.00000         4.00000
 -13024705.78708 -10149120.27507  21805865.49800  21805865.02600  21805864.88700
       126.00000        77.00000
 -18232402.92408 -14207064.54608  21170022.78400  21170022.56900  21170021.45800
       254.00000       111.00000
   1414973.50006   1102567.53605  24530617.21900  24530616.99000  24530619.64900
        14.00000         7.00000
 -18529092.74408 -14438252.38708  20718386.89300  20718386.80700  20718386.53900
       255.00000       142.00000
  -7236970.00206  -5639195.39206  23555828.46000  23555827.82800  23555826.91000
        31.00000        20.00000
 -27546393.36408 -21464721.61808  20258557.13500  20258556.72700  20258555.43300
       238.00000       239.00000
 04  8 24  0 46 30.0000000  0  9G15G 9G 3G29G18G10G26G22G21
 -11467685.78607  -8935857.06907  22354148.90700  22354148.02700  22354149.19000
        55.00000        32.00000
 -10961577.29007  -8541485.67907  22546216.79100  22546217.12800  22546219.09700
        69.00000        33.00000
   -436677.11005   -340266.99305  24450565.00800  24450566.07800  24450568.35800
        10.00000         4.00000
 -12950322.92508 -10091159.62607  21820019.68600  21820019.53800  21820019.55300
       127.00000        77.00000
 -18288702.54708 -14250934.37208  21159309.43900  21159308.95200  21159308.08600
       246.00000       112.00000
   1509108.59106   1175919.48005  24548532.79600  24548531.22300  24548534.03000
        13.00000        10.00000
 -18460944.67708 -14385150.00808  20731354.79800  20731354.97700  20731354.71600
       258.00000       143.00000
  -7323306.92506  -5706470.89306  23539398.02800  23539398.19800  23539397.46600
        30.00000        19.00000
 -27546064.42208 -21464465.31208  20258619.70000  20258619.11800  20258618.20000
       234.00000       241.00000
 04  8 24  0 47  0.0000000  0  9G15G 9G 3G29G18G10G26G22G21
 -11558684.77707  -9006765.34706  22336831.95600  22336831.31800  22336832.17300
        52.00000        28.00000
 -11067553.58007  -8624064.59007  22526049.90600  22526050.62500  22526051.71800
        69.00000        33.00000
   -452881.73206   -352894.01305  24447482.73000  24447483.09700  24447484.29700
        13.00000         4.00000
 -12875714.41608 -10033023.15607  21834217.07200  21834217.14400  21834216.85500
       128.00000        75.00000
 -18344774.04708 -14294626.44608  21148639.16800  21148638.88600  21148638.04900
       249.00000       114.00000
   1603283.39606   1249302.34405  24566452.99000  24566452.18800  24566454.91000
        11.00000        10.00000
 -18392415.52208 -14331750.68608  20744395.79700  20744395.75200  20744395.50800
       256.00000       145.00000
  -7409578.74107  -5773695.65006  23522981.68300  23522981.82900  23522979.68500
        34.00000        16.00000
 -27545159.95608 -21463760.55108  20258791.79700  20258791.35800  20258790.18600
       237.00000       240.00000
 04  8 24  0 47 30.0000000  0  9G15G 9G 3G29G18G10G26G22G21
 -11649307.50907  -9077380.45506  22319586.98200  22319586.63600  22319587.30200
        54.00000        29.00000
 -11173190.68807  -8706379.18607  22505949.48500  22505948.91000  22505949.39100
        70.00000        33.00000
   -468500.07106   -365064.17105  24444511.42900  24444510.99600  24444512.93100
        15.00000         5.00000
 -12800811.28508  -9974657.10307  21848470.92200  21848470.79300  21848470.46900
       123.00000        75.00000
 -18400545.53508 -14338084.74408  21138026.02600  21138025.94500  21138024.85900
       252.00000       113.00000
   1697568.11106   1322770.84205  24584394.00600  24584393.42500  24584396.60700
        14.00000         8.00000
 -18323436.61408 -14278000.90508  20757521.75100  20757521.92600  20757521.84100
       250.00000       142.00000
  -7495713.61607  -5840813.70206  23506592.31100  23506591.97900  23506589.37900
        43.00000        16.00000
 -27543607.69808 -21462551.01108  20259087.27000  20259086.79300  20259085.62000
       236.00000       241.00000
 04  8 24  0 48  0.0000000  0  9G15G 9G 3G29G18G10G26G22G21
 -11739612.84407  -9147748.22206  22302402.76800  22302402.02500  22302402.80000
        55.00000        27.00000
 -11278546.67707  -8788474.71707  22485901.20400  22485900.79200  22485901.16100
        80.00000        33.00000
   -483593.23906   -376825.09904  24441639.30800  24441638.85400  24441640.00900
        13.00000         3.00000
 -12725676.99708  -9916110.93007  21862768.21600  21862768.21400  21862768.46800
       119.00000        75.00000
 -18456077.51708 -14381356.40908  21127458.95600  21127458.51700  21127457.55700
       253.00000       114.00000
   1791900.59106   1396276.61105  24602344.25900  24602343.67400  24602347.23700
        13.00000         8.00000
 -18254071.84408 -14223950.45508  20770721.59200  20770721.67500  20770721.52300
       251.00000       143.00000
  -7581772.27307  -5907872.37006  23490215.23600  23490215.31600  23490212.59200
        45.00000        17.00000
 -27541469.50308 -21460884.90108  20259494.14100  20259493.65300  20259492.59500
       231.00000       242.00000
 04  8 24  0 48 30.0000000  0  9G15G 9G 3G29G18G10G26G22G21
 -11829551.69407  -9217830.43006  22285287.92200  22285287.27700  22285287.84700
        61.00000        29.00000
 -11383571.82607  -8870312.46607  22465913.66500  22465914.02300  22465915.83600
        76.00000        34.00000
   -498114.99406   -388140.73705  24438876.06700  24438875.93100  24438875.34500
        12.00000         4.00000
 -12650267.11508  -9857350.01407  21877118.49100  21877118.43200  21877118.43000
       118.00000        74.00000
 -18511322.71908 -14424404.61108  21116946.03500  21116945.76400  21116944.63100
       260.00000       116.00000
   1886326.78606   1469855.37805  24620314.34300  24620313.58100  24620315.82000
        14.00000         7.00000
 -18184277.64608 -14169565.38408  20784003.43900  20784003.19900  20784003.07600
       251.00000       143.00000
  -7667707.67407  -5974834.96706  23473862.79700  23473862.25500  23473859.38200
        45.00000        16.00000
 -27538698.45308 -21458725.66008  20260021.49000  20260021.01500  20260019.66100
       233.00000       237.00000
 04  8 24  0 49  0.0000000  0  9G15G 9G 3G29G18G10G26G22G21
 -11919150.57207  -9287647.72507  22268237.69200  22268237.15500  22268238.17100
        64.00000        32.00000
 -11488292.14207  -8951912.70307  22445987.74100  22445987.20100  22445988.31200
        79.00000        36.00000
   -512094.47605   -399033.87205  24436214.26200  24436215.16700  24436216.40800
        10.00000         5.00000
 -12574612.90308  -9798398.70007  21891514.81900  21891514.87800  21891514.99400
       116.00000        72.00000
 -18566309.31508 -14467251.30108  21106482.57300  21106482.09500  21106481.01800
       257.00000       117.00000
   1980817.07705   1543484.07805  24638294.84800  24638294.06000  24638297.94800
         9.00000         7.00000
 -18114085.55708 -14114870.27608  20797360.14700  20797360.27500  20797360.15900
       248.00000       142.00000
  -7753548.10007  -6041723.60806  23457526.86300  23457526.88800  23457525.52700
        45.00000        22.00000
 -27535322.99508 -21456095.45408  20260663.69000  20260663.31900  20260662.12700
       235.00000       238.00000
 04  8 24  0 49 30.0000000  0  9G15G 9G 3G29G18G10G26G22G21
 -12008440.34707  -9357224.16607  22251246.56000  22251246.02700  22251246.39100
        70.00000        33.00000
 -11592738.07607  -9033299.09807  22426111.69400  22426111.47900  22426112.53300
        78.00000        36.00000
   -525565.28505   -409530.61105  24433652.20100  24433651.58800  24433652.75300
         8.00000         5.00000
 -12498750.15808  -9739284.89707  21905951.24500  21905951.07600  21905951.19100
       116.00000        71.00000
 -18621070.18208 -14509922.10508  21096061.51000  21096061.28300  21096060.61700
       253.00000       124.00000
   2075336.96205   1617135.79305  24656281.81200  24656280.09200  24656284.02700
         9.00000         9.00000
 -18043532.11208 -14059893.58108  20810785.90000  20810786.17200  20810785.96900
       252.00000       136.00000
  -7839326.86907  -6108564.17206  23441203.60000  23441203.27700  23441202.48300
        38.00000        23.00000
 -27531376.65108 -21453020.39408  20261414.81200  20261414.26300  20261413.18400
       236.00000       237.00000
 04  8 24  0 50  0.0000000  0  9G15G 9G 3G29G18G10G26G22G21
 -12097351.30707  -9426505.41507  22234327.71300  22234326.93600  22234327.25700
        74.00000        35.00000
 -11696839.19307  -9114416.82507  22406301.29700  22406301.37800  22406302.33000
        82.00000        33.00000
   -538460.10005   -419578.54505  24431197.65900  24431197.53400  24431198.76600
         5.00000         5.00000
 -12422613.63008  -9679957.75707  21920440.30800  21920439.76800  21920439.53800
       120.00000        71.00000
 -18675536.96708 -14552363.74708  21085696.53000  21085696.45300  21085695.86300
       247.00000       128.00000
   2169952.67506   1690862.23205  24674284.79700  24674284.35000  24674288.18400
        12.00000         6.00000
 -17972552.56608 -14004584.86008  20824292.84700  20824293.08500  20824292.78000
       246.00000       132.00000
  -7924975.85907  -6175303.61806  23424903.80300  23424904.08700  23424903.54200
        36.00000        20.00000
 -27526791.29008 -21449447.40608  20262287.37900  20262286.99200  20262285.67200
       245.00000       236.00000
 04  8 24  0 50 30.0000000  0  9G15G 9G 3G29G18G10G26G22G21
 -12185916.17607  -9495516.98907  22217473.96600  22217473.52400  22217474.51400
        75.00000        39.00000
 -11800627.74207  -9195291.01407  22386550.59700  22386551.02600  22386552.42200
        83.00000        36.00000
   -550814.43005   -429205.27405  24428847.79500  24428846.79100  24428848.71700
         7.00000         7.00000
 -12346240.72208  -9620446.42607  21934973.45900  21934973.21300  21934972.79100
       120.00000        71.00000
 -18729744.19708 -14594603.13608  21075381.67000  21075381.25800  21075380.58500
       240.00000       131.00000
   2264628.36105   1764635.40405  24692302.66200  24692301.25700  24692305.35300
         9.00000         6.00000
 -17901185.05508 -13948973.83308  20837873.99400  20837873.91600  20837873.75600
       246.00000       133.00000
  -8010529.72607  -6241968.94506  23408624.49500  23408624.34200  23408623.54400
        39.00000        20.00000
 -27521602.59208 -21445404.28108  20263274.74400  20263274.31900  20263273.07000
       247.00000       235.00000
 04  8 24  0 51  0.0000000  0  9G15G 9G 3G29G18G10G26G22G21
 -12274157.84107  -9564276.72107  22200682.36900  22200681.38400  22200682.51200
        66.00000        40.00000
 -11904125.88707  -9275938.88107  22366856.92900  22366856.44500  22366857.26200
        79.00000        36.00000
   -562653.63506   -438430.64005  24426593.77200  24426594.57600  24426595.01600
        12.00000         5.00000
 -12269659.20708  -9560772.54807  21949546.11400  21949546.00300  21949545.72700
       117.00000        68.00000
 -18783716.27808 -14636659.30108  21065110.68500  21065110.82200  21065110.03400
       242.00000       129.00000
   2359337.69905   1838434.80605  24710323.90100  24710323.74700  24710327.77500
         5.00000         7.00000
 -17829457.72208 -13893082.41908  20851522.72700  20851523.04000  20851523.16400
       245.00000       133.00000
  -8096013.64507  -6308579.74806  23392358.39200  23392357.79800  23392356.39500
        44.00000        19.00000
 -27515835.77208 -21440910.67208  20264372.27600  20264371.90300  20264370.52200
       256.00000       235.00000
 04  8 24  0 51 30.0000000  0  9G15G 9G 3G29G18G10G26G22G21
 -12362048.87507  -9632763.22707  22183956.88500  22183956.16600  22183957.08900
        66.00000        37.00000
 -12007305.89907  -9356338.85007  22347222.32700  22347221.88200  22347223.24000
        82.00000        40.00000
   -573953.23705   -447235.52905  24424443.53600  24424442.67500  24424444.52400
         9.00000         4.00000
 -12192846.48908  -9500918.51407  21964162.91700  21964162.92700  21964162.58500
       115.00000        66.00000
 -18837428.24808 -14678512.77208  21054889.81900  21054889.61000  21054888.85700
       237.00000       128.00000
   2454104.49505   1912278.92905  24728359.16700  24728358.27100  24728361.99700
         6.00000         9.00000
 -17757348.73308 -13836893.60908  20865244.67900  20865244.97000  20865245.03800
       238.00000       131.00000
  -8181402.12507  -6375116.20006  23376108.31600  23376108.18900  23376107.30400
        35.00000        20.00000
 -27509465.94108 -21435947.18308  20265584.41800  20265584.01200  20265582.69500
       259.00000       235.00000
 04  8 24  0 52  0.0000000  0  9G15G 9G 3G29G18G10G26G22G21
 -12449560.25907  -9700953.90207  22167304.34900  22167303.73100  22167304.17800
        69.00000        37.00000
 -12110138.11307  -9436467.81707  22327652.48100  22327653.11200  22327654.26400
        87.00000        38.00000
   -584687.05505   -455599.57805  24422400.87700  24422401.33600  24422402.73900
         7.00000         5.00000
 -12115778.23908  -9440865.36107  21978828.97200  21978828.69600  21978828.49700
       114.00000        68.00000
 -18890852.52708 -14720142.07008  21044723.65600  21044723.46400  21044722.67000
       246.00000       130.00000
   2548954.55105   1986187.98105  24746408.52600  24746407.23500  24746410.53100
         9.00000         8.00000
 -17684834.23608 -13780388.81908  20879043.80300  20879043.94000  20879044.02400
       228.00000       131.00000
  -8266668.05607  -6441557.14106  23359883.14900  23359883.05400  23359881.66100
        37.00000        23.00000
 -27502465.56208 -21430492.35708  20266916.36600  20266916.08500  20266914.82500
       258.00000       234.00000
 04  8 24  0 52 30.0000000  0  9G15G 9G 3G29G18G10G26G22G21
 -12536687.15107  -9768844.96407  22150724.56500  22150723.95200  22150724.89900
        66.00000        38.00000
 -12212617.01007  -9516321.48707  22308152.51800  22308152.20500  22308152.70800
        89.00000        35.00000
   -594852.66605   -463520.85705  24420465.05100  24420466.68800  24420467.37300
         7.00000         5.00000
 -12038454.21008  -9380612.89407  21993543.08100  21993542.83600  21993542.70200
       114.00000        66.00000
 -18943986.05408 -14761544.81708  21034613.19800  21034612.64800  21034611.67000
       254.00000       130.00000
   2643889.57205   2060163.21005  24764472.47700  24764472.52900  24764476.60700
         9.00000         9.00000
 -17611914.60508 -13723568.34208  20892920.20200  20892920.16700  20892920.20100
       228.00000       131.00000
  -8351808.44807  -6507900.26906  23343680.77700  23343681.03400  23343679.45300
        36.00000        21.00000
 -27494833.50308 -21424545.31608  20268369.13700  20268368.52600  20268367.37000
       256.00000       238.00000
 04  8 24  0 53  0.0000000  0  9G15G 9G 3G29G18G10G26G22G21
 -12623447.52007  -9836450.43707  22134213.77800  22134213.10700  22134214.59500
        62.00000        38.00000
 -12314760.31307  -9595913.63607  22288715.22500  22288714.94000  22288716.37500
        84.00000        42.00000
   -604470.97705   -471015.64505  24418637.24800  24418636.49600  24418637.53300
         9.00000         5.00000
 -11960897.02208  -9320178.74607  22008301.73200  22008301.45000  22008301.41200
       111.00000        64.00000
 -18996848.49808 -14802736.32808  21024553.30900  21024553.01100  21024552.23500
       255.00000       130.00000
   2738887.89606   2134187.80005  24782551.49600  24782550.56600  24782554.17300
        12.00000         8.00000
 -17538613.07708 -13666450.28308  20906869.21000  20906869.16600  20906869.07000
       232.00000       129.00000
  -8436843.30507  -6574161.16106  23327499.09700  23327498.98600  23327498.05800
        37.00000        24.00000
 -27486589.93708 -21418121.77108  20269937.50900  20269937.01600  20269935.89100
       250.00000       237.00000
 04  8 24  0 53 30.0000000  0  9G15G 9G 3G29G18G10G26G22G21
 -12709894.05907  -9903811.36707  22117764.18300  22117763.50800  22117764.45600
        72.00000        40.00000
 -12416619.85307  -9675284.67907  22269331.25300  22269331.46000  22269332.85600
        89.00000        41.00000
   -613597.19305   -478126.96805  24416900.35500  24416900.05800  24416901.17600
         9.00000         5.00000
 -11883164.00508  -9259607.59107  22023093.85800  22023093.58200  22023093.42800
       108.00000        63.00000
 -19049494.04708 -14843758.83608  21014535.42100  21014534.91900  21014534.05800
       251.00000       133.00000
   2833893.65106   2208218.11905  24800631.27800  24800629.94900  24800633.12600
        12.00000         9.00000
 -17464987.66508 -13609079.84708  20920879.60600  20920879.59200  20920879.38800
       226.00000       124.00000
  -8521827.30007  -6640382.41306  23311328.41700  23311328.10800  23311326.26600
        52.00000        24.00000
 -27477789.28308 -21411264.12908  20271612.25400  20271611.89800  20271610.69900
       253.00000       237.00000
 04  8 24  0 54  0.0000000  0  9G15G 9G 3G29G18G10G26G22G21
 -12795934.49407  -9970855.85207  22101391.23100  22101390.55100  22101391.31700
        73.00000        37.00000
 -12518102.67607  -9754362.19707  22250020.51300  22250020.29500  22250021.09000
        92.00000        40.00000
   -622141.99505   -484785.27705  24415274.47300  24415273.45900  24415274.54600
         8.00000         5.00000
 -11805167.48308  -9198831.10207  22037936.07600  22037935.77500  22037935.69500
       107.00000        63.00000
 -19101832.10708 -14884541.73008  21004575.28700  21004575.13800  21004574.57500
       245.00000       134.00000
   2928996.02606   2282323.78705  24818726.58400  24818726.87100  24818730.52100
        12.00000         5.00000
 -17390951.27908 -13551389.17208  20934968.34000  20934968.33000  20934968.05500
       226.00000       121.00000
  -8606669.90107  -6706493.50006  23295183.32500  23295183.03800  23295181.69300
        48.00000        27.00000
 -27468341.51808 -21403902.25208  20273409.99100  20273409.58900  20273408.59900
       247.00000       237.00000
 04  8 24  0 54 30.0000000  0  9G15G 9G 3G29G18G10G26G22G21
 -12881621.32207 -10037624.80207  22085085.45900  22085085.10500  22085085.58100
        77.00000        38.00000
 -12619260.95307  -9833186.81507  22230770.93500  22230770.63100  22230771.23800
        90.00000        38.00000
   -630160.73105   -491033.63305  24413748.36100  24413747.48100  24413749.67100
         9.00000         6.00000
 -11726964.79508  -9137893.97107  22052817.55100  22052817.29700  22052817.36700
       103.00000        63.00000
 -19153917.06508 -14925127.40308  20994664.10500  20994663.79600  20994663.09900
       241.00000       134.00000
   3024138.84606   2356460.96205  24836835.05000  24836833.59500  24836835.37700
        11.00000         5.00000
 -17316561.71208 -13493423.29008  20949123.93400  20949124.06600  20949123.96600
       220.00000       122.00000
  -8691425.70907  -6772536.93306  23279054.17700  23279054.22800  23279052.65300
        46.00000        25.00000
 -27458302.47408 -21396079.62908  20275320.50400  20275320.03100  20275318.89100
       251.00000       236.00000
 04  8 24  0 55  0.0000000  0  9G15G 9G 3G29G18G10G26G22G21
 -12966915.52607 -10104087.80207  22068855.06000  22068854.34000  22068854.88100
        78.00000        39.00000
 -12720054.84607  -9911727.48407  22211589.61700  22211589.71700  22211590.65500
        88.00000        41.00000
   -637617.07005   -496843.78305  24412329.08700  24412328.52700  24412330.72300
        10.00000         7.00000
 -11648521.33908  -9076769.22707  22067745.04400  22067744.77200  22067744.48400
       105.00000        63.00000
 -19205711.40008 -14965486.62508  20984807.98500  20984807.77400  20984806.89100
       246.00000       133.00000
   3119357.89805   2430657.49805  24854952.96000  24854952.84600  24854954.45300
        10.00000         6.00000
 -17241785.25808 -13435155.93808  20963353.24200  20963353.37700  20963353.58100
       213.00000       122.00000
  -8776057.63407  -6838483.85106  23262949.30100  23262949.18500  23262947.81500
        42.00000        26.00000
 -27447635.45408 -21387767.68708  20277350.46500  20277350.11900  20277348.77100
       259.00000       232.00000
 04  8 24  0 55 30.0000000  0  9G15G 9G 3G29G18G10G26G22G21
 -13051854.55807 -10170274.05307  22052690.93700  22052690.57100  22052691.61100
        77.00000        42.00000
 -12820521.45207  -9990013.14507  22192471.67700  22192471.36300  22192473.30700
        89.00000        47.00000
   -644551.47305   -502247.25405  24411009.08400  24411008.55300  24411011.19200
         9.00000         5.00000
 -11569879.46208  -9015489.88007  22082710.64000  22082710.26500  22082709.42700
       106.00000        63.00000
 -19257254.43108 -15005650.01408  20974999.68100  20974999.44700  20974998.45700
       248.00000       130.00000
   3214612.55805   2504881.78804  24873079.45300  24873079.43000  24873080.75100
        10.00000         3.00000
 -17166664.77208 -13376620.51208  20977648.76000  20977648.69800  20977648.46400
       220.00000       122.00000
  -8860605.11107  -6904364.97306  23246860.03000  23246860.37500  23246859.03300
        48.00000        28.00000
 -27436380.70008 -21378997.76608  20279491.98400  20279491.61300  20279490.45700
       255.00000       231.00000
 04  8 24  0 56  0.0000000  0  9G15G 9G 3G29G18G10G26G22G21
 -13136434.56407 -10236180.53707  22036596.46600  22036595.90900  22036596.48200
        78.00000        43.00000
 -12920656.39607 -10068040.35607  22173417.20600  22173416.78200  22173417.61700
        89.00000        45.00000
   -650962.84105   -507243.14605  24409789.12100  24409789.02700  24409790.89700
         7.00000         4.00000
 -11491039.85207  -8954056.45007  22097712.66900  22097712.62400  22097712.16900
       100.00000        61.00000
 -19308544.12208 -15045616.00208  20965239.97800  20965239.53700  20965238.31900
       257.00000       131.00000
   3309903.24705   2579134.19205  24891211.66300  24891211.29000  24891213.86900
         7.00000         4.00000
 -17091201.48308 -13317817.97108  20992009.18000  20992008.97900  20992008.78200
       224.00000       121.00000
  -8945066.31107  -6970178.88106  23230787.15300  23230787.49600  23230786.74000
        48.00000        30.00000
 -27424537.19008 -21369769.07808  20281746.07400  20281745.60000  20281744.21200
       263.00000       227.00000
 04  8 24  0 56 30.0000000  0  9G15G 9G 3G29G18G10G26G22G21
 -13220603.61207 -10301766.79507  22020579.43200  22020578.67600  22020579.77000
        77.00000        44.00000
 -13020407.28207 -10145768.30107  22154435.16900  22154434.85600  22154436.15400
        94.00000        47.00000
   -656802.55805   -511793.56704  24408676.11400  24408676.19700  24408678.28000
         5.00000         2.00000
 -11411955.22507  -8892432.09907  22112762.02000  22112761.74300  22112761.69500
        96.00000        61.00000
 -19359530.21208 -15085345.42308  20955537.57200  20955537.12500  20955536.08100
       260.00000       133.00000
   3405278.57405   2653452.50505  24909362.06200  24909361.41400  24909363.97900
         6.00000         4.00000
 -17015349.10008 -13258712.23408  21006442.98800  21006442.94900  21006442.99800
       220.00000       120.00000
  -9029391.03207  -7035886.40306  23214740.47500  23214741.09300  23214739.78400
        47.00000        27.00000
 -27412055.09408 -21360042.78708  20284121.28700  20284120.74200  20284119.43900
       264.00000       225.00000
 04  8 24  0 57  0.0000000  0  9G15G 9G 3G29G18G10G26G22G21
 -13304397.92207 -10367061.05407  22004633.28900  22004633.07800  22004634.10300
        79.00000        44.00000
 -13119809.81607 -10223224.81607  22135518.83200  22135518.53700  22135520.04100
        93.00000        46.00000
   -662109.64506   -515928.99504  24407668.76300  24407668.29100  24407668.65900
        11.00000         3.00000
 -11332666.76307  -8830648.91207  22127849.74500  22127849.58100  22127849.79700
        95.00000        59.00000
 -19410250.73508 -15124867.90208  20945885.32200  20945885.32600  20945884.18200
       262.00000       135.00000
   3500698.85605   2727805.89704  24927518.77600  24927519.43800  24927521.66700
         6.00000         3.00000
 -16939148.90708 -13199335.48408  21020943.34100  21020943.37400  21020943.54300
       218.00000       119.00000
  -9113617.46507  -7101517.37406  23198713.84400  23198713.59700  23198711.93100
        50.00000        27.00000
 -27398973.17808 -21349849.10508  20286610.85400  20286610.32400  20286608.96100
       264.00000       226.00000
 04  8 24  0 57 30.0000000  0  9G15G 9G 3G29G18G10G26G22G21
 -13387806.08107 -10432054.40307  21988761.81800  21988761.28900  21988761.45300
        79.00000        41.00000
 -13218851.92307 -10300400.47507  22116672.13500  22116671.79600  22116673.61100
        95.00000        47.00000
   -666875.19506   -519642.43705  24406761.49200  24406761.45100  24406761.90000
        11.00000         5.00000
 -11253167.20907  -8768701.22907  22142978.67800  22142978.31200  22142978.33700
        94.00000        57.00000
 -19460695.82308 -15164175.75308  20936286.34700  20936286.02400  20936284.83500
       263.00000       136.00000
   3596172.29305   2802200.65805  24945688.80200  24945687.99400  24945690.12900
         7.00000         5.00000
 -16862594.74008 -13139682.90408  21035511.36200  21035511.22200  21035511.20400
       219.00000       115.00000
  -9197736.20407  -7167064.40206  23182707.02000  23182706.56600  23182704.86100
        50.00000        26.00000
 -27385282.80708 -21339181.31808  20289215.92500  20289215.48000  20289214.23000
       263.00000       225.00000
 04  8 24  0 58  0.0000000  0  9G15G 9G 3G29G18G10G26G22G21
 -13470792.89607 -10496719.44607  21972969.08800  21972968.72800  21972969.97800
        73.00000        40.00000
 -13317497.86508 -10377267.44107  22097900.84000  22097900.59400  22097901.65200
       104.00000        48.00000
   -671067.18305   -522908.94905  24405962.82400  24405962.99100  24405965.01500
         9.00000         5.00000
 -11173426.05807  -8706565.29707  22158152.24600  22158152.22700  22158152.40900
        90.00000        55.00000
 -19510831.78608 -15203242.72508  20926745.84600  20926745.43400  20926744.36500
       262.00000       139.00000
   3691730.89605   2876661.78905  24963870.66700  24963870.60200  24963873.93100
         8.00000         5.00000
 -16785656.45608 -13079731.00708  21050152.18600  21050152.18900  21050151.93500
       216.00000       110.00000
  -9281713.85407  -7232501.49706  23166726.17500  23166726.13100  23166724.10300
        43.00000        25.00000
 -27370951.50108 -21328014.08808  20291942.86000  20291942.43300  20291941.25400
       260.00000       220.00000
 04  8 24  0 58 30.0000000  0  9G15G 9G 3G29G18G10G26G22G21
 -13553419.52707 -10561103.82207  21957245.97300  21957245.46000  21957246.60400
        76.00000        39.00000
 -13415808.46907 -10453873.08807  22079191.77000  22079191.82800  22079193.41600
        99.00000        47.00000
   -674749.93305   -525778.62305  24405262.22900  24405262.21900  24405264.02500
         8.00000         5.00000
 -11093509.26507  -8644292.49407  22173360.02800  22173359.78800  22173360.56000
        87.00000        57.00000
 -19560721.74508 -15242118.01008  20917251.87400  20917251.63000  20917250.54000
       259.00000       142.00000
   3787309.89405   2951138.84505  24982059.46900  24982059.27100  24982063.37100
         7.00000         4.00000
 -16708400.71908 -13019531.75808  21064853.28200  21064853.38100  21064853.36900
       217.00000       114.00000
  -9365613.32707  -7297877.67406  23150760.59100  23150760.18600  23150758.57700
        45.00000        26.00000
 -27356043.27508 -21316397.30708  20294780.28600  20294779.67600  20294778.44700
       261.00000       221.00000
 04  8 24  0 59  0.0000000  0  9G15G 9G 3G29G18G10G26G22G21
 -13635636.22407 -10625168.76707  21941601.29200  21941600.66500  21941601.33000
        81.00000        41.00000
 -13513733.17408 -10530178.05907  22060558.44400  22060557.85800  22060558.99700
       105.00000        50.00000
   -677876.61005   -528214.98105  24404668.75900  24404668.27400  24404669.46400
         9.00000         5.00000
 -11013371.56407  -8581847.57107  22188610.33800  22188609.83400  22188610.12800
        85.00000        54.00000
 -19610317.66208 -15280764.17308  20907814.27700  20907813.82800  20907812.79100
       256.00000       146.00000
   3882955.90705   3025668.09105  25000263.60000  25000261.81400  25000264.67100
         8.00000         5.00000
 -16630783.15908 -12959050.56408  21079623.62400  21079623.64500  21079623.75100
       217.00000       116.00000
  -9449386.78507  -7363155.66606  23134817.87400  23134818.27900  23134816.94600
        44.00000        26.00000
 -27340510.64108 -21304293.98008  20297735.74300  20297735.18200  20297733.99700
       256.00000       219.00000
 04  8 24  0 59 30.0000000  0  9G15G 9G 3G29G18G10G26G22G21
 -13717453.56007 -10688922.52807  21926031.71900  21926031.41100  21926032.11800
        89.00000        43.00000
 -13611282.20907 -10606190.28007  22041994.89900  22041994.75200  22041996.00600
        98.00000        48.00000
   -680460.87006   -530228.74505  24404176.07200  24404176.61400  24404176.86600
        11.00000         4.00000
 -10933028.29707  -8519242.45307  22203898.66600  22203898.55900  22203898.78600
        85.00000        54.00000
 -19659631.67008 -15319190.67108  20898429.98400  20898429.65500  20898428.88900
       259.00000       153.00000
   3978654.59105   3100238.35705  25018471.75300  25018471.30600  25018475.35300
         8.00000         7.00000
 -16552819.53908 -12898299.71208  21094459.32700  21094459.36900  21094459.71000
       207.00000       114.00000
  -9533047.03907  -7428345.43506  23118898.79100  23118898.96800  23118897.00800
        52.00000        26.00000
 -27324367.07508 -21291714.59008  20300807.91600  20300807.40300  20300806.08000
       258.00000       216.00000
 04  8 24  1  0  0.0000000  0  9G26G15G 9G 3G29G18G10G22G21
 -16474489.34908 -12837263.22508  21109364.86700  21109364.83900  21109365.24300
       201.00000       110.00000
 -13798845.81407 -10752345.04907  21910543.20700  21910542.82900  21910543.80900
        88.00000        45.00000
 -13708429.41707 -10681889.38307  22023507.73700  22023507.85800  22023509.56000
        99.00000        50.00000
   -682480.15905   -531802.25005  24403792.34300  24403791.58700  24403793.35400
        10.00000         6.00000
 -10852458.35507  -8456460.70807  22219230.89500  22219230.66600  22219230.72700
        86.00000        53.00000
 -19708639.81708 -15357378.83208  20889103.66900  20889103.57200  20889102.77000
       262.00000       150.00000
   4074428.47105   3174867.25605  25036696.63700  25036695.40900  25036700.98800
         5.00000         6.00000
  -9616570.21607  -7493428.39506  23103003.84700  23103004.45300  23103003.28800
        51.00000        28.00000
 -27307589.97308 -21278641.54308  20304000.37500  20303999.86000  20303998.70200
       256.00000       213.00000
 04  8 24  1  0 30.0000000  0  9G26G15G 9G 3G29G18G10G22G21
 -16395827.84608 -12775968.56408  21124334.15500  21124334.09300  21124334.01500
       205.00000       106.00000
 -13879842.80807 -10815459.58107  21895130.36100  21895129.53500  21895130.19700
        86.00000        45.00000
 -13805204.13607 -10757298.23707  22005092.99700  22005092.62400  22005093.99200
        99.00000        54.00000
   -683967.38905   -532961.12805  24403510.12600  24403508.64900  24403510.19400
         8.00000         5.00000
 -10771696.19207  -8393529.18307  22234599.17500  22234599.05400  22234598.79500
        84.00000        51.00000
 -19757373.62508 -15395353.23308  20879830.38000  20879830.08700  20879828.97500
       270.00000       148.00000
   4170244.61205   3249529.05205  25054928.85600  25054929.51000  25054933.38200
         6.00000         5.00000
  -9699987.86607  -7558429.12306  23087131.21400  23087131.17300  23087129.55800
        60.00000        28.00000
 -27290212.11508 -21265100.37008  20307307.35100  20307306.82200  20307305.59800
       256.00000       212.00000
 04  8 24  1  1  0.0000000  0  9G26G15G 9G 3G29G18G10G22G21
 -16316839.26908 -12714419.04408  21139365.28300  21139365.20400  21139364.95500
       205.00000       102.00000
 -13960443.99807 -10878265.68207  21879792.55200  21879791.57000  21879792.65000
        84.00000        49.00000
 -13901605.07007 -10832415.81107  21986748.20900  21986748.05900  21986749.62100
        97.00000        52.00000
   -684924.81306   -533707.16605  24403327.36800  24403326.57900  24403328.48700
        13.00000         6.00000
 -10690745.44707  -8330450.71207  22250004.22000  22250003.62500  22250003.36400
        81.00000        49.00000
 -19805834.16808 -15433114.69708  20870608.72000  20870608.39700  20870607.16400
       267.00000       146.00000
   4266100.37905   3324221.77504  25073171.46500  25073170.92900  25073174.43400
         7.00000         3.00000
  -9783301.20707  -7623348.57906  23071277.18200  23071277.13600  23071275.46600
        61.00000        27.00000
 -27272235.01908 -21251092.27408  20310728.22700  20310727.83300  20310726.55000
       257.00000       210.00000
 04  8 24  1  1 30.0000000  0  9G26G15G 9G 3G29G18G10G22G21
 -16237553.21308 -12652637.71508  21154453.14200  21154452.92000  21154452.56600
       202.00000       103.00000
 -14040673.35007 -10940782.04407  21864524.84200  21864524.34000  21864525.57400
        90.00000        50.00000
 -13997655.80508 -10907260.50007  21968470.70500  21968470.40900  21968471.42000
       106.00000        52.00000
   -685379.70406   -534061.66505  24403240.68600  24403239.90500  24403241.12200
        15.00000         4.00000
 -10609634.99307  -8267247.78407  22265438.71200  22265438.53400  22265438.42300
        80.00000        51.00000
 -19854047.09208 -15470683.21308  20861434.12200  20861433.69600  20861432.53300
       261.00000       148.00000
   4361968.43505   3398924.02605  25091415.18700  25091414.32700  25091417.72800
         7.00000         4.00000
  -9866536.00407  -7688206.83606  23055437.79100  23055438.04300  23055435.81700
        63.00000        25.00000
 -27253685.93208 -21236638.45208  20314258.01600  20314257.60300  20314256.23000
       259.00000       208.00000
 04  8 24  1  2  0.0000000  0  9G26G15G 9G 3G29G18G10G22G21
 -16157919.84808 -12590585.76408  21169606.86400  21169606.54800  21169606.48800
       199.00000       101.00000
 -14120476.02807 -11002965.93007  21849339.41600  21849338.66700  21849339.15600
        92.00000        48.00000
 -14093300.71908 -10981788.97407  21950269.41500  21950269.36800  21950271.08400
       107.00000        56.00000
   -685280.35406   -533984.26205  24403258.15900  24403258.63100  24403260.33400
        13.00000         4.00000
 -10528314.45607  -8203881.15907  22280913.30300  22280913.11000  22280913.18100
        76.00000        50.00000
 -19901959.14208 -15508017.28208  20852316.48200  20852316.15100  20852315.27900
       256.00000       151.00000
   4457900.42705   3473676.15605  25109668.13200  25109669.09700  25109672.91100
         4.00000         4.00000
  -9949639.35307  -7752962.66406  23039623.74900  23039623.53200  23039621.77000
        62.00000        28.00000
 -27234512.58908 -21221698.21008  20317906.58100  20317906.16000  20317905.03900
       258.00000       209.00000
 04  8 24  1  2 30.0000000  0  9G26G15G 9G 3G29G18G10G22G21
 -16077916.56708 -12528245.56308  21184830.32300  21184830.53200  21184830.56200
       195.00000       101.00000
 -14199824.18407 -11064795.65507  21834239.70800  21834239.05300  21834239.76400
        94.00000        47.00000
 -14188511.80008 -11055979.38407  21932152.06600  21932151.61400  21932152.72200
       106.00000        56.00000
   -684602.08106   -533455.75005  24403388.27400  24403387.98700  24403388.94200
        11.00000         5.00000
 -10446760.43907  -8140332.61807  22296432.46800  22296432.29200  22296432.60000
        76.00000        52.00000
 -19949543.98608 -15545096.37608  20843261.70300  20843261.20700  20843260.35000
       262.00000       157.00000
   4553920.50805   3548496.91104  25127942.18000  25127941.53000  25127944.82900
         5.00000         3.00000
 -10032585.23307  -7817595.78406  23023839.53000  23023839.36000  23023838.10400
        58.00000        31.00000
 -27214690.16608 -21206252.18208  20321678.70600  20321678.35600  20321677.05000
       261.00000       206.00000
 04  8 24  1  3  0.0000000  0  9G26G15G 9G 3G29G18G10G22G21
 -15997628.67008 -12465683.58708  21200108.95100  21200108.86300  21200109.04800
       186.00000       103.00000
 -14278797.81607 -11126333.54207  21819211.60600  21819210.97400  21819211.78500
        91.00000        46.00000
 -14283368.37008 -11129893.55107  21914101.60600  21914101.13900  21914102.06700
       111.00000        54.00000
   -683427.87506   -532540.80605  24403612.38800  24403611.44000  24403612.53200
        13.00000         5.00000
 -10365057.57607  -8076668.07907  22311979.98800  22311979.77100  22311980.29500
        76.00000        55.00000
 -19996883.38908 -15581984.21908  20834253.35500  20834252.86400  20834251.95000
       269.00000       161.00000
   4649945.38204   3623321.38605  25146216.71300  25146215.42600  25146217.40100
         3.00000         4.00000
 -10115455.52507  -7882170.02106  23008070.92700  23008070.57500  23008068.11900
        67.00000        29.00000
 -27194301.58908 -21190364.99408  20325558.61200  20325558.07200  20325556.80100
       257.00000       205.00000
 04  8 24  1  3 30.0000000  0  9G26G15G 9G 3G29G18G10G22G21
 -15917011.37608 -12402864.94108  21215449.94700  21215449.70200  21215450.11200
       180.00000       103.00000
 -14357346.97207 -11187540.67207  21804264.02000  21804263.47900  21804264.23000
        89.00000        45.00000
 -14377819.77708 -11203492.03307  21896127.13600  21896127.08200  21896128.46000
       111.00000        55.00000
   -681710.98906   -531202.98205  24403937.91100  24403937.94300  24403939.47100
        11.00000         4.00000
 -10283160.41607  -8012852.14307  22327564.77100  22327564.60800  22327565.05100
        81.00000        56.00000
 -20043929.07008 -15618643.18808  20825300.91800  20825300.41100  20825299.44800
       276.00000       164.00000
   4746022.06505   3698186.19805  25164498.06400  25164496.96900  25164501.02900
         4.00000         4.00000
 -10198201.64707  -7946647.46907  22992324.53900  22992324.25000  22992322.52400
        64.00000        32.00000
 -27173299.53308 -21173999.77208  20329555.31000  20329554.66000  20329553.49500
       257.00000       207.00000
 04  8 24  1  4  0.0000000  0  9G26G15G 9G 3G29G18G10G22G21
 -15836058.43108 -12339784.75607  21230854.18400  21230854.43800  21230854.81000
       179.00000       100.00000
 -14435460.23607 -11248408.13507  21789399.24100  21789398.74100  21789399.55300
        83.00000        45.00000
 -14471854.35108 -11276765.68107  21878233.68300  21878233.44800  21878234.46200
       116.00000        61.00000
   -679443.43206   -529436.06505  24404369.95700  24404369.44500  24404372.14400
        11.00000         6.00000
 -10201061.85507  -7948879.27407  22343187.56900  22343187.42500  22343187.72100
        81.00000        56.00000
 -20090671.14308 -15655065.58708  20816406.24600  20816405.81200  20816404.68500
       281.00000       166.00000
   4842158.62204   3773097.70905  25182789.07700  25182790.43700  25182795.91600
         2.00000         6.00000
 -10280814.21107  -8011020.88106  22976603.27700  22976603.19800  22976601.38100
        60.00000        29.00000
 -27151675.72608 -21157150.07208  20333669.85000  20333669.47600  20333668.35700
       258.00000       208.00000
 04  8 24  1  4 30.0000000  0  9G26G15G 9G 3G29G18G10G22G21
 -15754758.27208 -12276434.01007  21246325.59900  21246325.61200  21246325.57700
       180.00000        97.00000
 -14513120.79007 -11308922.84607  21774621.11600  21774620.43200  21774621.48600
        89.00000        48.00000
 -14565455.02708 -11349701.23007  21860421.66200  21860421.43300  21860422.63400
       116.00000        60.00000
   -676611.60105   -527229.47905  24404909.44300  24404909.55600  24404909.86300
        10.00000         6.00000
 -10118749.95307  -7884740.15907  22358851.14200  22358850.78600  22358851.28000
        77.00000        55.00000
 -20137094.24108 -15691239.43008  20807572.26100  20807571.81900  20807570.68700
       282.00000       168.00000
   4938368.39405   3848066.26305  25201100.64600  25201100.44600  25201105.06800
         6.00000         5.00000
 -10363278.09707  -8075278.41906  22960911.30200  22960911.10900  22960909.16300
        60.00000        30.00000
 -27129416.14708 -21139804.96208  20337906.09800  20337905.47900  20337904.29300
       256.00000       208.00000
 04  8 24  1  5  0.0000000  0  9G26G15G 9G 3G29G18G10G22G21
 -15673152.13508 -12212844.83407  21261854.33700  21261854.53300  21261854.88900
       179.00000        96.00000
 -14590364.76807 -11369112.96007  21759921.99100  21759921.57500  21759922.48400
        98.00000        48.00000
 -14658657.07008 -11422326.15807  21842685.79800  21842685.28200  21842686.83600
       117.00000        62.00000
   -673254.57505   -524613.65705  24405548.31600  24405547.14400  24405548.57900
         9.00000         7.00000
 -10036265.09307  -7820466.28307  22374547.51600  22374547.18200  22374547.62800
        75.00000        52.00000
 -20183236.24008 -15727194.23508  20798791.45100  20798791.06500  20798790.16200
       277.00000       170.00000
   5034612.04605   3923061.19805  25219415.96900  25219415.32600  25219418.50700
         8.00000         5.00000
 -10445631.55307  -8139449.92607  22945240.24200  22945239.42000  22945237.82600
        54.00000        33.00000
 -27106560.07208 -21121995.05708  20342255.25600  20342254.66000  20342253.75800
       254.00000       210.00000
 04  8 24  1  5 30.0000000  0  9G26G15G 9G 3G29G18G10G22G21
 -15591258.58108 -12149031.69907  21277438.29900  21277438.47400  21277439.11300
       181.00000        98.00000
 -14667205.46808 -11428988.82607  21745299.68800  21745299.15000  21745299.98000
       102.00000        48.00000
 -14751473.44508 -11494650.55907  21825023.71100  21825023.52000  21825024.81900
       127.00000        65.00000
   -669388.98606   -521601.52205  24406283.51000  24406283.68900  24406284.06700
        11.00000         4.00000
  -9953625.17307  -7756071.56407  22390272.88400  22390272.87400  22390273.05900
        72.00000        47.00000
 -20229112.33008 -15762941.83308  20790061.54900  20790061.18800  20790060.30400
       273.00000       174.00000
   5130872.99606   3998069.60205  25237734.25400  25237733.22400  25237736.81900
        11.00000         7.00000
 -10527889.65907  -8203547.08707  22929586.37200  22929586.17400  22929584.49900
        55.00000        32.00000
 -27083124.13608 -21103733.30808  20346714.97100  20346714.48600  20346713.46300
       255.00000       209.00000
 04  8 24  1  6  0.0000000  0 10G26G15G 9G 3G29G18G10G22G21G28
 -15509046.33408 -12084970.22707  21293083.43500  21293083.42800  21293083.26900
       184.00000        95.00000
 -14743606.30708 -11488521.94707  21730761.42100  21730760.93300  21730761.24000
       104.00000        49.00000
 -14843867.09308 -11566645.56907  21807441.30000  21807441.00900  21807442.42300
       119.00000        61.00000
   -664981.43505   -518167.07105  24407122.59800  24407121.44200  24407122.93100
         9.00000         6.00000
  -9870798.22907  -7691531.13107  22406034.93300  22406034.25600  22406034.44600
        69.00000        44.00000
 -20274687.57908 -15798455.01808  20781388.77900  20781388.44700  20781387.56200
       265.00000       173.00000
   5227184.39705   4073117.35005  25256059.80400  25256059.22800  25256063.86800
         7.00000         4.00000
 -10610017.53607  -8267542.80107  22913957.69000  22913957.76300  22913956.13600
        57.00000        32.00000
 -27059074.26908 -21084993.17708  20351291.48900  20351290.94300  20351290.05800
       253.00000       207.00000
         -.15714          .27614  25571824.02100  25571822.90100  25571822.27200
         3.00000         3.00000
 04  8 24  1  6 30.0000000  0 10G26G15G 9G 3G29G18G10G22G21G28
 -15426476.82808 -12020630.38107  21308795.81900  21308795.80900  21308795.51000
       176.00000        93.00000
 -14819523.82108 -11547678.44707  21716315.00400  21716314.32200  21716314.64900
       103.00000        51.00000
 -14935793.90608 -11638276.81807  21789948.51500  21789948.33600  21789949.35800
       131.00000        61.00000
   -659991.99806   -514279.24005  24408071.87200  24408071.83900  24408072.54200
        12.00000         6.00000
  -9787744.84407  -7626814.23107  22421839.34100  22421838.78400  22421839.22200
        67.00000        43.00000
 -20319919.78808 -15833700.89208  20772781.43100  20772780.99900  20772780.02300
       262.00000       170.00000
   5323586.61505   4148235.88905  25274404.64200  25274403.56700  25274408.77200
         6.00000         5.00000
 -10691973.50707  -8331404.55207  22898361.55400  22898361.49400  22898360.28700
        57.00000        32.00000
 -27034369.62008 -21065742.83008  20355992.69500  20355992.22500  20355991.22100
       258.00000       204.00000
    -37395.21205    -29138.71804  25564708.87100  25564707.74400  25564707.80400
         6.00000         3.00000
 04  8 24  1  7  0.0000000  0 10G26G15G 9G 3G29G18G10G22G21G28
 -15343652.77908 -11956092.19207  21324557.11500  21324556.76300  21324556.45100
       172.00000        91.00000
 -14895055.46808 -11606534.26807  21701941.10100  21701940.78700  21701941.46100
       101.00000        50.00000
 -15027351.09408 -11709620.04907  21772526.09000  21772525.78100  21772526.36500
       136.00000        60.00000
   -654521.56505   -510016.59005  24409112.34000  24409112.42200  24409114.76300
        10.00000         8.00000
  -9704567.16307  -7562000.48907  22437667.59500  22437667.28400  22437667.61200
        69.00000        43.00000
 -20364908.12608 -15868756.73508  20764220.28000  20764219.95800  20764218.96100
       258.00000       169.00000
   5419978.96205   4223346.69004  25292748.07700  25292747.70400  25292751.98300
         6.00000         3.00000
 -10773856.66007  -8395209.58706  22882780.64300  22882780.17400  22882777.51400
        59.00000        29.00000
 -27009111.18308 -21046060.95308  20360799.00500  20360798.68500  20360797.45100
       261.00000       196.00000
    -74420.09705    -57989.24604  25557661.72300  25557660.72600  25557661.47600
         5.00000         2.00000
 04  8 24  1  7 30.0000000  0 10G26G15G 9G 3G29G18G10G22G21G28
 -15260469.59708 -11891274.15807  21340386.26900  21340386.09400  21340385.79600
       172.00000        91.00000
 -14970091.55308 -11665003.94007  21687662.93900  21687662.17900  21687662.52400
       103.00000        51.00000
 -15118428.58808 -11780589.49307  21755194.01500  21755193.72800  21755194.82200
       126.00000        60.00000
   -648463.56705   -505296.11605  24410264.46600  24410263.99800  24410266.69300
         8.00000         5.00000
  -9621160.13607  -7497008.04107  22453539.98000  22453539.73900  22453539.72900
        75.00000        45.00000
 -20409544.88608 -15903538.62208  20755726.49800  20755726.00700  20755724.83300
       259.00000       168.00000
   5516467.85504   4298532.71904  25311109.20400  25311107.69100  25311112.49200
         3.00000         3.00000
 -10855559.24107  -8458873.90206  22867233.03400  22867232.75000  22867230.63200
        61.00000        31.00000
 -26983192.67708 -21025864.73008  20365731.18200  20365730.70200  20365729.77900
       259.00000       198.00000
   -110966.16805    -86466.65104  25550707.12600  25550706.95400  25550706.67500
         5.00000         2.00000
 04  8 24  1  8  0.0000000  0  8G26G15G 9G 3G29G18G22G21
 -15177011.67208 -11826242.03407  21356267.33800  21356267.29700  21356267.28100
       171.00000        87.00000
 -15044711.23308 -11723149.13707  21673462.69500  21673462.20500  21673462.80800
       102.00000        53.00000
 -15209104.89208 -11851246.31907  21737939.12200  21737938.93100  21737939.63800
       133.00000        61.00000
   -641900.22605   -500181.84605  24411515.04100  24411514.75300  24411516.13400
        10.00000         4.00000
  -9537607.02707  -7431901.75607  22469439.45900  22469439.27700  22469439.42600
        74.00000        43.00000
 -20453910.47308 -15938109.20608  20747283.95600  20747283.44000  20747282.46200
       259.00000       175.00000
 -10937161.95907  -8522460.40406  22851704.07300  22851703.90600  22851701.83500
        60.00000        31.00000
 -26956696.10608 -21005218.08908  20370773.66800  20370773.12100  20370771.90100
       267.00000       197.00000
 04  8 24  1  8 30.0000000  0  8G26G15G 9G 3G29G18G22G21
 -15093241.02808 -11760966.23207  21372208.22400  21372208.21900  21372208.49700
       169.00000        87.00000
 -15118871.34007 -11780936.21607  21659350.61500  21659350.10300  21659350.62300
       100.00000        53.00000
 -15299336.44508 -11921556.58407  21720768.51300  21720768.28700  21720769.44800
       132.00000        66.00000
   -634792.20805   -494643.16404  24412866.80100  24412866.34400  24412867.47400
         9.00000         3.00000
  -9453869.37507  -7366651.66907  22485374.56100  22485374.24100  22485374.01900
        72.00000        44.00000
 -20497963.10608 -15972435.92508  20738900.98900  20738900.57200  20738899.57000
       263.00000       177.00000
 -11018623.39007  -8585936.80907  22836202.60100  22836202.32900  22836200.93000
        64.00000        38.00000
 -26929580.71708 -20984089.23308  20375933.27900  20375932.77300  20375931.94300
       267.00000       199.00000
 04  8 24  1  9  0.0000000  0  9G26G15G 9G 3G29G18G22G21G10
 -15009199.85708 -11695479.62807  21388200.99400  21388200.92600  21388201.10000
       171.00000        86.00000
 -15192609.18608 -11838394.26907  21645319.20200  21645318.33500  21645318.96800
       101.00000        54.00000
 -15389159.99508 -11991548.92607  21703675.37200  21703675.12800  21703676.27800
       128.00000        64.00000
   -627180.00905   -488711.63305  24414317.05200  24414315.51200  24414316.33100
         7.00000         4.00000
  -9369988.76307  -7301290.19507  22501335.92000  22501335.56900  22501335.57700
        67.00000        43.00000
 -20541741.70008 -16006549.11108  20730570.35800  20730569.79700  20730568.58600
       260.00000       176.00000
 -11099982.57407  -8649333.54007  22820720.24600  22820720.20200  22820718.59400
        72.00000        38.00000
 -26901887.96708 -20962510.49308  20381203.37900  20381202.90800  20381201.69600
       275.00000       199.00000
        -1.14615         -.84710  25366226.58800  25366224.87500  25366226.51700
         7.00000          .00000
 04  8 24  1  9 30.0000000  0  8G26G15G 9G 3G29G18G22G21
 -14924853.63308 -11629755.32207  21404251.84600  21404251.64900  21404251.65300
       169.00000        86.00000
 -15265885.32408 -11895492.54607  21631374.48100  21631374.11200  21631375.37700
       102.00000        58.00000
 -15478535.50508 -12061192.15507  21686667.71000  21686667.77600  21686668.58000
       133.00000        66.00000
   -619027.40305   -482358.98005  24415865.72700  24415866.59400  24415868.50400
         9.00000         6.00000
  -9285929.76707  -7235789.71707  22517331.90300  22517331.36400  22517331.68900
        64.00000        42.00000
 -20585208.36308 -16040419.23808  20722298.94100  20722298.40100  20722297.25900
       259.00000       176.00000
 -11181201.43807  -8712620.93807  22805265.65100  22805265.40500  22805263.24700
        81.00000        40.00000
 -26873580.54208 -20940452.78208  20386590.09600  20386589.56700  20386588.40100
       275.00000       197.00000
 04  8 24  1 10  0.0000000  0  9G26G15G 9G 3G29G18G22G21G28
 -14840189.14508 -11563783.02307  21420362.73100  21420362.69900  21420362.56100
       164.00000        82.00000
 -15338681.13308 -11952216.54007  21617522.05400  21617521.49100  21617522.62500
       104.00000        56.00000
 -15567443.95908 -12130471.42807  21669749.35600  21669749.11500  21669750.29200
       133.00000        69.00000
   -610319.37706   -475573.50705  24417525.05900  24417524.57900  24417525.51600
        14.00000         8.00000
  -9201678.56207  -7170139.46707  22533364.32500  22533364.02800  22533363.94900
        64.00000        40.00000
 -20628346.41408 -16074033.30108  20714089.69700  20714089.34100  20714088.31600
       251.00000       175.00000
 -11262263.29107  -8775785.98207  22789839.44200  22789839.67900  22789837.80800
        81.00000        40.00000
 -26844643.33508 -20917904.33008  20392096.71000  20392096.31300  20392095.11100
       284.00000       201.00000
         -.40715          .24014  25517133.48900  25517134.14100  25517133.96600
         7.00000         1.00000
 04  8 24  1 10 30.0000000  0  9G26G15G 9G 3G29G18G22G21G10
 -14755249.24208 -11497596.11307  21436525.98500  21436526.17200  21436526.15100
       161.00000        81.00000
 -15411034.58508 -12008595.84807  21603753.95700  21603753.33300  21603754.16500
       107.00000        56.00000
 -15655922.69608 -12199415.87107  21652912.57900  21652912.16500  21652913.02800
       135.00000        70.00000
   -601097.01106   -468387.30205  24419279.48500  24419279.55900  24419280.17900
        11.00000         5.00000
  -9117277.25007  -7104372.24607  22549425.17800  22549425.26900  22549425.34200
        68.00000        41.00000
 -20671194.75808 -16107421.62408  20705935.70700  20705935.52300  20705934.57800
       252.00000       178.00000
 -11343207.72707  -8838859.54407  22774436.60900  22774436.16100  22774434.52200
        74.00000        40.00000
 -26815117.86008 -20894897.49408  20397715.14400  20397714.65500  20397713.59400
       282.00000       197.00000
         -.29314         -.47010  25421412.50900  25421412.41300  25421414.10900
         3.00000          .00000
 04  8 24  1 11  0.0000000  0  8G26G15G 9G 3G29G18G22G21
 -14670035.99008 -11431196.20407  21452742.05100  21452741.85900  21452741.77900
       160.00000        80.00000
 -15482942.49608 -12064627.99107  21590070.29900  21590069.74400  21590070.27100
       109.00000        56.00000
 -15743968.20808 -12268022.72307  21636157.65200  21636157.42400  21636158.78500
       141.00000        73.00000
   -591360.90805   -460800.75104  24421133.36400  24421131.06300  24421132.85700
         9.00000         2.00000
  -9032727.24907  -7038489.16407  22565515.63500  22565515.17200  22565514.66500
        72.00000        39.00000
 -20713752.26408 -16140583.31908  20697837.83400  20697837.26600  20697836.15200
       253.00000       179.00000
 -11424033.39507  -8901840.55707  22759055.42600  22759055.06000  22759053.45600
        69.00000        38.00000
 -26785004.12608 -20871432.26908  20403445.62700  20403445.09200  20403444.02500
       279.00000       195.00000
 04  8 24  1 11 30.0000000  0  8G26G15G 9G 3G29G18G22G21
 -14584533.26008 -11364570.72907  21469012.37000  21469012.35000  21469012.42000
       157.00000        80.00000
 -15554383.78408 -12120296.51807  21576475.11600  21576474.73100  21576475.98000
       112.00000        60.00000
 -15831559.04908 -12336275.29407  21619489.36200  21619489.38200  21619490.46400
       141.00000        72.00000
   -581093.21606   -452800.00005  24423085.75000  24423085.32200  24423087.64500
        12.00000         4.00000
  -8948011.50107  -6972476.93607  22581635.80400  22581635.73600  22581635.58800
        70.00000        40.00000
 -20755999.06308 -16173502.90608  20689798.25800  20689797.87500  20689796.87400
       251.00000       181.00000
 -11504720.73707  -8964713.77307  22743701.36600  22743701.18600  22743699.32000
        70.00000        39.00000
 -26754283.93508 -20847494.48308  20409291.67200  20409291.10400  20409290.02100
       280.00000       195.00000
 04  8 24  1 12  0.0000000  0  9G26G15G 9G 3G29G18G22G21G28
 -14498746.25808 -11297723.74007  21485337.00600  21485337.10700  21485337.37700
       153.00000        81.00000
 -15625358.78508 -12175601.70707  21562968.95600  21562968.61800  21562969.93900
       112.00000        63.00000
 -15918695.00208 -12404173.40807  21602908.00300  21602907.83000  21602909.34200
       143.00000        73.00000
   -570297.74806   -444387.99504  24425140.37900  24425139.84000  24425140.91900
        13.00000         3.00000
  -8863134.76207  -6906339.25307  22597786.94100  22597786.85200  22597787.21400
        65.00000        41.00000
 -20797936.83808 -16206181.68908  20681817.42100  20681817.24600  20681816.34500
       249.00000       183.00000
 -11585271.53207  -9027480.58607  22728372.51500  22728372.63000  22728370.97400
        68.00000        38.00000
 -26722961.08708 -20823087.09208  20415251.93700  20415251.35900  20415250.47100
       277.00000       190.00000
          .02915         -.25410  25491761.42800  25491761.68200  25491762.35000
         9.00000          .00000
 04  8 24  1 12 30.0000000  0  8G26G15G 9G 3G29G18G22G21
 -14412660.22608 -11230643.74307  21501718.56100  21501718.67200  21501718.92700
       147.00000        80.00000
 -15695847.64208 -12230528.07607  21549556.27400  21549555.58500  21549555.93400
       118.00000        61.00000
 -16005355.96908 -12471701.40607  21586417.35000  21586417.05900  21586417.89800
       147.00000        73.00000
   -558958.22606   -435552.05304  24427298.88500  24427298.35900  24427298.85800
        14.00000         2.00000
  -8778081.47707  -6840064.00607  22613972.52900  22613972.15100  22613972.65800
        64.00000        43.00000
 -20839547.76908 -16238605.78808  20673899.13300  20673898.92200  20673898.11400
       244.00000       189.00000
 -11665667.73107  -9090126.94107  22713073.69900  22713073.81300  22713071.68100
        71.00000        35.00000
 -26691018.82708 -20798197.04408  20421330.38800  20421329.95900  20421328.83200
       282.00000       187.00000
 04  8 24  1 13  0.0000000  0  8G26G15G 9G 3G29G18G22G21
 -14326335.51808 -11163377.76207  21518145.96900  21518145.61000  21518146.06500
       143.00000        80.00000
 -15765905.44408 -12285118.56707  21536224.10000  21536223.69300  21536224.31900
       124.00000        60.00000
 -16091596.58008 -12538901.84507  21570006.41600  21570006.06900  21570007.27300
       145.00000        76.00000
   -547133.35506   -426337.90605  24429548.05200  24429548.28700  24429549.57200
        13.00000         5.00000
  -8692911.37307  -6773697.73107  22630179.29500  22630179.35800  22630179.87000
        62.00000        41.00000
 -20880887.89408 -16270818.87308  20666032.57400  20666032.18400  20666031.30300
       247.00000       193.00000
 -11745966.07207  -9152697.05907  22697793.63100  22697793.78500  22697791.21300
        76.00000        34.00000
 -26658515.01208 -20772869.41908  20427515.69600  20427515.25800  20427513.93600
       284.00000       178.00000
 04  8 24  1 13 30.0000000  0  9G26G15G 9G 3G29G18G22G21G28
 -14239706.71808 -11095874.83307  21534630.84900  21534630.73200  21534631.03800
       150.00000        79.00000
 -15835462.12108 -12339318.57907  21522987.95000  21522987.37200  21522988.37100
       125.00000        62.00000
 -16177346.11608 -12605719.62707  21553688.01400  21553687.99300  21553689.13500
       145.00000        73.00000
   -534755.99205   -416693.26505  24431903.06400  24431902.92700  24431904.21700
         9.00000         5.00000
  -8607558.19807  -6707188.80107  22646421.71600  22646421.61700  22646421.99900
        60.00000        41.00000
 -20921889.11108 -16302767.87508  20658230.15800  20658229.90300  20658229.20200
       247.00000       201.00000
 -11826097.96307  -9215137.44607  22682545.91700  22682545.35700  22682542.56900
        79.00000        33.00000
 -26625383.14208 -20747052.40108  20433820.56000  20433820.06000  20433819.06300
       280.00000       177.00000
         -.58916          .07510  25473616.41300  25473615.59300  25473616.54300
        12.00000          .00000
 04  8 24  1 14  0.0000000  0  8G26G15G 9G 3G29G18G22G21
 -14152806.09108 -11028160.08307  21551167.77000  21551167.80200  21551167.67400
       157.00000        78.00000
 -15904544.61508 -12393149.09007  21509841.86200  21509841.25200  21509842.30500
       121.00000        62.00000
 -16262631.27708 -12672175.57407  21537459.15500  21537458.86100  21537459.95200
       146.00000        73.00000
   -521857.11205   -406642.19304  24434357.80600  24434357.78700  24434359.22800
        10.00000         3.00000
  -8522053.44207  -6640561.75307  22662692.64100  22662692.66800  22662692.87700
        59.00000        40.00000
 -20962579.64908 -16334474.77908  20650487.01500  20650486.88700  20650486.07800
       250.00000       205.00000
 -11906091.94507  -9277470.39007  22667322.55300  22667322.64100  22667319.80900
        82.00000        34.00000
 -26591653.69408 -20720769.73408  20440239.08200  20440238.61300  20440237.24600
       281.00000       170.00000
 04  8 24  1 14 30.0000000  0  8G26G15G 9G 3G29G18G22G21
 -14065665.75608 -10960258.55007  21567749.95100  21567750.02600  21567749.71900
       153.00000        75.00000
 -15973180.24208 -12446631.38807  21496780.78500  21496780.26600  21496781.45800
       120.00000        62.00000
 -16347479.00708 -12738290.65907  21521313.51500  21521313.08700  21521313.83400
       149.00000        73.00000
   -508467.45406   -396208.75005  24436906.54900  24436906.00500  24436906.98400
        12.00000         5.00000
  -8436428.55407  -6573841.10307  22678985.94200  22678986.53400  22678986.66500
        59.00000        38.00000
 -21002988.36808 -16365962.09708  20642797.85000  20642797.43100  20642796.49500
       252.00000       204.00000
 -11985977.00107  -9339718.46107  22652121.40200  22652121.33900  22652119.02300
        86.00000        36.00000
 -26557356.63508 -20694044.77608  20446765.74400  20446765.20900  20446763.92300
       280.00000       168.00000
 04  8 24  1 15  0.0000000  0  8G15G 9G 3G29G26G22G18G21
 -16041330.22708 -12499735.26307  21483812.16600  21483811.75900  21483813.00600
       121.00000        64.00000
 -16431850.02108 -12804034.27007  21505257.47300  21505257.50300  21505258.72100
       152.00000        74.00000
   -494551.79806   -385365.42205  24439554.97200  24439554.32500  24439555.79700
        15.00000         7.00000
  -8350649.00207  -6506999.93807  22695310.28000  22695309.95400  22695310.09200
        58.00000        37.00000
 -13978251.89308 -10892143.88807  21584384.10300  21584384.12200  21584384.04800
       149.00000        75.00000
 -12065715.90807  -9401852.65507  22636947.58800  22636947.13500  22636944.57800
        79.00000        35.00000
 -21043077.84408 -16397200.64708  20635168.89600  20635168.55000  20635167.64800
       253.00000       200.00000
 -26522457.61908 -20666850.75708  20453406.59900  20453406.14300  20453405.00500
       278.00000       168.00000
 04  8 24  1 15 30.0000000  0  9G15G 9G 3G29G26G22G18G21G28
 -16108986.05208 -12552454.08107  21470938.03900  21470937.44700  21470938.42800
       126.00000        65.00000
 -16515735.27608 -12869399.37607  21489295.60600  21489295.07300  21489295.39800
       160.00000        74.00000
   -480105.23305   -374108.39005  24442302.47400  24442302.48300  24442305.08000
         5.00000         8.00000
  -8264710.64007  -6440035.02407  22711663.86100  22711663.36500  22711663.71200
        56.00000        36.00000
 -13890561.10308 -10823813.43407  21601071.39100  21601071.09500  21601071.25800
       143.00000        75.00000
 -12145301.63207  -9463867.48507  22621802.73200  22621802.46600  22621800.59600
        76.00000        39.00000
 -21082841.11208 -16428185.01308  20627602.09100  20627601.90900  20627600.88300
       257.00000       197.00000
 -26486951.09908 -20639183.36108  20460163.16800  20460162.84700  20460161.72000
       279.00000       169.00000
         -.64915          .35410  25450605.57500  25450604.48400  25450605.27500
         8.00000          .00000
 04  8 24  1 16  0.0000000  0  8G15G 9G 3G29G26G22G18G21
 -16176119.59108 -12604765.92407  21458162.88100  21458162.31000  21458163.05000
       126.00000        64.00000
 -16599106.27508 -12934363.76407  21473429.63400  21473429.71700  21473430.72700
       159.00000        76.00000
   -465103.02805   -362418.42705  24445158.12700  24445157.76300  24445159.47600
         8.00000         5.00000
  -8178589.28807  -6372927.51307  22728052.07300  22728051.69500  22728051.85800
        53.00000        34.00000
 -13802570.05108 -10755249.01107  21617815.32600  21617815.40400  21617815.29400
       142.00000        72.00000
 -12224707.42407  -9525742.11507  22606692.10000  22606691.63200  22606689.77600
        76.00000        39.00000
 -21122251.53508 -16458894.43608  20620102.88200  20620102.48100  20620101.26200
       259.00000       197.00000
 -26450812.00408 -20611023.05208  20467040.51000  20467040.02600  20467038.63600
       282.00000       167.00000
 04  8 24  1 16 30.0000000  0  8G15G 9G 3G29G26G22G18G21
 -16242766.19108 -12656698.34307  21445480.38500  21445479.82200  21445480.57300
       126.00000        64.00000
 -16681997.92408 -12998954.62207  21457656.56800  21457656.09300  21457656.99800
       161.00000        78.00000
   -449584.32405   -350325.95305  24448111.32600  24448111.16400  24448112.86200
         7.00000         6.00000
  -8092324.66007  -6305708.36307  22744467.03100  22744467.23400  22744468.04300
        53.00000        34.00000
 -13714318.85008 -10686481.87207  21634609.02500  21634608.92300  21634608.79700
       138.00000        67.00000
 -12303970.38607  -9587505.42807  22591608.37100  22591608.47800  22591606.93900
        78.00000        41.00000
 -21161345.47408 -16489357.24908  20612663.47900  20612662.95100  20612661.94400
       255.00000       199.00000
 -26414078.48108 -20582399.54908  20474030.45300  20474029.99500  20474029.11000
       277.00000       172.00000
 04  8 24  1 17  0.0000000  0  8G15G 9G 3G29G26G22G18G21
 -16308940.80208 -12708262.97007  21432887.96700  21432887.31100  21432888.24000
       128.00000        66.00000
 -16764424.74608 -13063183.27807  21441971.48100  21441971.10100  21441971.61600
       166.00000        80.00000
   -433567.57005   -337845.40805  24451158.93800  24451158.44900  24451160.43300
         9.00000         6.00000
  -8005935.80907  -6238392.41107  22760906.62500  22760906.54500  22760907.28000
        51.00000        34.00000
 -13625827.41208 -10617527.54607  21651448.16200  21651448.32000  21651448.59100
       139.00000        68.00000
 -12383106.74907  -9649170.10807  22576549.54900  22576549.37800  22576547.56700
        80.00000        40.00000
 -21200139.74608 -16519586.55708  20605280.97100  20605280.61800  20605279.64400
       250.00000       201.00000
 -26376769.65208 -20553327.76108  20481130.56600  20481129.96300  20481128.69500
       276.00000       170.00000
 04  8 24  1 17 30.0000000  0  8G15G 9G 3G29G26G22G18G21
 -16374668.42408 -12759479.27707  21420380.15700  21420379.73500  21420380.87400
       131.00000        67.00000
 -16846411.04408 -13127068.67107  21426369.02000  21426369.02400  21426369.97700
       159.00000        79.00000
   -417080.94806   -324998.72105  24454296.94000  24454296.15500  24454297.84600
        12.00000         7.00000
  -7919451.46507  -6171002.06507  22777364.66800  22777364.32200  22777364.92000
        51.00000        33.00000
 -13537125.36508 -10548409.10107  21668327.93700  21668327.82800  21668328.00200
       137.00000        66.00000
 -12462142.90507  -9710756.70107  22561510.10600  22561509.63000  22561507.29200
        88.00000        41.00000
 -21238660.22608 -16549602.51408  20597950.78600  20597950.54800  20597949.53200
       254.00000       206.00000
 -26338913.64708 -20523829.60908  20488333.94600  20488333.46100  20488332.65200
       275.00000       171.00000
 04  8 24  1 18  0.0000000  0  9G15G 9G 3G29G26G22G18G21G28
 -16439829.07108 -12810253.80707  21407980.80400  21407980.24000  21407980.83600
       135.00000        66.00000
 -16927836.57108 -13190517.10207  21410874.90200  21410874.49200  21410875.37500
       167.00000        81.00000
   -400008.22406   -311695.34605  24457546.21400  24457545.21200  24457547.56700
        12.00000         8.00000
  -7832755.85507  -6103447.08306  22793862.06200  22793862.00300  22793862.53500
        50.00000        31.00000
 -13448097.71608 -10479036.93607  21685269.00400  21685269.05700  21685269.55700
       130.00000        65.00000
 -12540960.26707  -9772172.80607  22546511.94200  22546511.57700  22546509.27200
        98.00000        44.00000
 -21276788.60008 -16579312.93908  20590695.35800  20590695.06900  20590693.98800
       255.00000       211.00000
 -26300393.64608 -20493814.03808  20495664.00600  20495663.57500  20495662.52100
       272.00000       167.00000
     -9027.68304     -7035.06600  25423800.28900  25423799.06600  25423800.52800
         3.00000          .00000
 04  8 24  1 18 30.0000000  0  8G15G 9G 3G29G26G22G18G21
 -16504513.76708 -12860657.46807  21395671.80100  21395671.04400  21395671.80100
       133.00000        70.00000
 -17008791.98308 -13253599.20607  21395469.64900  21395469.20700  21395469.87400
       173.00000        80.00000
   -382444.44305   -298009.31905  24460888.41700  24460887.02700  24460889.91100
         7.00000         8.00000
  -7745944.48007  -6035801.90906  22810382.58900  22810382.23200  22810381.97400
        55.00000        30.00000
 -13358840.34308 -10409485.77107  21702254.07400  21702254.19700  21702254.72300
       129.00000        64.00000
 -12619651.32407  -9833490.48307  22531536.49700  22531536.63500  22531534.57600
        95.00000        43.00000
 -21314617.32108 -16608789.86808  20583496.81100  20583496.41900  20583495.43000
       254.00000       214.00000
 -26261303.59108 -20463354.28508  20503102.77600  20503102.26100  20503101.32500
       278.00000       168.00000
 04  8 24  1 19  0.0000000  0  8G15G 9G 3G29G26G22G18G21
 -16568733.82108 -12910699.05507  21383451.14200  21383450.44700  21383451.37600
       133.00000        73.00000
 -17089288.35908 -13316323.62607  21380151.02500  21380150.85500  21380151.82800
       168.00000        81.00000
   -364404.54305   -283952.27805  24464319.73000  24464319.75100  24464322.77200
         8.00000         8.00000
  -7659032.84907  -5968078.60106  22826920.89400  22826920.54700  22826920.86800
        57.00000        31.00000
 -13269369.62508 -10339768.36007  21719280.34400  21719280.12700  21719280.41900
       131.00000        65.00000
 -12698229.23807  -9894719.97607  22516584.02600  22516583.74700  22516581.50300
        89.00000        44.00000
 -21352159.39308 -16638043.42608  20576352.85300  20576352.47900  20576351.38400
       255.00000       218.00000
 -26221659.27908 -20432462.63908  20510646.85000  20510646.36700  20510644.98700
       280.00000       160.00000
 04  8 24  1 19 30.0000000  0  8G15G 9G 3G29G26G22G18G21
 -16632418.11608 -12960323.17707  21371332.55000  21371331.72400  21371332.58000
       130.00000        71.00000
 -17169254.05708 -13378634.52607  21364934.64300  21364934.19500  21364934.95700
       174.00000        82.00000
   -345820.75506   -269471.46505  24467857.78300  24467857.68700  24467858.85300
        14.00000         7.00000
  -7571953.74207  -5900224.79306  22843491.60000  22843491.21300  22843491.52900
        54.00000        31.00000
 -13179619.12208 -10269832.93607  21736359.36400  21736359.10400  21736359.45300
       131.00000        65.00000
 -12776623.98207  -9955806.75107  22501666.00600  22501665.83900  22501663.80800
        94.00000        47.00000
 -21389344.79508 -16667019.05908  20569276.88900  20569276.28000  20569275.28000
       254.00000       219.00000
 -26181392.76208 -20401086.15508  20518309.11700  20518308.79000  20518307.97100
       279.00000       165.00000
 04  8 24  1 20  0.0000000  0  8G15G 9G 3G29G26G22G18G21
 -16695598.63408 -13009554.75307  21359309.66000  21359308.94100  21359309.38600
       132.00000        67.00000
 -17248720.64908 -13440556.52107  21349812.47700  21349812.24700  21349812.53100
       180.00000        78.00000
   -326728.71606   -254594.61605  24471490.66200  24471490.35400  24471490.83500
        15.00000         4.00000
  -7484743.16007  -5832268.53406  22860086.75300  22860086.73200  22860087.08600
        51.00000        30.00000
 -13089625.62608 -10199708.17207  21753484.59100  21753484.43100  21753484.68500
       130.00000        65.00000
 -12854869.16807 -10016776.99407  22486775.54900  22486775.75200  22486773.73300
        94.00000        47.00000
 -21426206.76708 -16695742.67508  20562262.05000  20562261.62100  20562260.64100
       255.00000       220.00000
 -26140539.58908 -20369252.54608  20526083.40000  20526082.87800  20526081.89500
       280.00000       158.00000
 04  8 24  1 20 30.0000000  0  8G15G 9G 3G29G26G22G18G21
 -16758263.35008 -13058384.39807  21347384.35100  21347383.82900  21347384.69700
       131.00000        68.00000
 -17327675.78508 -13502079.98007  21334788.12400  21334787.61600  21334788.32600
       178.00000        81.00000
   -307120.42406   -239315.41305  24475223.03000  24475222.57600  24475223.26300
        17.00000         7.00000
  -7397393.37607  -5764203.80406  22876708.31700  22876707.98700  22876709.49900
        43.00000        31.00000
 -12999381.85408 -10129388.38307  21770657.06700  21770657.08200  21770657.46900
       128.00000        64.00000
 -12932954.08707 -10077622.35407  22471917.41200  22471917.20100  22471915.11300
        99.00000        50.00000
 -21462734.75108 -16724206.04208  20555311.04700  20555310.53600  20555309.47400
       250.00000       216.00000
 -26099090.88408 -20336954.86708  20533970.29800  20533970.16400  20533969.12300
       275.00000       154.00000
 04  8 24  1 21  0.0000000  0  8G15G 9G 3G29G26G22G18G21
 -16820416.05008 -13106815.06007  21335557.32900  21335556.67300  21335557.73700
       130.00000        72.00000
 -17406122.84608 -13563207.53507  21319859.99400  21319859.51400  21319860.03000
       179.00000        81.00000
   -287003.05606   -223639.56505  24479049.67100  24479049.35600  24479051.51700
        13.00000         5.00000
  -7309911.99607  -5696036.53006  22893355.55800  22893355.64000  22893356.62700
        43.00000        30.00000
 -12908896.53008 -10058880.36907  21787875.69200  21787875.83100  21787875.97200
       126.00000        62.00000
 -13010883.86507 -10138346.82307  22457087.75300  22457087.41300  22457085.49300
        95.00000        48.00000
 -21498933.99808 -16752413.24408  20548422.42300  20548422.14600  20548421.01900
       249.00000       219.00000
 -26057054.48308 -20304199.26308  20541969.85400  20541969.66400  20541968.64400
       277.00000       155.00000
 04  8 24  1 21 30.0000000  0  8G15G 9G 3G29G26G22G18G21
 -16882070.58408 -13154857.54507  21323824.94100  21323824.25900  21323825.24400
       136.00000        72.00000
 -17484075.24608 -13623949.64407  21305026.20200  21305025.77400  21305026.07300
       183.00000        82.00000
   -266394.00405   -207580.61805  24482970.90800  24482970.61600  24482973.25700
        10.00000         4.00000
  -7222316.73207  -5627780.52406  22910025.54800  22910024.69800  22910025.40000
        41.00000        29.00000
 -12818187.84708  -9988198.31607  21805137.45200  21805137.40000  21805137.52100
       127.00000        60.00000
 -13088673.65607 -10198962.22607  22442284.31500  22442284.18700  22442282.35800
        98.00000        48.00000
 -21534819.71008 -16780376.13908  20541593.60100  20541593.17400  20541592.27000
       247.00000       223.00000
 -26014447.10308 -20270998.73308  20550077.79800  20550077.29900  20550076.66200
       268.00000       153.00000
 04  8 24  1 22  0.0000000  0  8G15G 9G 3G29G26G22G18G21
 -16943203.88708 -13202493.86907  21312191.84700  21312191.16700  21312191.84900
       148.00000        71.00000
 -17561509.41708 -13684287.93907  21290290.17500  21290290.07200  21290291.41100
       179.00000        86.00000
   -245274.14406   -191123.60505  24486990.74600  24486989.95900  24486991.72600
        13.00000         5.00000
  -7134588.80007  -5559421.13106  22926719.14000  22926718.87800  22926719.79200
        42.00000        30.00000
 -12727237.78208  -9917328.16407  21822445.01400  21822444.67500  21822444.75600
       120.00000        59.00000
 -13166301.94807 -10259451.77307  22427512.12300  22427511.95400  22427510.76500
        95.00000        51.00000
 -21570369.88408 -16808077.56408  20534828.89400  20534828.39700  20534827.29700
       249.00000       228.00000
 -25971249.21108 -20237338.06708  20558298.53800  20558298.05900  20558296.74200
       277.00000       149.00000
 04  8 24  1 22 30.0000000  0  9G15G 9G 3G29G26G22G18G21G28
 -17003802.58508 -13249713.63207  21300660.26800  21300659.54200  21300659.87900
       151.00000        65.00000
 -17638411.77008 -13744211.82707  21275657.14300  21275656.74600  21275657.09800
       191.00000        88.00000
   -223633.65906   -174260.93405  24491109.41700  24491109.24400  24491110.19600
        15.00000         5.00000
  -7046718.59007  -5490950.88006  22943440.48800  22943440.10800  22943440.89200
        44.00000        30.00000
 -12636037.64008  -9846263.16007  21839799.56000  21839799.39400  21839799.48000
       114.00000        60.00000
 -13243756.29707 -10319805.79507  22412773.23400  22412773.09500  22412770.95200
        98.00000        49.00000
 -21605572.47808 -16835508.15908  20528129.82400  20528129.52400  20528128.50300
       244.00000       229.00000
 -25927450.94308 -20203209.56708  20566632.69300  20566632.24200  20566631.47600
       270.00000       149.00000
     -7630.74600     -5945.42704  25381082.65200  25381083.77700  25381082.78200
          .00000         2.00000
 04  8 24  1 23  0.0000000  0  9G15G 9G 3G29G26G22G18G21G28
 -17063904.96908 -13296546.65407  21289223.06500  21289222.42000  21289222.66700
       148.00000        66.00000
 -17714820.35108 -13803750.96107  21261116.22500  21261116.02400  21261117.41800
       182.00000        92.00000
   -201514.74406   -157025.43005  24495318.16300  24495317.30300  24495319.39400
        14.00000         6.00000
  -6958748.64907  -5422402.91006  22960179.64200  22960179.69300  22960180.74700
        42.00000        29.00000
 -12544630.41408  -9775036.78507  21857193.60000  21857193.58900  21857193.76300
       112.00000        61.00000
 -13321076.94507 -10380055.71907  22398059.02100  22398059.39200  22398057.54800
        98.00000        48.00000
 -21640467.23108 -16862698.87308  20521489.34800  20521489.04000  20521488.26600
       239.00000       233.00000
 -25883094.47808 -20168646.11308  20575073.73100  20575073.25800  20575072.06100
       283.00000       148.00000
    -30235.97700    -23559.88305  25376784.13900  25376782.21300  25376783.59500
          .00000         5.00000
 04  8 24  1 23 30.0000000  0 10G15G 9G 3G29G26G22G18G21G28G19
 -17123458.49208 -13342951.99707  21277889.62800  21277889.38700  21277890.23900
       149.00000        70.00000
 -17790681.97808 -13862863.89607  21246680.55600  21246680.29200  21246681.19400
       187.00000        91.00000
   -178868.13705   -139378.76605  24499627.52100  24499627.40100  24499628.37400
         9.00000         6.00000
  -6870630.02207  -5353739.07806  22976948.78800  22976948.80100  22976949.47600
        46.00000        30.00000
 -12452968.07108  -9703611.61807  21874636.58100  21874636.45600  21874636.60700
       107.00000        60.00000
 -13398211.80107 -10440160.69107  22383380.50400  22383380.82300  22383379.40100
        97.00000        53.00000
 -21675002.72708 -16889609.65308  20514917.59500  20514917.24600  20514916.36500
       239.00000       234.00000
 -25838130.25808 -20133609.08208  20583630.13600  20583629.82000  20583628.56900
       290.00000       148.00000
    -52341.34504    -40784.82204  25372574.07600  25372576.76200  25372575.40900
         1.00000         3.00000
         -.13815         -.42514  25247060.45200  25247060.29900  25247059.78700
         9.00000         2.00000
 04  8 24  1 24  0.0000000  0 10G15G 9G 3G29G26G22G18G21G28G19
 -17182519.51908 -13388973.56507  21266651.12000  21266650.54300  21266651.59700
       146.00000        76.00000
 -17866052.60308 -13921594.22607  21232337.89100  21232337.54000  21232338.75900
       186.00000        94.00000
   -155753.99405   -121367.78705  24504026.73300  24504025.82900  24504027.03700
         6.00000         4.00000
  -6782422.94807  -5285006.34306  22993734.09600  22993734.14900  22993734.67700
        47.00000        29.00000
 -12361111.65008  -9632035.21807  21892115.29900  21892115.67600  21892116.38100
       102.00000        58.00000
 -13475218.90208 -10500166.18607  22368727.73300  22368727.43600  22368724.74300
       101.00000        48.00000
 -21709236.66808 -16916285.45108  20508402.85500  20508402.65900  20508401.90800
       235.00000       238.00000
 -25792618.30608 -20098145.24908  20592291.14900  20592290.48400  20592289.26900
       292.00000       149.00000
    -74004.39004    -57665.07004  25368454.01000  25368452.82800  25368454.58900
         1.00000         3.00000
    -45456.12605    -35420.62304  25238411.26500  25238410.07800  25238408.72000
        10.00000         3.00000
 04  8 24  1 24 30.0000000  0 10G15G 9G 3G29G26G22G18G21G28G19
 -17241025.20508 -13434562.40807  21255518.13300  21255517.49200  21255518.37500
       145.00000        80.00000
 -17940868.98408 -13979892.68507  21218100.87100  21218100.54600  21218101.39000
       189.00000        93.00000
   -132113.13605   -102946.42405  24508525.01900  24508524.48200  24508525.29000
         9.00000         5.00000
  -6694068.51607  -5216158.76506  23010547.89200  23010547.56800  23010547.85400
        49.00000        29.00000
 -12269002.77708  -9560262.11007  21909643.25400  21909643.51900  21909643.93400
       102.00000        54.00000
 -13552036.49208 -10560024.01707  22354109.98700  22354109.63100  22354107.40700
       105.00000        51.00000
 -21743107.26208 -16942678.11808  20501957.45700  20501957.25400  20501956.49600
       229.00000       237.00000
 -25746499.47508 -20062208.52108  20601067.17500  20601066.65100  20601065.55900
       295.00000       150.00000
    -95163.28800    -74152.43504  25364425.56500  25364425.53500  25364427.01900
          .00000         3.00000
    -90397.94105    -70440.22205  25229857.50900  25229857.42400  25229856.91700
         8.00000         4.00000
 04  8 24  1 25  0.0000000  0 10G15G 9G 3G29G26G22G18G21G28G19
 -17299040.76508 -13479769.34207  21244477.89900  21244477.19900  21244478.38700
       140.00000        79.00000
 -18015196.11908 -14037809.90707  21203956.78400  21203956.51800  21203957.35300
       191.00000        94.00000
   -108014.65605    -84168.40705  24513109.61600  24513109.65400  24513112.12800
        10.00000         7.00000
  -6605635.90307  -5147250.28806  23027376.40800  23027376.10700  23027376.20800
        49.00000        30.00000
 -12176711.42308  -9488346.79707  21927206.19600  21927206.10000  21927206.52700
       102.00000        52.00000
 -13628731.23808 -10619786.14507  22339514.71800  22339514.83200  22339512.70800
       107.00000        52.00000
 -21776681.24508 -16968839.66708  20495568.99700  20495568.52000  20495567.62900
       232.00000       238.00000
 -25699842.62108 -20025852.55708  20609945.59400  20609945.15600  20609943.94200
       297.00000       148.00000
   -115884.22300    -90298.62405  25360482.22600  25360481.34400  25360482.93200
          .00000         4.00000
   -134891.60005   -105110.63505  25221389.10900  25221389.91600  25221389.57800
         8.00000         5.00000
 04  8 24  1 25 30.0000000  0  9G15G 9G 3G29G26G22G18G21G19
 -17356482.16208 -13524528.86707  21233547.43600  21233546.81600  21233547.53800
       147.00000        78.00000
 -18088949.43308 -14095280.00207  21189922.29200  21189921.96500  21189922.81400
       202.00000        98.00000
    -83378.49005    -64971.42805  24517797.73800  24517797.69300  24517800.15300
        10.00000         9.00000
  -6517044.98407  -5078218.43606  23044234.53800  23044234.18600  23044234.35700
        45.00000        28.00000
 -12084158.14307  -9416227.40007  21944818.80500  21944818.61200  21944818.85800
        99.00000        51.00000
 -13705220.42108 -10679388.08607  22324959.73100  22324959.52100  22324957.12400
       106.00000        53.00000
 -21809875.81108 -16994705.56308  20489251.85800  20489251.67400  20489250.95100
       233.00000       239.00000
 -25652567.01208 -19989014.44908  20618941.98200  20618941.36600  20618940.35000
       289.00000       149.00000
   -178854.09705   -139367.16905  25213024.49600  25213023.96100  25213025.04400
         9.00000         5.00000
 04  8 24  1 26  0.0000000  0 10G15G 9G 3G29G26G22G18G21G19G28
 -17413377.52808 -13568862.92007  21222720.33300  21222719.95700  21222720.71000
       150.00000        80.00000
 -18162156.86708 -14152324.73407  21175991.19300  21175990.74700  21175991.81700
       194.00000        99.00000
    -58236.41006    -45380.22805  24522583.14800  24522582.61200  24522584.51200
        12.00000         8.00000
  -6428327.55907  -5009088.01706  23061116.31600  23061116.27400  23061116.93300
        41.00000        29.00000
 -11991375.57207  -9343929.33207  21962474.29400  21962474.34600  21962474.91200
        96.00000        49.00000
 -13781533.02108 -10738852.40407  22310437.51800  22310437.33700  22310435.61300
       104.00000        57.00000
 -21842720.23808 -17020298.62508  20483002.10100  20483001.76000  20483000.79600
       235.00000       240.00000
 -25604704.35108 -19951718.89208  20628049.77700  20628049.38500  20628048.17200
       288.00000       145.00000
   -222314.25006   -173232.22605  25204756.61300  25204754.76600  25204754.76500
        16.00000         6.00000
          .22714          .00515  25352887.64200  25352886.23200  25352889.76800
         1.00000         5.00000
 04  8 24  1 26 30.0000000  0 10G15G 9G 3G29G26G22G18G21G19G28
 -17469758.63508 -13612796.24607  21211991.62900  21211990.94800  21211991.92300
       149.00000        81.00000
 -18234849.73308 -14208968.49807  21162158.39600  21162158.02900  21162158.73200
       201.00000        98.00000
    -32623.92806    -25422.52405  24527456.44000  24527456.31900  24527459.01700
        12.00000         8.00000
  -6339519.41207  -4939886.90406  23078014.71500  23078015.00700  23078016.61000
        35.00000        28.00000
 -11898400.24807  -9271481.06107  21980167.37300  21980166.99800  21980167.51200
        94.00000        50.00000
 -13857702.29808 -10798205.07107  22295942.82500  22295942.79400  22295941.16600
       108.00000        55.00000
 -21875247.63108 -17045644.65008  20476812.28500  20476811.94800  20476810.99500
       235.00000       240.00000
 -25556290.32108 -19913993.70308  20637262.48300  20637262.05500  20637261.18000
       278.00000       146.00000
   -265305.09506   -206731.57705  25196574.75200  25196573.73100  25196573.63100
        14.00000         7.00000
    -19250.87000    -15000.82005  25349226.68200  25349225.30500  25349224.92300
          .00000         5.00000
 04  8 24  1 27  0.0000000  0 10G15G 9G 3G29G26G22G18G21G19G28
 -17525585.59208 -13656297.76707  21201368.04500  21201367.31800  21201368.40700
       148.00000        83.00000
 -18306987.79208 -14265179.94908  21148430.60200  21148430.21000  21148431.59200
       198.00000       105.00000
     -6504.86306     -5070.07105  24532427.26500  24532426.72200  24532428.53700
        11.00000         7.00000
  -6250584.32907  -4870586.86406  23094938.44000  23094938.63900  23094939.75800
        33.00000        25.00000
 -11805196.81607  -9198855.04807  21997903.39700  21997903.08600  21997903.44500
        96.00000        50.00000
 -13933689.40908 -10857415.79507  22281483.10900  22281483.00300  22281480.93900
       116.00000        56.00000
 -21907419.00608 -17070713.24508  20470690.44100  20470689.98600  20470688.89800
       236.00000       236.00000
 -25507288.46908 -19875810.46908  20646587.05300  20646586.72500  20646586.02600
       267.00000       143.00000
   -307787.54506   -239834.77705  25188490.75500  25188489.64200  25188489.44900
        15.00000         5.00000
    -38005.04400    -29614.42905  25345653.90200  25345654.75300  25345655.73700
          .00000         5.00000
 04  8 24  1 27 30.0000000  0 10G15G 9G 3G29G26G22G18G21G19G28
 -17580908.91308 -13699406.84407  21190840.10800  21190839.64600  21190840.56800
       154.00000        77.00000
 -18378621.45508 -14320998.36808  21134798.98600  21134798.78700  21134799.93600
       201.00000       102.00000
     20066.49406     15634.84705  24537483.10000  24537483.15600  24537484.69500
        12.00000         6.00000
  -6161576.85907  -4801230.43006  23111876.76800  23111876.73100  23111877.81200
        34.00000        24.00000
 -11711820.14708  -9126094.03307  22015672.26000  22015672.14800  22015673.20400
       102.00000        54.00000
 -14009546.11708 -10916524.88407  22267048.40700  22267048.09700  22267045.86300
       113.00000        55.00000
 -21939286.29308 -17095544.89808  20464625.98400  20464625.71400  20464624.68100
       237.00000       236.00000
 -25457752.95008 -19837211.39608  20656013.60400  20656013.19400  20656012.48600
       268.00000       145.00000
   -349813.02906   -272581.88205  25180493.70800  25180492.32500  25180491.83500
        13.00000         4.00000
    -56313.83904    -43881.03505  25342172.74900  25342172.15200  25342172.91800
         1.00000         4.00000
 04  8 24  1 28  0.0000000  0 10G15G 9G 3G29G26G22G18G21G19G28
 -17635670.12508 -13742077.92807  21180419.40200  21180418.88300  21180419.40000
       156.00000        74.00000
 -18449691.68708 -14376377.74808  21121274.96300  21121274.70900  21121275.59900
       211.00000       104.00000
     47144.81706     36734.79305  24542635.38400  24542636.09700  24542638.01600
        11.00000         8.00000
  -6072442.01707  -4731774.74706  23128839.62600  23128839.24300  23128839.14900
        37.00000        21.00000
 -11618216.26308  -9053155.97307  22033484.36400  22033484.70100  22033485.15700
       106.00000        53.00000
 -14085214.91108 -10975487.55707  22252648.83900  22252648.46800  22252647.09800
       107.00000        59.00000
 -21970792.14708 -17120094.92208  20458630.58300  20458630.34000  20458629.39100
       233.00000       238.00000
 -25407628.91308 -19798153.73508  20665551.59500  20665551.10400  20665550.39100
       253.00000       137.00000
   -391323.83406   -304927.98705  25172593.97500  25172593.00000  25172592.72600
        12.00000         4.00000
    -74120.06104    -57755.96905  25338785.97800  25338784.43900  25338784.45200
         1.00000         5.00000
 04  8 24  1 28 30.0000000  0 10G15G 9G 3G29G26G22G18G21G19G28
 -17689869.80508 -13784311.44207  21170105.77600  21170105.26200  21170105.81500
       161.00000        76.00000
 -18520198.77608 -14431318.31008  21107858.06100  21107857.65500  21107858.63400
       210.00000       106.00000
     74725.58406     58226.26705  24547884.98000  24547884.83600  24547887.07600
        16.00000         7.00000
  -5983184.21207  -4662223.25306  23145825.94900  23145825.65400  23145824.68200
        41.00000        21.00000
 -11524390.03608  -8980044.67207  22051340.01200  22051339.58900  22051339.88000
       108.00000        51.00000
 -14160697.38408 -11034305.03607  22238284.91600  22238284.74700  22238282.73100
       109.00000        57.00000
 -22001938.25608 -17144364.61508  20452703.68300  20452703.39600  20452702.53400
       226.00000       244.00000
 -25356920.43208 -19758640.66708  20675201.83000  20675201.23700  20675200.23200
       262.00000       140.00000
   -432321.63506   -336874.30305  25164792.56900  25164791.03500  25164791.70100
        15.00000         4.00000
    -91425.45204    -71240.66005  25335492.71900  25335492.79600  25335491.02200
         3.00000         5.00000
 04  8 24  1 29  0.0000000  0 10G15G 9G 3G29G26G22G18G21G19G28
 -17743542.87908 -13826134.62107  21159892.10500  21159891.49800  21159892.28800
       158.00000        79.00000
 -18590177.39208 -14485847.08308  21094541.84500  21094541.39000  21094542.07000
       219.00000       104.00000
    102770.38106     80079.31905  24553222.74900  24553221.83900  24553223.10900
        16.00000         7.00000
  -5893842.05107  -4592606.02606  23162826.59200  23162826.55600  23162825.71700
        42.00000        21.00000
 -11430381.10708  -8906791.00007  22069228.82000  22069228.55700  22069228.76100
       101.00000        50.00000
 -14236029.67608 -11093005.50307  22223949.04500  22223949.26500  22223947.53200
       110.00000        57.00000
 -22032760.61208 -17168382.03308  20446838.43700  20446838.21000  20446837.28100
       230.00000       247.00000
 -25305665.98308 -19718702.16408  20684954.96400  20684954.30000  20684953.55300
       257.00000       136.00000
   -472842.23206   -368448.78405  25157080.78600  25157079.17100  25157080.99500
        13.00000         5.00000
   -108266.14904    -84363.27905  25332287.69600  25332288.46000  25332286.76800
         1.00000         5.00000
 04  8 24  1 29 30.0000000  0 10G15G 9G 3G29G26G22G18G21G19G28
 -17796671.68408 -13867533.68307  21149782.15100  21149781.52600  21149782.27900
       169.00000        80.00000
 -18659609.42408 -14539949.95108  21081329.14300  21081328.72800  21081329.30500
       216.00000       102.00000
    131293.02806    102304.71205  24558649.09600  24558649.35800  24558651.75400
        15.00000         8.00000
  -5804401.29107  -4522911.96306  23179846.26500  23179845.98900  23179846.17700
        40.00000        22.00000
 -11336175.86007  -8833384.35007  22087154.60600  22087154.97100  22087155.32300
        95.00000        47.00000
 -14311195.13708 -11151575.96807  22209645.89200  22209645.89900  22209644.23000
       115.00000        57.00000
 -22063242.72308 -17192134.32808  20441038.08200  20441037.73000  20441036.79000
       234.00000       252.00000
 -25253851.45308 -19678327.24108  20694814.82800  20694814.46100  20694813.60300
       265.00000       135.00000
   -512868.88406   -399638.37504  25149464.86300  25149463.69700  25149464.27200
        16.00000         2.00000
   -124625.41704    -97110.74305  25329173.10200  25329172.81800  25329173.76700
         1.00000         5.00000
 04  8 24  1 30  0.0000000  0 10G15G 9G 3G29G18G28G19G26G22G21
 -17849227.14408 -13908485.99207  21139781.15900  21139780.56600  21139781.03900
       170.00000        77.00000
 -18728465.36308 -14593603.90808  21068226.43300  21068226.02900  21068226.38900
       220.00000       103.00000
    160319.10606    124922.39005  24564172.52200  24564172.66300  24564174.58100
        11.00000         6.00000
  -5714836.66107  -4453121.37406  23196889.41900  23196889.00800  23196890.13700
        35.00000        22.00000
 -22093356.53108 -17215599.63308  20435307.58600  20435307.26200  20435306.34400
       234.00000       255.00000
   -140475.57704   -109461.55105  25326159.18500  25326158.23200  25326157.39800
         1.00000         4.00000
   -552373.15406   -430420.90904  25141947.91700  25141946.17900  25141946.97100
        12.00000         3.00000
 -11241749.70607  -8759805.56207  22105123.78300  22105123.73000  22105124.16100
        94.00000        48.00000
 -14386165.45208 -11209994.38107  22195379.44500  22195379.44500  22195377.34800
       117.00000        56.00000
 -25201451.49208 -19637496.13108  20704786.44700  20704785.95300  20704784.99100
       263.00000       132.00000
 04  8 24  1 30 30.0000000  0 10G15G 9G 3G29G18G28G19G26G22G21
 -17901216.95708 -13948997.53607  21129887.57400  21129887.14300  21129887.81400
       164.00000        79.00000
 -18796752.41908 -14646814.58308  21055231.71700  21055231.18700  21055232.02900
       219.00000       107.00000
    189837.04205    147923.32005  24569790.11900  24569789.66700  24569792.13800
        10.00000         7.00000
  -5625159.46906  -4383243.08206  23213952.98100  23213953.33900  23213954.97800
        30.00000        23.00000
 -22123110.77308 -17238784.75908  20429645.66300  20429645.17100  20429644.08500
       230.00000       249.00000
   -155825.46804   -121422.45305  25323235.06300  25323234.93700  25323235.80800
         1.00000         5.00000
   -591364.00105   -460803.37904  25134528.67000  25134527.14800  25134526.87600
        10.00000         3.00000
 -11147114.73207  -8686064.05607  22123132.33700  22123132.32800  22123132.75200
        94.00000        47.00000
 -14460949.44608 -11268267.60807  22181148.85700  22181148.69400  22181146.46900
       118.00000        56.00000
 -25148477.47708 -19596217.70408  20714866.81800  20714866.53700  20714865.81100
       264.00000       133.00000
 04  8 24  1 31  0.0000000  0 10G15G 9G 3G29G18G28G19G26G22G21
 -17952655.29008 -13989079.34207  21120099.40000  21120098.58400  21120099.48100
       159.00000        82.00000
 -18864484.45208 -14699592.76708  21042342.31000  21042342.27500  21042342.99100
       221.00000       107.00000
    219828.96306    171293.58505  24575497.63100  24575497.10700  24575498.60100
        11.00000         8.00000
  -5535387.30806  -4313290.78906  23231037.08100  23231036.46100  23231037.81200
        30.00000        25.00000
 -22152520.77008 -17261701.64308  20424048.91600  20424048.52500  20424047.47300
       230.00000       245.00000
   -170690.40300   -133005.53305  25320405.64300  25320407.35300  25320409.57600
          .00000         5.00000
   -629856.23105   -490797.31204  25127203.35600  25127201.49500  25127201.21800
         7.00000         2.00000
 -11052289.22707  -8612174.08307  22141177.38900  22141176.96800  22141177.68800
        92.00000        49.00000
 -14535562.34108 -11326407.51407  22166950.48000  22166950.19100  22166948.32700
       119.00000        59.00000
 -25094946.95008 -19554505.63008  20725053.40200  20725053.00400  20725052.13300
       260.00000       130.00000
 04  8 24  1 31 30.0000000  0 10G15G 9G 3G29G18G28G19G26G22G21
 -18003544.91608 -14028733.58507  21110415.03800  21110414.60000  21110415.51100
       164.00000        83.00000
 -18931664.00908 -14751940.45008  21029558.42600  21029558.20700  21029558.83400
       215.00000       106.00000
    250288.10106    195027.93205  24581294.54300  24581294.16000  24581295.68300
        18.00000         6.00000
  -5445526.79706  -4243269.65906  23248137.09500  23248136.58300  23248137.82200
        29.00000        24.00000
 -22181590.46108 -17284353.35808  20418517.30400  20418516.96800  20418515.69600
       235.00000       243.00000
   -185074.39000   -144213.84005  25317665.78700  25317664.52400  25317670.04300
          .00000         4.00000
   -667853.80405   -520405.85204  25119971.59600  25119970.02900  25119971.03800
         8.00000         2.00000
 -10957280.55407  -8538141.38407  22159256.03900  22159256.50000  22159257.41300
        93.00000        50.00000
 -14610008.03608 -11384417.12507  22152783.73100  22152783.63700  22152781.83400
       122.00000        62.00000
 -25040866.81108 -19512365.29308  20735344.20600  20735343.85700  20735343.40400
       252.00000       130.00000
 04  8 24  1 32  0.0000000  0  9G15G 9G 3G29G18G28G26G22G21
 -18053863.83308 -14067943.13107  21100840.16900  21100839.58300  21100840.07900
       169.00000        83.00000
 -18998268.96208 -14803840.39208  21016883.64300  21016883.49600  21016884.57600
       212.00000       109.00000
    281232.59806    219140.48705  24587182.79000  24587182.22900  24587184.61700
        18.00000         7.00000
  -5355559.48307  -4173165.28806  23265257.73800  23265257.34700  23265258.06000
        32.00000        25.00000
 -22210299.34808 -17306723.92208  20413054.20100  20413053.66900  20413052.65800
       229.00000       248.00000
   -198957.08000   -155031.54205  25315026.87800  25315028.53500  25315029.58600
          .00000         6.00000
 -10862071.09807  -8463952.23507  22177373.92200  22177374.33100  22177375.08300
        90.00000        50.00000
 -14684265.94808 -11442280.41107  22138653.33200  22138653.03300  22138650.78000
       126.00000        61.00000
 -24986218.70108 -19469782.38908  20745743.66100  20745743.36600  20745742.36800
       257.00000       122.00000
 04  8 24  1 32 30.0000000  0  9G15G 9G 3G29G18G28G26G22G21
 -18103649.34108 -14106737.03707  21091366.32600  21091365.59600  21091366.24800
       170.00000        82.00000
 -19064335.92808 -14855321.12008  21004311.83300  21004311.39000  21004312.61800
       209.00000       110.00000
    312621.72706    243599.53705  24593156.63600  24593155.73000  24593156.57800
        15.00000         5.00000
  -5265526.07807  -4103009.44406  23282391.31000  23282391.06900  23282391.43000
        34.00000        24.00000
 -22238685.05708 -17328842.66108  20407652.55100  20407652.08100  20407651.10200
       226.00000       255.00000
   -212376.52804   -165488.24705  25312475.73700  25312474.04300  25312473.72300
         2.00000         4.00000
 -10766702.00707  -8389638.69107  22195522.47600  22195522.65700  22195523.29600
        84.00000        50.00000
 -14758373.54608 -11500026.55907  22124550.87400  22124550.63900  22124548.42100
       124.00000        60.00000
 -24931042.97808 -19426788.35408  20756243.36800  20756242.89400  20756242.04500
       253.00000       122.00000
 04  8 24  1 33  0.0000000  0 10G15G 9G 3G29G18G28G26G22G21G19
 -18152853.48708 -14145077.93407  21082002.94700  21082002.38400  21082003.02800
       179.00000        85.00000
 -19129816.75408 -14906345.12408  20991851.31700  20991850.74500  20991851.59300
       212.00000       105.00000
    344499.37205    268439.23405  24599220.55800  24599220.60100  24599224.28000
        10.00000         5.00000
  -5175382.13707  -4032767.45706  23299545.45200  23299545.16600  23299545.28500
        37.00000        22.00000
 -22266700.58908 -17350672.95208  20402321.33600  20402320.92600  20402320.01900
       227.00000       258.00000
   -225285.71004   -175547.30505  25310019.18700  25310019.50100  25310019.85200
         3.00000         5.00000
 -10671129.79907  -8315166.87907  22213708.50600  22213709.35900  22213709.77500
        80.00000        47.00000
 -14832283.80408 -11557618.95207  22110486.18700  22110486.09800  22110484.04100
       128.00000        60.00000
 -24875295.66308 -19383348.92308  20766851.91700  20766851.32800  20766850.61500
       248.00000       119.00000
         -.23516         -.20410  25098856.21100  25098854.40900  25098855.72000
        14.00000          .00000
 04  8 24  1 33 30.0000000  0  9G15G 9G 3G29G18G28G26G22G21
 -18201487.71308 -14182974.73007  21072747.93000  21072747.42000  21072748.41400
       180.00000        89.00000
 -19194722.30608 -14956920.85808  20979500.11100  20979499.81800  20979500.57200
       214.00000       108.00000
    376850.57405    293647.91805  24605377.71500  24605377.58300  24605379.17200
        10.00000         5.00000
  -5085142.50107  -3962450.90206  23316717.60000  23316717.38800  23316716.99400
        39.00000        21.00000
 -22294357.97808 -17372224.16308  20397058.37700  20397057.93200  20397057.01600
       223.00000       261.00000
   -237697.51605   -185218.81205  25307656.11500  25307656.06700  25307657.34800
         4.00000         5.00000
 -10575369.98007  -8240548.86507  22231931.72700  22231931.72300  22231932.54200
        77.00000        46.00000
 -14906008.85408 -11615067.02707  22096456.61800  22096456.67100  22096454.50600
       131.00000        61.00000
 -24818991.71308 -19339475.74408  20777565.98100  20777565.47200  20777564.79900
       244.00000       117.00000
 04  8 24  1 34  0.0000000  0  9G15G 9G 3G29G18G28G26G22G21
 -18249549.85308 -14220425.74407  21063601.88800  21063601.50100  21063602.42000
       182.00000        90.00000
 -19259050.44508 -15007046.64708  20967258.57900  20967258.28900  20967259.42300
       210.00000       110.00000
    409673.41606    319224.11805  24611624.48900  24611624.21700  24611625.79000
        13.00000         5.00000
  -4994808.57907  -3892060.88506  23333907.22400  23333906.77100  23333906.79900
        36.00000        20.00000
 -22321656.76808 -17393495.95008  20391863.43100  20391862.96200  20391862.20400
       218.00000       265.00000
   -249611.09304   -194502.11705  25305390.46100  25305390.06900  25305390.64300
         2.00000         6.00000
 -10479424.76607  -8165786.39207  22250189.59800  22250189.39300  22250190.23500
        76.00000        43.00000
 -14979547.87208 -11672370.13907  22082462.44800  22082462.46200  22082460.41100
       134.00000        62.00000
 -24762132.57708 -19295169.96108  20788385.96700  20788385.55800  20788384.61000
       250.00000       116.00000
 04  8 24  1 34 30.0000000  0 10G15G 9G 3G29G18G28G26G22G21G19
 -18297030.11408 -14257423.35407  21054567.46500  21054566.70700  21054567.04200
       185.00000        87.00000
 -19322791.13908 -15056714.70708  20955129.30900  20955129.07400  20955129.74700
       221.00000       108.00000
    442973.77606    345172.39605  24617960.49100  24617961.15200  24617961.53000
        14.00000         5.00000
  -4904374.28606  -3821592.64706  23351115.25800  23351115.05500  23351116.29300
        31.00000        17.00000
 -22348588.38508 -17414481.62708  20386738.56800  20386738.13600  20386737.27400
       220.00000       267.00000
   -261018.08705   -203390.68205  25303221.50100  25303221.03600  25303219.84000
         5.00000         7.00000
 -10383288.66107  -8090875.17007  22268483.08800  22268483.32600  22268485.10000
        77.00000        45.00000
 -15052892.10808 -11729521.47207  22068505.13200  22068505.43800  22068503.42800
       132.00000        61.00000
 -24704712.38608 -19250426.98708  20799312.85400  20799312.33700  20799311.57000
       248.00000       116.00000
          .11116         -.25310  25078617.23400  25078616.45800  25078616.70000
        24.00000          .00000
 04  8 24  1 35  0.0000000  0  9G15G 9G 3G29G18G28G26G22G21
 -18343956.73108 -14293989.54907  21045637.20400  21045636.73000  21045637.03200
       188.00000        88.00000
 -19385972.49108 -15105946.90708  20943106.61500  20943106.18800  20943106.75800
       223.00000       112.00000
    476719.66906    371467.82705  24624383.30200  24624382.92100  24624384.47400
        14.00000         6.00000
  -4813871.25606  -3751070.83606  23368336.94300  23368336.96100  23368338.13600
        28.00000        17.00000
 -22375182.09108 -17435203.99808  20381677.96400  20381677.57500  20381676.68600
       223.00000       267.00000
   -271947.96105   -211907.43405  25301141.52700  25301140.59600  25301139.12000
         5.00000         4.00000
 -10286993.92407  -8015840.34107  22286808.33000  22286808.12300  22286808.95700
        80.00000        43.00000
 -15126070.57508 -11786543.63407  22054580.08900  22054580.07900  22054578.09400
       133.00000        62.00000
 -24646763.31608 -19205271.90208  20810339.96900  20810339.65200  20810339.00700
       253.00000       116.00000
 04  8 24  1 35 30.0000000  0  9G15G 9G 3G29G18G28G26G22G21
 -18390276.82208 -14330083.12707  21036822.72700  21036822.27000  21036822.99900
       181.00000        92.00000
 -19448541.07608 -15154701.62608  20931200.01700  20931199.67800  20931200.40200
       227.00000       111.00000
    510960.27805    398148.78505  24630898.37300  24630898.27100  24630901.13900
        10.00000         6.00000
  -4723249.82206  -3680456.75806  23385581.23100  23385581.18200  23385583.14400
        26.00000        18.00000
 -22401385.45108 -17455622.20508  20376691.62700  20376691.25500  20376690.27100
       225.00000       264.00000
   -282348.99505   -220012.14705  25299160.89600  25299160.08600  25299161.05400
         7.00000         5.00000
 -10190491.82007  -7940643.92507  22305171.44000  22305171.64100  22305172.48900
        79.00000        41.00000
 -15199030.94208 -11843395.85807  22040696.43100  22040696.36000  22040694.01500
       138.00000        63.00000
 -24588235.73808 -19159666.03108  20821477.63900  20821477.26400  20821476.51900
       257.00000       118.00000
 04  8 24  1 36  0.0000000  0  9G15G 9G 3G29G18G28G26G22G21
 -18436052.46608 -14365752.46107  21028111.92200  21028111.34900  21028112.19700
       176.00000        93.00000
 -19510558.72408 -15203027.05008  20919398.49400  20919398.19700  20919398.80000
       235.00000       113.00000
    545629.45805    425163.66705  24637494.59300  24637493.41800  24637497.40200
         5.00000         5.00000
  -4632575.57806  -3609801.54006  23402837.23700  23402836.80500  23402838.09500
        26.00000        19.00000
 -22427261.83908 -17475785.63408  20371767.62700  20371767.26700  20371766.05700
       225.00000       261.00000
   -292284.72805   -227754.23405  25297270.58500  25297269.29900  25297268.90100
         5.00000         5.00000
 -10093848.59607  -7865337.54507  22323561.99300  22323562.28300  22323563.25100
        77.00000        41.00000
 -15271836.22208 -11900127.23107  22026842.32900  22026842.13500  22026839.81200
       141.00000        67.00000
 -24529195.72408 -19113660.87008  20832712.51200  20832712.36200  20832711.34500
       258.00000       114.00000
 04  8 24  1 36 30.0000000  0 10G15G 9G 3G29G18G28G26G22G21G19
 -18481220.41008 -14400948.25907  21019516.56500  21019515.99600  21019516.94100
       178.00000        91.00000
 -19571961.68508 -15250873.48508  20907713.75500  20907713.46600  20907714.12000
       235.00000       113.00000
    580786.91205    452559.07405  24644186.11800  24644186.57500  24644187.85800
         8.00000         4.00000
  -4541788.37106  -3539058.32406  23420113.81100  23420113.39200  23420113.99900
        26.00000        19.00000
 -22452748.73408 -17495645.55808  20366917.42100  20366917.15000  20366916.11300
       221.00000       266.00000
   -301692.83005   -235085.22205  25295478.03700  25295476.93300  25295480.19100
         4.00000         6.00000
  -9997004.83707  -7789874.91107  22341990.99000  22341990.93100  22341991.98500
        74.00000        41.00000
 -15344423.81608 -11956688.97007  22013029.01600  22013028.93800  22013026.81100
       143.00000        70.00000
 -24469583.65008 -19067209.93808  20844056.43900  20844056.05300  20844055.29600
       258.00000       117.00000
        -1.21116         -.20510  25053000.24700  25052999.75700  25052999.56300
        14.00000          .00000
 04  8 24  1 37  0.0000000  0  9G15G 9G 3G29G18G28G26G22G21
 -18525810.65008 -14435693.90207  21011031.34600  21011030.83100  21011031.49600
       176.00000        89.00000
 -19632779.79408 -15298264.20208  20896140.59800  20896140.42300  20896140.76900
       243.00000       111.00000
    616399.04705    480308.72505  24650963.69700  24650962.71900  24650964.72600
         5.00000         4.00000
  -4450921.61206  -3468253.12406  23437405.10900  23437405.10400  23437405.85700
        26.00000        21.00000
 -22477876.85208 -17515225.91508  20362135.91000  20362135.49300  20362134.55700
       218.00000       273.00000
   -310604.50205   -242029.41605  25293781.78900  25293779.78000  25293783.12800
         4.00000         6.00000
  -9899994.69807  -7714282.61907  22360451.32400  22360451.45200  22360451.99000
        75.00000        40.00000
 -15416824.55708 -12013105.10907  21999251.51300  21999251.54100  21999249.54300
       151.00000        68.00000
 -24409433.66308 -19020339.85808  20855502.31200  20855502.08300  20855501.70100
       250.00000       115.00000
 04  8 24  1 37 30.0000000  0  9G15G 9G 3G29G18G28G26G22G21
 -18569817.22808 -14469984.74107  21002656.97000  21002656.51300  21002657.44300
       172.00000        92.00000
 -19693006.61408 -15345194.16908  20884679.33900  20884679.28700  20884680.22900
       239.00000       115.00000
    652467.98105    508414.31404  24657827.90200  24657826.67600  24657827.64300
         5.00000         2.00000
  -4359972.53006  -3397383.77506  23454711.12900  23454712.10400  23454713.19100
        28.00000        20.00000
 -22502640.93308 -17534522.60808  20357423.24500  20357422.86900  20357422.12800
       212.00000       276.00000
   -319015.13305   -248583.15705  25292179.75900  25292180.49900  25292183.23800
         5.00000         6.00000
  -9802815.94807  -7638558.95507  22378944.19500  22378944.23300  22378944.83400
        80.00000        40.00000
 -15489033.02308 -12069371.42107  21985511.15000  21985510.77300  21985508.53100
       153.00000        68.00000
 -24348741.98508 -18973047.67808  20867052.05400  20867051.48000  20867050.69400
       251.00000       111.00000
 04  8 24  1 38  0.0000000  0  9G15G 9G 3G29G18G28G26G22G21
 -18613283.83408 -14503854.82507  20994385.92200  20994385.30500  20994386.20300
       175.00000        97.00000
 -19752685.68308 -15391697.31808  20873322.77900  20873322.86500  20873323.51900
       241.00000       114.00000
    688946.14105    536838.75204  24664769.77600  24664768.99700  24664769.62900
         6.00000         2.00000
  -4268988.23406  -3326486.99106  23472025.54400  23472025.32200  23472026.71600
        25.00000        20.00000
 -22527086.09108 -17553570.78808  20352771.88700  20352771.28800  20352770.34300
       214.00000       274.00000
   -326969.69705   -254781.51705  25290669.51400  25290668.02100  25290669.32600
         4.00000         5.00000
  -9705516.47207  -7562741.20707  22397459.88200  22397459.99300  22397460.58800
        80.00000        41.00000
 -15561093.61308 -12125522.52407  21971798.42400  21971798.19300  21971795.97500
       150.00000        70.00000
 -24287556.85608 -18925370.98808  20878694.80500  20878694.31000  20878693.89800
       244.00000       109.00000
 04  8 24  1 38 30.0000000  0  9G15G 9G 3G29G18G28G26G22G21
 -18656121.86108 -14537235.10407  20986234.26400  20986233.64900  20986234.52800
       178.00000       100.00000
 -19811728.05508 -15437704.34508  20862087.61300  20862087.55000  20862087.96700
       249.00000       113.00000
    725918.61305    565648.44104  24671802.28300  24671802.77000  24671805.12800
         5.00000         3.00000
  -4177883.21606  -3255496.11706  23489361.91700  23489361.28300  23489363.14900
        22.00000        20.00000
 -22551124.19308 -17572301.78308  20348197.26300  20348196.85000  20348196.03500
       215.00000       274.00000
   -334380.58705   -260556.20405  25289258.45300  25289257.13000  25289258.71300
         4.00000         5.00000
  -9608011.45907  -7486763.31207  22416014.65900  22416014.50200  22416015.48000
        80.00000        41.00000
 -15632918.31308 -12181489.80507  21958130.07200  21958130.05900  21958128.16700
       147.00000        72.00000
 -24225793.66308 -18877243.85508  20890448.37900  20890447.94500  20890447.04500
       257.00000       108.00000
 04  8 24  1 39  0.0000000  0  9G15G 9G 3G29G18G28G26G22G21
 -18698386.20608 -14570168.36007  20978191.30800  20978190.69700  20978191.75800
       170.00000        97.00000
 -19870188.50208 -15483257.92008  20850963.52100  20850963.10400  20850963.60700
       247.00000       118.00000
    763326.24105    594797.18505  24678922.50800  24678921.48300  24678922.72700
         7.00000         4.00000
  -4086715.70906  -3184456.56006  23506711.93300  23506710.48900  23506712.21600
        24.00000        20.00000
 -22574811.36408 -17590759.32608  20343689.71400  20343689.43100  20343688.51400
       217.00000       275.00000
   -341304.25304   -265951.27105  25287939.87800  25287938.82800  25287940.89200
         3.00000         4.00000
  -9510360.12207  -7410671.38907  22434596.97700  22434596.70300  22434597.82800
        74.00000        40.00000
 -15704562.99808 -12237316.81407  21944497.14800  21944496.86100  21944494.52800
       152.00000        70.00000
 -24163510.69608 -18828711.70708  20902300.09700  20902299.65200  20902298.75600
       247.00000       101.00000
 04  8 24  1 39 30.0000000  0 10G15G 9G 3G29G18G28G26G22G21G19
 -18740017.54708 -14602608.36407  20970268.79900  20970268.46300  20970269.57300
       176.00000        97.00000
 -19928007.37508 -15528311.56408  20839961.00200  20839960.49800  20839960.84700
       250.00000       116.00000
    801224.63105    624328.38304  24686132.37900  24686132.85300  24686135.13800
         7.00000         3.00000
  -3995429.67506  -3113324.64406  23524080.89200  23524081.09200  23524083.16300
        22.00000        18.00000
 -22598089.01208 -17608897.75608  20339260.11500  20339259.75700  20339258.82700
       213.00000       273.00000
   -347682.56405   -270921.35805  25286727.98300  25286726.78600  25286726.88700
         6.00000         5.00000
  -9412506.79807  -7334422.06507  22453217.51300  22453217.37500  22453218.25100
        70.00000        37.00000
 -15775968.75508 -12292957.64507  21930908.43000  21930908.62400  21930906.57100
       156.00000        70.00000
 -24100652.51008 -18779731.33608  20914261.65100  20914261.45200  20914260.75800
       256.00000       104.00000
         -.37414         -.45510  25017529.50800  25017529.67200  25017529.49100
         3.00000          .00000
 04  8 24  1 40  0.0000000  0  9G15G 9G 3G29G18G28G26G22G21
 -18781097.72708 -14634618.89807  20962452.06000  20962451.53700  20962452.18100
       184.00000        96.00000
 -19985266.24208 -15572928.84508  20829064.14700  20829063.98000  20829064.81000
       244.00000       117.00000
    839528.22306    654175.28705  24693423.54000  24693423.65200  24693424.06200
        14.00000         4.00000
  -3904110.04206  -3042166.53906  23541460.12300  23541459.28700  23541460.70200
        25.00000        19.00000
 -22621039.62908 -17626781.35908  20334892.69900  20334892.46400  20334891.41300
       212.00000       268.00000
   -353598.61705   -275531.26005  25285600.85000  25285601.68800  25285601.79000
         7.00000         5.00000
  -9314537.19807  -7258082.14107  22471860.42300  22471860.38800  22471861.54800
        69.00000        35.00000
 -15847218.22508 -12348476.69407  21917350.24800  21917350.18000  21917348.14200
       151.00000        73.00000
 -24037304.49208 -18730369.29408  20926316.65900  20926316.25800  20926315.46900
       254.00000       101.00000
 04  8 24  1 40 30.0000000  0  9G15G 9G 3G29G18G28G26G22G21
 -18821584.03308 -14666166.67207  20954747.52400  20954746.97500  20954747.65800
       182.00000        94.00000
 -20041921.88308 -15617076.08108  20818282.92100  20818282.85800  20818283.84500
       245.00000       121.00000
    878276.15406    684368.41405  24700797.39000  24700796.83800  24700798.43600
        12.00000         5.00000
  -3812717.02906  -2970951.27606  23558851.78200  23558851.42200  23558851.61300
        28.00000        15.00000
 -22643621.18108 -17644377.38408  20330595.65700  20330595.32400  20330594.23600
       208.00000       268.00000
   -359010.83805   -279748.52205  25284570.42300  25284571.56000  25284571.10300
         5.00000         4.00000
  -9216412.27407  -7181621.19607  22490532.55800  22490533.00900  22490533.80700
        66.00000        34.00000
 -15918268.87108 -12403840.81507  21903830.38200  21903830.03500  21903827.73900
       157.00000        75.00000
 -23973427.31408 -18680594.90907  20938471.99500  20938471.53000  20938470.76900
       246.00000        99.00000
 04  8 24  1 41  0.0000000  0  9G15G 9G 3G29G18G28G26G22G21
 -18861453.30908 -14697233.63507  20947160.54600  20947160.12700  20947160.69000
       189.00000        89.00000
 -20097950.88008 -15660735.01508  20807621.12100  20807621.00200  20807621.55700
       247.00000       121.00000
    917488.07105    714923.08205  24708258.43400  24708258.17300  24708261.14300
         7.00000         6.00000
  -3721230.71906  -2899663.29506  23576260.99500  23576260.81900  23576261.67300
        27.00000        16.00000
 -22665811.10608 -17661668.24008  20326373.15800  20326372.71500  20326371.65300
       206.00000       269.00000
   -363897.30204   -283556.12205  25283640.06700  25283640.67000  25283642.45400
         1.00000         5.00000
  -9118112.85607  -7105024.27206  22509238.81300  22509239.26100  22509239.17900
        71.00000        31.00000
 -15989098.32408 -12459032.58007  21890351.55400  21890351.37600  21890349.28800
       157.00000        75.00000
 -23909001.67108 -18630393.14908  20950731.91500  20950731.68300  20950730.91800
       249.00000       102.00000
 04  8 24  1 41 30.0000000  0  9G15G 9G 3G29G18G28G26G22G21
 -18900735.46708 -14727843.12107  20939686.23000  20939685.45300  20939685.70900
       200.00000        92.00000
 -20153382.85908 -15703928.75308  20797072.24800  20797072.23900  20797073.39000
       239.00000       124.00000
    957130.10904    745812.92705  24715800.77600  24715801.51100  24715804.73100
         2.00000         5.00000
  -3629684.05406  -2828328.30006  23593681.71500  23593681.28300  23593681.57200
        25.00000        14.00000
 -22687640.38508 -17678678.07708  20322219.03200  20322218.74700  20322217.71800
       204.00000       272.00000
   -368289.14504   -286978.33405  25282803.52200  25282803.03100  25282806.58400
         2.00000         4.00000
  -9019672.41807  -7028317.46607  22527971.99000  22527971.90200  22527972.41900
        72.00000        32.00000
 -16059736.90708 -12514075.61007  21876909.50800  21876909.34600  21876907.05500
       158.00000        74.00000
 -23844061.19708 -18579790.22608  20963089.35200  20963089.15700  20963088.59600
       241.00000       101.00000
 04  8 24  1 42  0.0000000  0 10G15G 9G 3G29G18G28G26G22G21G19
 -18939430.06408 -14757994.75307  20932322.64100  20932321.89400  20932322.50900
       194.00000        93.00000
 -20208217.17508 -15746656.76508  20786638.31100  20786638.09400  20786638.59300
       246.00000       123.00000
    997198.67300    777035.11204  24723423.29500  24723425.02000  24723431.43300
          .00000         1.00000
  -3538079.72506  -2756948.36106  23611113.38300  23611113.02300  23611113.86600
        25.00000        15.00000
 -22709109.25508 -17695407.07308  20318133.72600  20318133.38400  20318132.40600
       208.00000       276.00000
   -372187.39305   -290015.90005  25282063.40000  25282062.68400  25282064.41900
         4.00000         4.00000
  -8921094.47707  -6951503.51707  22546731.17100  22546730.66600  22546731.29800
        71.00000        32.00000
 -16130184.76408 -12568970.02307  21863503.40900  21863503.40800  21863501.22200
       157.00000        74.00000
 -23778609.45408 -18528788.90408  20975544.49700  20975544.34700  20975544.01200
       238.00000       105.00000
     -8991.92105     -7006.73804  24990699.08400  24990697.89700  24990697.46100
        10.00000         3.00000
 04  8 24  1 42 30.0000000  0  9G15G 9G29G18G28G26G22G21G19
 -18977523.02708 -14787677.57307  20925073.16900  20925072.68500  20925073.60900
       189.00000        92.00000
 -20262439.68508 -15788908.04808  20776319.37100  20776319.36400  20776320.45800
       243.00000       125.00000
  -3446406.67506  -2685514.87406  23628556.17900  23628557.08100  23628558.34700
        22.00000        14.00000
 -22730204.37708 -17711844.83708  20314119.59300  20314119.22200  20314118.21800
       211.00000       283.00000
   -375579.17705   -292658.80804  25281415.69200  25281416.70000  25281417.82600
         4.00000         3.00000
  -8822368.64807  -6874574.33307  22565517.54700  22565517.59600  22565518.58200
        68.00000        33.00000
 -16200428.16508 -12623705.12907  21850136.69700  21850136.58100  21850134.31200
       156.00000        73.00000
 -23712635.59808 -18477380.74207  20988099.20700  20988098.82600  20988098.01900
       239.00000       100.00000
    -35625.90005    -27760.52205  24985630.43400  24985629.25300  24985629.40300
        10.00000         5.00000
 04  8 24  1 43  0.0000000  0 10G15G 9G29G18G28G26G22G21G19G 3
 -19014989.33608 -14816872.10307  20917944.04000  20917943.39500  20917943.78500
       196.00000        90.00000
 -20316024.78308 -15830662.65008  20766123.34100  20766122.89300  20766123.49500
       250.00000       124.00000
  -3354642.73306  -2614010.57306  23646019.22600  23646019.65100  23646020.60000
        23.00000        14.00000
 -22750901.24508 -17727972.27708  20310180.99700  20310180.72900  20310179.74200
       208.00000       284.00000
   -378440.47205   -294888.35305  25280872.80600  25280872.00100  25280875.08800
         5.00000         4.00000
  -8723473.54007  -6797513.24107  22584335.79600  22584336.11300  22584337.23400
        63.00000        33.00000
 -16270442.46408 -12678261.70907  21836813.93700  21836813.49300  21836810.92600
       157.00000        73.00000
 -23646118.18808 -18425549.02508  21000757.02600  21000756.59700  21000756.27400
       230.00000       104.00000
    -61709.70306    -48085.58805  24980666.30000  24980665.69100  24980665.74100
        12.00000         5.00000
     13699.52905     10674.99704  24738930.92100  24738930.15100  24738931.70500
         8.00000         2.00000
 04  8 24  1 43 30.0000000  0  9G15G 9G29G18G28G26G22G21G19
 -19051889.69908 -14845625.64107  20910921.59600  20910921.13000  20910922.13400
       194.00000        92.00000
 -20369033.22708 -15871967.90408  20756035.50000  20756035.39600  20756036.07900
       248.00000       124.00000
  -3262851.79006  -2542485.21406  23663487.21800  23663486.98400  23663487.95900
        21.00000        14.00000
 -22771261.47208 -17743837.39708  20306306.51600  20306306.25700  20306305.37100
       207.00000       290.00000
   -380833.49105   -296753.04805  25280418.16400  25280418.25200  25280419.06100
         4.00000         4.00000
  -8624473.82707  -6720370.63507  22603174.65400  22603175.12500  22603176.45400
        59.00000        34.00000
 -16340289.10408 -12732687.65207  21823521.91200  21823521.80400  21823519.59800
       157.00000        73.00000
 -23579122.11908 -18373344.33508  21013506.13300  21013505.70200  21013505.21000
       240.00000       103.00000
    -87305.06406    -68030.06705  24975795.14200  24975795.00900  24975794.92600
        11.00000         6.00000
 04  8 24  1 44  0.0000000  0  9G15G 9G29G18G28G26G22G21G19
 -19088167.07708 -14873893.72007  20904018.33400  20904017.80500  20904018.66400
       191.00000        94.00000
 -20421407.68408 -15912779.15508  20746068.94900  20746068.81400  20746069.69300
       252.00000       124.00000
  -3170979.60706  -2470896.56806  23680971.04500  23680970.72100  23680971.40800
        28.00000        16.00000
 -22791228.75008 -17759396.32708  20302506.89900  20302506.57500  20302505.71500
       205.00000       289.00000
   -382702.69304   -298209.55805  25280064.34300  25280063.15000  25280063.24200
         3.00000         4.00000
  -8525315.95007  -6643104.78907  22622044.48400  22622044.51700  22622045.16000
        56.00000        33.00000
 -16409911.43408 -12786938.79807  21810273.00100  21810273.17300  21810270.99600
       160.00000        75.00000
 -23511593.90508 -18320724.98107  21026356.13100  21026355.66600  21026355.22100
       229.00000        99.00000
   -112355.87005    -87550.19205  24971028.95900  24971027.64300  24971029.11700
         8.00000         8.00000
 04  8 24  1 44 30.0000000  0 10G15G 9G29G18G28G26G22G21G19G 3
 -19123792.46108 -14901653.76707  20897239.85800  20897239.21600  20897239.58800
       206.00000        98.00000
 -20473118.81208 -15953073.51908  20736229.09500  20736228.92800  20736229.20100
       259.00000       126.00000
  -3079000.08406  -2399224.27806  23698473.67900  23698473.61600  23698474.38800
        24.00000        15.00000
 -22810774.34608 -17774626.66808  20298787.55000  20298787.06200  20298786.28800
       198.00000       288.00000
   -384020.00105   -299236.02704  25279812.98000  25279811.97800  25279813.37500
         5.00000         2.00000
  -8425974.24907  -6565695.70507  22640948.21500  22640948.71600  22640949.23500
        55.00000        33.00000
 -16479280.59208 -12840992.67307  21797073.13200  21797072.81600  21797070.42800
       167.00000        77.00000
 -23443507.70308 -18267670.83807  21039312.94000  21039312.36600  21039311.73300
       235.00000        95.00000
   -136834.07705   -106624.14605  24966369.28400  24966369.57000  24966369.81700
         4.00000         4.00000
         -.37415         -.62214  24762802.01900  24762800.80900  24762803.51500
         8.00000         3.00000
 04  8 24  1 45  0.0000000  0  8G22G21G26G29G19G15G 9G18
 -16548453.92608 -12894893.95707  21783909.83700  21783909.65800  21783907.31500
       172.00000        81.00000
 -23374924.27308 -18214229.24307  21052363.81000  21052363.27000  21052362.57800
       226.00000        93.00000
  -8326509.35307  -6488190.62707  22659876.46100  22659876.19500  22659876.90900
        52.00000        32.00000
  -2986972.86606  -2327514.83306  23715986.05200  23715985.54600  23715986.81400
        19.00000        15.00000
   -160797.57005   -125297.03205  24961810.36500  24961808.23600  24961810.61900
         4.00000         6.00000
 -19158822.81008 -14928950.15007  20890573.41400  20890572.82300  20890573.47900
       201.00000       100.00000
 -20524223.12408 -15992895.03908  20726503.92600  20726503.83800  20726504.46400
       259.00000       126.00000
 -22829955.83008 -17789573.28308  20295137.33500  20295136.90300  20295136.06700
       196.00000       284.00000
 04  8 24  1 45 30.0000000  0  9G22G21G26G29G19G15G 9G18G28
 -16617435.57308 -12948645.87007  21770782.65700  21770782.74100  21770780.45400
       177.00000        85.00000
 -23305851.44508 -18160406.30207  21065507.41500  21065507.19700  21065506.95800
       225.00000        94.00000
  -8226928.80607  -6410595.44006  22678825.45900  22678825.68500  22678826.27300
        52.00000        31.00000
  -2894904.99706  -2255773.70806  23733505.26800  23733504.84500  23733507.41700
        20.00000        17.00000
   -184251.22105   -143572.63605  24957348.62900  24957345.67400  24957346.73100
         6.00000         7.00000
 -19193262.10108 -14955785.96808  20884019.12700  20884018.68700  20884020.02500
       188.00000       105.00000
 -20574724.39408 -16032246.65608  20716894.08100  20716893.82300  20716894.32200
       261.00000       126.00000
 -22848778.13508 -17804240.02208  20291555.47500  20291555.19300  20291554.34200
       198.00000       285.00000
       -53.53415       -41.69214  25279592.82000  25279591.64900  25279591.50600
         5.00000         3.00000
 04  8 24  1 46  0.0000000  0 10G22G21G26G29G19G15G 9G18G28G 3
 -16686209.74608 -13002236.11307  21757695.55800  21757695.31500  21757693.14700
       175.00000        85.00000
 -23236276.68308 -18106192.24807  21078747.30100  21078746.87400  21078746.64000
       218.00000        93.00000
  -8127219.79407  -6332900.14606  22697799.44900  22697799.54600  22697800.64900
        51.00000        31.00000
  -2802782.94506  -2183990.36006  23751033.98100  23751035.05700  23751037.03200
        18.00000        15.00000
   -207179.88005   -161439.08105  24952984.36700  24952983.28400  24952984.14500
         8.00000         6.00000
 -19227094.01108 -14982148.50208  20877581.82300  20877581.25100  20877582.16400
       203.00000       110.00000
 -20624606.17108 -16071115.54608  20707401.56300  20707401.44400  20707402.13500
       256.00000       127.00000
 -22867225.38708 -17818614.51508  20288045.38200  20288044.86400  20288043.99400
       195.00000       287.00000
       114.80214        89.48214  25279622.53900  25279621.90100  25279624.23100
         2.00000         2.00000
         -.47515         -.02514  24787405.04700  24787404.31900  24787405.78400
         7.00000         3.00000
 04  8 24  1 46 30.0000000  0  9G22G21G26G29G19G15G 9G18G28
 -16754777.81908 -13055665.77607  21744647.51900  21744647.37800  21744645.17500
       178.00000        84.00000
 -23166204.50508 -18051590.58807  21092081.37400  21092081.16400  21092080.76800
       215.00000        91.00000
  -8027387.02407  -6255108.40806  22716797.05300  22716797.28300  22716797.89100
        53.00000        29.00000
  -2710610.69806  -2112167.87906  23768574.39700  23768574.86000  23768576.93800
        18.00000        15.00000
   -229585.67205   -178898.13405  24948719.38300  24948718.72500  24948719.97000
         7.00000         7.00000
 -19260319.57208 -15008038.55508  20871258.78700  20871258.38000  20871259.62500
       194.00000       113.00000
 -20673869.34708 -16109502.41508  20698027.09500  20698026.78300  20698027.70800
       252.00000       128.00000
 -22885299.28808 -17832698.07708  20284605.88100  20284605.55300  20284604.67700
       197.00000       292.00000
       784.22004       611.06604  25279750.29100  25279749.13400  25279751.71800
         1.00000         3.00000
 04  8 24  1 47  0.0000000  0 10G22G21G26G29G19G15G 9G18G28G 3
 -16823099.87408 -13108903.72707  21731645.87700  21731645.97500  21731643.80400
       175.00000        83.00000
 -23095598.69308 -17996573.11807  21105517.14800  21105516.80500  21105516.81000
       210.00000        91.00000
  -7927393.59007  -6177191.49006  22735825.88700  22735825.50500  22735826.33500
        53.00000        29.00000
  -2618350.88806  -2040277.18806  23786131.96000  23786132.27700  23786133.62200
        22.00000        15.00000
   -251429.29505   -195919.10305  24944566.48200  24944564.11300  24944563.83300
         7.00000         8.00000
 -19292898.68908 -15033424.87508  20865059.69400  20865058.81000  20865059.89800
       184.00000       111.00000
 -20722473.54608 -16147375.79708  20688778.46000  20688778.28800  20688778.35700
       268.00000       128.00000
 -22902960.22908 -17846459.85608  20281245.05500  20281244.75200  20281244.01200
       195.00000       296.00000
      1993.63105      1553.43405  25279979.27500  25279980.00300  25279982.81500
         4.00000         4.00000
         -.48316         -.22414  24804208.41200  24804207.64600  24804208.19800
        15.00000         3.00000
 04  8 24  1 47 30.0000000  0 10G22G21G26G29G19G15G 9G18G28G 3
 -16891210.31508 -13161976.78307  21718685.56700  21718685.29100  21718682.81600
       179.00000        84.00000
 -23024496.89908 -17941169.15807  21119048.32600  21119047.78500  21119047.22600
       216.00000        93.00000
  -7827277.37107  -6099178.89106  22754876.69600  22754876.86300  22754878.18000
        57.00000        31.00000
  -2526040.39606  -1968346.99506  23803699.07100  23803699.18800  23803699.00400
        23.00000        14.00000
   -272746.27305   -212529.69205  24940508.19900  24940507.10700  24940507.55200
         6.00000         6.00000
 -19324865.68508 -15058334.23108  20858976.50400  20858975.95800  20858976.75700
       195.00000       108.00000
 -20770452.67108 -16184762.09708  20679648.07800  20679647.76900  20679648.31900
       257.00000       130.00000
 -22920242.93708 -17859926.90308  20277956.23700  20277955.92500  20277955.27200
       195.00000       300.00000
      3707.63205      2889.01904  25280307.08000  25280306.33800  25280307.06900
         6.00000         3.00000
     44780.13305     34893.69204  24812728.16800  24812726.81100  24812729.77500
         8.00000         3.00000
 04  8 24  1 48  0.0000000  0 10G22G21G26G29G19G15G 9G18G28G 3
 -16959117.70708 -13214891.62407  21705762.61700  21705762.67900  21705760.50000
       180.00000        82.00000
 -22952910.98108 -17885387.97107  21132669.93200  21132669.59900  21132669.44500
       208.00000        88.00000
  -7727050.14807  -6021079.80006  22773950.14200  22773950.10300  22773950.88900
        60.00000        30.00000
  -2433690.43906  -1896386.04906  23821273.32900  23821273.02300  23821272.95200
        23.00000        12.00000
   -293545.96905   -228737.20304  24936549.63500  24936547.04800  24936548.77300
         5.00000         3.00000
 -19356229.21108 -15082773.34708  20853008.10100  20853007.38900  20853008.22300
       188.00000       104.00000
 -20817815.16908 -16221667.92408  20670635.73400  20670635.34000  20670635.80800
       267.00000       136.00000
 -22937156.65608 -17873106.42908  20274737.79200  20274737.53000  20274736.74000
       196.00000       304.00000
      5916.31605      4610.08904  25280726.44900  25280726.90500  25280728.09200
         5.00000         2.00000
     89958.78105     70097.80904  24821324.34700  24821323.72200  24821324.83200
         8.00000         3.00000
 04  8 24  1 48 30.0000000  0  8G22G21G26G29G15G 9G18G 3
 -17026784.82108 -13267619.23407  21692886.00500  21692886.14400  21692883.65000
       186.00000        82.00000
 -22880807.37308 -17829203.38307  21146391.51200  21146390.98500  21146390.42500
       215.00000        87.00000
  -7626677.70407  -5942867.55006  22793050.32300  22793050.19400  22793051.03200
        59.00000        30.00000
  -2341266.16906  -1824367.21406  23838860.87400  23838860.95200  23838860.92900
        19.00000        12.00000
 -19386951.60908 -15106712.88008  20847161.54900  20847161.07200  20847161.85400
       195.00000       102.00000
 -20864523.00208 -16258063.60908  20661747.15800  20661746.90300  20661747.43800
       260.00000       136.00000
 -22953664.00508 -17885969.29708  20271596.47400  20271596.18000  20271595.42800
       193.00000       304.00000
    135569.64005    105638.70305  24830003.07300  24830002.32100  24830006.82700
         7.00000         5.00000
 04  8 24  1 49  0.0000000  0 10G22G21G26G29G15G 9G18G 3G19G28
 -17094239.66008 -13320181.42807  21680049.93500  21680049.79000  21680047.63200
       182.00000        84.00000
 -22808217.26708 -17772639.70707  21160204.45600  21160204.03800  21160203.83000
       208.00000        86.00000
  -7526191.25607  -5864566.46306  22812172.22400  22812171.95700  22812173.11800
        55.00000        31.00000
  -2248797.89606  -1752314.08506  23856457.24000  23856456.72600  23856456.69300
        19.00000        11.00000
 -19417060.52108 -15130174.38008  20841432.58200  20841432.07500  20841432.37800
       219.00000       101.00000
 -20910603.79808 -16293970.70408  20652978.30900  20652977.84200  20652978.56700
       256.00000       141.00000
 -22969793.55308 -17898537.77608  20268527.06100  20268526.86700  20268525.99600
       193.00000       302.00000
    181581.24505    141491.88104  24838758.50500  24838758.43700  24838760.87300
         8.00000         2.00000
         -.20615          .22310  24928944.07300  24928943.20000  24928942.63700
         9.00000          .00000
         -.22215         -.04610  25281865.12200  25281865.41000  25281866.00500
         4.00000          .00000
 04  8 24  1 49 30.0000000  0  8G22G21G26G29G15G 9G18G 3
 -17161471.85608 -13372570.13807  21667256.32000  21667256.03700  21667253.60800
       179.00000        81.00000
 -22735134.55508 -17715692.18007  21174111.55300  21174111.21700  21174111.12900
       207.00000        86.00000
  -7425583.52107  -5786170.86306  22831316.28400  22831316.43400  22831317.93500
        52.00000        29.00000
  -2156278.04206  -1680220.75206  23874061.94900  23874062.17800  23874063.21200
        18.00000        12.00000
 -19446545.53608 -15153149.72708  20835821.75200  20835821.10900  20835821.66000
       219.00000       104.00000
 -20956047.08308 -16329381.02608  20644330.91000  20644330.60800  20644331.10400
       258.00000       141.00000
 -22985535.12208 -17910803.93608  20265531.78700  20265531.43900  20265530.47100
       195.00000       300.00000
    228000.34606    177662.55604  24847593.86800  24847593.40800  24847595.23400
        11.00000         3.00000
 04  8 24  1 50  0.0000000  0  8G22G21G26G29G15G 9G18G 3
 -17228483.30108 -13424786.83907  21654504.14800  21654503.98400  21654501.75100
       176.00000        80.00000
 -22661564.12708 -17658364.62507  21188111.93300  21188111.38300  21188111.16300
       209.00000        83.00000
  -7324859.90507  -5707684.96506  22850483.46600  22850483.94700  22850485.11000
        50.00000        28.00000
  -2063710.98606  -1608090.65206  23891676.72700  23891676.35700  23891678.15500
        16.00000        12.00000
 -19475408.71508 -15175640.52108  20830329.43900  20830328.80600  20830329.16500
       218.00000       106.00000
 -21000854.67708 -16364296.00408  20635803.06600  20635803.29100  20635804.23400
       248.00000       137.00000
 -23000891.37308 -17922769.85208  20262609.74900  20262609.19800  20262608.15900
       195.00000       298.00000
    274821.15705    214146.23505  24856503.32000  24856503.69100  24856504.84000
         9.00000         4.00000
 04  8 24  1 50 30.0000000  0 10G22G21G26G29G15G 9G18G 3G19G28
 -17295284.49408 -13476839.70007  21641792.17000  21641792.03500  21641789.76700
       173.00000        80.00000
 -22587519.63408 -17600667.64207  21202202.18700  21202201.64000  21202201.18500
       208.00000        80.00000
  -7224033.66607  -5629119.12006  22869670.48900  22869670.73000  22869671.12000
        51.00000        26.00000
  -1971109.64006  -1535933.81606  23909298.04800  23909298.14800  23909299.91300
        17.00000        14.00000
 -19503660.42308 -15197654.84108  20824952.99300  20824952.46700  20824953.17300
       221.00000       106.00000
 -21045036.44308 -16398723.33408  20627396.14900  20627396.05400  20627396.90100
       257.00000       142.00000
 -23015872.80608 -17934443.70608  20259758.56500  20259758.28800  20259757.38300
       192.00000       299.00000
    322029.96705    250932.24105  24865488.32700  24865486.88200  24865488.86500
        10.00000         4.00000
         -.79214         -.45614  24918293.15200  24918290.94100  24918291.23900
         2.00000         2.00000
         -.82715         -.17514  25284295.80900  25284295.44100  25284296.32100
         6.00000         2.00000
 04  8 24  1 51  0.0000000  0  9G22G21G26G29G15G 9G18G 3G19
 -17361827.95408 -13528691.73607  21629129.40200  21629129.23700  21629126.83000
       175.00000        80.00000
 -22512957.51208 -17542567.33107  21216391.01700  21216390.47100  21216390.24900
       209.00000        83.00000
  -7123060.86007  -5550439.05506  22888885.02000  22888885.05900  22888885.84000
        47.00000        24.00000
  -1878429.21006  -1463715.35706  23926935.01300  23926934.98000  23926937.42900
        19.00000        14.00000
 -19531253.07508 -15219155.61808  20819702.20000  20819701.60000  20819702.41200
       203.00000       105.00000
 -21088544.72708 -16432625.86208  20619117.10400  20619116.92800  20619117.46900
       265.00000       141.00000
 -23030432.37208 -17945788.82408  20256988.27800  20256987.73200  20256986.85900
       192.00000       304.00000
    369670.47805    288054.63104  24874553.24800  24874552.19600  24874554.54000
         8.00000         3.00000
    -17568.19804    -13689.33305  24914950.04500  24914950.69200  24914950.09900
         2.00000         5.00000
 04  8 24  1 51 30.0000000  0 10G22G21G26G29G15G 9G18G 3G19G28
 -17428149.55408 -13580370.89207  21616508.90800  21616508.71200  21616506.36700
       181.00000        82.00000
 -22437917.43708 -17484094.59507  21230670.76500  21230670.13600  21230669.59700
       206.00000        77.00000
  -7021980.22507  -5471674.98006  22908120.57400  22908120.23300  22908120.82200
        48.00000        23.00000
  -1785707.83406  -1391464.99106  23944578.77700  23944578.66500  23944581.23500
        17.00000        13.00000
 -19558222.52108 -15240170.77608  20814569.97600  20814569.38000  20814570.29300
       198.00000       104.00000
 -21131415.16408 -16466031.38008  20610958.58500  20610958.70700  20610959.54200
       271.00000       143.00000
 -23044606.45408 -17956833.56908  20254290.74000  20254290.45300  20254289.61300
       195.00000       304.00000
    417703.26405    325482.71805  24883692.07200  24883691.75900  24883695.40200
         4.00000         4.00000
    -34605.54904    -26965.24005  24911708.70200  24911706.70200  24911707.01600
         1.00000         7.00000
          .06614         -.08514  25286409.15100  25286407.95300  25286409.18300
         3.00000         1.00000
 04  8 24  1 52  0.0000000  0  9G22G21G26G29G15G 9G18G 3G19
 -17494230.70708 -13631862.68807  21603933.88100  21603933.90000  21603931.37000
       186.00000        81.00000
 -22362384.54008 -17425237.82707  21245044.22600  21245043.62200  21245043.03700
       202.00000        76.00000
  -6920776.56607  -5392815.02706  22927379.44500  22927379.13000  22927379.46500
        50.00000        21.00000
  -1692929.43006  -1319170.19406  23962234.02400  23962234.10100  23962236.80200
        17.00000        13.00000
 -19584550.43108 -15260686.04208  20809560.53600  20809559.87000  20809560.06700
       208.00000       103.00000
 -21173628.96808 -16498925.22708  20602925.94600  20602925.96900  20602926.37000
       276.00000       143.00000
 -23058376.95108 -17967563.82808  20251670.53600  20251670.16000  20251669.08100
       192.00000       302.00000
    466143.11205    363228.05205  24892909.05200  24892909.20800  24892913.34900
         5.00000         5.00000
    -51095.58805    -39814.63005  24908571.48100  24908567.71400  24908569.73100
         4.00000         8.00000
 04  8 24  1 52 30.0000000  0 10G22G21G26G29G15G 9G18G 3G19G28
 -17560096.70708 -13683186.83207  21591400.05000  21591399.88000  21591397.49200
       187.00000        83.00000
 -22286387.17608 -17366019.13507  21259505.59000  21259505.20400  21259505.02800
       201.00000        74.00000
  -6819478.22907  -5313881.29906  22946655.41300  22946655.19400  22946655.69600
        50.00000        19.00000
  -1600122.02506  -1246852.79606  23979894.76800  23979895.39100  23979896.93100
        20.00000        11.00000
 -19610261.88908 -15280720.95808  20804667.27800  20804666.68900  20804667.33700
       198.00000       102.00000
 -21215211.11408 -16531326.87808  20595013.26200  20595012.97500  20595013.40500
       275.00000       141.00000
 -23071769.20408 -17977999.35108  20249121.96900  20249121.51700  20249120.62100
       189.00000       303.00000
    514961.31605    401268.12604  24902200.87700  24902201.45900  24902202.15700
         7.00000         2.00000
    -67064.34904    -52257.84205  24905531.66200  24905530.31400  24905530.66700
         2.00000         7.00000
         -.75915         -.70610  25288913.31100  25288911.11100  25288912.51500
         6.00000          .00000
 04  8 24  1 53  0.0000000  0  9G22G21G26G29G15G 9G18G 3G19
 -17625731.87508 -13734331.10907  21578909.87700  21578909.96200  21578907.79600
       190.00000        87.00000
 -22209913.81808 -17306429.54707  21274058.12900  21274057.60500  21274057.35400
       193.00000        72.00000
  -6718072.87007  -5234864.17106  22965951.75400  22965952.04400  22965952.24400
        49.00000        20.00000
  -1507272.22306  -1174502.36306  23997564.24900  23997564.41800  23997565.35100
        20.00000        11.00000
 -19635341.46008 -15300263.48708  20799894.53400  20799894.06400  20799894.97200
       194.00000       106.00000
 -21256146.25308 -16563224.36508  20587223.28000  20587223.16500  20587223.84600
       274.00000       142.00000
 -23084768.30508 -17988128.52308  20246648.21200  20246647.80700  20246647.03500
       186.00000       306.00000
    564169.84306    439612.38204  24911565.28200  24911564.99900  24911566.47400
        12.00000         2.00000
    -82497.36405    -64283.56405  24902594.00300  24902594.24100  24902592.97600
         7.00000         8.00000
 04  8 24  1 53 30.0000000  0  9G22G21G26G29G15G 9G18G 3G19
 -17691150.99308 -13785307.04107  21566461.50800  21566461.16000  21566458.85600
       187.00000        87.00000
 -22132982.41508 -17246483.02707  21288697.88900  21288697.35300  21288696.77300
       193.00000        71.00000
  -6616577.94107  -5155777.25406  22985265.46300  22985265.58700  22985265.85500
        46.00000        20.00000
  -1414397.05306  -1102132.17605  24015238.52500  24015238.84600  24015238.75600
        23.00000         9.00000
 -19659803.82508 -15319325.07208  20795239.87000  20795239.34600  20795240.17000
       201.00000       113.00000
 -21296448.51108 -16594628.69408  20579554.33600  20579554.07200  20579554.47600
       276.00000       141.00000
 -23097389.14608 -17997962.94708  20244246.56700  20244246.23500  20244245.46800
       188.00000       311.00000
    613750.56005    478246.62104  24920999.95700  24920999.44400  24921002.06900
        10.00000         3.00000
    -97410.41305    -75904.10005  24899756.81600  24899755.61800  24899755.39300
        10.00000         7.00000
 04  8 24  1 54  0.0000000  0  8G22G21G26G29G15G 9G18G19
 -17756295.31008 -13836068.83407  21554064.82300  21554064.62200  21554062.17600
       189.00000        88.00000
 -22055538.49408 -17186137.15307  21303434.85200  21303434.49200  21303434.08000
       187.00000        71.00000
  -6514938.37207  -5076577.63906  23004608.03800  23004607.40300  23004607.28600
        46.00000        20.00000
  -1321440.59806  -1029698.64806  24032927.89900  24032927.45600  24032927.41900
        23.00000        11.00000
 -19683590.74808 -15337860.33508  20790712.95200  20790712.51000  20790713.84900
       194.00000       117.00000
 -21336059.48008 -16625494.36008  20572016.21200  20572016.08800  20572016.80900
       273.00000       143.00000
 -23109573.44108 -18007457.20808  20241928.02500  20241927.61400  20241926.86100
       189.00000       309.00000
   -111746.13505    -87074.80105  24897028.32900  24897027.20500  24897027.94900
        10.00000         7.00000
 04  8 24  1 54 30.0000000  0 10G22G21G26G29G15G 9G18G19G14G 3
 -17821244.20408 -13886678.35207  21541705.29400  21541705.27700  21541702.91000
       191.00000        89.00000
 -21977664.48608 -17125456.14507  21318254.04600  21318253.64600  21318253.14100
       188.00000        71.00000
  -6413236.35907  -4997329.36706  23023960.10200  23023960.30300  23023961.19100
        39.00000        21.00000
  -1228484.77906   -957265.60305  24050616.41400  24050616.26700  24050616.64900
        20.00000         9.00000
 -19706781.75808 -15355931.25908  20786300.54200  20786299.87800  20786300.57100
       209.00000       117.00000
 -21375058.61708 -16655883.27408  20564595.14900  20564595.13200  20564595.28400
       280.00000       143.00000
 -23121401.32208 -18016673.74608  20239677.36700  20239676.87100  20239676.02600
       186.00000       308.00000
   -125584.84806    -97858.22605  24894394.94900  24894393.79100  24894393.90600
        12.00000         5.00000
         -.39410         -.14914  23889039.87600  23889039.60600  23889042.39200
          .00000         1.00000
         -.91616         -.05914  24940097.55500  24940097.73600  24940098.29300
        12.00000         1.00000
 04  8 24  1 55  0.0000000  0  8G22G21G26G29G15G 9G18G19
 -17885933.04808 -13937085.23807  21529395.41900  21529395.32100  21529393.03800
       192.00000        89.00000
 -21899299.64508 -17064392.65507  21333166.13100  21333165.61400  21333165.35300
       173.00000        69.00000
  -6311410.28907  -4917984.43906  23043337.66100  23043337.57300  23043338.08400
        40.00000        22.00000
  -1135466.97806   -884784.27105  24068318.10400  24068317.05700  24068317.34500
        19.00000        10.00000
 -19729312.33008 -15373487.57108  20782012.96300  20782012.56300  20782013.11400
       223.00000       117.00000
 -21413381.09108 -16685744.91308  20557302.75300  20557302.36300  20557302.88400
       273.00000       145.00000
 -23132808.27308 -18025562.28608  20237506.64300  20237506.20600  20237505.22600
       183.00000       303.00000
   -138863.00306   -108204.84705  24891868.87400  24891867.70300  24891867.86700
        15.00000         4.00000
 04  8 24  1 55 30.0000000  0  9G22G21G26G29G15G 9G18G19G28
 -17950413.80308 -13987329.98007  21517125.21300  21517125.19400  21517122.58400
       194.00000        87.00000
 -21820499.89308 -17002990.30907  21348161.47800  21348160.87800  21348160.73900
       176.00000        71.00000
  -6209515.45607  -4838585.92506  23062726.84400  23062726.76100  23062728.94300
        36.00000        23.00000
  -1042442.06206   -812297.39505  24086018.46100  24086018.73900  24086019.70600
        18.00000         9.00000
 -19751234.71808 -15390569.96608  20777841.18400  20777840.62900  20777841.60400
       215.00000       118.00000
 -21451078.91108 -16715119.81508  20550129.00300  20550128.81600  20550129.05200
       281.00000       144.00000
 -23143846.94808 -18034163.85608  20235405.89800  20235405.60800  20235404.80500
       185.00000       310.00000
   -151633.86706   -118156.20605  24889438.35400  24889437.48900  24889437.58700
        13.00000         6.00000
          .24115          .28710  25298741.85500  25298741.62400  25298741.47400
         5.00000          .00000
 04  8 24  1 56  0.0000000  0 10G22G21G26G29G15G 9G18G19G14G 3
 -18014629.09208 -14037367.86007  21504905.38100  21504905.30500  21504902.84900
       194.00000        88.00000
 -21741211.57808 -16941207.23807  21363248.94300  21363248.61100  21363248.76100
       170.00000        69.00000
  -6107497.51807  -4759091.48406  23082140.08800  23082140.33600  23082142.68000
        35.00000        25.00000
   -949355.06306   -739762.15105  24103732.03200  24103732.40900  24103734.15500
        17.00000        10.00000
 -19772491.64808 -15407133.82008  20773796.27700  20773795.63300  20773796.33800
       222.00000       113.00000
 -21488094.75708 -16743963.30208  20543085.33600  20543084.81900  20543085.34400
       278.00000       146.00000
 -23154460.26008 -18042433.97808  20233386.19100  20233385.87400  20233385.25800
       186.00000       314.00000
   -163841.24406   -127668.45405  24887115.73700  24887114.65400  24887115.00900
        11.00000         6.00000
    -62721.92804    -48874.06904  23835223.82300  23835223.51800  23835223.78100
         1.00000         2.00000
          .23615          .40314  24969282.01100  24969281.15100  24969283.88800
         6.00000         1.00000
 04  8 24  1 56 30.0000000  0  9G22G21G26G29G15G 9G18G19G14
 -18078584.13408 -14087202.94807  21492735.31300  21492735.12000  21492732.73400
       195.00000        90.00000
 -21661443.62108 -16879050.42607  21378428.82600  21378428.38400  21378427.97100
       175.00000        66.00000
  -6005364.73007  -4679507.53906  23101575.33000  23101575.45000  23101577.60700
        37.00000        24.00000
   -856213.43606   -667184.32906  24121457.23000  24121457.29400  24121458.37600
        16.00000        11.00000
 -19793088.59608 -15423183.40308  20769876.73200  20769876.05800  20769876.84200
       222.00000       109.00000
 -21524433.88208 -16772279.48908  20536170.09600  20536169.76900  20536170.30700
       281.00000       148.00000
 -23164653.88508 -18050377.06608  20231446.56900  20231446.17600  20231445.37200
       183.00000       316.00000
   -175491.54505   -136746.61305  24884897.77200  24884896.85800  24884897.08500
         9.00000         6.00000
   -156654.73404   -122068.34904  23817349.12000  23817348.22000  23817348.69700
         3.00000         1.00000
 04  8 24  1 57  0.0000000  0  9G22G21G26G29G15G 9G18G19G28
 -18142279.16508 -14136835.43207  21480614.99100  21480614.52000  21480611.93400
       193.00000        91.00000
 -21581199.99808 -16816522.97107  21393698.75600  21393698.35000  21393698.26700
       179.00000        69.00000
  -5903120.53207  -4599836.79106  23121032.28900  23121032.33300  23121034.09100
        38.00000        23.00000
   -763019.95106   -594566.11406  24139189.38000  24139189.26000  24139192.67000
        13.00000        12.00000
 -19813026.04208 -15438719.08308  20766082.25100  20766081.83900  20766082.93900
       218.00000       111.00000
 -21560096.60108 -16800068.59208  20529383.72900  20529383.39200  20529383.62700
       282.00000       149.00000
 -23174428.67208 -18057993.78408  20229586.58600  20229586.13900  20229585.34600
       182.00000       315.00000
   -186586.17005   -145391.78904  24882785.37300  24882785.81500  24882784.17200
         6.00000         3.00000
         -.97714         -.08410  25304981.07400  25304983.73700  25304982.59500
         1.00000          .00000
 04  8 24  1 57 30.0000000  0  9G22G21G26G29G15G 9G18G19G 3
 -18205745.83908 -14186289.98107  21468537.05700  21468537.04600  21468534.80700
       202.00000        96.00000
 -21500516.12908 -16753652.45207  21409052.97700  21409052.42800  21409051.75300
       180.00000        63.00000
  -5800799.73607  -4520106.36006  23140503.18400  23140503.87400  23140504.98500
        42.00000        23.00000
   -669808.91806   -521934.21206  24156927.74600  24156927.72300  24156930.05100
        13.00000        11.00000
 -19832336.15408 -15453765.93008  20762408.17500  20762407.66500  20762408.37000
       227.00000       112.00000
 -21595114.99608 -16827355.63208  20522719.63800  20522719.33800  20522720.11300
       276.00000       152.00000
 -23183817.04208 -18065309.39908  20227800.23200  20227799.60800  20227798.75900
       182.00000       314.00000
   -197158.52205   -153630.00404  24880773.06200  24880772.25100  24880772.68100
         7.00000         3.00000
     17593.38505     13709.78704  24999126.86100  24999125.95400  24999129.88100
         5.00000         2.00000
 04  8 24  1 58  0.0000000  0  9G22G21G26G29G15G 9G18G19G14
 -18268985.63508 -14235567.73807  21456503.16100  21456502.94300  21456500.62900
       206.00000        98.00000
 -21419397.45408 -16690443.13507  21424488.15500  21424487.89200  21424488.00900
       165.00000        63.00000
  -5698406.87007  -4440319.77406  23159988.87800  23159988.56300  23159989.13400
        41.00000        20.00000
   -576584.15706   -449291.62106  24174666.80900  24174667.54000  24174670.35900
        11.00000        11.00000
 -19851020.72108 -15468325.35108  20758852.99400  20758852.29200  20758852.72200
       226.00000       111.00000
 -21629490.46108 -16854141.69408  20516177.92500  20516177.98300  20516178.59800
       279.00000       152.00000
 -23192820.65708 -18072325.20908  20226086.42600  20226086.16500  20226085.49900
       182.00000       316.00000
   -207211.16305   -161463.24105  24878862.78000  24878861.99300  24878859.28800
         9.00000         4.00000
    -31149.57005    -24272.79704  23763904.99400  23763903.95700  23763904.71400
         7.00000         1.00000
 04  8 24  1 58 30.0000000  0  9G22G21G26G29G15G 9G18G19G28
 -18332032.24808 -14284694.95908  21444505.55600  21444505.45500  21444503.29300
       205.00000       101.00000
 -21337881.13108 -16626923.97007  21440000.62500  21440000.24500  21440000.31800
       173.00000        64.00000
  -5595978.58607  -4360505.58506  23179479.88700  23179479.78100  23179480.39900
        37.00000        19.00000
   -483381.68206   -376666.38605  24192405.19800  24192404.27700  24192405.45600
        12.00000        10.00000
 -19869113.77808 -15482423.84908  20755409.18800  20755408.74100  20755409.90400
       210.00000       111.00000
 -21663256.75708 -16880453.07808  20509752.55300  20509752.43700  20509752.99300
       280.00000       154.00000
 -23201473.61108 -18079067.77609  20224439.68400  20224439.47700  20224438.85100
       179.00000       318.00000
   -216778.89105   -168918.60605  24877042.35600  24877040.22300  24877039.95600
         7.00000         5.00000
         -.47815         -.34310  25312085.67700  25312084.54900  25312085.00600
         5.00000          .00000
 04  8 24  1 59  0.0000000  0  9G22G21G26G29G15G 9G18G19G 3
 -18394767.38608 -14333579.46908  21432567.34400  21432567.27300  21432565.20100
       205.00000       103.00000
 -21255853.32608 -16563006.24007  21455609.87100  21455609.70200  21455609.17800
       174.00000        59.00000
  -5493399.87307  -4280574.18106  23198999.27700  23198999.77600  23199000.39600
        36.00000        17.00000
   -390085.81906   -303968.39806  24210158.44300  24210158.08600  24210158.98700
        12.00000        12.00000
 -19886497.66808 -15495969.74408  20752101.20800  20752100.66900  20752101.80200
       207.00000       111.00000
 -21696296.36708 -16906198.21508  20503465.34700  20503465.22500  20503465.81000
       278.00000       156.00000
 -23209658.31108 -18085445.46908  20222882.34600  20222881.93900  20222881.27600
       178.00000       312.00000
   -225745.32905   -175905.46305  24875336.78200  24875335.59300  24875335.21000
         9.00000         8.00000
         -.54415         -.07610  25029582.41200  25029582.24000  25029583.47500
         8.00000          .00000
 04  8 24  1 59 30.0000000  0  8G22G21G26G29G15G 9G18G19
 -18457229.91208 -14382251.56508  21420681.01500  21420681.02800  21420678.86900
       206.00000       101.00000
 -21173356.24808 -16498722.83707  21471309.13300  21471308.41800  21471308.31700
       171.00000        63.00000
  -5390712.46007  -4200558.08206  23218540.51000  23218539.97900  23218541.73500
        32.00000        18.00000
   -296737.77906   -231229.77005  24227921.83500  24227921.86300  24227923.03400
        13.00000        10.00000
 -19903211.58608 -15508993.58908  20748920.74700  20748920.15800  20748921.12400
       208.00000       106.00000
 -21728648.25708 -16931407.46608  20497309.18000  20497308.90900  20497309.49600
       277.00000       158.00000
 -23217414.10508 -18091488.94808  20221406.56900  20221406.19300  20221405.36200
       180.00000       308.00000
   -234150.43706   -182454.88605  24873735.56900  24873735.00500  24873735.77600
        11.00000        10.00000
 04  8 24  2  0  0.0000000  0  9G22G21G15G 9G19G29G18G14G26
 -18519456.50808 -14430739.81508  21408839.82700  21408839.91800  21408837.50600
       212.00000       102.00000
 -21090430.75708 -16434105.62607  21487088.48300  21487088.35400  21487088.75400
       162.00000        61.00000
 -19919292.66408 -15521524.31408  20745861.02200  20745860.26900  20745860.92800
       212.00000       106.00000
 -21760349.34808 -16956109.60308  20491276.58900  20491276.24900  20491276.98100
       277.00000       160.00000
   -242032.32606   -188596.66005  24872236.63200  24872234.95300  24872235.51800
        11.00000         9.00000
   -203376.77506   -158481.00906  24245688.37300  24245687.80300  24245689.63700
        12.00000        12.00000
 -23224778.29908 -18097227.28708  20220004.96500  20220004.88700  20220004.01000
       183.00000       310.00000
         -.56415         -.83914  23693062.38400  23693061.75100  23693062.55800
        10.00000         3.00000
  -5287956.30407  -4120488.41806  23238094.70100  23238094.27800  23238095.43300
        34.00000        18.00000
 04  8 24  2  0 30.0000000  0 10G22G21G15G 9G19G29G18G14G26G 3
 -18581455.98608 -14479051.08608  21397041.79000  21397041.68200  21397039.50000
       212.00000       105.00000
 -21007089.35608 -16369164.31307  21502948.67000  21502948.28700  21502947.61800
       174.00000        57.00000
 -19934750.21708 -15533569.18108  20742919.65900  20742919.03600  20742919.50200
       225.00000       107.00000
 -21791408.64508 -16980311.63808  20485366.21400  20485365.92400  20485366.48400
       277.00000       160.00000
   -249401.15105   -194338.63305  24870833.61500  24870832.10000  24870832.83900
         9.00000         7.00000
   -110013.87506    -85730.79205  24263454.18800  24263454.59600  24263456.66400
        14.00000        10.00000
 -23231760.04908 -18102667.62008  20218676.55700  20218676.33500  20218675.47200
       182.00000       311.00000
    -92673.10205    -72213.13405  23675424.30200  23675424.27600  23675427.76400
         8.00000         4.00000
  -5185143.10307  -4040374.28206  23257659.51400  23257659.59900  23257660.57100
        37.00000        19.00000
        -1.01314         -.16810  25060668.26200  25060668.16400  25060668.20900
         3.00000          .00000
 04  8 24  2  1  0.0000000  0  9G22G21G15G 9G19G29G18G14G26
 -18643185.10208 -14527151.67808  21385295.20200  21385295.14200  21385292.98700
       217.00000       106.00000
 -20923292.77408 -16303868.30807  21518894.44600  21518893.93800  21518894.12100
       153.00000        65.00000
 -19949541.85708 -15545095.14408  20740104.80300  20740104.26900  20740104.91200
       217.00000       108.00000
 -21821783.36808 -17003980.23808  20479586.03000  20479585.87100  20479586.52500
       282.00000       162.00000
   -256215.40405   -199648.45005  24869537.36600  24869536.71500  24869535.79000
         5.00000         5.00000
    -16608.39806    -12947.39905  24281228.08800  24281228.80200  24281230.62300
        14.00000        10.00000
 -23238316.96508 -18107776.91008  20217428.90100  20217428.72300  20217427.76800
       186.00000       314.00000
   -185164.59806   -144284.33004  23657825.40500  23657825.33500  23657825.88400
        11.00000         3.00000
  -5082232.72107  -3960184.44506  23277242.77500  23277242.79400  23277243.65000
        38.00000        18.00000
 04  8 24  2  1 30.0000000  0 10G22G21G15G 9G19G29G18G14G26G28
 -18704686.08508 -14575074.52108  21373592.32200  21373592.03600  21373589.68000
       224.00000       108.00000
 -20839087.17908 -16238253.61607  21534917.72700  21534917.49200  21534917.80700
       154.00000        60.00000
 -19963710.33408 -15556135.52508  20737408.44000  20737407.71900  20737408.70100
       208.00000       106.00000
 -21851516.39208 -17027148.81308  20473928.13000  20473927.80200  20473928.39900
       279.00000       159.00000
   -262518.87105   -204560.24204  24868338.16300  24868337.64600  24868336.30600
         8.00000         3.00000
     76794.89006     59834.30505  24299003.09600  24299003.00900  24299004.58500
        14.00000         9.00000
 -23244491.62508 -18112588.34308  20216254.14600  20216253.83700  20216252.81200
       187.00000       314.00000
   -277518.11706   -216248.06904  23640251.47300  23640250.66700  23640251.33900
        12.00000         2.00000
  -4979270.63407  -3879954.32406  23296835.13800  23296835.75100  23296837.03500
        36.00000        20.00000
          .10015         -.19310  25328929.70300  25328929.58200  25328929.80000
         4.00000          .00000
 04  8 24  2  2  0.0000000  0  8G22G21G15G 9G19G29G18G26
 -18765886.75408 -14622763.34408  21361946.01500  21361945.89500  21361943.38500
       221.00000       108.00000
 -20754404.64408 -16172267.26407  21551033.20800  21551032.52700  21551032.07100
       148.00000        56.00000
 -19977183.77408 -15566634.32808  20734844.82200  20734844.19600  20734844.74300
       214.00000       106.00000
 -21880535.69108 -17049761.24708  20468406.04400  20468405.56400  20468405.95500
       279.00000       156.00000
   -268240.56505   -209018.70304  24867250.30900  24867247.63600  24867248.92900
        10.00000         3.00000
    170266.10006    132668.93605  24316789.86000  24316789.66000  24316791.34500
        13.00000         7.00000
 -23250212.40508 -18117046.10008  20215165.41300  20215165.16100  20215164.07800
       185.00000       311.00000
  -4876187.45207  -3799629.83806  23316451.89500  23316451.90100  23316453.77100
        34.00000        20.00000
 04  8 24  2  2 30.0000000  0  9G22G21G15G 9G19G29G18G26G 3
 -18826827.19708 -14670249.39108  21350349.62000  21350349.36500  21350346.90600
       229.00000       109.00000
 -20669288.69708 -16105943.20207  21567229.45000  21567229.25500  21567229.73700
       141.00000        58.00000
 -19990002.90108 -15576623.26908  20732404.72800  20732404.27200  20732405.42500
       206.00000       109.00000
 -21908881.77108 -17071849.09008  20463011.60500  20463011.43900  20463011.73000
       283.00000       154.00000
   -273422.28805   -213056.44004  24866263.46400  24866261.89400  24866261.92700
        10.00000         3.00000
    263762.57706    205523.27805  24334581.12500  24334581.07900  24334582.97800
        12.00000         7.00000
 -23255520.01508 -18121181.90308  20214155.52700  20214155.02600  20214154.11600
       181.00000       316.00000
  -4773026.18707  -3719244.49906  23336083.04600  23336082.73400  23336084.50100
        32.00000        20.00000
         -.67014         -.23414  25103052.06500  25103052.18200  25103052.62200
         3.00000         1.00000
 04  8 24  2  3  0.0000000  0  8G22G21G15G 9G19G29G18G26
 -18887544.63108 -14717561.66608  21338795.18000  21338795.04700  21338792.68000
       227.00000       111.00000
 -20583780.62708 -16039313.58907  21583501.56400  21583501.16900  21583501.06900
       145.00000        54.00000
 -20002205.61908 -15586131.88908  20730083.01600  20730082.45100  20730083.21200
       218.00000       109.00000
 -21936592.20408 -17093441.63008  20457738.81800  20457738.49200  20457738.68500
       284.00000       155.00000
   -278102.70205   -216703.53205  24865371.37900  24865370.43800  24865371.41300
         9.00000         4.00000
    357244.72606    278366.43805  24352370.74000  24352370.95200  24352372.14600
        12.00000         6.00000
 -23260452.11008 -18125025.09309  20213216.73900  20213216.37700  20213215.78300
       181.00000       323.00000
  -4669827.04307  -3638829.64806  23355720.96800  23355721.19000  23355722.97800
        33.00000        21.00000
 04  8 24  2  3 30.0000000  0  9G22G21G15G 9G19G29G18G26G14
 -18947978.11908 -14764652.69308  21327294.65100  21327294.79300  21327292.65900
       227.00000       113.00000
 -20497823.73808 -15972334.24407  21599858.77000  21599858.61300  21599858.39200
       157.00000        55.00000
 -20013731.87408 -15595113.41108  20727889.74500  20727889.25600  20727889.93500
       228.00000       110.00000
 -21963606.88208 -17114492.01708  20452597.64400  20452597.67100  20452597.91600
       285.00000       157.00000
   -282222.52605   -219913.80405  24864588.18900  24864586.12400  24864588.14600
         8.00000         5.00000
    450771.10906    351244.08705  24370169.43600  24370169.45500  24370170.53400
        12.00000         6.00000
 -23264948.51308 -18128528.79009  20212361.23500  20212360.78500  20212360.12800
       179.00000       324.00000
  -4566532.42207  -3558340.39806  23375377.63000  23375377.47400  23375378.92700
        33.00000        20.00000
    -30521.79006    -23783.08404  23570296.37200  23570295.61500  23570296.63000
        15.00000         3.00000
 04  8 24  2  4  0.0000000  0  9G22G21G15G 9G19G29G18G26G14
 -19008163.61008 -14811550.46608  21315842.06200  21315841.85500  21315839.71200
       221.00000       113.00000
 -20411457.57608 -15905035.98607  21616293.88900  21616293.18000  21616293.46600
       139.00000        52.00000
 -20024618.27708 -15603596.33408  20725817.81200  20725817.27900  20725818.54200
       217.00000       115.00000
 -21989962.24308 -17135028.64908  20447582.81000  20447582.46900  20447582.74600
       286.00000       160.00000
   -285819.46005   -222716.67504  24863902.28500  24863902.79400  24863902.89500
         8.00000         3.00000
    544303.09906    424126.07005  24387967.22600  24387967.93500  24387968.29500
        12.00000         7.00000
 -23269045.97608 -18131721.62009  20211581.48700  20211581.11500  20211580.32500
       178.00000       318.00000
  -4463181.11707  -3477806.99106  23395044.83600  23395044.72300  23395046.21600
        34.00000        19.00000
   -122018.62206    -95079.26105  23552885.20100  23552884.59400  23552885.74200
        18.00000         4.00000
 04  8 24  2  4 30.0000000  0 10G22G21G15G 9G19G29G18G26G14G28
 -19068081.46808 -14858239.69808  21304440.06700  21304439.97700  21304437.82700
       222.00000       120.00000
 -20324666.96208 -15837406.98207  21632809.19100  21632808.85100  21632808.72300
       136.00000        49.00000
 -20034846.00308 -15611565.99708  20723871.87900  20723871.31400  20723872.40800
       225.00000       121.00000
 -22015639.64408 -17155037.00108  20442696.71000  20442696.18100  20442696.60100
       282.00000       163.00000
   -288875.85605   -225098.33405  24863319.77000  24863321.29400  24863322.05400
         7.00000         6.00000
    637858.14305    497026.02105  24405769.78100  24405769.79800  24405772.20000
         9.00000         7.00000
 -23272725.30708 -18134588.63308  20210881.41300  20210880.93600  20210879.96200
       177.00000       311.00000
  -4359756.72407  -3397216.63206  23414725.54800  23414725.92500  23414726.77600
        34.00000        17.00000
   -213341.58806   -166239.97305  23535507.17900  23535506.89400  23535506.79500
        23.00000         4.00000
         -.81314         -.31110  25349260.13300  25349259.65400  25349260.02800
         3.00000          .00000
 04  8 24  2  5  0.0000000  0  9G22G21G15G 9G19G29G18G26G14
 -19127725.98208 -14904715.92808  21293089.75100  21293089.84800  21293087.90600
       218.00000       122.00000
 -20237450.19708 -15769445.92407  21649406.38200  21649405.73300  21649405.75600
       142.00000        50.00000
 -20044410.01108 -15619018.48808  20722051.74600  20722051.17700  20722052.42500
       213.00000       122.00000
 -22040633.67908 -17174512.86108  20437940.33200  20437939.93300  20437940.39600
       287.00000       166.00000
   -291387.41705   -227055.38704  24862843.34900  24862842.18300  24862842.06100
         7.00000         3.00000
    731439.50105    569946.46505  24423579.11600  24423578.93700  24423579.79600
         9.00000         8.00000
 -23275981.56508 -18137125.98308  20210261.57300  20210261.26800  20210260.34900
       180.00000       313.00000
  -4256256.32906  -3316567.04606  23434420.41300  23434420.71400  23434422.22300
        29.00000        16.00000
   -304485.31706   -237261.02805  23518162.09600  23518162.14900  23518162.92300
        20.00000         6.00000
 04  8 24  2  5 30.0000000  0  9G22G21G15G 9G19G29G18G26G14
 -19187086.69908 -14950971.02208  21281793.91200  21281793.79200  21281791.86600
       215.00000       121.00000
 -20149800.91408 -15701147.83407  21666085.69800  21666085.32900  21666084.95500
       146.00000        49.00000
 -20053300.85008 -15625946.41908  20720360.06600  20720359.33600  20720360.50200
       207.00000       119.00000
 -22064934.64308 -17193448.66208  20433315.46800  20433315.36300  20433315.96600
       286.00000       166.00000
   -293345.51305   -228581.16105  24862471.21800  24862470.84800  24862471.33600
         9.00000         7.00000
    825055.14005    642893.64205  24441393.01100  24441392.52500  24441394.42000
         8.00000        10.00000
 -23278804.91208 -18139325.99808  20209724.38700  20209724.03200  20209723.24100
       180.00000       316.00000
  -4152672.60306  -3235852.51306  23454131.64700  23454131.82300  23454134.07100
        29.00000        17.00000
   -395440.21206   -308134.91905  23500854.88000  23500854.20400  23500855.96800
        23.00000         8.00000
 04  8 24  2  6  0.0000000  0  9G22G21G15G 9G19G29G18G26G14
 -19246162.38308 -14997004.01308  21270552.10500  21270552.13100  21270550.02500
       219.00000       119.00000
 -20061721.68408 -15632514.70107  21682846.30900  21682845.91200  21682845.51600
       130.00000        46.00000
 -20061517.99908 -15632349.41308  20718796.47200  20718795.93200  20718796.79300
       217.00000       117.00000
 -22088541.97908 -17211843.98308  20428823.55900  20428823.28600  20428823.79500
       292.00000       168.00000
   -294750.41005   -229675.90705  24862204.63800  24862203.73100  24862202.28900
        10.00000         4.00000
    918703.98005    715866.67505  24459214.49600  24459213.48700  24459214.20100
         8.00000         6.00000
 -23281194.81108 -18141188.26108  20209269.62100  20209269.21700  20209268.32100
       175.00000       313.00000
  -4049007.27606  -3155074.39906  23473859.13900  23473859.43400  23473861.12600
        30.00000        18.00000
   -486205.71306   -378861.24105  23483583.10000  23483582.43100  23483582.27600
        24.00000         9.00000
 04  8 24  2  6 30.0000000  0  9G22G21G15G 9G19G29G18G26G14
 -19305019.49208 -15042866.68308  21259351.84700  21259351.87200  21259349.87700
       219.00000       118.00000
 -19973282.75908 -15563601.31907  21699676.28200  21699675.58000  21699675.12000
       132.00000        47.00000
 -20069128.89108 -15638279.98608  20717347.57900  20717347.07300  20717348.37000
       207.00000       115.00000
 -22111522.79908 -17229751.11008  20424450.17000  20424450.03400  20424450.73200
       291.00000       170.00000
   -295670.46605   -230392.86205  24862028.24000  24862027.72400  24862028.18400
         7.00000         4.00000
   1012317.33005    788812.05805  24477027.72600  24477028.21000  24477029.19100
        10.00000         8.00000
 -23283218.19508 -18142764.92608  20208884.28500  20208884.02300  20208883.34400
       173.00000       310.00000
  -3945329.69407  -3074286.74306  23493589.67400  23493589.25600  23493590.54900
        32.00000        18.00000
   -576848.73806   -449492.13205  23466334.34900  23466333.80600  23466334.14900
        28.00000        10.00000
 04  8 24  2  7  0.0000000  0  9G22G21G15G 9G19G29G18G26G14
 -19363584.30208 -15088501.59408  21248207.64700  21248207.55200  21248205.28900
       228.00000       115.00000
 -19884414.91508 -15494353.70207  21716586.38300  21716586.07000  21716586.49700
       128.00000        48.00000
 -20076060.47708 -15643681.23408  20716028.90000  20716028.33300  20716029.38700
       215.00000       112.00000
 -22133804.15608 -17247113.19208  20420210.26700  20420210.12100  20420210.49200
       291.00000       170.00000
   -296033.55205   -230675.82005  24861959.00100  24861957.88200  24861959.02000
         9.00000         5.00000
   1105966.33406    861785.20805  24494850.18000  24494849.04800  24494849.34400
        11.00000         9.00000
 -23284802.21108 -18143999.23608  20208582.95200  20208582.69400  20208581.81600
       176.00000       307.00000
  -3841569.13807  -2993434.44606  23513335.18600  23513335.25300  23513335.70400
        36.00000        20.00000
   -667296.25906   -519970.66305  23449122.50800  23449122.12900  23449122.01400
        30.00000        10.00000
 04  8 24  2  7 30.0000000  0  9G22G21G15G 9G19G29G18G26G14
 -19421886.59808 -15133931.94908  21237113.10700  21237113.02800  21237110.71300
       232.00000       116.00000
 -19795151.87908 -15424798.14307  21733573.34200  21733572.84700  21733572.63000
       128.00000        47.00000
 -20082343.51008 -15648577.12608  20714833.59500  20714832.96900  20714833.66200
       224.00000       111.00000
 -22155416.33708 -17263953.84208  20416097.46000  20416097.25800  20416097.83800
       287.00000       170.00000
   -295871.21505   -230549.32205  24861990.43800  24861988.72400  24861990.76900
         7.00000         4.00000
   1199619.01106    934761.21505  24512671.38400  24512670.84900  24512672.53200
        13.00000        10.00000
 -23285977.02808 -18144914.68408  20208359.49500  20208359.06700  20208358.45300
       174.00000       314.00000
  -3737758.13507  -2912542.82406  23533089.39900  23533089.22500  23533090.08800
        37.00000        19.00000
   -757578.46206   -590320.38805  23431941.95400  23431941.17400  23431942.25600
        30.00000        10.00000
