     2.10           OBSERVATION DATA    G (GPS)             RINEX VERSION / TYPE
teqc  2002Mar14     gpsodc(auto)        20040827 01:10:39UTCPGM / RUN BY / DATE
OBSERVATION MODE: IGS-Net                                   COMMENT
ULAB Ulaanbataar (ULAB)                                     MARKER NAME
24201M001                                                   MARKER NUMBER
287-U               AOA SNR-8000 ACT     3.30               REC # / TYPE / VERS
340-U               AOAD/M_T        NONE                    ANT # / TYPE
        0.0460        0.0000        0.0000                  ANTENNA: DELTA H/E/N
  -1257408.5301  4099404.3441  4707992.6265                 APPROX POSITION XYZ
  107.05232518  47.86506793  1575.5257  LonLatAlt  S/W      COMMENT
unknown             IVTAN                                   OBSERVER / AGENCY
     1     1                                                WAVELENGTH FACT L1/2
     7    L1    L2    C1    P1    P2    S1    S2            # / TYPES OF OBSERV
    30.0000                                                 INTERVAL
Linux 2.0.36|Pentium II|gcc -static|Linux|486/DX+           COMMENT
bx2rxo      unknown * Fri Aug 27 02:18:27 2004              COMMENT
  2004     8    27     0     0    0.0000000     GPS         TIME OF FIRST OBS
  2004     8    27    23    59   30.0000000     GPS         TIME OF LAST OBS
                                                            END OF HEADER
 04  8 27  0  0  0.0000000  0 12G18G15G 6G17G 9G29G10G26G22G 8G21G 3
 -14033650.95708 -10935308.60707  21997475.33900  21997475.51000  21997475.20700
       142.00000        60.00000
  -7306361.91006  -5693269.89206  23658587.21000  23658586.55100  23658588.18600
        18.00000        18.00000
  -8345211.48504  -6502770.95605  23806812.34400  23806813.41700  23806815.27200
         3.00000         8.00000
  -4626154.61106  -3604803.97306  23713782.39200  23713782.56900  23713785.23200
        14.00000        14.00000
  -3526014.27605  -2747542.51206  24027810.69100  24027810.33800  24027814.02700
         8.00000        18.00000
 -17359747.41808 -13527072.95508  20977767.33200  20977767.43400  20977766.91700
       237.00000       158.00000
  -4671074.06907  -3639798.03606  23343965.27800  23343965.09700  23343967.24800
        41.00000        29.00000
 -22187468.65009 -17288933.33608  20044976.71500  20044976.73500  20044976.18000
       338.00000       231.00000
  -1798897.73506  -1401738.03905  24698629.90000  24698630.28800  24698629.04100
        14.00000         9.00000
  -5777394.69706  -4501865.72406  24384494.37400  24384493.74000  24384495.49600
        14.00000        12.00000
 -26207578.12708 -20421485.79308  20510684.32600  20510684.07500  20510682.82300
       260.00000       192.00000
  -1824975.24105  -1422058.37604  24899739.94700  24899739.08600  24899739.79900
         5.00000         2.00000
 04  8 27  0  0 30.0000000  0 12G18G15G 6G17G 9G29G10G26G22G 8G21G 3
 -14104993.05408 -10990899.83207  21983900.07600  21983899.73500  21983899.09400
       154.00000        59.00000
  -7413658.06606  -5776877.26106  23638168.80400  23638168.37900  23638170.02200
        17.00000        17.00000
  -8250605.14805  -6429051.83105  23824816.43600  23824816.47700  23824818.36200
         6.00000         9.00000
  -4516484.51306  -3519346.83005  23734651.23800  23734651.00700  23734654.31700
        11.00000        10.00000
  -3644291.76406  -2839706.66906  24005304.86600  24005304.55500  24005306.38200
        20.00000        16.00000
 -17307241.27108 -13486159.08708  20987759.21800  20987759.08400  20987758.49100
       230.00000       157.00000
  -4582955.04507  -3571133.93906  23360735.19900  23360734.20800  23360736.00400
        44.00000        26.00000
 -22152545.99609 -17261720.88408  20051622.16100  20051622.39700  20051621.84700
       342.00000       232.00000
  -1889883.82206  -1472636.29505  24681315.25900  24681315.10000  24681314.85600
        13.00000        10.00000
  -5712342.28206  -4451175.55906  24396870.89700  24396871.39400  24396874.33000
        12.00000        12.00000
 -26245503.80808 -20451038.28008  20503467.55800  20503467.33300  20503465.65400
       265.00000       188.00000
  -1876510.18005  -1462215.45604  24889932.56000  24889933.02200  24889933.71900
         7.00000         3.00000
 04  8 27  0  1  0.0000000  0 12G18G15G 6G17G 9G29G10G26G22G 8G21G 3
 -14176178.89208 -11046369.29207  21970353.91400  21970353.85400  21970352.66400
       169.00000        60.00000
  -7520838.93606  -5860394.80806  23617774.02600  23617773.21400  23617773.71300
        19.00000        15.00000
  -8155906.76105  -6355260.93305  23842836.58200  23842836.59500  23842839.49900
         7.00000         9.00000
  -4406648.36706  -3433760.30706  23755555.46300  23755554.10000  23755555.48900
        15.00000        13.00000
  -3762537.39706  -2931846.04306  23982802.41400  23982802.15600  23982804.26600
        21.00000        15.00000
 -17254382.67308 -13444970.58308  20997817.64400  20997817.62300  20997816.98400
       226.00000       152.00000
  -4494763.13407  -3502413.02406  23377516.80100  23377515.98700  23377518.40100
        41.00000        26.00000
 -22117095.90609 -17234097.43808  20058368.34600  20058368.29200  20058367.89200
       333.00000       237.00000
  -1980858.26906  -1543525.45806  24664002.41300  24664002.55600  24664003.52200
        12.00000        11.00000
  -5646850.37006  -4400142.93906  24409335.38800  24409334.77900  24409337.29700
        13.00000        13.00000
 -26282949.26308 -20480216.56108  20496342.17600  20496341.76300  20496340.03300
       266.00000       189.00000
  -1927605.80305  -1502030.21204  24880208.53600  24880209.46500  24880209.26500
         6.00000         2.00000
 04  8 27  0  1 30.0000000  0 12G18G15G 6G17G 9G29G10G26G22G 8G21G 3
 -14247156.14208 -11101676.20907  21956847.45700  21956847.36100  21956846.20400
       173.00000        61.00000
  -7627850.27506  -5943780.27906  23597409.86200  23597409.63300  23597410.53200
        18.00000        18.00000
  -8061067.32205  -6281360.18705  23860884.33400  23860884.38600  23860887.28900
         7.00000        10.00000
  -4296596.59906  -3348005.78006  23776496.41200  23776495.33900  23776497.98800
        13.00000        13.00000
  -3880696.22606  -3023917.77706  23960316.91800  23960317.03100  23960318.91300
        19.00000        12.00000
 -17201122.11208 -13403468.85708  21007952.81200  21007952.69400  21007952.07700
       224.00000       151.00000
  -4406447.12807  -3433595.41006  23394322.96800  23394322.43200  23394324.04800
        43.00000        23.00000
 -22081068.57809 -17206024.20608  20065223.78300  20065223.91200  20065223.75800
       332.00000       238.00000
  -2071768.65106  -1614364.67206  24646704.17600  24646704.15300  24646702.50000
        11.00000        11.00000
  -5580869.66006  -4348729.43806  24421889.98800  24421890.68300  24421893.52900
        12.00000        13.00000
 -26319860.85608 -20508978.85008  20489317.63300  20489317.48400  20489315.95200
       261.00000       191.00000
  -1978208.98405  -1541461.31304  24870579.04500  24870579.82100  24870579.94800
         4.00000         3.00000
 04  8 27  0  2  0.0000000  0 11G18G15G 6G17G 9G29G10G26G22G 8G21
 -14317924.34408 -11156820.23607  21943380.59300  21943380.48300  21943379.12500
       173.00000        60.00000
  -7734690.51206  -6027032.38406  23577077.66100  23577077.62900  23577079.22300
        14.00000        18.00000
  -7966090.55405  -6207352.40605  23878956.86600  23878957.06500  23878960.06200
         7.00000         8.00000
  -4186331.50906  -3262085.01006  23797477.81600  23797477.72500  23797480.50100
        12.00000        12.00000
  -3998765.58206  -3115919.78306  23937849.02400  23937848.89500  23937851.10500
        20.00000        14.00000
 -17147461.95508 -13361655.75708  21018164.18800  21018164.07200  21018163.33100
       229.00000       151.00000
  -4318008.49607  -3364682.22006  23411151.92400  23411151.15000  23411153.02700
        37.00000        23.00000
 -22044466.59109 -17177503.18508  20072188.90500  20072189.04500  20072188.70900
       336.00000       234.00000
  -2162615.02306  -1685153.99705  24629416.56900  24629416.44700  24629414.54400
        14.00000         9.00000
  -5514402.92005  -4296937.23406  24434536.26100  24434538.07700  24434540.34500
        10.00000        12.00000
 -26356237.83808 -20537324.55608  20482395.82200  20482395.48300  20482393.74000
       274.00000       195.00000
 04  8 27  0  2 30.0000000  0 12G18G15G 6G17G 9G29G10G26G22G 8G21G 3
 -14388469.96508 -11211790.82707  21929955.77700  21929955.87600  21929954.57900
       164.00000        62.00000
  -7841344.15106  -6110139.08406  23556781.13900  23556781.64900  23556783.93800
        11.00000        18.00000
  -7870966.70104  -6133229.99705  23897059.44500  23897059.54900  23897061.47200
         3.00000         7.00000
  -4075842.22106  -3175989.54406  23818504.85300  23818504.46400  23818506.44800
        13.00000        14.00000
  -4116729.80807  -3207839.87606  23915402.42100  23915402.29700  23915403.39300
        32.00000        19.00000
 -17093391.46608 -13319522.91608  21028453.30500  21028453.31900  21028452.97400
       226.00000       154.00000
  -4229435.05407  -3295664.01706  23428006.49900  23428006.27900  23428008.50200
        40.00000        24.00000
 -22007279.21709 -17148526.01408  20079265.32700  20079265.64800  20079265.09400
       338.00000       228.00000
  -2253384.19506  -1755883.18705  24612144.35300  24612144.30700  24612141.91500
        22.00000         9.00000
  -5447439.62206  -4244758.07306  24447282.44200  24447281.17800  24447282.58400
        12.00000        11.00000
 -26392065.53508 -20565242.24908  20475578.33900  20475577.86700  20475575.99300
       280.00000       197.00000
         -.28915         -.40215  24851605.48500  24851606.37800  24851605.48200
         4.00000         5.00000
 04  8 27  0  3  0.0000000  0 12G18G15G 6G17G 9G29G10G26G22G 8G21G 3
 -14458838.15208 -11266623.15507  21916565.29800  21916565.07100  21916564.31800
       153.00000        63.00000
  -7947854.86106  -6193134.42506  23536514.28600  23536514.77300  23536515.85700
        12.00000        20.00000
  -7775744.40405  -6059030.97205  23915180.34600  23915179.59000  23915181.88600
         5.00000         8.00000
  -3965176.79306  -3089756.84206  23839562.49700  23839562.82900  23839565.98900
        16.00000        11.00000
  -4234631.22506  -3299711.03306  23892965.90500  23892965.89600  23892967.85800
        29.00000        21.00000
 -17038958.64908 -13277107.74608  21038811.22500  21038811.32100  21038811.00700
       221.00000       151.00000
  -4140773.43307  -3226577.07706  23444878.05500  23444877.82900  23444880.21300
        35.00000        23.00000
 -21969554.28409 -17119129.96308  20086444.26400  20086444.61400  20086443.85800
       344.00000       227.00000
  -2344121.58406  -1826587.64205  24594878.60100  24594878.27600  24594876.15500
        27.00000         9.00000
  -5380027.77806  -4192229.39306  24460109.32400  24460109.35600  24460111.21000
        12.00000        12.00000
 -26427387.74508 -20592766.05608  20468856.28700  20468856.02200  20468854.49400
       274.00000       201.00000
    -49138.47405    -38289.95005  24842255.24700  24842255.02800  24842255.84900
         6.00000         5.00000
 04  8 27  0  3 30.0000000  0 12G18G15G 6G17G 9G29G10G26G22G 8G21G 3
 -14529024.20608 -11321313.57107  21903208.80900  21903208.85300  21903207.92300
       153.00000        60.00000
  -8054216.18506  -6276013.34106  23516274.30800  23516274.52500  23516276.06600
        13.00000        21.00000
  -7680422.72205  -5984754.41605  23933319.16500  23933319.22900  23933320.92400
         8.00000         7.00000
  -3854332.97906  -3003385.06205  23860656.43500  23860655.72700  23860657.98500
        15.00000        10.00000
  -4352462.93506  -3391527.83406  23870541.50200  23870542.20200  23870544.74200
        16.00000        17.00000
 -16984161.45108 -13234408.64308  21049238.69800  21049238.84800  21049238.52400
       220.00000       149.00000
  -4052020.38507  -3157418.90906  23461767.42100  23461766.97600  23461769.44300
        35.00000        24.00000
 -21931289.84609 -17089313.52508  20093725.65300  20093725.90600  20093725.57700
       336.00000       230.00000
  -2434822.62206  -1897263.76405  24577617.64600  24577618.12300  24577616.09800
        24.00000         8.00000
  -5312165.86206  -4139350.03106  24473023.41900  24473023.42800  24473024.86400
        16.00000        11.00000
 -26462198.80008 -20619891.55708  20462232.19400  20462231.75800  20462230.20700
       277.00000       205.00000
    -97807.83004    -76214.14005  24832992.22500  24832992.38100  24832995.31900
         3.00000         6.00000
 04  8 27  0  4  0.0000000  0 12G18G15G 6G17G 9G29G10G26G22G 8G21G 3
 -14599028.05908 -11375862.01007  21889887.76300  21889887.82000  21889886.92500
       164.00000        63.00000
  -8160426.70406  -6358774.76706  23496064.55300  23496063.36400  23496064.11700
        12.00000        19.00000
  -7585005.67805  -5910403.52605  23951475.44100  23951475.36300  23951479.25300
         6.00000         8.00000
  -3743313.76705  -2916876.67206  23881782.82500  23881781.91000  23881785.41200
        10.00000        13.00000
  -4470222.70506  -3483288.62506  23848131.70200  23848132.78100  23848135.08100
        19.00000        13.00000
 -16929002.91108 -13191427.97408  21059735.03200  21059735.25200  21059734.89900
       221.00000       149.00000
  -3963177.31907  -3088190.60406  23478674.80500  23478674.15700  23478675.32900
        37.00000        23.00000
 -21892488.82109 -17059078.96808  20101109.47100  20101109.54900  20101109.27900
       338.00000       233.00000
  -2525487.56106  -1967911.72405  24560364.43000  24560364.59000  24560363.11300
        16.00000         9.00000
  -5243856.73606  -4086122.15506  24486022.44800  24486022.30200  24486022.90400
        16.00000        12.00000
 -26496498.10408 -20646618.29708  20455705.21600  20455704.91700  20455703.17400
       282.00000       204.00000
   -146007.52405   -113772.36705  24823822.06300  24823821.28500  24823822.28300
         6.00000         7.00000
 04  8 27  0  4 30.0000000  0 12G18G15G 6G17G 9G29G10G26G22G 8G21G 3
 -14668779.00208 -11430213.38407  21876614.73500  21876614.83100  21876613.70500
       171.00000        63.00000
  -8266413.88406  -6441362.13606  23475895.39400  23475894.26800  23475895.76000
        11.00000        20.00000
  -7489426.22005  -5835926.12105  23969663.29000  23969663.55200  23969666.28800
         6.00000         8.00000
  -3632051.39606  -2830178.80906  23902954.31100  23902954.11200  23902956.69200
        11.00000        13.00000
  -4587837.51506  -3574936.47906  23825751.88400  23825752.34200  23825755.16100
        31.00000        16.00000
 -16873414.96108 -13148112.70708  21070313.54000  21070313.47100  21070312.94800
       222.00000       147.00000
  -3874175.29507  -3018838.42206  23495610.97400  23495610.13000  23495612.28000
        32.00000        25.00000
 -21853083.38809 -17028373.44108  20108608.33200  20108608.27900  20108607.84700
       342.00000       229.00000
  -2616045.94606  -2038476.66305  24543130.39400  24543131.00000  24543130.88200
        12.00000         9.00000
  -5175032.88606  -4032493.23506  24499119.94000  24499119.22100  24499120.65500
        16.00000        13.00000
 -26530213.71108 -20672890.20708  20449289.13200  20449288.90800  20449287.29500
       273.00000       204.00000
   -193665.97105   -150908.86505  24814754.02200  24814752.63500  24814752.45300
         5.00000         6.00000
 04  8 27  0  5  0.0000000  0 12G18G15G 6G17G 9G29G10G26G22G 8G21G 3
 -14738358.44908 -11484431.11707  21863374.60300  21863374.40900  21863373.56500
       186.00000        65.00000
  -8372257.41206  -6523837.60106  23455754.72600  23455753.93400  23455754.71900
        16.00000        21.00000
  -7393769.39205  -5761388.45605  23987868.44000  23987868.05100  23987869.80200
         6.00000         8.00000
  -3520629.89606  -2743356.93906  23924157.06700  23924157.19800  23924160.13000
        13.00000        13.00000
  -4705385.99706  -3666532.64806  23803384.51500  23803384.03900  23803386.59500
        28.00000        17.00000
 -16817481.86608 -13104528.49208  21080957.84200  21080957.52500  21080956.67400
       230.00000       144.00000
  -3785097.05407  -2949426.86606  23512562.00500  23512561.23300  23512563.47000
        35.00000        23.00000
 -21813157.89109 -16997262.67108  20116205.51100  20116205.75900  20116205.19000
       335.00000       221.00000
  -2706579.56506  -2109022.30405  24525901.99100  24525902.67500  24525902.71900
        14.00000        10.00000
  -5105778.76806  -3978529.02606  24512298.38900  24512298.21500  24512299.73800
        17.00000        14.00000
 -26563426.16508 -20698770.05108  20442969.30800  20442968.96400  20442967.11700
       271.00000       202.00000
   -240864.22904   -187686.74605  24805771.04300  24805770.63400  24805772.03600
         2.00000         7.00000
 04  8 27  0  5 30.0000000  0 12G18G15G 6G17G 9G29G10G26G22G 8G21G 3
 -14807766.07208 -11538514.97107  21850166.65400  21850166.61800  21850165.29100
       193.00000        61.00000
  -8477955.15506  -6606199.43806  23435640.21300  23435639.83400  23435641.16800
        18.00000        22.00000
  -7298038.51705  -5686793.07305  24006083.55800  24006084.19100  24006086.35100
         8.00000         6.00000
  -3409051.52906  -2656412.78306  23945390.57100  23945389.99000  23945393.55500
        11.00000        14.00000
  -4822865.44906  -3758074.97506  23781027.30100  23781027.55400  23781030.45600
        16.00000        19.00000
 -16761206.02608 -13060677.19508  21091666.26400  21091666.36900  21091665.64800
       234.00000       145.00000
  -3695943.54607  -2879956.63506  23529527.75100  23529526.98000  23529528.55300
        35.00000        24.00000
 -21772714.57109 -16965748.39608  20123901.80700  20123901.83500  20123901.26500
       326.00000       218.00000
  -2797088.12806  -2179548.43306  24508678.81400  24508679.85900  24508679.91500
        20.00000        11.00000
  -5036097.06906  -3924231.64706  24525558.89700  24525558.74400  24525559.60700
        15.00000        11.00000
 -26596134.27708 -20724256.90508  20436745.23400  20436744.86400  20436743.05200
       273.00000       204.00000
   -287600.86705   -224104.94505  24796878.67700  24796877.70600  24796878.01600
         4.00000         7.00000
 04  8 27  0  6  0.0000000  0 12G18G15G 6G17G 9G29G10G26G22G 8G21G 3
 -14876934.30008 -11592412.29607  21837004.74600  21837004.42800  21837003.00100
       187.00000        62.00000
  -8583438.38006  -6688394.16506  23415566.63700  23415567.01800  23415568.00100
        22.00000        17.00000
  -7202170.04605  -5612090.46205  24024326.57700  24024327.01800  24024329.88800
         9.00000         7.00000
  -3297251.77406  -2569296.19006  23966665.41500  23966664.82500  23966668.20700
        12.00000        13.00000
  -4940206.37806  -3849509.34006  23758698.75300  23758698.23500  23758700.92700
        21.00000        16.00000
 -16704522.93608 -13016508.56008  21102452.38100  21102452.64700  21102452.17500
       229.00000       147.00000
  -3606649.09707  -2810376.60806  23546519.69100  23546518.95700  23546520.83700
        35.00000        25.00000
 -21731689.20509 -16933780.58208  20131708.70600  20131708.72200  20131708.20900
       325.00000       219.00000
  -2887504.45606  -2250002.67405  24491474.00700  24491474.66400  24491473.19600
        19.00000         9.00000
  -4965923.66406  -3869551.11706  24538911.27900  24538911.45200  24538912.71300
        17.00000        11.00000
 -26628269.81908 -20749297.60008  20430629.68400  20430629.41800  20430627.80400
       265.00000       204.00000
   -333808.36304   -260110.75605  24788083.57400  24788084.16000  24788085.30200
         3.00000         7.00000
 04  8 27  0  6 30.0000000  0 12G18G15G 6G17G 9G29G10G26G22G 8G21G 3
 -14945870.26208 -11646128.61507  21823886.40500  21823886.17400  21823884.89900
       178.00000        65.00000
  -8688712.16806  -6770425.68406  23395534.44600  23395533.60700  23395534.95300
        24.00000        18.00000
  -7106174.61405  -5537288.91205  24042594.35400  24042595.11000  24042597.17700
         9.00000         7.00000
  -3185240.23906  -2482014.53106  23987981.03200  23987980.52000  23987983.22200
        11.00000        12.00000
  -5057413.13107  -3940839.27505  23736394.86100  23736395.38400  23736395.23500
        36.00000        10.00000
 -16647442.24508 -12972030.11108  21113314.87900  21113314.85800  21113314.23700
       227.00000       146.00000
  -3517221.95307  -2740693.18106  23563537.65500  23563537.08000  23563538.69200
        39.00000        25.00000
 -21690091.42109 -16901366.73108  20139624.53300  20139624.50800  20139624.01600
       331.00000       218.00000
  -2977835.82306  -2320390.73405  24474285.39300  24474285.33800  24474282.34600
        17.00000         7.00000
  -4895268.22606  -3814494.98606  24552358.84800  24552357.57100  24552358.40200
        15.00000        11.00000
 -26659838.53008 -20773896.60108  20424622.05200  20424621.90900  20424620.58800
       259.00000       211.00000
   -379492.64905   -295708.91205  24779390.44300  24779390.71300  24779391.51600
         4.00000         9.00000
 04  8 27  0  7  0.0000000  0 12G18G15G 6G17G 9G29G10G26G22G 8G21G 3
 -15014649.57008 -11699722.86307  21810798.22100  21810797.86900  21810796.67600
       177.00000        65.00000
  -8793850.52606  -6852351.64606  23375527.61600  23375527.11200  23375528.28100
        29.00000        18.00000
  -7010131.66105  -5462450.37705  24060871.80800  24060871.72000  24060874.09500
         7.00000         7.00000
  -3073095.66806  -2394629.20506  24009321.25700  24009320.54400  24009323.90200
        12.00000        11.00000
  -5174559.25406  -4032121.93106  23714102.77700  23714102.71900  23714103.77800
        22.00000        16.00000
 -16590042.76708 -12927303.25708  21124237.40800  21124237.42700  21124236.93800
       217.00000       145.00000
  -3427739.63206  -2670966.73306  23580565.04000  23580563.99900  23580566.21000
        31.00000        22.00000
 -21648000.17409 -16868568.35908  20147634.21400  20147634.31700  20147633.74100
       332.00000       217.00000
  -3068158.26306  -2390771.81805  24457098.55500  24457098.28700  24457095.49900
        14.00000         7.00000
  -4824210.35306  -3759125.25506  24565879.51100  24565879.32400  24565880.48300
        17.00000        11.00000
 -26690915.94108 -20798112.77908  20418708.84300  20418708.40900  20418706.73100
       267.00000       214.00000
   -424729.00604   -330958.04105  24770780.41600  24770782.87600  24770785.29000
         1.00000         9.00000
 04  8 27  0  7 30.0000000  0 12G18G15G 6G17G 9G29G10G26G22G 8G21G 3
 -15083241.68608 -11753171.25107  21797745.54700  21797745.16700  21797743.95300
       175.00000        66.00000
  -8898821.27307  -6934147.03006  23355552.33900  23355551.69700  23355551.95800
        33.00000        11.00000
  -6914014.28605  -5387553.83405  24079161.13300  24079161.56500  24079164.33500
         4.00000         4.00000
  -2960790.22305  -2307118.52506  24030690.91500  24030690.49300  24030694.69500
        10.00000        11.00000
  -5291611.47306  -4123331.31306  23691828.15900  23691828.37600  23691830.56800
        24.00000        23.00000
 -16532296.69108 -12882306.33208  21135226.04100  21135226.05400  21135225.65300
       213.00000       141.00000
  -3338172.74607  -2601174.41006  23597608.22500  23597608.68200  23597610.58400
        37.00000        21.00000
 -21605387.55809 -16835363.73208  20155742.73400  20155743.14400  20155742.62500
       328.00000       213.00000
  -3158441.40206  -2461122.30205  24439916.40100  24439916.72400  24439915.51900
        16.00000         8.00000
  -4752722.21806  -3703420.26705  24579483.40300  24579482.93500  24579484.49000
        17.00000        10.00000
 -26721470.04908 -20821921.18408  20412894.30200  20412894.09400  20412892.67600
       266.00000       219.00000
   -469486.50100   -365834.01905  24762262.75500  24762266.71600  24762266.24100
          .00000         7.00000
 04  8 27  0  8  0.0000000  0 12G18G15G 6G17G 9G29G10G26G22G 8G21G 3
 -15151616.16408 -11806450.04507  21784734.04800  21784733.88300  21784732.91100
       180.00000        69.00000
  -9003592.43406  -7015786.90106  23335614.11500  23335613.93200  23335615.46000
        29.00000        16.00000
  -6817796.11405  -5312578.72305  24097470.60700  24097470.26400  24097474.73200
         4.00000         6.00000
  -2848296.45305  -2219461.11206  24052097.65800  24052097.79200  24052101.73700
         9.00000        12.00000
  -5408537.25607  -4214442.20606  23669578.80800  23669578.81800  23669580.39400
        37.00000        22.00000
 -16474176.43708 -12837017.84008  21146286.00800  21146286.10300  21146285.54300
       215.00000       141.00000
  -3248492.54807  -2531293.81106  23614674.42800  23614674.33800  23614676.23600
        36.00000        22.00000
 -21562226.42609 -16801731.68808  20163956.25300  20163956.24400  20163955.90000
       320.00000       212.00000
  -3248655.10806  -2531418.66205  24422750.58600  24422750.24000  24422747.99800
        15.00000         9.00000
  -4680776.70506  -3647358.87406  24593174.62200  24593174.18600  24593175.65000
        18.00000        11.00000
 -26751469.99008 -20845297.77508  20407185.62300  20407185.27700  20407183.79700
       264.00000       220.00000
   -513734.16004   -400312.71505  24753844.54800  24753845.10700  24753846.89800
         3.00000         4.00000
 04  8 27  0  8 30.0000000  0 12G18G15G 6G17G 9G29G10G26G22G 8G21G 3
 -15219768.40708 -11859555.68107  21771764.99200  21771764.72300  21771764.26500
       183.00000        72.00000
  -9108157.72707  -7097266.33206  23315716.68100  23315716.37100  23315718.09000
        32.00000        17.00000
  -6721476.30605  -5237524.41405  24115799.85900  24115799.60600  24115803.39500
         4.00000         4.00000
  -2735612.48606  -2131655.48406  24073542.58900  24073541.63700  24073545.06000
        12.00000        11.00000
  -5525329.62106  -4305449.17006  23647352.83700  23647352.80500  23647355.37700
        26.00000        15.00000
 -16415680.38808 -12791436.52108  21157417.37500  21157417.49800  21157416.94100
       212.00000       137.00000
  -3158696.17507  -2461322.66306  23631762.02000  23631761.43200  23631764.05100
        33.00000        23.00000
 -21518515.05009 -16767670.88108  20172274.50600  20172274.41900  20172273.98000
       329.00000       213.00000
  -3338795.13506  -2601657.61606  24405596.46200  24405597.13800  24405595.70700
        16.00000        12.00000
  -4608372.34106  -3590939.93106  24606953.01600  24606952.00600  24606954.11500
        16.00000        11.00000
 -26780910.68608 -20868238.58908  20401583.30100  20401582.97900  20401581.47100
       271.00000       221.00000
   -557466.87405   -434390.23205  24745524.25500  24745524.33200  24745524.58000
         8.00000         4.00000
 04  8 27  0  9  0.0000000  0 12G18G15G 6G17G 9G29G10G26G22G 8G21G 3
 -15287722.21208 -11912506.68507  21758833.55900  21758833.60500  21758832.72600
       188.00000        71.00000
  -9212539.23806  -7178602.56406  23295854.16600  23295853.48900  23295854.49400
        30.00000        16.00000
  -6625082.38504  -5162412.39205  24134145.23900  24134145.31800  24134147.14400
         2.00000         4.00000
  -2622765.14006  -2043722.54206  24095016.43900  24095016.36400  24095018.96100
        12.00000        11.00000
  -5642010.04306  -4396368.92806  23625148.65100  23625149.19000  23625151.11100
        23.00000        15.00000
 -16356835.20808 -12745583.14908  21168615.51200  21168615.37400  21168614.78300
       209.00000       134.00000
  -3068808.91207  -2391280.69906  23648867.21300  23648866.77800  23648868.91900
        32.00000        21.00000
 -21474280.43209 -16733202.35108  20180691.78100  20180692.10900  20180691.66200
       338.00000       216.00000
  -3428885.71005  -2671858.04406  24388452.45600  24388452.86300  24388452.49100
        10.00000        12.00000
  -4535536.19206  -3534184.55105  24620813.02000  24620812.00000  24620813.53500
        14.00000         9.00000
 -26809814.82708 -20890761.31008  20396082.98700  20396082.69100  20396081.20900
       266.00000       219.00000
   -600707.96805   -468084.63405  24737295.49300  24737294.63400  24737296.57500
         9.00000         4.00000
 04  8 27  0  9 30.0000000  0 12G18G15G 6G17G 9G29G10G26G22G 8G21G 3
 -15355483.81208 -11965307.91607  21745939.36000  21745939.23900  21745938.11500
       194.00000        72.00000
  -9316741.45906  -7259799.08106  23276025.49300  23276024.42500  23276025.25900
        25.00000        19.00000
  -6528624.32600  -5087250.37505  24152499.21600  24152499.90500  24152503.05200
          .00000         4.00000
  -2509763.28105  -1955669.21406  24116520.35000  24116519.22300  24116522.56100
         9.00000        12.00000
  -5758582.04507  -4487204.17706  23602966.79700  23602966.73300  23602969.35600
        34.00000        23.00000
 -16297650.10308 -12699464.89808  21179877.94400  21179877.82300  21179877.53900
       209.00000       137.00000
  -2978838.18306  -2321173.71106  23665987.62900  23665987.65600  23665989.89700
        31.00000        21.00000
 -21429531.66709 -16698333.19308  20189207.36900  20189207.48700  20189207.02400
       332.00000       215.00000
  -3518933.26405  -2742024.90706  24371316.18300  24371315.88700  24371316.56000
         6.00000        12.00000
  -4462278.12706  -3477100.37905  24634753.44800  24634752.58500  24634754.20400
        13.00000         9.00000
 -26838188.08308 -20912870.35208  20390683.86500  20390683.44300  20390681.90600
       263.00000       219.00000
   -643463.08505   -501400.35205  24729160.43900  24729159.59900  24729160.77800
         7.00000         4.00000
 04  8 27  0 10  0.0000000  0 12G18G15G 6G17G 9G29G10G26G22G 8G21G 3
 -15423017.43308 -12017931.50507  21733088.61700  21733088.10000  21733086.78800
       195.00000        72.00000
  -9420726.91806  -7340826.66306  23256237.32900  23256236.55600  23256237.69900
        27.00000        22.00000
  -6432070.17600  -5012013.45904  24170873.81400  24170873.90600  24170875.85200
          .00000         3.00000
  -2396574.06205  -1867469.89606  24138057.91100  24138057.93700  24138062.40700
         9.00000        12.00000
  -5875007.59106  -4577925.27806  23580812.05600  23580811.38300  23580813.50600
        26.00000        23.00000
 -16238091.80208 -12653055.84908  21191211.41200  21191211.45000  21191211.16000
       207.00000       137.00000
  -2888750.00106  -2250975.19306  23683131.70300  23683131.29300  23683133.00600
        30.00000        20.00000
 -21384235.98409 -16663037.86408  20197826.97700  20197826.90800  20197826.57500
       328.00000       213.00000
  -3608902.09106  -2812130.44505  24354197.09800  24354196.55500  24354194.90900
        12.00000        10.00000
  -4388565.29906  -3419661.86605  24648779.63500  24648779.91700  24648781.88600
        12.00000        10.00000
 -26865993.60108 -20934536.99908  20385392.44700  20385392.14700  20385390.57400
       266.00000       216.00000
   -685695.94305   -534309.09105  24721122.42600  24721122.75500  24721122.23300
         5.00000         5.00000
 04  8 27  0 10 30.0000000  0 11G18G15G17G 9G29G10G26G22G 8G21G 3
 -15490347.48708 -12070396.46407  21720275.60600  21720275.43100  21720274.39400
       189.00000        73.00000
  -9524518.38406  -7421703.13306  23236484.86700  23236484.91300  23236486.06700
        21.00000        22.00000
  -2283224.86205  -1779145.91305  24159626.87800  24159627.12700  24159631.68500
         9.00000        10.00000
  -5991308.84906  -4668549.55406  23558679.57500  23558679.54400  23558681.12600
        27.00000        18.00000
 -16178187.94808 -12606377.53808  21202610.95500  21202610.80800  21202610.42900
       202.00000       135.00000
  -2798570.40006  -2180705.43706  23700291.98800  23700291.64200  23700293.98200
        27.00000        23.00000
 -21338421.01909 -16627337.90408  20206545.13000  20206545.25600  20206544.78600
       330.00000       212.00000
  -3698816.91406  -2882193.93005  24337089.07400  24337088.38100  24337085.20800
        18.00000        10.00000
  -4314425.15706  -3361890.38605  24662888.21400  24662887.69600  24662890.07400
        11.00000         9.00000
 -26893255.30208 -20955779.89408  20380204.76800  20380204.41100  20380202.78300
       264.00000       218.00000
   -727430.55405   -566829.55905  24713182.14100  24713181.36200  24713181.65900
         5.00000         4.00000
 04  8 27  0 11  0.0000000  0 11G18G15G17G 9G29G10G26G22G 8G21G 3
 -15557454.17408 -12122687.37207  21707505.87800  21707505.46000  21707504.42400
       188.00000        72.00000
  -9628094.45906  -7502411.72906  23216776.24800  23216776.17200  23216776.75900
        28.00000        24.00000
  -2169698.63605  -1690683.93605  24181231.95500  24181231.16000  24181233.72200
         8.00000         7.00000
  -6107463.67906  -4759059.73706  23536572.81700  23536574.61800  23536578.87000
        19.00000        20.00000
 -16117921.69608 -12559416.84708  21214079.03100  21214079.24300  21214078.87400
       207.00000       137.00000
  -2708280.87506  -2110350.03706  23717473.56800  23717472.69900  23717475.15600
        26.00000        18.00000
 -21292069.96809 -16591220.21908  20215365.48100  20215365.61900  20215365.11500
       338.00000       210.00000
  -3788658.24606  -2952200.14306  24319990.40100  24319990.48200  24319988.79600
        11.00000        11.00000
  -4239841.28006  -3303773.12505  24677081.28200  24677080.99700  24677082.96500
        13.00000        10.00000
 -26919952.89508 -20976583.22108  20375124.45400  20375124.15400  20375122.48100
       268.00000       220.00000
   -768646.81204   -598946.16405  24705336.95300  24705336.60500  24705337.74700
         2.00000         4.00000
 04  8 27  0 11 30.0000000  0 11G18G15G17G 9G29G10G26G22G 8G21G 3
 -15624356.05408 -12174818.70107  21694774.43800  21694774.52800  21694773.16900
       190.00000        72.00000
  -9731472.00506  -7582965.63806  23197103.09200  23197102.68400  23197104.90500
        23.00000        25.00000
  -2056016.65805  -1602100.63205  24202865.19900  24202864.79500  24202867.88200
         9.00000        10.00000
  -6223487.97506  -4849468.18806  23514496.82800  23514496.60800  23514499.66100
        26.00000        20.00000
 -16057314.23308 -12512190.27208  21225612.25600  21225612.39600  21225612.17800
       204.00000       136.00000
  -2617901.31306  -2039924.45906  23734671.84400  23734671.84600  23734674.37800
        27.00000        21.00000
 -21245204.26709 -16554701.49908  20224283.83200  20224283.90400  20224283.44500
       339.00000       210.00000
  -3878444.90905  -3022163.70006  24302904.96000  24302904.92000  24302903.09100
         8.00000        13.00000
  -4164835.77306  -3245327.30105  24691353.40000  24691352.53000  24691356.74000
        12.00000         9.00000
 -26946103.89108 -20996960.63208  20370148.37300  20370147.92400  20370146.25000
       274.00000       224.00000
   -809362.70304   -630672.85505  24697589.50900  24697590.16100  24697589.97800
         1.00000         5.00000
 04  8 27  0 12  0.0000000  0 11G18G15G17G 9G29G10G26G22G 8G21G 3
 -15691031.37608 -12226773.48607  21682086.49500  21682086.36800  21682085.63600
       188.00000        76.00000
  -9834627.52606  -7663346.54906  23177473.83400  23177473.20400  23177474.60600
        24.00000        26.00000
  -1942160.31305  -1513381.48206  24224531.69700  24224531.18500  24224534.06400
         8.00000        11.00000
  -6339357.68206  -4939756.21906  23492448.70300  23492447.92900  23492450.79300
        31.00000        22.00000
 -15996347.02508 -12464683.37608  21237213.97300  21237214.02800  21237213.97900
       200.00000       134.00000
  -2527411.98306  -1969413.38206  23751892.54900  23751891.74800  23751893.85600
        30.00000        20.00000
 -21197805.75009 -16517767.59608  20233303.18000  20233303.36800  20233303.03400
       329.00000       211.00000
  -3968155.49606  -3092068.02306  24285832.87000  24285833.27100  24285831.54500
        12.00000        11.00000
  -4089389.99206  -3186538.44405  24705710.38300  24705710.70800  24705713.33700
        12.00000         9.00000
 -26971686.08208 -21016894.81508  20365279.98400  20365279.73200  20365278.20300
       273.00000       228.00000
   -849556.34200   -661992.60205  24689940.36800  24689940.56300  24689943.14100
          .00000         6.00000
 04  8 27  0 12 30.0000000  0 11G18G15G17G 9G29G10G26G22G 8G21G 3
 -15757515.54808 -12278579.32607  21669434.78900  21669434.82200  21669434.37600
       195.00000        79.00000
  -9937594.63206  -7743580.62506  23157879.10100  23157878.98400  23157880.56600
        25.00000        27.00000
  -1828167.72605  -1424556.14906  24246223.01600  24246223.20000  24246226.09100
         9.00000        12.00000
  -6455105.78806  -5029949.42806  23470420.48700  23470420.30300  23470424.73500
        19.00000        24.00000
 -15935058.00008 -12416925.71508  21248877.20100  21248877.10600  21248876.67200
       205.00000       129.00000
  -2436849.41206  -1898845.18606  23769125.39300  23769124.47200  23769126.85600
        24.00000        17.00000
 -21149912.22509 -16480447.98208  20242416.66000  20242417.10500  20242416.95500
       324.00000       210.00000
  -4057825.44306  -3161940.66406  24268769.70400  24268769.14300  24268767.75800
        12.00000        12.00000
  -4013542.34606  -3127436.43405  24720145.44200  24720144.39300  24720147.38400
        11.00000         8.00000
 -26996734.48508 -21036413.06508  20360513.64300  20360513.27400  20360511.57100
       274.00000       229.00000
   -889262.55600   -692932.50805  24682386.58300  24682386.25200  24682386.95000
          .00000         7.00000
 04  8 27  0 13  0.0000000  0 11G18G15G17G 9G29G10G26G22G 8G21G 3
 -15823778.60708 -12330212.87407  21656825.27300  21656825.49500  21656824.50300
       202.00000        77.00000
 -10040341.65206  -7823643.21306  23138326.69600  23138326.72600  23138328.61600
        24.00000        28.00000
  -1714012.01305  -1335603.71206  24267944.53300  24267945.02700  24267949.85300
         6.00000        12.00000
  -6570699.91607  -5120022.67806  23448425.10300  23448425.42500  23448426.73200
        33.00000        19.00000
 -15873420.44208 -12368896.46808  21260606.57200  21260606.30700  21260605.64600
       201.00000       123.00000
  -2346185.36706  -1828197.92606  23786377.96100  23786377.29900  23786379.96000
        26.00000        19.00000
 -21101497.37609 -16442722.13608  20251630.48900  20251630.47000  20251629.96600
       327.00000       206.00000
  -4147425.30806  -3231758.69706  24251718.50300  24251718.63200  24251717.17800
        13.00000        12.00000
  -3937267.08505  -3068001.20005  24734658.59900  24734658.91200  24734661.71800
        10.00000         6.00000
 -27021218.35808 -21055491.41608  20355854.45700  20355854.09000  20355852.57800
       270.00000       233.00000
   -928451.30304   -723469.12605  24674927.51900  24674929.00500  24674928.51500
         2.00000         7.00000
 04  8 27  0 13 30.0000000  0 11G18G15G17G 9G29G10G26G22G 8G21G 3
 -15889806.84008 -12381663.44507  21644260.70300  21644260.63600  21644259.60100
       205.00000        78.00000
 -10142853.24806  -7903522.36606  23118819.67900  23118819.45800  23118821.62900
        22.00000        30.00000
  -1599682.33605  -1246515.75606  24289702.26500  24289701.21600  24289706.49300
         5.00000        14.00000
  -6686123.95906  -5209963.45706  23426459.82300  23426459.89400  23426461.60400
        29.00000        17.00000
 -15811423.42708 -12320587.12808  21272404.24600  21272403.97300  21272403.33300
       200.00000       123.00000
  -2255407.62106  -1757462.08906  23803652.99200  23803652.41600  23803654.43200
        26.00000        18.00000
 -21052550.68409 -16404581.86508  20260944.64600  20260944.79900  20260944.18300
       331.00000       204.00000
  -4236941.63606  -3301511.65206  24234683.78500  24234684.10900  24234683.66900
        14.00000        14.00000
  -3860553.24005  -3008224.23905  24749256.04400  24749257.01700  24749260.18800
         9.00000         7.00000
 -27045123.75308 -21074119.00508  20351305.35200  20351304.89900  20351303.48200
       262.00000       233.00000
   -967108.31605   -753591.46605  24667570.38100  24667571.59600  24667572.85000
         6.00000         7.00000
 04  8 27  0 14  0.0000000  0 11G18G15G17G 9G29G10G26G22G 8G21G 3
 -15955625.06008 -12432950.35307  21631735.91600  21631735.90900  21631734.85800
       207.00000        82.00000
 -10245152.61306  -7983236.11606  23099353.82400  23099353.07200  23099354.87100
        25.00000        27.00000
  -1485206.49005  -1157313.89006  24311487.78600  24311487.13100  24311489.86500
         7.00000        13.00000
  -6801400.53606  -5299789.28006  23404522.99600  23404523.13300  23404526.37000
        30.00000        22.00000
 -15749094.87708 -12272019.44508  21284264.77900  21284264.72800  21284264.34200
       199.00000       126.00000
  -2164542.51106  -1686658.16306  23820943.01500  23820943.18600  23820945.16600
        25.00000        16.00000
 -21003099.99509 -16366048.87108  20270354.77600  20270354.80700  20270354.33400
       329.00000       202.00000
  -4326399.82706  -3371219.31506  24217660.54100  24217660.68600  24217661.33300
        13.00000        16.00000
  -3783429.44905  -2948127.80605  24763932.82200  24763933.55200  24763936.52500
         9.00000         6.00000
 -27068474.42008 -21092314.33608  20346861.65800  20346861.40000  20346859.89500
       261.00000       232.00000
  -1005258.65606   -783318.98405  24660311.88700  24660311.62700  24660311.22100
        12.00000         6.00000
 04  8 27  0 14 30.0000000  0 11G18G15G17G 9G29G10G26G22G 8G21G 3
 -16021232.77208 -12484073.23607  21619251.07500  21619251.17700  21619249.98900
       205.00000        82.00000
 -10347237.46406  -8062782.74606  23079927.09800  23079926.27100  23079927.74200
        25.00000        21.00000
  -1370586.75605  -1067999.88106  24333298.71000  24333297.95800  24333301.11200
         7.00000        11.00000
  -6916526.62507  -5389497.83706  23382615.40300  23382616.32600  23382618.68000
        37.00000        27.00000
 -15686436.93408 -12223195.09408  21296188.10600  21296188.04300  21296187.76600
       192.00000       125.00000
  -2073590.94306  -1615786.85906  23838252.19600  23838250.76600  23838253.37900
        25.00000        18.00000
 -20953148.02909 -16327125.27408  20279860.14300  20279860.20400  20279859.99800
       321.00000       204.00000
  -4415799.18906  -3440881.10806  24200648.87000  24200648.67000  24200648.93400
        17.00000        18.00000
  -3705898.10805  -2887713.81905  24778687.44000  24778687.03000  24778688.74400
         7.00000         6.00000
 -27091269.42308 -21110076.68508  20342524.06200  20342523.78000  20342522.20500
       265.00000       232.00000
  -1042901.32606   -812650.94405  24653148.37600  24653148.59500  24653149.21900
        16.00000         8.00000
 04  8 27  0 15  0.0000000  0 11G29G18G15G17G 9G10G26G22G 8G21G 3
 -15623464.49108 -12174125.67608  21308171.53700  21308171.30600  21308170.99100
       186.00000       124.00000
 -16086641.83608 -12535041.32307  21606804.43900  21606804.49000  21606803.13900
       206.00000        82.00000
 -10449117.88206  -8142170.07106  23060539.91700  23060539.36200  23060541.01500
        28.00000        24.00000
  -1255837.84805   -978585.24406  24355135.22300  24355133.65900  24355137.80400
         5.00000        12.00000
  -7031511.84306  -5479096.61506  23360735.25000  23360735.23700  23360737.58600
        31.00000        23.00000
  -1982566.41506  -1544858.71606  23855572.75800  23855572.23400  23855574.47600
        26.00000        19.00000
 -20902709.61009 -16287822.62008  20289458.21700  20289458.45100  20289458.28100
       318.00000       207.00000
  -4505151.81206  -3510506.48206  24183645.43100  24183645.36100  24183644.23100
        18.00000        17.00000
  -3627974.71205  -2826994.33905  24793515.14200  24793515.33200  24793516.95800
         9.00000         5.00000
 -27113520.24408 -21127414.99108  20338290.03000  20338289.55400  20338288.02000
       262.00000       232.00000
  -1080047.91706   -841596.34305  24646080.51400  24646080.39700  24646081.80500
        17.00000        10.00000
 04  8 27  0 15 30.0000000  0 11G29G18G15G17G 9G10G26G22G 8G21G 3
 -15560149.50708 -12124789.34608  21320219.60800  21320219.76600  21320219.42900
       191.00000       124.00000
 -16151821.05308 -12585830.31007  21594401.13000  21594401.17400  21594400.10300
       204.00000        85.00000
 -10550760.94206  -8221372.42806  23041196.72500  23041197.05000  23041198.17000
        27.00000        24.00000
  -1140931.65205   -889048.04806  24377000.19500  24377000.42500  24377003.37700
         6.00000        11.00000
  -7146322.49006  -5568559.40406  23338888.01100  23338887.45900  23338889.29600
        30.00000        21.00000
  -1891439.26506  -1473850.58506  23872914.42400  23872913.52600  23872915.38800
        25.00000        17.00000
 -20851757.03709 -16248119.32108  20299154.03000  20299154.34300  20299154.22800
       322.00000       204.00000
  -4594426.96306  -3580071.51606  24166656.77600  24166657.69000  24166656.66300
        24.00000        19.00000
  -3549631.41805  -2765947.65505  24808424.27600  24808423.55200  24808426.04400
         7.00000         5.00000
 -27135195.46008 -21144304.77608  20334165.40600  20334165.01700  20334163.36000
       267.00000       232.00000
  -1116666.87506   -870130.61705  24639111.30100  24639111.91200  24639113.23600
        13.00000         8.00000
 04  8 27  0 16  0.0000000  0 11G29G18G15G17G 9G10G26G22G 8G21G 3
 -15496500.98208 -12075193.11208  21332331.66000  21332331.64400  21332331.40300
       190.00000       122.00000
 -16216776.68708 -12636445.06507  21582040.57600  21582040.42800  21582039.36400
       200.00000        84.00000
 -10652171.21306  -8300393.40706  23021900.71600  23021900.27900  23021900.71300
        31.00000        23.00000
  -1025877.24705   -799395.37506  24398894.23300  24398894.24600  24398897.82200
         9.00000        11.00000
  -7260962.42507  -5657889.13806  23317071.36300  23317071.90900  23317074.58600
        33.00000        25.00000
  -1800217.51006  -1402768.77106  23890271.85100  23890271.74600  23890274.68500
        21.00000        18.00000
 -20800299.64509 -16208022.66408  20308945.87700  20308946.33500  20308946.04800
       329.00000       195.00000
  -4683631.25706  -3649581.31306  24149681.36000  24149681.56400  24149682.07200
        24.00000        21.00000
  -3470877.87205  -2704581.30005  24823409.66200  24823409.50200  24823412.72800
         6.00000         6.00000
 -27156300.35008 -21160750.15808  20330148.89300  20330148.80900  20330147.20000
       268.00000       232.00000
  -1152764.66105   -898258.77305  24632242.14700  24632242.06900  24632244.37300
         7.00000         6.00000
 04  8 27  0 16 30.0000000  0 11G29G18G15G17G 9G10G26G22G 8G21G 3
 -15432542.48108 -12025355.33208  21344502.60900  21344502.41200  21344502.16800
       179.00000       117.00000
 -16281529.33208 -12686901.66207  21569718.21200  21569718.29500  21569717.24300
       207.00000        82.00000
 -10753367.77906  -8379247.85406  23002642.35100  23002642.35800  23002643.95600
        31.00000        27.00000
   -910698.28105   -709645.59505  24420812.13700  24420811.26500  24420815.38600
         8.00000        10.00000
  -7375449.66107  -5747099.90106  23295284.69300  23295285.15400  23295288.24100
        34.00000        26.00000
  -1708923.18506  -1331630.40506  23907645.70000  23907645.63500  23907648.00100
        27.00000        20.00000
 -20748361.27709 -16167551.22008  20318830.12000  20318830.13200  20318829.31400
       335.00000       187.00000
  -4772785.67006  -3719052.24406  24132717.22300  24132717.16300  24132715.97800
        29.00000        21.00000
  -3391738.28105  -2642914.12805  24838468.93000  24838469.04700  24838471.82100
         5.00000         5.00000
 -27176855.43808 -21176767.11508  20326237.69400  20326237.37700  20326235.67900
       269.00000       232.00000
  -1188361.71105   -925996.77005  24625467.99400  24625467.03000  24625470.43800
         7.00000         6.00000
 04  8 27  0 17  0.0000000  0 11G29G18G15G17G 9G10G26G22G 8G21G 3
 -15368249.89408 -11975257.22908  21356737.05400  21356736.89600  21356736.82600
       176.00000       116.00000
 -16346051.90808 -12737178.99307  21557440.96500  21557440.45500  21557439.13000
       219.00000        83.00000
 -10854321.63107  -8457913.17806  22983432.33700  22983432.17200  22983432.78500
        33.00000        26.00000
   -795370.62005   -619779.94905  24442757.90300  24442758.07000  24442761.74200
         8.00000         9.00000
  -7489754.70807  -5836168.70206  23273534.64800  23273534.13100  23273536.34700
        38.00000        27.00000
  -1617530.63406  -1260415.49206  23925037.41900  23925037.03100  23925038.73300
        25.00000        17.00000
 -20695918.06209 -16126686.38308  20328809.88500  20328809.83400  20328808.85900
       330.00000       184.00000
  -4861863.15906  -3788463.20906  24115765.96500  24115765.75400  24115764.74200
        23.00000        17.00000
  -3312188.80604  -2580927.57905  24853611.82200  24853609.93500  24853610.34400
         3.00000         4.00000
 -27196832.86008 -21192333.94308  20322435.96900  20322435.73500  20322434.15300
       267.00000       234.00000
  -1223430.53905   -953323.15205  24618795.20500  24618794.68500  24618796.69800
         4.00000         8.00000
 04  8 27  0 17 30.0000000  0 11G29G18G15G17G 9G10G26G22G 8G21G 3
 -15303625.08508 -11924900.24808  21369035.10900  21369034.73800  21369034.44100
       177.00000       116.00000
 -16410343.40908 -12787276.26607  21545205.96200  21545205.98100  21545205.00300
       221.00000        86.00000
 -10955030.05707  -8536387.27106  22964268.36800  22964268.13500  22964268.71000
        36.00000        27.00000
   -679896.25705   -529799.99505  24464732.30200  24464731.62900  24464735.76700
         8.00000         9.00000
  -7603874.27107  -5925092.91206  23251817.86300  23251817.38700  23251819.78500
        35.00000        24.00000
  -1526040.39206  -1189124.45906  23942447.46100  23942446.64700  23942448.92000
        20.00000        17.00000
 -20642972.28009 -16085429.94008  20338884.68100  20338884.89500  20338884.28000
       326.00000       188.00000
  -4950863.18906  -3857813.83106  24098829.86100  24098829.30500  24098828.12200
        21.00000        16.00000
  -3232231.74204  -2518623.41004  24868820.74400  24868823.20600  24868824.46000
         1.00000         3.00000
 -27216231.80808 -21207450.01508  20318744.69800  20318744.23200  20318742.67000
       259.00000       233.00000
  -1257970.23704   -980237.22205  24612222.67600  24612222.26200  24612223.12200
         3.00000         8.00000
 04  8 27  0 18  0.0000000  0 11G29G18G15G17G 9G10G26G22G 8G21G 3
 -15238681.27808 -11874294.70308  21381393.07700  21381393.10800  21381392.76900
       177.00000       116.00000
 -16474414.01008 -12837201.39807  21533013.80000  21533013.56900  21533012.46400
       227.00000        85.00000
 -11055501.40707  -8614676.61706  22945149.12000  22945148.74400  22945150.15100
        33.00000        30.00000
   -564288.10705   -439715.80205  24486732.58200  24486731.11600  24486735.80600
         8.00000         9.00000
  -7717815.85907  -6013878.50906  23230135.41000  23230135.11600  23230137.26000
        38.00000        22.00000
  -1434463.86506  -1117766.20806  23959872.86300  23959872.13500  23959875.68000
        21.00000        18.00000
 -20589537.38209 -16043792.37608  20349052.76400  20349053.13400  20349052.81600
       324.00000       194.00000
  -5039795.94006  -3927112.04406  24081907.47500  24081906.88300  24081904.76500
        22.00000        16.00000
  -3151881.03700  -2456012.53405  24884111.60400  24884110.88000  24884114.50400
          .00000         4.00000
 -27235061.32208 -21222122.36908  20315161.15500  20315160.92600  20315159.54600
       261.00000       232.00000
  -1291990.55005  -1006746.57105  24605749.08400  24605748.25000  24605748.55400
         4.00000         6.00000
 04  8 27  0 18 30.0000000  0 11G29G18G15G17G 9G10G26G22G 8G21G 3
 -15173414.86908 -11823437.78008  21393813.17400  21393813.21400  21393812.73700
       183.00000       117.00000
 -16538257.37108 -12886949.46207  21520864.87000  21520864.84700  21520863.44400
       228.00000        85.00000
 -11155727.66707  -8692774.97706  22926077.40600  22926076.49000  22926077.56600
        34.00000        29.00000
   -448542.80505   -349524.71305  24508757.24000  24508757.18900  24508761.33600
         8.00000         9.00000
  -7831570.97106  -6102518.76606  23208486.04600  23208487.05200  23208491.12100
        27.00000        28.00000
  -1342796.54506  -1046337.18906  23977317.19500  23977317.03000  23977319.99100
        24.00000        18.00000
 -20535610.09309 -16001771.12408  20359315.14200  20359315.18200  20359315.05000
       318.00000       199.00000
  -5128655.27006  -3996353.02206  24064997.24500  24064996.60400  24064996.52200
        16.00000        19.00000
  -3071133.81000  -2393092.69504  24899478.54600  24899478.30800  24899479.44000
          .00000         3.00000
 -27253315.17608 -21236346.16208  20311687.69600  20311687.40200  20311685.96000
       261.00000       233.00000
  -1325485.12405  -1032846.22005  24599375.52100  24599375.84600  24599374.48000
         9.00000         7.00000
 04  8 27  0 19  0.0000000  0 11G29G18G15G17G 9G10G26G22G 8G21G 3
 -15107847.30408 -11772346.18908  21406290.44600  21406290.23300  21406289.77500
       184.00000       114.00000
 -16601891.67608 -12936534.61807  21508755.54400  21508755.42800  21508754.25700
       221.00000        88.00000
 -11255725.50507  -8770695.33806  22907047.67900  22907047.41000  22907048.94800
        32.00000        28.00000
   -332681.72105   -259243.41605  24530803.80800  24530804.49400  24530808.96100
         7.00000         8.00000
  -7945155.60407  -6191026.20206  23186874.05700  23186873.97700  23186876.04400
        38.00000        28.00000
  -1251058.40006   -974853.00306  23994775.64300  23994774.17300  23994777.05000
        21.00000        19.00000
 -20481212.13409 -15959383.11408  20369666.85800  20369666.84800  20369666.55800
       318.00000       193.00000
  -5217460.03106  -4065551.45906  24048099.01900  24048098.43900  24048096.94600
        20.00000        17.00000
  -2990011.86804  -2329880.79804  24914913.57100  24914915.76000  24914917.63000
         2.00000         3.00000
 -27271011.13608 -21250135.23308  20308320.65000  20308320.20100  20308318.66200
       257.00000       236.00000
  -1358472.64205  -1058550.78105  24593098.00700  24593097.56500  24593098.73400
         9.00000         8.00000
 04  8 27  0 19 30.0000000  0 11G29G18G15G17G 9G10G26G22G 8G21G 3
 -15041948.13008 -11720996.19408  21418830.33300  21418830.34900  21418829.90100
       181.00000       112.00000
 -16665283.60208 -12985930.90207  21496692.54400  21496692.36400  21496691.29000
       220.00000        88.00000
 -11355459.77206  -8848410.33306  22888067.99400  22888068.23900  22888069.80700
        31.00000        28.00000
   -216674.37505   -168848.13405  24552881.56600  24552880.90100  24552884.38200
         7.00000         9.00000
  -8058534.20907  -6279373.06406  23165299.73600  23165299.65400  23165301.03600
        47.00000        29.00000
  -1159217.62306   -903288.83706  24012251.07700  24012250.80100  24012253.50600
        21.00000        16.00000
 -20426313.44408 -15916604.92008  20380113.67400  20380113.62000  20380113.29500
       314.00000       188.00000
  -5306177.19606  -4134681.68806  24031215.66800  24031215.42100  24031214.02500
        22.00000        16.00000
  -2908484.64604  -2266353.13204  24930431.16300  24930429.45900  24930432.73000
         3.00000         3.00000
 -27288115.50308 -21263463.31808  20305065.26000  20305065.11300  20305063.65400
       257.00000       234.00000
  -1390919.44805  -1083834.04205  24586924.34000  24586923.43100  24586924.00600
         9.00000         9.00000
 04  8 27  0 20  0.0000000  0 11G29G18G15G17G 9G10G26G22G 8G21G 3
 -14975749.11308 -11669412.56308  21431427.52800  21431427.51500  21431427.26600
       178.00000       112.00000
 -16728461.97808 -13035160.79407  21484670.05200  21484669.99800  21484668.65600
       226.00000        86.00000
 -11454957.57506  -8925941.05606  22869135.02300  22869134.34100  22869135.66200
        30.00000        25.00000
   -100552.57405    -78363.66605  24574978.65000  24574977.77300  24574981.02200
         6.00000         8.00000
  -8171732.82407  -6367579.70306  23143757.21900  23143757.67100  23143759.89700
        44.00000        29.00000
  -1067304.31106   -831668.14206  24029741.27600  24029741.39600  24029744.24200
        22.00000        17.00000
 -20370945.99108 -15873461.46708  20390649.70900  20390649.76700  20390649.26800
       314.00000       185.00000
  -5394835.66906  -4203766.14506  24014344.09700  24014344.00300  24014343.57100
        21.00000        18.00000
  -2826585.21905  -2202535.43504  24946015.48800  24946015.46100  24946018.04300
         4.00000         3.00000
 -27304656.89108 -21276352.72608  20301917.77400  20301917.53000  20301916.00200
       259.00000       234.00000
  -1422854.13205  -1108718.23005  24580846.11200  24580845.89300  24580847.87200
        10.00000         9.00000
 04  8 27  0 20 30.0000000  0 11G29G18G15G17G 9G10G26G22G 8G21G 3
 -14909236.01708 -11617584.19108  21444084.90000  21444084.76900  21444084.24700
       182.00000       108.00000
 -16791409.65108 -13084210.90907  21472691.28300  21472691.31300  21472690.04100
       229.00000        87.00000
 -11554199.99507  -9003272.80406  22850249.52300  22850249.47300  22850250.29700
        35.00000        26.00000
     15697.81004     12220.99905  24597099.11200  24597098.79000  24597102.41500
         3.00000         7.00000
  -8284731.90607  -6455630.84206  23122252.94400  23122253.65000  23122256.63100
        34.00000        27.00000
   -975302.86006   -759978.76906  24047248.50700  24047248.72000  24047251.41600
        20.00000        17.00000
 -20315096.01308 -15829942.01808  20401277.56100  20401277.70100  20401277.15800
       311.00000       184.00000
  -5483418.42806  -4272791.62906  23997488.29600  23997488.07300  23997486.56000
        24.00000        18.00000
  -2744299.88905  -2138417.03105  24961674.31300  24961674.49300  24961676.04000
         6.00000         4.00000
 -27320617.80908 -21288789.81908  20298880.55700  20298880.24700  20298878.62200
       259.00000       235.00000
  -1454259.80705  -1133190.21305  24574870.34700  24574869.56500  24574871.70300
        10.00000         9.00000
 04  8 27  0 21  0.0000000  0 11G29G18G15G17G 9G10G26G22G 8G21G 3
 -14842394.40808 -11565499.83508  21456804.32000  21456804.31600  21456803.69000
       182.00000       108.00000
 -16854109.37608 -13133067.82007  21460760.60200  21460760.24300  21460758.75400
       238.00000        88.00000
 -11653167.63307  -9080390.43006  22831416.52900  22831416.31700  22831417.06200
        38.00000        25.00000
    132091.43304    102917.30505  24619248.16300  24619248.65900  24619251.41000
         2.00000         7.00000
  -8397511.48007  -6543510.95206  23100792.74600  23100792.94100  23100795.31000
        38.00000        24.00000
   -883197.43006   -688208.38806  24064776.62900  24064776.01300  24064778.31100
        21.00000        16.00000
 -20258749.45308 -15786035.62208  20412000.12200  20412000.08300  20411999.71000
       304.00000       186.00000
  -5571908.43706  -4341744.82406  23980649.02700  23980649.19000  23980646.99800
        29.00000        16.00000
  -2661614.45004  -2073986.89405  24977411.27700  24977409.07700  24977411.16500
         2.00000         4.00000
 -27335980.37808 -21300760.66408  20295956.98000  20295956.86400  20295955.43700
       261.00000       240.00000
  -1485119.07706  -1157236.44105  24568997.43600  24568997.64500  24568999.47200
        11.00000         8.00000
 04  8 27  0 21 30.0000000  0 11G29G18G15G17G 9G10G26G22G 8G21G 3
 -14775270.31408 -11513195.36408  21469577.86500  21469577.69500  21469577.15000
       180.00000       110.00000
 -16916604.10708 -13181765.01107  21448867.97900  21448867.78400  21448866.23800
       240.00000        87.00000
 -11751902.02407  -9157326.31306  22812628.73900  22812628.00500  22812629.23700
        40.00000        28.00000
    248581.89004    193689.03205  24641416.78500  24641416.28300  24641420.20000
         3.00000         6.00000
  -8510112.32007  -6631251.81306  23079366.49900  23079366.28100  23079368.26700
        45.00000        28.00000
   -791032.69706   -616391.76506  24082315.71400  24082314.96200  24082316.91600
        22.00000        16.00000
 -20201952.65108 -15741778.38308  20422808.21800  20422808.27300  20422807.92100
       302.00000       189.00000
  -5660349.14806  -4410659.61206  23963819.96300  23963819.67200  23963817.05000
        28.00000        15.00000
  -2578575.59104  -2009281.31304  24993211.57500  24993210.82200  24993211.56200
         1.00000         3.00000
 -27350787.71508 -21312298.86008  20293139.54600  20293139.28300  20293137.64500
       258.00000       241.00000
  -1515475.20606  -1180890.58105  24563222.16800  24563221.64900  24563222.87500
        12.00000         7.00000
 04  8 27  0 22  0.0000000  0 11G29G18G15G17G 9G10G26G22G 8G21G 3
 -14707840.78108 -11460652.88508  21482409.22800  21482409.13200  21482408.90700
       179.00000       113.00000
 -16978867.82108 -13230282.17207  21437019.22000  21437019.10900  21437017.96800
       230.00000        89.00000
 -11850375.37407  -9234058.78906  22793888.96800  22793888.86200  22793890.26800
        41.00000        28.00000
    365192.43404    284554.34205  24663605.97100  24663606.40400  24663610.58200
         3.00000         7.00000
  -8622506.15307  -6718831.33406  23057978.65200  23057978.40100  23057980.29900
        41.00000        30.00000
   -698784.06806   -544509.79306  24099869.09500  24099868.34900  24099871.54000
        18.00000        17.00000
 -20144683.03408 -15697152.72408  20433706.27400  20433706.30600  20433706.16700
       308.00000       191.00000
  -5748714.77306  -4479515.91006  23947004.21800  23947003.62700  23947002.13700
        25.00000        18.00000
  -2495161.07400  -1944283.05905  25009084.76900  25009084.27300  25009085.95400
          .00000         4.00000
 -27365013.85108 -21323384.17608  20290432.17300  20290431.86700  20290430.45100
       258.00000       240.00000
  -1545302.23306  -1204132.42805  24557546.61700  24557545.97400  24557545.90500
        12.00000         5.00000
 04  8 27  0 22 30.0000000  0 11G29G18G15G17G 9G10G26G22G 8G21G 3
 -14640097.80908 -11407866.16808  21495300.29600  21495300.09800  21495300.00400
       174.00000       111.00000
 -17040889.70808 -13278610.90607  21425217.06700  21425216.82000  21425215.58600
       229.00000        92.00000
 -11948574.96907  -9310577.94406  22775202.56000  22775201.94800  22775203.33300
        37.00000        26.00000
    481930.66504    375519.17505  24685821.04200  24685821.99500  24685825.45300
         2.00000         6.00000
  -8734679.65207  -6806239.16607  23036632.09400  23036632.19400  23036634.57200
        49.00000        33.00000
   -606442.53506   -472555.40606  24117441.94300  24117441.02700  24117443.15800
        21.00000        14.00000
 -20086933.13908 -15652152.82608  20444695.54600  20444695.69000  20444695.49500
       310.00000       186.00000
  -5836994.69606  -4548305.40706  23930205.97100  23930205.25800  23930203.08000
        19.00000        18.00000
  -2411363.67100  -1878986.46205  25025032.35500  25025032.09300  25025032.18200
          .00000         4.00000
 -27378647.26008 -21334007.62108  20287838.04900  20287837.70100  20287836.17300
       259.00000       242.00000
  -1574589.25206  -1226953.49505  24551973.01300  24551972.29500  24551972.41600
        11.00000         6.00000
 04  8 27  0 23  0.0000000  0 11G29G18G15G17G 9G10G26G22G 8G21G 3
 -14572086.58408 -11354870.42408  21508241.84300  21508241.76100  21508241.87700
       164.00000       109.00000
 -17102711.65108 -13326783.83807  21413452.61300  21413452.36000  21413451.36600
       224.00000        94.00000
 -12046541.27307  -9386915.30506  22756560.36600  22756559.64500  22756560.71900
        34.00000        25.00000
    598751.78304    466548.57105  24708050.43900  24708050.67200  24708055.61800
         1.00000         5.00000
  -8846672.47407  -6893506.24006  23015319.45800  23015319.68400  23015322.86400
        41.00000        29.00000
   -514051.74106   -400562.66206  24135022.31100  24135022.62100  24135025.39100
        19.00000        15.00000
 -20028748.30108 -15606814.00508  20455767.42600  20455767.84000  20455767.62700
       311.00000       182.00000
  -5925231.40806  -4617061.21406  23913413.36900  23913413.85900  23913412.86900
        23.00000        17.00000
  -2327228.59400  -1813426.77304  25041038.66500  25041041.05200  25041042.64900
        -2.00000         2.00000
 -27391729.82508 -21344201.84408  20285348.48100  20285348.15300  20285346.67900
       256.00000       245.00000
  -1603378.75005  -1249386.88205  24546494.21800  24546493.27100  24546494.12700
         7.00000         6.00000
 04  8 27  0 23 30.0000000  0 11G29G18G15G17G 9G10G26G22G 8G21G 3
 -14503732.83808 -11301607.78708  21521249.42200  21521249.38000  21521249.16000
       169.00000       105.00000
 -17164256.72908 -13374741.03007  21401740.83100  21401740.62100  21401739.74200
       218.00000        96.00000
 -12144195.35507  -9463009.38006  22737976.99600  22737976.26300  22737978.01600
        32.00000        28.00000
    715729.65200    557700.11505  24730312.51500  24730311.01800  24730315.50200
          .00000         4.00000
  -8958405.06507  -6980570.53706  22994059.72200  22994059.31800  22994059.85900
        53.00000        25.00000
   -421535.94206   -328472.50406  24152628.65800  24152627.50100  24152630.16000
        18.00000        16.00000
 -19970054.81608 -15561078.84208  20466936.94500  20466936.92800  20466936.50200
       308.00000       177.00000
  -6013348.00906  -4685723.46306  23896645.03000  23896645.34500  23896643.88600
        23.00000        15.00000
  -2242682.32000  -1747546.74104  25057130.80100  25057130.48400  25057127.05000
        -1.00000         2.00000
 -27404185.00208 -21353907.18608  20282977.85000  20282977.81700  20282976.60200
       252.00000       243.00000
  -1631593.85705  -1271372.71505  24541124.57500  24541124.05100  24541123.87300
         7.00000         6.00000
 04  8 27  0 24  0.0000000  0 11G29G18G15G17G 9G10G26G22G 8G21G 3
 -14435090.98008 -11248120.64108  21534311.72800  21534311.54600  21534311.19700
       172.00000       101.00000
 -17225575.98508 -13422522.26107  21390071.86800  21390071.89100  21390070.93100
       230.00000        95.00000
 -12241586.80407  -9538898.81906  22719444.13500  22719443.72900  22719444.49800
        35.00000        26.00000
    832810.04300    648931.55105  24752592.03400  24752590.85200  24752595.62200
          .00000         4.00000
  -9069926.42707  -7067470.23007  22972837.15100  22972836.84200  22972838.96100
        49.00000        32.00000
   -328947.99506   -256326.14806  24170246.91600  24170246.55300  24170249.06500
        20.00000        17.00000
 -19910907.43108 -15514989.98708  20478191.94100  20478192.28700  20478191.89700
       310.00000       176.00000
  -6101396.22206  -4754332.40406  23879890.02700  23879889.96900  23879888.64400
        19.00000        16.00000
  -2157779.54200  -1681388.68904  25073287.69300  25073285.38400  25073286.98000
        -1.00000         2.00000
 -27416063.18408 -21363162.92108  20280717.98600  20280717.62100  20280716.22200
       251.00000       244.00000
  -1659285.90005  -1292950.93805  24535854.17900  24535853.58000  24535856.01600
         6.00000         8.00000
 04  8 27  0 24 30.0000000  0 11G29G18G15G17G 9G10G26G22G 8G21G 3
 -14366154.77808 -11194404.14007  21547429.55100  21547429.74100  21547429.19800
       168.00000        99.00000
 -17286660.46608 -13470120.55507  21378448.19600  21378447.91100  21378447.10600
       230.00000        97.00000
 -12338704.61607  -9614575.01606  22700962.95700  22700962.56800  22700964.07300
        38.00000        28.00000
    949999.20000    740247.74104  24774892.47800  24774889.88300  24774895.40200
        -2.00000         2.00000
  -9181224.93507  -7154196.25706  22951656.93600  22951656.84200  22951659.32900
        48.00000        30.00000
   -236280.21406   -184117.55506  24187880.41700  24187880.02900  24187882.95600
        18.00000        16.00000
 -19851300.17008 -15468542.78508  20489535.16700  20489535.29900  20489534.82000
       309.00000       175.00000
  -6189366.73306  -4822880.79706  23863149.76700  23863149.26100  23863147.62800
        19.00000        14.00000
  -2072515.28600  -1614949.20804  25089509.82800  25089508.49900  25089510.75500
        -2.00000         2.00000
 -27427355.41808 -21371962.07208  20278568.75600  20278568.55700  20278567.29100
       246.00000       243.00000
  -1686445.98505  -1314114.65305  24530686.15600  24530685.75000  24530687.62900
         7.00000         7.00000
 04  8 27  0 25  0.0000000  0 10G29G18G15G17G 9G10G26G22G21G 3
 -14296921.91608 -11140456.47707  21560604.09000  21560604.24500  21560603.89300
       164.00000       100.00000
 -17347505.01908 -13517531.88507  21366869.94300  21366869.67900  21366868.79300
       238.00000        97.00000
 -12435542.13007  -9690032.82106  22682536.70300  22682536.12300  22682536.85700
        46.00000        29.00000
   1067299.15600    831650.25204  24797212.95200  24797210.69700  24797217.14700
        -2.00000         1.00000
  -9292293.05107  -7240742.77306  22930520.74300  22930521.53200  22930523.06500
        50.00000        28.00000
   -143529.12106   -111844.03906  24205530.44200  24205530.21900  24205532.96600
        19.00000        14.00000
 -19791231.47008 -15421736.01508  20500965.98200  20500966.04200  20500965.51900
       306.00000       174.00000
  -6277255.00306  -4891365.14106  23846425.45100  23846425.08900  23846423.31800
        21.00000        14.00000
 -27438056.90608 -21380300.90108  20276532.67300  20276532.31400  20276531.10200
       247.00000       245.00000
  -1713069.13305  -1334859.98505  24525621.06500  24525620.72800  24525622.41000
         9.00000         8.00000
 04  8 27  0 25 30.0000000  0  9G29G18G15G 9G10G26G22G21G 3
 -14227405.38208 -11086287.77307  21573832.92900  21573832.85500  21573832.57700
       161.00000       100.00000
 -17408119.56908 -13564764.00107  21355335.56400  21355335.19600  21355334.24200
       241.00000        98.00000
 -12532107.23307  -9765278.33306  22664160.39900  22664159.62600  22664160.64800
        42.00000        28.00000
  -9403138.26207  -7327115.62006  22909428.63900  22909427.94000  22909430.17000
        48.00000        31.00000
    -50706.09506    -39514.45906  24223194.25500  24223193.59800  24223197.19800
        17.00000        17.00000
 -19730714.57908 -15374580.00708  20512481.53000  20512481.93300  20512481.61600
       301.00000       174.00000
  -6365071.20606  -4959793.32706  23829714.32600  23829714.14200  23829712.34100
        28.00000        15.00000
 -27448176.74508 -21388186.49908  20274606.88000  20274606.53400  20274605.21800
       244.00000       243.00000
  -1739165.51706  -1355194.84405  24520655.43600  24520654.98200  24520656.16400
        12.00000         9.00000
 04  8 27  0 26  0.0000000  0 10G29G18G15G 9G10G26G22G21G 3G 8
 -14157592.14508 -11031887.86908  21587117.84400  21587117.85300  21587117.74200
       155.00000       101.00000
 -17468487.85808 -13611804.22207  21343847.75700  21343847.38700  21343846.38200
       236.00000        98.00000
 -12628382.16407  -9840297.75406  22645839.48000  22645839.06600  22645839.84000
        45.00000        27.00000
  -9513742.21407  -7413300.42007  22888381.09300  22888381.38800  22888383.22100
        49.00000        33.00000
     42203.30606     32882.38606  24240875.28400  24240874.34700  24240877.19800
        17.00000        18.00000
 -19669736.72208 -15327064.80508  20524084.86800  20524085.31900  20524085.42400
       289.00000       174.00000
  -6452799.37106  -5028152.88206  23813020.09000  23813019.60800  23813018.69900
        28.00000        17.00000
 -27457699.51608 -21395606.85308  20272794.92100  20272794.52700  20272793.18400
       247.00000       246.00000
  -1764719.19906  -1375106.82805  24515791.78800  24515791.71600  24515791.85300
        12.00000         5.00000
     57593.83400     44878.36504  25138596.30600  25138596.94200  25138596.77700
          .00000         1.00000
 04  8 27  0 26 30.0000000  0  9G29G18G15G 9G10G26G22G21G 3
 -14087506.29908 -10977275.54408  21600454.85000  21600454.83200  21600454.72200
       152.00000       103.00000
 -17528631.23908 -13658669.18608  21332402.47400  21332402.57600  21332401.53900
       244.00000       103.00000
 -12724386.46607  -9915106.29206  22627570.68200  22627570.30900  22627570.89800
        48.00000        27.00000
  -9624123.50107  -7499311.74206  22867376.61000  22867376.21400  22867378.37000
        54.00000        31.00000
    135176.33006    105328.81906  24258565.48200  24258565.11600  24258569.13000
        13.00000        16.00000
 -19608322.56808 -15279209.63108  20535771.51900  20535771.90000  20535772.01000
       276.00000       171.00000
  -6540460.91207  -5096460.54406  23796339.30300  23796339.17000  23796337.66900
        39.00000        21.00000
 -27466645.85208 -21402578.03908  20271092.50400  20271092.11300  20271090.79600
       252.00000       246.00000
  -1789751.78905  -1394612.77605  24511027.31000  24511027.16400  24511028.86200
         7.00000         7.00000
 04  8 27  0 27  0.0000000  0 10G29G18G15G 9G10G26G22G21G 3G 8
 -14017140.40508 -10922445.01508  21613844.82400  21613844.97600  21613844.96400
       151.00000       102.00000
 -17588539.42208 -13705350.87808  21321002.51300  21321002.30200  21321001.46500
       240.00000       107.00000
 -12820107.62507  -9989694.19306  22609355.69800  22609355.21700  22609355.68100
        49.00000        27.00000
  -9734269.55507  -7585139.79906  22846414.88800  22846415.22100  22846417.59600
        49.00000        30.00000
    228221.58606    177831.56706  24276273.45500  24276272.53100  24276275.42100
        18.00000        17.00000
 -19546465.24408 -15231009.13508  20547543.30200  20547543.24900  20547543.11700
       282.00000       171.00000
  -6628045.72507  -5164708.39306  23779671.38600  23779672.02600  23779670.93900
        38.00000        22.00000
 -27475005.88208 -21409092.36108  20269501.53000  20269501.09200  20269499.88800
       251.00000       246.00000
  -1814253.17205  -1413704.77405  24506365.37900  24506365.61000  24506367.22100
         5.00000         7.00000
     29042.60500     22631.33604  25171649.84500  25171650.97000  25171651.01500
          .00000         2.00000
 04  8 27  0 27 30.0000000  0 10G29G18G15G 9G10G26G22G21G 3G 8
 -13946487.70308 -10867390.98507  21627289.66800  21627289.93100  21627289.56600
       152.00000        99.00000
 -17648202.71808 -13751841.75108  21309648.97500  21309648.91100  21309648.04500
       243.00000       110.00000
 -12915534.45107 -10064052.75107  22591197.32100  22591196.45100  22591197.18600
        50.00000        33.00000
  -9844168.27007  -7670775.10606  22825501.92900  22825502.31500  22825504.28800
        43.00000        29.00000
    321347.22006    250396.94006  24293993.23000  24293993.26700  24293996.37300
        16.00000        16.00000
 -19484158.40808 -15182458.37308  20559400.10000  20559400.19200  20559399.69500
       291.00000       170.00000
  -6715544.43007  -5232889.15106  23763022.37700  23763022.10400  23763020.41000
        39.00000        22.00000
 -27482769.51108 -21415141.95708  20268024.22000  20268023.94500  20268022.59900
       258.00000       249.00000
  -1838214.41104  -1432375.89005  24501805.96800  24501805.15200  24501805.56500
         3.00000         7.00000
    116413.51500     90712.44304  25188277.57400  25188275.46100  25188276.44800
        -2.00000         2.00000
 04  8 27  0 28  0.0000000  0  9G29G18G15G 9G10G26G22G21G 3
 -13875571.84608 -10812131.89507  21640784.91100  21640784.66000  21640784.60900
       150.00000        99.00000
 -17707641.45908 -13798157.64608  21298338.39700  21298338.17300  21298337.02700
       249.00000       110.00000
 -13010685.58907 -10138196.46007  22573089.53300  22573089.32600  22573090.59500
        50.00000        36.00000
  -9953837.51607  -7756231.59806  22804634.50200  22804634.14300  22804634.85800
        56.00000        31.00000
    414531.45406    323007.95706  24311725.26400  24311725.13900  24311728.14300
        11.00000        15.00000
 -19421425.99308 -15133575.99108  20571337.63200  20571337.72000  20571337.33000
       289.00000       169.00000
  -6802977.87207  -5301019.03806  23746383.65200  23746383.53500  23746382.23100
        37.00000        24.00000
 -27489957.68808 -21420743.14808  20266656.52200  20266656.18400  20266654.68200
       257.00000       250.00000
  -1861656.32105  -1450642.32105  24497346.06200  24497345.60900  24497345.76900
         6.00000         7.00000
 04  8 27  0 28 30.0000000  0  9G29G18G15G 9G10G26G22G21G 3
 -13804351.59208 -10756635.62107  21654337.95000  21654337.60900  21654337.37100
       152.00000        99.00000
 -17766811.96208 -13844264.51808  21287078.44600  21287078.25300  21287077.32000
       253.00000       111.00000
 -13105515.44307 -10212089.83907  22555044.37000  22555043.93800  22555044.90900
        51.00000        39.00000
 -10063231.06707  -7841473.25307  22783816.23000  22783816.13700  22783818.26200
        53.00000        34.00000
    507816.46806    395697.51106  24329477.74800  24329477.38200  24329480.05000
        12.00000        14.00000
 -19358227.63908 -15084330.53508  20583363.68400  20583363.73000  20583363.70400
       284.00000       167.00000
  -6890302.49107  -5369064.12106  23729766.30300  23729765.98900  23729765.05900
        34.00000        26.00000
 -27496526.27008 -21425861.53508  20265406.46300  20265406.15200  20265404.65200
       256.00000       248.00000
  -1884535.16405  -1468469.96805  24492992.61600  24492992.24100  24492992.99600
         8.00000         8.00000
 04  8 27  0 29  0.0000000  0  9G29G18G15G 9G10G26G22G21G 3
 -13732830.55908 -10700904.96407  21667948.22400  21667947.87500  21667947.27500
       155.00000        97.00000
 -17825714.15808 -13890162.32408  21275869.78500  21275869.73600  21275868.35800
       263.00000       107.00000
 -13200022.75107 -10285731.87207  22537059.51000  22537059.64300  22537060.78200
        53.00000        39.00000
 -10172346.87707  -7926498.49806  22763052.09600  22763051.96700  22763053.77500
        51.00000        30.00000
    601200.61906    468464.33406  24347248.31600  24347248.00100  24347250.56300
        15.00000        14.00000
 -19294566.90908 -15034724.78708  20595477.71800  20595477.94700  20595478.00300
       281.00000       167.00000
  -6977518.44907  -5437024.58006  23713169.04500  23713169.01500  23713167.40100
        34.00000        23.00000
 -27502475.71408 -21430497.47808  20264274.22400  20264274.11700  20264272.60000
       259.00000       250.00000
  -1906851.76005  -1485859.52705  24488745.87200  24488745.39200  24488746.54700
         9.00000         8.00000
 04  8 27  0 29 30.0000000  0  9G29G18G15G 9G10G26G22G21G 3
 -13661092.55708 -10645005.24307  21681599.31600  21681599.15400  21681598.60300
       149.00000        97.00000
 -17884429.17708 -13935914.28308  21264696.63200  21264696.55500  21264695.23800
       260.00000       106.00000
 -13294286.49307 -10359184.12107  22519122.47800  22519121.64600  22519122.74400
        49.00000        36.00000
 -10281263.52607  -8011368.56307  22742326.40500  22742326.03500  22742328.06500
        53.00000        32.00000
    694601.31006    541244.00906  24365022.68300  24365022.07900  24365024.66900
        13.00000        16.00000
 -19230528.25908 -14984824.56008  20607664.14000  20607664.19200  20607664.04500
       280.00000       166.00000
  -7064707.29607  -5504963.88306  23696577.63100  23696577.52400  23696576.39900
        32.00000        27.00000
 -27507887.33008 -21434714.33708  20263244.28300  20263244.05000  20263242.80000
       249.00000       250.00000
  -1928687.59506  -1502874.48605  24484589.19700  24484589.73700  24484591.39300
        11.00000        10.00000
 04  8 27  0 30  0.0000000  0  9G15G 9G29G18G10G26G22G21G 3
 -13388210.30007 -10432371.48807  22501248.84400  22501248.62800  22501249.54500
        54.00000        37.00000
 -10389884.12107  -8096007.93407  22721657.70600  22721657.16900  22721657.91000
        62.00000        34.00000
 -13589045.86508 -10588864.99607  21695309.04400  21695309.02100  21695308.65300
       145.00000        94.00000
 -17942862.33208 -13981446.60008  21253576.98300  21253576.98200  21253575.81200
       257.00000       106.00000
    788111.39906    614108.93006  24382816.63200  24382816.32900  24382819.08100
        13.00000        15.00000
 -19166020.75808 -14934558.99408  20619939.56500  20619939.69700  20619939.37800
       286.00000       163.00000
  -7151774.53807  -5572808.43606  23680009.02500  23680009.21900  23680008.15200
        32.00000        28.00000
 -27512666.27408 -21438438.20808  20262335.13300  20262334.78300  20262333.40400
       250.00000       248.00000
  -1949948.64405  -1519441.58405  24480542.56500  24480542.92700  24480545.22100
         6.00000         8.00000
 04  8 27  0 30 30.0000000  0  9G15G 9G29G18G10G26G22G21G 3
 -13481838.80207 -10505328.74307  22483433.01200  22483432.21500  22483432.68300
        56.00000        36.00000
 -10498252.72207  -8180450.93607  22701033.16000  22701033.85800  22701036.60700
        54.00000        38.00000
 -13516739.95708 -10532522.75807  21709068.65600  21709068.65600  21709067.75100
       149.00000        92.00000
 -18001059.93608 -14026795.37408  21242502.60700  21242502.48400  21242501.15500
       259.00000       108.00000
    881683.09606    687021.87006  24400620.80500  24400622.35600  24400624.38500
        15.00000        12.00000
 -19101093.94808 -14883966.68608  20632295.07800  20632294.94000  20632294.65300
       285.00000       163.00000
  -7238766.91607  -5640594.67106  23663455.20300  23663455.36300  23663453.45000
        33.00000        24.00000
 -27516859.37508 -21441705.57408  20261537.32800  20261536.97100  20261535.45900
       251.00000       248.00000
  -1970681.67505  -1535597.25305  24476597.41600  24476598.65400  24476600.08000
         6.00000        10.00000
 04  8 27  0 31  0.0000000  0  9G15G 9G29G18G10G26G22G21G 3
 -13575162.45507 -10578048.45607  22465672.90500  22465672.56300  22465673.55300
        56.00000        33.00000
 -10606359.11407  -8264689.63407  22680461.79500  22680461.89500  22680463.79100
        57.00000        35.00000
 -13444169.99008 -10475974.75807  21722877.49400  21722877.90600  21722877.60100
       148.00000        89.00000
 -18059014.36808 -14071954.65808  21231474.46100  21231474.01700  21231472.95500
       254.00000       112.00000
    975322.42606    759987.53806  24418442.66300  24418442.23100  24418443.29300
        15.00000        11.00000
 -19035743.83308 -14833044.53008  20644730.34900  20644730.55100  20644730.34800
       284.00000       162.00000
  -7325676.84006  -5708316.63306  23646916.74700  23646916.49100  23646914.99300
        25.00000        24.00000
 -27520459.38808 -21444510.79308  20260852.29400  20260851.95300  20260850.48100
       252.00000       247.00000
  -1990879.47305  -1551335.81206  24472755.34700  24472755.15700  24472756.55700
         9.00000        11.00000
 04  8 27  0 31 30.0000000  0  9G15G 9G29G18G10G26G22G21G 3
 -13668183.78807 -10650532.62107  22447972.17100  22447971.27800  22447972.33800
        54.00000        32.00000
 -10714205.17607  -8348725.47607  22659940.47600  22659940.52900  22659942.23600
        69.00000        40.00000
 -13371343.14608 -10419226.59007  21736736.45200  21736736.23700  21736736.32700
       145.00000        89.00000
 -18116729.74108 -14116927.66608  21220491.63200  21220491.34400  21220490.12000
       258.00000       118.00000
   1069023.63506    833001.38506  24436273.54200  24436272.70400  24436274.54500
        14.00000        12.00000
 -18969977.87208 -14781798.34008  20657244.90800  20657245.39100  20657244.95500
       283.00000       158.00000
  -7412508.91407  -5775977.93606  23630393.03600  23630393.22400  23630391.77200
        32.00000        26.00000
 -27523470.43908 -21446857.07908  20260279.37200  20260278.97400  20260277.34100
       253.00000       244.00000
  -2010546.85305  -1566661.08805  24469012.87200  24469012.88400  24469013.33800
         7.00000         9.00000
 04  8 27  0 32  0.0000000  0  9G15G 9G29G18G10G26G22G21G 3
 -13760874.95907 -10722759.49506  22430333.30800  22430333.25300  22430333.37400
        57.00000        30.00000
 -10821762.42707  -8432536.26607  22639473.07500  22639472.52200  22639474.21200
        65.00000        37.00000
 -13298236.40308 -10362260.31507  21750648.45800  21750648.22100  21750647.88800
       147.00000        88.00000
 -18174180.29008 -14161694.30808  21209558.80800  21209558.72800  21209557.71000
       263.00000       120.00000
   1162811.13806    906082.46706  24454120.82200  24454119.94600  24454122.27900
        14.00000        13.00000
 -18903773.73008 -14730210.70508  20669843.46100  20669843.63400  20669843.27600
       279.00000       156.00000
  -7499237.31606  -5843558.46706  23613889.12400  23613889.55600  23613887.86400
        31.00000        26.00000
 -27525867.18608 -21448724.68708  20259822.91000  20259822.75200  20259821.42300
       252.00000       246.00000
  -2029658.29705  -1581553.18005  24465376.75000  24465375.75900  24465376.69900
        10.00000         9.00000
 04  8 27  0 32 30.0000000  0  9G15G 9G29G18G10G26G22G21G 3
 -13853240.72007 -10794732.81606  22412756.72300  22412756.16200  22412756.89100
        51.00000        30.00000
 -10929034.86807  -8516125.13907  22619058.43900  22619059.02100  22619060.30600
        68.00000        34.00000
 -13224859.22608 -10305083.31307  21764611.01600  21764611.29900  21764611.05000
       145.00000        87.00000
 -18231372.22308 -14206259.43908  21198675.75900  21198675.57200  21198674.43000
       272.00000       122.00000
   1256676.74906    979224.43906  24471982.56100  24471982.40800  24471985.08100
        15.00000        14.00000
 -18837141.34608 -14678289.37708  20682522.96100  20682523.18900  20682523.07900
       272.00000       155.00000
  -7585868.70707  -5911063.38506  23597404.12900  23597404.40100  23597402.35000
        33.00000        29.00000
 -27527655.87908 -21450118.48108  20259482.65700  20259482.36700  20259480.97800
       254.00000       245.00000
  -2048220.90005  -1596017.56805  24461842.79700  24461842.72900  24461843.75500
        10.00000         8.00000
 04  8 27  0 33  0.0000000  0  9G15G 9G29G18G10G26G22G21G 3
 -13945283.04907 -10866454.10007  22395240.90600  22395240.87600  22395241.80800
        53.00000        32.00000
 -11036024.09607  -8599493.34407  22598699.68500  22598699.57600  22598701.62100
        62.00000        41.00000
 -13151218.41608 -10247700.89007  21778625.05700  21778624.79700  21778624.66600
       139.00000        87.00000
 -18288309.53608 -14250626.16208  21187840.93000  21187840.67600  21187839.64800
       274.00000       122.00000
   1350615.33706   1052423.24406  24489858.81600  24489858.16500  24489860.24400
        12.00000        15.00000
 -18770088.02608 -14626040.05608  20695283.09300  20695283.20100  20695282.87800
       274.00000       156.00000
  -7672407.20206  -5978495.91906  23580936.27400  23580936.07200  23580934.27100
        28.00000        27.00000
 -27528840.72008 -21451041.74508  20259257.22700  20259256.99300  20259255.48500
       253.00000       244.00000
  -2066239.22905  -1610057.85205  24458415.26000  24458414.43600  24458416.32400
         8.00000         9.00000
 04  8 27  0 33 30.0000000  0  9G15G 9G29G18G10G26G22G21G 3
 -14036990.19607 -10937914.20207  22377789.57700  22377789.56300  22377790.50300
        54.00000        32.00000
 -11142717.63007  -8682631.09107  22578397.24700  22578397.33400  22578398.13100
        72.00000        36.00000
 -13077306.92708 -10190107.55007  21792689.93100  21792689.77600  21792689.35200
       136.00000        85.00000
 -18344982.18608 -14294786.66308  21177056.32400  21177056.12800  21177055.12600
       272.00000       122.00000
   1444635.13606   1125685.34606  24507749.84100  24507749.44600  24507751.52700
        14.00000        12.00000
 -18702607.16408 -14573457.58808  20708124.22200  20708124.41400  20708124.09100
       270.00000       152.00000
  -7758843.02907  -6045848.46906  23564488.26900  23564487.91400  23564486.54300
        32.00000        27.00000
 -27529412.23108 -21451487.09108  20259148.29400  20259148.16900  20259146.73800
       253.00000       247.00000
  -2083703.97805  -1623666.75005  24455091.51900  24455090.21500  24455092.10200
         4.00000         8.00000
 04  8 27  0 34  0.0000000  0  9G15G 9G29G18G10G26G22G21G 3
 -14128375.35307 -11009123.40607  22360400.70800  22360400.07200  22360401.08800
        58.00000        37.00000
 -11249128.18007  -8765548.37707  22558147.58300  22558147.69200  22558148.89300
        76.00000        36.00000
 -13003142.82608 -10132317.36707  21806802.70700  21806802.52300  21806802.20100
       133.00000        84.00000
 -18401405.12808 -14338752.58408  21166319.45900  21166319.28700  21166318.08700
       265.00000       120.00000
   1538719.39406   1198997.69806  24525653.01400  24525653.03500  24525655.20800
        15.00000        12.00000
 -18634717.44408 -14520556.52208  20721043.48500  20721043.44700  20721043.02000
       269.00000       150.00000
  -7845191.57506  -6113133.01406  23548055.04900  23548055.00500  23548054.76700
        30.00000        26.00000
 -27529385.89208 -21451466.57708  20259153.68200  20259153.30900  20259151.93500
       254.00000       252.00000
  -2100630.73806  -1636856.48905  24451870.82600  24451870.06800  24451870.79700
        12.00000         8.00000
 04  8 27  0 34 30.0000000  0  9G15G 9G29G18G10G26G22G21G 3
 -14219449.29107 -11080090.09007  22343069.52300  22343068.82700  22343069.80300
        54.00000        34.00000
 -11355265.88307  -8848253.04707  22537949.42800  22537949.37000  22537951.81800
        68.00000        39.00000
 -12928741.17408 -10074342.08107  21820960.55600  21820960.77900  21820960.47100
       136.00000        84.00000
 -18457590.64608 -14382533.50908  21155627.28100  21155627.35500  21155626.35800
       260.00000       121.00000
   1632854.56606   1272349.72306  24543567.68400  24543566.89300  24543569.64600
        13.00000        15.00000
 -18566434.53608 -14467349.07508  20734037.22800  20734037.24700  20734036.89100
       273.00000       151.00000
  -7931464.96807  -6180359.00206  23531638.22700  23531638.59300  23531636.98300
        33.00000        24.00000
 -27528774.05408 -21450989.83308  20259269.72000  20259269.41400  20259268.36200
       247.00000       253.00000
  -2117032.40305  -1649637.07905  24448748.93000  24448748.49000  24448750.92400
        10.00000         8.00000
 04  8 27  0 35  0.0000000  0  9G15G 9G29G18G10G26G22G21G 3
 -14310185.13707 -11150793.33507  22325802.96500  22325802.95000  22325803.52700
        61.00000        35.00000
 -11461103.25607  -8930723.70907  22517809.91000  22517810.10400  22517811.35600
        72.00000        40.00000
 -12854080.08208 -10016164.63307  21835168.32600  21835168.27100  21835167.96700
       133.00000        83.00000
 -18513513.52408 -14426109.76508  21144985.89000  21144985.54700  21144984.53400
       259.00000       121.00000
   1727064.28706   1345759.79306  24561494.88100  24561494.00100  24561497.41400
        13.00000        16.00000
 -18497737.00308 -14413818.54708  20747110.00000  20747110.04800  20747109.64300
       269.00000       154.00000
  -8017638.83607  -6247507.42306  23515241.05600  23515240.84700  23515238.84500
        39.00000        23.00000
 -27527552.30608 -21450037.84008  20259502.55600  20259502.24500  20259500.84900
       248.00000       254.00000
  -2132884.76506  -1661989.61005  24445732.84500  24445732.76300  24445733.37300
        13.00000         8.00000
 04  8 27  0 35 30.0000000  0  9G15G 9G29G18G10G26G22G21G 3
 -14400620.79907 -11221262.66907  22308593.50000  22308592.99400  22308594.20600
        55.00000        35.00000
 -11566677.59907  -9012989.37507  22497720.52600  22497720.12500  22497721.14300
        75.00000        40.00000
 -12779202.21908  -9957818.27307  21849417.20500  21849417.09200  21849416.67200
       128.00000        81.00000
 -18569213.63008 -14469512.43408  21134386.47300  21134386.20500  21134385.10800
       262.00000       124.00000
   1821306.91406   1419195.49606  24579428.15200  24579428.27900  24579430.95300
        13.00000        14.00000
 -18428668.07408 -14359998.62108  20760253.15700  20760253.37300  20760253.15300
       267.00000       152.00000
  -8103752.87707  -6314609.21906  23498854.29000  23498854.38200  23498851.82500
        48.00000        22.00000
 -27525760.73908 -21448641.83008  20259843.11700  20259842.94500  20259841.85500
       245.00000       258.00000
  -2148228.28106  -1673945.64005  24442813.61200  24442812.96100  24442814.42200
        12.00000         9.00000
 04  8 27  0 36  0.0000000  0  9G15G 9G29G18G10G26G22G21G 3
 -14490679.55907 -11291438.29907  22291456.25500  22291455.46400  22291456.14300
        60.00000        34.00000
 -11671911.34007  -9094989.66507  22477694.30400  22477694.31000  22477695.65600
        80.00000        39.00000
 -12704035.34708  -9899246.70807  21863720.42800  21863720.70000  21863720.87300
       124.00000        81.00000
 -18624615.88508 -14512683.01508  21123843.60000  21123843.57200  21123842.45200
       273.00000       126.00000
   1915656.04606   1492714.20906  24597381.89300  24597381.78100  24597384.98100
        15.00000        13.00000
 -18359156.31008 -14305833.63008  20773480.96100  20773481.15100  20773480.77000
       272.00000       151.00000
  -8189732.48507  -6381606.24906  23482492.42100  23482492.66300  23482490.29600
        48.00000        23.00000
 -27523324.82808 -21446743.73208  20260306.71200  20260306.42100  20260305.32300
       242.00000       254.00000
  -2162988.80706  -1685447.36905  24440003.63600  24440003.25700  24440004.83000
        11.00000         8.00000
 04  8 27  0 36 30.0000000  0  9G15G 9G29G18G10G26G22G21G 3
 -14580429.88407 -11361373.61407  22274376.67400  22274376.52700  22274377.60700
        64.00000        37.00000
 -11776872.84407  -9176777.83607  22457720.58800  22457720.97800  22457722.65800
        82.00000        43.00000
 -12628653.02108  -9840507.26607  21878065.89600  21878065.81100  21878065.64700
       123.00000        80.00000
 -18679790.77608 -14555676.42308  21113344.17300  21113344.19800  21113342.96200
       276.00000       129.00000
   2010039.43206   1566259.63406  24615343.40400  24615342.83800  24615345.18100
        14.00000        12.00000
 -18289275.43608 -14251381.01808  20786778.82000  20786778.93300  20786778.79700
       262.00000       153.00000
  -8275648.22107  -6448553.54706  23466142.71000  23466142.75500  23466140.84200
        46.00000        22.00000
 -27520315.54108 -21444398.85108  20260879.77000  20260879.39800  20260877.94600
       246.00000       253.00000
  -2177237.65006  -1696550.36805  24437293.29500  24437292.37300  24437294.40100
        11.00000         9.00000
 04  8 27  0 37  0.0000000  0  9G15G 9G29G18G10G26G22G21G 3
 -14669845.23307 -11431047.88607  22257361.94000  22257361.79600  22257361.94500
        73.00000        37.00000
 -11881534.84307  -9258332.59407  22437804.58100  22437804.52600  22437805.79800
        79.00000        43.00000
 -12553033.37908  -9781582.89307  21892455.42300  21892455.58000  21892455.55300
       123.00000        79.00000
 -18734713.25208 -14598473.14708  21102892.64700  21102892.70600  21102891.57400
       276.00000       130.00000
   2104480.52005   1639850.01306  24633314.75600  24633314.10200  24633317.41600
         9.00000        13.00000
 -18219004.22808 -14196624.25108  20800150.84600  20800151.06700  20800150.91100
       263.00000       149.00000
  -8361475.58207  -6515431.99006  23449809.97900  23449809.87400  23449809.48500
        40.00000        29.00000
 -27516708.43508 -21441588.13808  20261565.57300  20261565.49200  20261564.40000
       245.00000       252.00000
  -2190950.73605  -1707235.91705  24434683.46300  24434682.78800  24434684.26400
         7.00000         8.00000
 04  8 27  0 37 30.0000000  0  9G15G 9G29G18G10G26G22G21G 3
 -14758891.82507 -11500434.82007  22240417.34600  22240416.74200  22240417.27000
        76.00000        41.00000
 -11985862.89507  -9339627.14307  22417951.85800  22417951.86900  22417952.32900
        86.00000        39.00000
 -12477147.06708  -9722450.72407  21906896.06000  21906896.26100  21906896.27100
       122.00000        78.00000
 -18789351.28408 -14641048.23508  21092496.02900  21092495.62400  21092494.48300
       269.00000       134.00000
   2199009.96305   1713509.16206  24651301.68600  24651301.71800  24651306.06700
         8.00000        14.00000
 -18148314.03408 -14141540.99508  20813602.77400  20813603.02100  20813602.83800
       263.00000       145.00000
  -8447182.19207  -6582216.31106  23433500.45800  23433500.78700  23433499.70400
        43.00000        26.00000
 -27512471.58208 -21438286.70908  20262372.35700  20262372.02000  20262370.70500
       252.00000       251.00000
  -2204096.36405  -1717479.30105  24432181.34600  24432181.37000  24432182.73000
         6.00000         8.00000
 04  8 27  0 38  0.0000000  0  9G15G 9G29G18G10G26G22G21G 3
 -14847572.34507 -11569536.51207  22223541.37100  22223541.29700  22223542.05200
        80.00000        44.00000
 -12089859.28607  -9420663.27507  22398160.77000  22398161.04500  22398162.38800
        82.00000        40.00000
 -12401001.74708  -9663116.73807  21921386.69700  21921386.48500  21921386.18000
       125.00000        77.00000
 -18843709.64808 -14683405.39708  21082151.50700  21082151.27700  21082150.31400
       259.00000       137.00000
   2293621.09506   1787232.06606  24669306.32100  24669305.84200  24669309.63700
        12.00000        13.00000
 -18077213.07008 -14086137.65508  20827132.67800  20827132.99800  20827132.68100
       260.00000       141.00000
  -8532773.52207  -6648910.83006  23417211.27200  23417212.37000  23417211.67100
        38.00000        23.00000
 -27507610.63608 -21434498.97608  20263297.18800  20263296.95900  20263295.62200
       255.00000       247.00000
  -2216680.43905  -1727285.06106  24429786.60800  24429786.72100  24429788.72400
         4.00000        12.00000
 04  8 27  0 38 30.0000000  0  9G15G 9G29G18G10G26G22G21G 3
 -14935930.06007 -11638386.66907  22206727.79400  22206727.29800  22206728.02700
        76.00000        44.00000
 -12193566.59107  -9501474.13907  22378427.14200  22378426.72100  22378428.33500
        84.00000        45.00000
 -12324645.47708  -9603618.37407  21935916.76700  21935916.73100  21935916.38400
       124.00000        76.00000
 -18897833.33408 -14725579.69108  21071851.99400  21071851.81900  21071850.92000
       255.00000       139.00000
   2388267.36905   1860982.31506  24687316.96300  24687316.34200  24687320.11900
         8.00000        11.00000
 -18005750.10608 -14030452.24408  20840732.17800  20840732.15200  20840731.86100
       258.00000       142.00000
  -8618294.57807  -6715550.58506  23400939.32600  23400939.50900  23400937.87200
        44.00000        26.00000
 -27502171.10508 -21430260.39908  20264332.30800  20264332.03200  20264330.79900
       259.00000       246.00000
  -2228748.85705  -1736689.01205  24427491.73700  24427490.92000  24427490.85600
         9.00000        10.00000
 04  8 27  0 39  0.0000000  0  9G15G 9G29G18G10G26G22G21G 3
 -15023928.49007 -11706956.85107  22189982.48500  22189981.97000  22189982.43900
        77.00000        44.00000
 -12296947.88107  -9582030.95007  22358754.38400  22358754.23900  22358755.00400
        85.00000        43.00000
 -12248046.50708  -9543930.90207  21950493.10100  21950492.96100  21950492.79400
       120.00000        75.00000
 -18951687.43008 -14767543.91108  21061603.92900  21061603.71200  21061602.85600
       254.00000       139.00000
   2482982.14605   1934785.94506  24705340.29000  24705340.15100  24705344.21900
         6.00000        11.00000
 -17933893.67608 -13974460.23208  20854406.00500  20854405.89100  20854405.77900
       255.00000       141.00000
  -8703710.69807  -6782108.57006  23384685.24800  23384684.96300  23384683.31500
        42.00000        22.00000
 -27496118.90208 -21425544.41308  20265484.41800  20265484.05300  20265482.46400
       266.00000       246.00000
  -2240267.70405  -1745664.74105  24425298.22400  24425298.08100  24425298.92800
         9.00000         8.00000
 04  8 27  0 39 30.0000000  0  9G15G 9G29G18G10G26G22G21G 3
 -15111545.63807 -11775229.94607  22173309.55700  22173308.77900  22173309.47800
        70.00000        44.00000
 -12399980.43507  -9662316.01607  22339146.62500  22339146.72400  22339148.37800
        82.00000        42.00000
 -12171187.18708  -9484040.56007  21965118.89000  21965118.92900  21965118.23500
       119.00000        73.00000
 -19005251.60808 -14809282.22708  21051410.62500  21051410.67200  21051409.86200
       257.00000       138.00000
   2577784.36805   2008657.68606  24723380.75300  24723381.60800  24723384.45000
         6.00000        12.00000
 -17861627.15908 -13918148.67008  20868157.50700  20868157.60600  20868157.56200
       246.00000       140.00000
  -8789001.75507  -6848569.09506  23368455.25200  23368455.07000  23368453.65000
        41.00000        28.00000
 -27489434.29708 -21420335.65108  20266756.17800  20266755.98500  20266754.56700
       266.00000       245.00000
  -2251217.77505  -1754197.26605  24423214.10700  24423213.73300  24423215.32000
         9.00000         8.00000
 04  8 27  0 40  0.0000000  0  9G15G 9G29G18G10G26G22G21G 3
 -15198833.58007 -11843246.50807  22156698.38500  22156698.08800  22156699.30500
        66.00000        45.00000
 -12502715.64907  -9742369.40507  22319597.33800  22319597.35100  22319598.34800
        94.00000        41.00000
 -12094124.38308  -9423991.65707  21979783.48600  21979783.43200  21979783.07000
       117.00000        72.00000
 -19058579.49408 -14850836.41808  21041263.50200  21041263.03300  21041262.02200
       266.00000       141.00000
   2672618.62305   2082554.44306  24741427.98400  24741427.88700  24741430.07600
        10.00000        12.00000
 -17789007.64508 -13861562.04608  20881975.99600  20881976.35900  20881976.55800
       235.00000       139.00000
  -8874221.90907  -6914974.37106  23352238.05700  23352237.73400  23352236.21500
        38.00000        26.00000
 -27482171.82408 -21414676.59508  20268138.52700  20268138.07600  20268136.62900
       266.00000       247.00000
  -2261653.65305  -1762329.10505  24421227.18100  24421227.66300  24421230.27200
         6.00000        10.00000
 04  8 27  0 40 30.0000000  0  9G15G 9G29G18G10G26G22G21G 3
 -15285750.90807 -11910974.29307  22140159.15800  22140158.57500  22140159.53100
        68.00000        44.00000
 -12605111.55407  -9822158.40307  22300112.90200  22300112.80700  22300113.13300
        99.00000        44.00000
 -12016821.48408  -9363755.66307  21994493.79300  21994493.76400  21994493.39800
       119.00000        71.00000
 -19111631.57108 -14892175.70108  21031167.54000  21031167.47000  21031166.45100
       268.00000       139.00000
   2767522.73806   2156505.62006  24759488.10700  24759487.23600  24759490.58500
        12.00000        13.00000
 -17715999.18908 -13804672.36108  20895869.52900  20895869.79700  20895869.64300
       243.00000       139.00000
  -8959331.70107  -6981293.67406  23336040.37700  23336040.87300  23336040.47800
        36.00000        28.00000
 -27474292.35108 -21408536.76108  20269637.78200  20269637.36700  20269636.12400
       261.00000       250.00000
  -2271536.80205  -1770030.26405  24419348.36200  24419348.18800  24419349.70200
         9.00000         9.00000
 04  8 27  0 41  0.0000000  0  9G15G 9G29G18G10G26G22G21G 3
 -15372301.55007 -11978416.32607  22123688.67200  22123688.33700  22123688.98500
        74.00000        43.00000
 -12707171.48307  -9901685.56007  22280690.57800  22280690.56200  22280692.33000
        88.00000        48.00000
 -11939286.89708  -9303339.13507  22009247.86600  22009247.94400  22009247.61400
       117.00000        70.00000
 -19164413.30208 -14933304.31008  21021123.78500  21021123.38900  21021122.41600
       270.00000       141.00000
   2862489.52506   2230505.65406  24777558.61100  24777559.08400  24777561.89900
        12.00000        12.00000
 -17642610.98108 -13747486.75808  20909834.82800  20909835.09300  20909834.87000
       240.00000       136.00000
  -9044337.05307  -7047531.54906  23319865.43000  23319865.55500  23319864.58300
        44.00000        30.00000
 -27465802.34908 -21401921.19308  20271253.38800  20271252.93500  20271251.66000
       258.00000       248.00000
  -2280873.70205  -1777305.75705  24417570.53600  24417570.61300  24417573.11300
         9.00000         9.00000
 04  8 27  0 41 30.0000000  0  9G15G 9G29G18G10G26G22G21G 3
 -15458474.91407 -12045564.38907  22107290.47600  22107290.23300  22107290.89100
        77.00000        44.00000
 -12808884.70007  -9980942.57307  22261334.13700  22261334.97800  22261336.50500
        93.00000        46.00000
 -11861515.18308  -9242737.83307  22024047.80500  22024047.48000  22024047.12100
       113.00000        68.00000
 -19216916.42208 -14974215.83308  21011132.45700  21011132.29500  21011131.35300
       265.00000       144.00000
   2957525.93506   2304559.87306  24795645.05800  24795644.23700  24795647.38700
        13.00000        12.00000
 -17568837.91008 -13690001.27108  20923873.62400  20923873.71900  20923873.37300
       237.00000       131.00000
  -9129229.50207  -7113681.48106  23303712.18300  23303711.92200  23303710.12100
        55.00000        31.00000
 -27456693.89108 -21394823.71508  20272986.30300  20272986.23700  20272985.00700
       261.00000       249.00000
  -2289657.03605  -1784149.88205  24415899.02200  24415898.81000  24415900.72700
         8.00000        10.00000
 04  8 27  0 42  0.0000000  0  9G15G 9G29G18G10G26G22G21G 3
 -15544280.73907 -12112426.05507  22090962.55300  22090962.08600  22090962.64000
        78.00000        43.00000
 -12910260.00907 -10059936.29207  22242044.72300  22242044.30600  22242045.47000
        93.00000        47.00000
 -11783520.20908  -9181962.55307  22038889.60400  22038889.36900  22038889.12700
       110.00000        69.00000
 -19269151.73808 -15014918.66308  21001192.57900  21001192.24000  21001191.35600
       262.00000       146.00000
   3052619.00906   2378658.29705  24813739.15500  24813739.60300  24813742.61800
        13.00000         9.00000
 -17494694.74708 -13632227.39208  20937982.29900  20937982.74700  20937982.41300
       237.00000       130.00000
  -9214020.40707  -7179752.26207  23287575.78900  23287576.22100  23287575.09200
        47.00000        34.00000
 -27446979.02508 -21387253.70708  20274835.34000  20274834.97200  20274833.63100
       260.00000       247.00000
  -2297898.82705  -1790572.10105  24414331.35800  24414331.40000  24414332.40300
         8.00000         9.00000
 04  8 27  0 42 30.0000000  0  9G15G 9G29G18G10G26G22G21G 3
 -15629744.04307 -12179020.83107  22074699.16600  22074698.80900  22074699.45600
        80.00000        45.00000
 -13011321.97607 -10138685.82307  22222812.94000  22222812.88000  22222814.05300
        93.00000        49.00000
 -11705331.95308  -9121036.66807  22053768.31400  22053768.03800  22053768.20000
       107.00000        71.00000
 -19321146.54308 -15055434.08808  20991298.24300  20991298.00100  20991297.10200
       259.00000       146.00000
   3147740.40306   2452778.78705  24831841.38300  24831841.54500  24831842.77800
        11.00000         9.00000
 -17420211.93708 -13574188.85408  20952156.17100  20952156.16100  20952156.03300
       226.00000       130.00000
  -9298736.90107  -7245765.06306  23271454.83000  23271454.97900  23271453.26000
        47.00000        30.00000
 -27436685.36908 -21379232.69408  20276794.04200  20276793.79600  20276792.50700
       266.00000       245.00000
  -2305627.40506  -1796594.37905  24412861.16100  24412861.47900  24412862.43000
        11.00000        10.00000
 04  8 27  0 43  0.0000000  0  9G15G 9G29G18G10G26G22G21G 3
 -15714791.41907 -12245291.49607  22058515.74300  22058515.13900  22058515.50000
        81.00000        48.00000
 -13111996.60807 -10217133.54107  22203654.25700  22203654.44200  22203656.29900
        91.00000        53.00000
 -11626881.46508  -9059906.44607  22068696.81800  22068696.87700  22068696.62100
       108.00000        71.00000
 -19372828.67708 -15095705.86808  20981463.13400  20981463.11200  20981462.15000
       258.00000       143.00000
   3242960.53106   2526976.17905  24849962.60000  24849961.69800  24849962.24200
        11.00000         9.00000
 -17345321.20308 -13515832.45008  20966406.88200  20966407.27900  20966407.34700
       223.00000       132.00000
  -9383307.40207  -7311664.09907  23255362.15700  23255361.67900  23255360.15400
        45.00000        33.00000
 -27425741.68908 -21370705.17008  20278876.87900  20278876.48900  20278874.98300
       272.00000       243.00000
  -2312771.73005  -1802161.43205  24411500.46700  24411500.55900  24411503.12700
         9.00000         9.00000
 04  8 27  0 43 30.0000000  0  9G15G 9G29G18G10G26G22G21G 3
 -15799492.39907 -12311292.24107  22042397.28700  22042396.76000  22042397.48600
        82.00000        49.00000
 -13212353.01907 -10295333.29107  22184557.56300  22184557.61500  22184558.86100
        95.00000        53.00000
 -11548243.08308  -8998629.82207  22083661.61200  22083661.75400  22083660.87700
       111.00000        68.00000
 -19424269.60108 -15135789.69308  20971674.32500  20971674.35900  20971673.20200
       267.00000       140.00000
   3338206.12106   2601193.42905  24868085.85100  24868085.85000  24868086.88600
        12.00000         7.00000
 -17270097.49708 -13457216.59408  20980721.81100  20980722.21200  20980721.99000
       235.00000       129.00000
  -9467803.58507  -7377505.27307  23239281.97700  23239282.33000  23239281.09400
        51.00000        34.00000
 -27414220.60508 -21361727.72008  20281068.86300  20281068.68200  20281067.41700
       272.00000       241.00000
  -2319404.54705  -1807329.89305  24410238.96400  24410238.85500  24410239.32400
         7.00000         8.00000
 04  8 27  0 44  0.0000000  0  9G15G 9G29G18G10G26G22G21G 3
 -15883789.55607 -12376978.31407  22026356.42600  22026355.72800  22026356.52500
        82.00000        52.00000
 -13312333.43807 -10373240.05907  22165533.05200  22165532.43300  22165533.32900
        93.00000        55.00000
 -11469364.18208  -8937165.78107  22098671.94200  22098671.80300  22098670.95200
       107.00000        67.00000
 -19475413.91108 -15175642.40408  20961941.93600  20961941.93800  20961940.75400
       274.00000       141.00000
   3433531.25605   2675472.67305  24886225.02800  24886224.09400  24886227.23400
         6.00000         9.00000
 -17194488.89608 -13398300.82208  20995110.41900  20995110.37400  20995109.85400
       237.00000       130.00000
  -9552169.91707  -7443245.22507  23223227.40600  23223227.87700  23223227.01200
        50.00000        35.00000
 -27402067.31708 -21352257.64708  20283382.00100  20283381.66100  20283379.94400
       276.00000       236.00000
  -2325471.70105  -1812057.60605  24409086.00900  24409085.30600  24409085.44300
         6.00000         7.00000
 04  8 27  0 44 30.0000000  0  9G15G 9G29G18G10G26G22G21G 3
 -15967723.15907 -12442381.09207  22010383.86000  22010383.63000  22010384.04000
        83.00000        51.00000
 -13411977.14908 -10450884.45807  22146570.62200  22146570.45400  22146571.44100
       104.00000        51.00000
 -11390289.41308  -8875549.10807  22113719.15800  22113718.93500  22113718.80100
       103.00000        68.00000
 -19526303.00308 -15215296.23508  20952258.27300  20952258.14800  20952256.85400
       283.00000       142.00000
   3528892.50205   2749780.04605  24904370.94400  24904371.34800  24904374.09300
         6.00000         8.00000
 -17118540.61508 -13339120.36408  21009562.44500  21009562.51500  21009562.44800
       232.00000       129.00000
  -9636448.42007  -7508916.75506  23207190.81400  23207190.86400  23207188.74000
        58.00000        31.00000
 -27389323.81108 -21342327.65708  20285806.52000  20285806.42400  20285805.20700
       276.00000       239.00000
  -2331015.79405  -1816377.69105  24408029.58100  24408029.31200  24408029.28900
         9.00000         7.00000
 04  8 27  0 45  0.0000000  0  9G26G15G 9G29G18G10G22G21G 3
 -17042243.34808 -13279667.97108  21024080.83600  21024081.35000  21024081.41500
       233.00000       129.00000
 -16051278.61407 -12507489.21107  21994483.52500  21994483.25700  21994484.05000
        83.00000        50.00000
 -13511269.10607 -10528254.77907  22127675.28000  22127675.59300  22127676.92900
        99.00000        52.00000
 -11311008.76008  -8813771.99807  22128805.51900  22128805.41700  22128805.50100
       101.00000        67.00000
 -19576924.21508 -15254741.32908  20942625.19700  20942625.19800  20942623.92200
       283.00000       146.00000
   3624300.79605   2824124.09305  24922527.42500  24922526.43300  24922528.75400
         5.00000         7.00000
  -9720626.35607  -7574509.90507  23191171.26800  23191171.45800  23191170.49800
        46.00000        33.00000
 -27375979.06208 -21331929.16708  20288346.33600  20288345.96700  20288344.62600
       279.00000       237.00000
  -2336025.21106  -1820281.18705  24407076.70900  24407076.41800  24407076.42400
        11.00000         7.00000
 04  8 27  0 45 30.0000000  0  9G26G15G 9G29G18G10G22G21G 3
 -16965562.47808 -13219916.66308  21038673.18900  21038673.29600  21038673.12300
       233.00000       122.00000
 -16134415.94207 -12572271.52507  21978662.89000  21978662.46500  21978663.62400
        80.00000        49.00000
 -13610169.00908 -10605319.58707  22108856.29400  22108856.05200  22108856.86400
       106.00000        54.00000
 -11231487.03907  -8751807.04107  22143938.44000  22143938.27900  22143938.24600
       100.00000        65.00000
 -19627239.07508 -15293947.70708  20933050.86200  20933050.58200  20933049.41900
       277.00000       149.00000
   3719793.06505   2898533.56805  24940699.59800  24940698.32800  24940701.72500
         8.00000         9.00000
  -9804665.70607  -7639995.07807  23175179.73200  23175179.74000  23175178.56900
        48.00000        32.00000
 -27361995.84808 -21321033.17308  20291007.07800  20291006.84600  20291005.45800
       274.00000       234.00000
  -2340463.01106  -1823739.27605  24406232.61300  24406231.88200  24406232.82400
        11.00000         9.00000
 04  8 27  0 46  0.0000000  0  9G26G15G 9G29G18G10G22G21G 3
 -16888525.32808 -13159887.73008  21053332.96400  21053333.01300  21053332.64300
       231.00000       120.00000
 -16217157.25607 -12636745.26207  21962917.78200  21962917.37200  21962917.96300
        82.00000        44.00000
 -13708698.39608 -10682095.69007  22090106.99900  22090106.32700  22090107.24100
       104.00000        52.00000
 -11151751.00407  -8689675.09107  22159111.42000  22159111.32900  22159111.45300
        98.00000        63.00000
 -19677271.66808 -15332934.13608  20923529.70600  20923529.68600  20923528.50800
       276.00000       152.00000
   3815343.87305   2972988.62205  24958882.10000  24958881.05400  24958884.23300
         6.00000         9.00000
  -9888590.65307  -7705391.10607  23159209.27800  23159209.19800  23159208.09100
        45.00000        32.00000
 -27347398.19908 -21309658.39808  20293785.01000  20293784.75800  20293783.28100
       275.00000       232.00000
  -2344354.40805  -1826771.60705  24405491.49900  24405491.79600  24405492.50300
         6.00000         9.00000
 04  8 27  0 46 30.0000000  0  9G26G15G 9G29G18G10G22G21G 3
 -16811149.13208 -13099594.61908  21068056.96300  21068057.33900  21068057.07200
       234.00000       122.00000
 -16299514.47207 -12700919.69707  21947245.49800  21947245.28900  21947246.27800
        85.00000        47.00000
 -13806868.56508 -10758591.88207  22071424.52400  22071424.90500  22071425.68300
       109.00000        51.00000
 -11071817.23907  -8627389.05907  22174322.22300  22174322.15000  22174322.53900
        93.00000        63.00000
 -19727035.47608 -15371711.12208  20914060.16300  20914059.99300  20914058.74600
       277.00000       154.00000
   3910937.98305   3047477.48605  24977072.59800  24977072.41600  24977075.60000
         6.00000         9.00000
  -9972414.91007  -7770708.68406  23143257.02200  23143257.49100  23143255.74900
        41.00000        28.00000
 -27332201.33908 -21297816.70808  20296676.89100  20296676.49000  20296675.32600
       268.00000       234.00000
  -2347714.29505  -1829389.69905  24404851.30300  24404851.37100  24404853.26100
         6.00000         8.00000
 04  8 27  0 47  0.0000000  0  9G26G15G 9G29G18G10G22G21G 3
 -16733460.04008 -13039057.68808  21082840.98600  21082841.12100  21082841.00500
       233.00000       125.00000
 -16381508.60607 -12764811.21807  21931643.13300  21931642.69800  21931643.27900
        92.00000        50.00000
 -13904699.94208 -10834824.07507  22052808.59200  22052808.37500  22052809.38800
       111.00000        54.00000
 -10991710.97407  -8564968.63107  22189566.61300  22189566.36100  22189565.86200
        93.00000        62.00000
 -19776553.08308 -15410296.26608  20904637.40600  20904637.06900  20904635.89500
       274.00000       158.00000
   4006551.09905   3121981.10406  24995268.72300  24995268.55600  24995271.41000
         9.00000        11.00000
 -10056161.10407  -7835965.40506  23127321.58200  23127321.77900  23127319.69200
        50.00000        30.00000
 -27316428.65308 -21285526.31608  20299678.33200  20299678.06700  20299676.58500
       268.00000       228.00000
  -2350566.44705  -1831612.16405  24404309.28200  24404309.62800  24404310.26000
         9.00000         8.00000
 04  8 27  0 47 30.0000000  0  9G26G15G 9G29G18G10G22G21G 3
 -16655366.66208 -12978205.72708  21097701.16300  21097701.42200  21097701.69200
       219.00000       123.00000
 -16463042.97307 -12828344.49007  21916127.41600  21916126.89100  21916127.73100
        91.00000        50.00000
 -14002095.24608 -10910716.47207  22034274.10800  22034273.92400  22034275.60200
       101.00000        52.00000
 -10911340.46807  -8502342.28607  22204860.18800  22204860.08800  22204859.61800
        92.00000        59.00000
 -19825729.64508 -15448615.66008  20895279.46700  20895279.13600  20895277.95200
       275.00000       159.00000
   4102276.49805   3196572.20506  25013483.69000  25013482.26700  25013486.98700
         6.00000        11.00000
 -10139734.70407  -7901087.66507  23111417.70100  23111418.02400  23111416.57500
        55.00000        33.00000
 -27299986.26708 -21272714.08908  20302807.15900  20302806.99800  20302805.61900
       271.00000       227.00000
  -2352817.35506  -1833366.21305  24403881.03700  24403881.33000  24403882.61300
        11.00000         9.00000
 04  8 27  0 48  0.0000000  0  9G26G15G 9G29G18G10G22G21G 3
 -16576937.42308 -12917092.05808  21112625.48200  21112625.89400  21112626.31600
       213.00000       120.00000
 -16544180.84207 -12891568.79207  21900687.45100  21900687.11500  21900687.67900
        91.00000        52.00000
 -14099117.28908 -10986318.02307  22015810.93800  22015811.45900  22015812.42700
       111.00000        56.00000
 -10830773.31407  -8439562.71607  22220191.30600  22220191.46200  22220191.10900
        91.00000        58.00000
 -19874629.75408 -15486719.63408  20885974.05400  20885973.74200  20885972.43900
       280.00000       158.00000
   4198047.78005   3271199.10205  25031706.53600  25031707.14200  25031711.38900
         6.00000        10.00000
 -10223200.43007  -7966125.85707  23095535.35700  23095535.34900  23095533.61900
        57.00000        34.00000
 -27282940.28908 -21259431.52508  20306050.62500  20306050.44500  20306049.16700
       268.00000       223.00000
  -2354533.32906  -1834703.35905  24403554.36400  24403554.26200  24403555.89600
        11.00000        10.00000
 04  8 27  0 48 30.0000000  0  9G26G15G 9G29G18G10G22G21G 3
 -16498206.26708 -12855743.12508  21127608.20200  21127608.33900  21127608.07700
       219.00000       115.00000
 -16624950.80007 -12954506.41307  21885317.82400  21885317.19100  21885317.95800
        90.00000        57.00000
 -14195794.22708 -11061650.65407  21997414.03300  21997414.46600  21997415.84000
       105.00000        59.00000
 -10750042.62707  -8376655.72007  22235553.82800  22235553.89100  22235553.28300
        90.00000        56.00000
 -19923283.81108 -15524631.88208  20876715.35100  20876715.30100  20876713.83800
       290.00000       156.00000
   4293833.03805   3345836.86205  25049934.69100  25049934.85500  25049938.96600
         4.00000         9.00000
 -10306588.98107  -8031103.92807  23079666.50300  23079666.90800  23079665.31000
        62.00000        33.00000
 -27265321.83908 -21245702.87508  20309403.73400  20309403.41400  20309402.08800
       272.00000       223.00000
  -2355745.95805  -1835648.28506  24403323.29400  24403323.51900  24403325.11300
        10.00000        11.00000
 04  8 27  0 49  0.0000000  0  9G26G15G 9G29G18G10G22G21G 3
 -16419135.67108 -12794129.68908  21142654.74900  21142655.00500  21142654.49000
       217.00000       109.00000
 -16705310.12307 -13017124.04607  21870025.65100  21870025.27700  21870025.93700
        94.00000        59.00000
 -14292082.82508 -11136680.66907  21979091.35700  21979091.17300  21979092.70400
       103.00000        58.00000
 -10669110.58307  -8313591.81607  22250954.82600  22250954.85300  22250954.37400
        87.00000        56.00000
 -19971651.17908 -15562320.74308  20867511.63500  20867511.25900  20867509.83000
       285.00000       157.00000
   4389671.47205   3420516.06905  25068173.50900  25068173.49300  25068177.13400
         6.00000         9.00000
 -10389859.83007  -8095990.27907  23063821.71900  23063821.67500  23063819.26400
        74.00000        33.00000
 -27247091.62408 -21231497.53308  20312872.80700  20312872.57300  20312871.03500
       277.00000       219.00000
  -2356415.54306  -1836170.06306  24403196.48800  24403196.55500  24403197.88700
        16.00000        11.00000
 04  8 27  0 49 30.0000000  0  9G26G15G 9G29G18G10G22G21G 3
 -16339708.25308 -12732238.21408  21157769.32500  21157769.57400  21157769.20200
       214.00000       109.00000
 -16785236.13407 -13079404.03707  21854816.36800  21854815.93800  21854816.50600
        99.00000        58.00000
 -14387959.87408 -11211390.02707  21960845.89900  21960846.34200  21960847.75800
       112.00000        59.00000
 -10587959.02507  -8250356.86107  22266397.53300  22266397.65600  22266397.19100
        84.00000        57.00000
 -20019710.58408 -15599769.63408  20858365.64700  20858365.70100  20858364.42700
       280.00000       158.00000
   4485582.39305   3495251.76505  25086424.47300  25086423.38300  25086428.47500
         5.00000         9.00000
 -10472992.07507  -8160768.61806  23048001.02500  23048001.36100  23047999.42000
        66.00000        31.00000
 -27228229.19908 -21216799.55208  20316462.30500  20316461.93300  20316460.46700
       278.00000       220.00000
  -2356522.98506  -1836253.81205  24403177.89100  24403176.84500  24403176.34200
        14.00000         9.00000
 04  8 27  0 50  0.0000000  0  9G26G15G 9G29G18G10G22G21G 3
 -16259944.61408 -12670084.74708  21172947.87800  21172948.00900  21172947.80700
       207.00000       109.00000
 -16864744.15408 -13141358.32807  21839686.48600  21839686.01700  21839686.56500
       104.00000        56.00000
 -14483440.26108 -11285790.29207  21942678.03300  21942677.45200  21942678.54600
       108.00000        62.00000
 -10506607.89907  -8186966.39607  22281878.08400  22281878.06200  22281877.86500
        80.00000        58.00000
 -20067478.97008 -15636991.74608  20849275.41900  20849275.53900  20849274.58400
       273.00000       163.00000
   4581547.18404   3570029.45905  25104684.24800  25104684.24200  25104688.93000
         3.00000         7.00000
 -10556002.61807  -8225452.13107  23032205.51000  23032205.45200  23032203.82600
        73.00000        38.00000
 -27208752.77208 -21201623.13508  20320168.60400  20320168.23600  20320166.90400
       279.00000       222.00000
  -2356086.69006  -1835913.87405  24403259.14900  24403259.22700  24403259.32100
        12.00000        10.00000
 04  8 27  0 50 30.0000000  0  9G26G15G 9G29G18G10G22G21G 3
 -16179896.11708 -12607709.31208  21188180.26500  21188180.62400  21188180.48400
       203.00000       109.00000
 -16943880.22008 -13203022.78707  21824627.00100  21824626.73600  21824627.43900
       103.00000        55.00000
 -14578569.59308 -11359916.98307  21924574.63400  21924574.57700  21924575.83500
       111.00000        63.00000
 -10425107.77407  -8123459.84707  22297387.05100  22297386.76900  22297387.27800
        78.00000        59.00000
 -20115004.00908 -15674024.23008  20840231.87600  20840231.93400  20840230.85900
       283.00000       168.00000
   4677516.35005   3644810.56805  25122948.29000  25122948.05900  25122951.40600
         6.00000         8.00000
 -10638939.39707  -8290078.14307  23016422.64000  23016422.87300  23016420.54600
        67.00000        34.00000
 -27188711.80708 -21186006.81408  20323982.17200  20323981.86500  20323980.47400
       279.00000       219.00000
  -2355155.83006  -1835188.51605  24403435.89400  24403435.41200  24403437.37200
        13.00000         9.00000
 04  8 27  0 51  0.0000000  0  9G26G15G 9G29G18G10G22G21G 3
 -16099484.38608 -12545050.83508  21203482.56700  21203482.66500  21203482.47900
       199.00000       110.00000
 -17022560.77207 -13264332.29907  21809654.44500  21809654.18200  21809654.91400
        96.00000        54.00000
 -14673263.55908 -11433704.44607  21906554.66700  21906554.85700  21906556.39200
       119.00000        65.00000
 -10343379.56507  -8059775.55407  22312938.62800  22312938.93600  22312939.50400
        77.00000        62.00000
 -20162203.80108 -15710803.28308  20831250.49500  20831250.24700  20831249.03100
       293.00000       170.00000
   4773570.27205   3719657.69105  25141227.44700  25141226.92900  25141230.35600
         4.00000         8.00000
 -10721720.62607  -8354582.97107  23000670.37200  23000670.31000  23000668.39500
        65.00000        38.00000
 -27168025.59108 -21169887.70108  20327918.34900  20327918.28400  20327916.96700
       274.00000       222.00000
  -2353649.84906  -1834015.05305  24403723.31200  24403722.93000  24403723.13400
        12.00000         9.00000
 04  8 27  0 51 30.0000000  0  9G26G15G 9G29G18G10G22G21G 3
 -16018756.21208 -12482145.78708  21218844.80100  21218844.70500  21218844.69100
       191.00000       112.00000
 -17100827.46207 -13325319.32207  21794761.13200  21794760.48600  21794761.20000
        89.00000        52.00000
 -14767563.60208 -11507184.95807  21888611.03100  21888610.62000  21888611.27500
       120.00000        63.00000
 -10261469.48307  -7995949.54807  22328526.48900  22328526.44000  22328526.83900
        83.00000        64.00000
 -20209121.76708 -15747362.72908  20822322.73900  20822322.20600  20822320.82900
       301.00000       175.00000
   4869663.96105   3794535.80805  25159513.20500  25159512.70800  25159516.40000
         6.00000         9.00000
 -10804390.03907  -8419000.64607  22984938.62400  22984938.76500  22984936.80200
        70.00000        36.00000
 -27146738.00808 -21153299.98908  20331969.51400  20331969.26500  20331967.96000
       272.00000       223.00000
  -2351613.89505  -1832428.61605  24404109.84700  24404109.34600  24404111.55200
         9.00000        10.00000
 04  8 27  0 52  0.0000000  0  9G26G15G 9G29G18G10G22G21G 3
 -15937714.09208 -12418996.10708  21234266.11900  21234266.44900  21234266.53100
       193.00000       110.00000
 -17178677.76007 -13385981.87807  21779946.86400  21779946.33000  21779946.80800
        95.00000        53.00000
 -14861466.26008 -11580355.80307  21870741.29600  21870741.31200  21870742.47500
       121.00000        70.00000
 -10179379.42307  -7931983.29907  22344147.48600  22344147.62200  22344148.15400
        86.00000        64.00000
 -20255756.83808 -15783701.73808  20813447.88200  20813447.80300  20813446.51200
       303.00000       179.00000
   4965796.77405   3869444.43305  25177805.20000  25177805.37200  25177811.71900
         4.00000        10.00000
 -10886946.55207  -8483330.38007  22969228.64300  22969228.81100  22969226.29500
        63.00000        34.00000
 -27124849.81008 -21136244.26608  20336134.62200  20336134.33400  20336133.15900
       270.00000       222.00000
  -2349048.28105  -1830429.46206  24404597.85100  24404599.12400  24404599.51000
        10.00000        11.00000
 04  8 27  0 52 30.0000000  0  9G26G15G 9G29G18G10G22G21G 3
 -15856318.64708 -12355571.10308  21249754.98100  21249755.48300  21249755.38700
       194.00000       107.00000
 -17256067.08308 -13446285.23807  21765219.43300  21765219.34400  21765220.11100
       101.00000        54.00000
 -14954926.57708 -11653181.97407  21852956.11700  21852956.18600  21852957.39800
       127.00000        69.00000
 -10097069.28107  -7867845.55907  22359811.15500  22359810.98500  22359811.24400
        82.00000        64.00000
 -20302065.58608 -15819786.47208  20804635.41800  20804635.44900  20804634.21200
       301.00000       181.00000
   5062010.23705   3944415.94505  25196116.85800  25196115.59900  25196119.08000
         8.00000        10.00000
 -10969347.15407  -8547538.60307  22953548.32500  22953547.94600  22953546.04500
        60.00000        34.00000
 -27102319.47608 -21118688.17808  20340421.96900  20340421.62500  20340420.54800
       269.00000       222.00000
  -2345911.83205  -1827985.56106  24405194.38800  24405194.62800  24405196.61400
         7.00000        11.00000
 04  8 27  0 53  0.0000000  0 10G26G15G 9G29G18G10G22G21G 3G28
 -15774640.68708 -12291925.95908  21265298.02000  21265298.16500  21265298.25300
       191.00000       105.00000
 -17333061.09608 -13506280.57007  21750569.24500  21750568.53600  21750568.69400
       107.00000        54.00000
 -15048009.88108 -11725714.37007  21835243.13200  21835242.81700  21835244.30700
       126.00000        71.00000
 -10014609.09607  -7803590.91507  22375502.69700  22375502.38300  22375502.67300
        79.00000        59.00000
 -20348115.86808 -15855669.79508  20795872.52500  20795872.25100  20795871.18500
       292.00000       183.00000
   5158235.38905   4019396.51105  25214427.30800  25214426.99400  25214429.93600
         8.00000        10.00000
 -11051659.65507  -8611678.16207  22937884.23100  22937884.13900  22937882.99800
        58.00000        41.00000
 -27079215.30308 -21100684.94008  20344818.59100  20344818.35800  20344817.26100
       273.00000       223.00000
  -2342273.32705  -1825150.41505  24405888.90600  24405888.05400  24405889.42600
         8.00000        10.00000
    -12760.10505     -9942.71505  25582325.94700  25582326.27500  25582326.08100
         4.00000         5.00000
 04  8 27  0 53 30.0000000  0 10G26G15G 9G29G18G10G22G21G 3G28
 -15692647.41308 -12228035.11808  21280901.22900  21280901.30500  21280901.34500
       195.00000       105.00000
 -17409621.82608 -13565938.27607  21735999.77800  21735999.25100  21735999.37900
       109.00000        55.00000
 -15140677.63108 -11797922.95407  21817609.31200  21817609.37600  21817610.05900
       136.00000        72.00000
  -9931965.28907  -7739193.17507  22391228.54900  22391228.90600  22391228.85200
        76.00000        53.00000
 -20393871.14708 -15891323.25008  20787165.75800  20787165.43900  20787164.21600
       294.00000       183.00000
   5254506.99805   4094413.31505  25232746.28800  25232746.09400  25232750.28700
         7.00000         9.00000
 -11133847.75007  -8675720.80407  22922244.15500  22922244.64000  22922242.68600
        61.00000        38.00000
 -27055502.44108 -21082207.40208  20349331.04800  20349330.75300  20349329.43200
       273.00000       218.00000
  -2338097.87205  -1821896.89105  24406683.04800  24406682.93600  24406684.17000
        10.00000        10.00000
    -50755.58405    -39549.50805  25575097.50900  25575096.22000  25575095.93700
         4.00000         7.00000
 04  8 27  0 54  0.0000000  0 10G26G15G 9G29G18G10G22G21G 3G28
 -15610353.23008 -12163909.79808  21296561.33300  21296561.53900  21296561.37600
       194.00000       106.00000
 -17485758.47008 -13625265.52207  21721511.68100  21721510.96600  21721511.17700
       111.00000        55.00000
 -15232938.62608 -11869814.58907  21800052.79300  21800052.47800  21800053.28300
       132.00000        70.00000
  -9849151.70307  -7674663.13607  22406987.81300  22406987.69400  22406987.59400
        71.00000        50.00000
 -20439342.26208 -15926755.28008  20778512.90400  20778512.51600  20778511.19700
       285.00000       181.00000
   5350812.35805   4169456.44305  25251072.74600  25251071.93600  25251075.84500
         8.00000         9.00000
 -11215922.53007  -8739675.13407  22906626.32300  22906626.19300  22906624.48500
        62.00000        38.00000
 -27031193.09108 -21063265.06708  20353956.75700  20353956.49300  20353955.67100
       271.00000       220.00000
  -2333398.12406  -1818234.80105  24407576.75800  24407577.04500  24407577.56600
        11.00000        10.00000
    -88340.94205    -68836.73205  25567945.54000  25567944.86900  25567943.66000
         5.00000         8.00000
 04  8 27  0 54 30.0000000  0 10G26G15G 9G29G18G10G22G21G 3G28
 -15527716.59908 -12099517.64308  21312286.53300  21312286.70300  21312286.27000
       186.00000       103.00000
 -17561424.13908 -13684225.77407  21707112.49400  21707111.98800  21707112.39800
       109.00000        58.00000
 -15324745.53408 -11941352.39707  21782582.10700  21782582.12000  21782583.01700
       144.00000        71.00000
  -9766126.12207  -7609967.89507  22422786.70600  22422786.91000  22422787.19900
        69.00000        49.00000
 -20484484.18808 -15961930.79908  20769922.30300  20769922.19100  20769920.93200
       278.00000       181.00000
   5447194.71005   4244559.58006  25269413.51300  25269413.04800  25269418.49900
         8.00000        11.00000
 -11297838.87407  -8803506.00407  22891037.60100  22891037.94800  22891035.54000
        66.00000        33.00000
 -27006243.81008 -21043824.08908  20358704.98400  20358704.59100  20358703.08200
       280.00000       212.00000
  -2328130.63105  -1814130.31306  24408579.45400  24408579.05400  24408580.78600
        10.00000        13.00000
   -125470.40805    -97768.66305  25560878.73800  25560878.54600  25560878.02500
         4.00000         7.00000
 04  8 27  0 55  0.0000000  0 10G26G15G 9G29G18G10G22G21G 3G28
 -15444797.88508 -12034905.68508  21328065.69400  21328065.75200  21328065.30700
       185.00000       102.00000
 -17636673.96908 -13742861.99707  21692792.95400  21692792.45100  21692792.61900
       111.00000        56.00000
 -15416153.00108 -12012578.94907  21765187.75400  21765187.84800  21765188.90300
       142.00000        71.00000
  -9682948.04507  -7545153.84207  22438615.14300  22438615.33700  22438615.75800
        72.00000        50.00000
 -20529353.74408 -15996894.07808  20761383.73400  20761383.54400  20761382.58500
       273.00000       181.00000
   5543596.00505   4319677.41205  25287757.50900  25287758.07900  25287761.53500
         6.00000         9.00000
 -11379653.66907  -8867257.77507  22875468.84400  22875469.08400  22875467.22000
        66.00000        35.00000
 -26980712.92208 -21023929.90808  20363563.07900  20363562.72900  20363561.42000
       277.00000       211.00000
  -2322353.97505  -1809629.08306  24409678.71500  24409678.64700  24409679.78300
        10.00000        11.00000
   -162199.75605   -126388.84105  25553889.70200  25553889.89500  25553887.79600
         6.00000         7.00000
 04  8 27  0 55 30.0000000  0 10G26G15G 9G29G18G10G22G21G 3G28
 -15361562.55808 -11970047.00707  21343904.82100  21343904.88000  21343904.61900
       185.00000       100.00000
 -17711468.69008 -13801143.58307  21678559.74400  21678559.39000  21678559.76500
       112.00000        60.00000
 -15507121.16008 -12083463.18807  21747876.89300  21747876.73600  21747877.90100
       135.00000        68.00000
  -9599582.45507  -7480193.68107  22454480.26300  22454480.15200  22454480.12300
        79.00000        52.00000
 -20573912.73208 -16031615.36108  20752904.77400  20752904.49800  20752903.18800
       278.00000       183.00000
   5640052.45704   4394838.26705  25306112.12300  25306111.51500  25306116.69200
         3.00000         7.00000
 -11461329.23107  -8930901.02607  22859927.08200  22859926.95700  22859924.69300
        67.00000        37.00000
 -26954563.63108 -21003553.85808  20368539.21800  20368538.91000  20368537.56900
       283.00000       211.00000
  -2316031.86705  -1804702.78205  24410881.65400  24410881.05300  24410883.39000
         7.00000         9.00000
   -198490.70105   -154667.35305  25546982.18200  25546982.04100  25546979.22600
         5.00000         5.00000
 04  8 27  0 56  0.0000000  0 10G26G15G 9G29G18G10G22G21G 3G28
 -15278011.00008 -11904941.91307  21359803.68500  21359804.00800  21359803.94700
       182.00000        99.00000
 -17785803.43908 -13859066.75107  21664414.16600  21664413.78700  21664414.43400
       107.00000        61.00000
 -15597644.60908 -12154000.91107  21730650.98900  21730650.82900  21730651.80000
       141.00000        69.00000
  -9516028.91607  -7415087.06507  22470379.64400  22470379.83500  22470379.60300
        76.00000        52.00000
 -20618157.88508 -16066092.09408  20744485.15600  20744484.96400  20744483.73700
       278.00000       188.00000
   5736565.67205   4470043.33505  25324479.70700  25324478.57200  25324481.50500
         6.00000         5.00000
 -11542862.15607  -8994433.14207  22844411.05600  22844411.33500  22844409.40500
        66.00000        37.00000
 -26927794.04908 -20982694.46208  20373633.32100  20373632.96900  20373631.71500
       288.00000       213.00000
  -2309162.92806  -1799350.39205  24412189.59600  24412189.52100  24412189.71000
        11.00000         7.00000
   -234339.21605   -182601.15305  25540160.08300  25540159.80700  25540158.98000
         4.00000         5.00000
 04  8 27  0 56 30.0000000  0 10G26G15G 9G29G18G10G22G21G 3G28
 -15194181.50508 -11839620.24607  21375756.28600  21375756.41000  21375756.10800
       185.00000        96.00000
 -17859711.49208 -13916657.42607  21650350.28300  21650349.90100  21650350.55800
       107.00000        63.00000
 -15687756.31908 -12224217.78707  21713503.40800  21713503.30800  21713504.30100
       143.00000        72.00000
  -9432325.29407  -7349863.49407  22486308.65500  22486308.36400  22486307.72300
        75.00000        51.00000
 -20662124.31308 -16100351.64008  20736118.31200  20736118.45500  20736117.18400
       280.00000       187.00000
   5833098.92205   4545264.06505  25342850.06800  25342848.89500  25342852.07100
         7.00000         4.00000
 -11624287.67207  -9057881.54607  22828916.92900  22828916.83800  22828915.57900
        76.00000        47.00000
 -26900440.86508 -20961380.30908  20378838.39700  20378838.10800  20378836.95700
       291.00000       214.00000
  -2301783.78005  -1793600.45105  24413591.56100  24413590.96500  24413593.39300
         6.00000         8.00000
   -269779.56005   -210216.91005  25533415.40700  25533415.32400  25533415.97600
         4.00000         6.00000
 04  8 27  0 57  0.0000000  0 10G26G15G 9G29G18G10G22G21G 3G28
 -15110031.54408 -11774048.85607  21391769.48700  21391769.63200  21391769.34900
       185.00000        95.00000
 -17933145.09608 -13973878.40707  21636375.94000  21636375.61800  21636376.47000
       107.00000        63.00000
 -15777407.89308 -12294076.12007  21696442.68900  21696442.68900  21696443.91600
       134.00000        73.00000
  -9348428.07507  -7284489.07507  22502273.05300  22502272.90100  22502272.20400
        69.00000        47.00000
 -20705765.58308 -16134357.81908  20727813.83800  20727813.72600  20727812.43200
       275.00000       186.00000
   5929696.98505   4620535.32205  25361230.15700  25361229.69200  25361233.94800
         5.00000         4.00000
 -11705559.75607  -9121210.40507  22813452.01000  22813451.64700  22813449.46400
        81.00000        47.00000
 -26872459.99508 -20939577.05708  20384163.09700  20384162.90000  20384161.46100
       298.00000       214.00000
  -2293849.99005  -1787418.30305  24415101.94600  24415102.44300  24415104.27100
         7.00000         9.00000
   -304764.82005   -237478.08005  25526756.50200  25526757.80600  25526756.68600
         6.00000         6.00000
 04  8 27  0 57 30.0000000  0 10G26G15G 9G29G18G10G22G21G 3G28
 -15025590.07908 -11708250.32807  21407838.27800  21407838.30700  21407838.09600
       179.00000        94.00000
 -18006128.31908 -14030748.44207  21622487.73800  21622487.32700  21622488.46400
       108.00000        64.00000
 -15866622.96908 -12363594.32907  21679465.75400  21679465.80600  21679466.91800
       142.00000        75.00000
  -9264365.51107  -7218985.81907  22518269.65900  22518269.39200  22518269.09700
        66.00000        48.00000
 -20749107.25608 -16168130.54108  20719566.38900  20719566.08900  20719564.85400
       271.00000       189.00000
   6026332.40405   4695835.69805  25379621.11400  25379620.51800  25379623.26700
         7.00000         4.00000
 -11786704.05207  -9184439.69107  22798010.74900  22798010.51700  22798008.39600
        86.00000        48.00000
 -26843877.43208 -20917304.94608  20389602.18100  20389601.90300  20389600.77300
       301.00000       216.00000
  -2285388.97706  -1780825.29006  24416714.87500  24416713.68000  24416714.63000
        13.00000        11.00000
   -339319.74605   -264403.89805  25520182.81500  25520182.14500  25520180.92300
         6.00000         5.00000
 04  8 27  0 58  0.0000000  0 10G26G15G 9G29G18G10G22G21G 3G28
 -14940866.16908 -11642231.71107  21423960.15500  21423960.59200  21423960.26600
       175.00000        91.00000
 -18078664.94108 -14087270.48107  21608684.93000  21608684.40700  21608685.20900
       116.00000        63.00000
 -15955404.76408 -12432774.91107  21662571.07500  21662571.27000  21662572.23800
       146.00000        75.00000
  -9180145.83907  -7153360.13607  22534295.86500  22534295.83900  22534295.47900
        67.00000        46.00000
 -20792154.77908 -16201674.06408  20711374.49200  20711374.40800  20711373.09100
       273.00000       187.00000
   6122998.10704   4771159.61405  25398014.52800  25398013.74600  25398018.72100
         2.00000         6.00000
 -11867726.01807  -9247573.65707  22782591.57800  22782592.04000  22782589.80000
        81.00000        45.00000
 -26814700.19008 -20894569.45208  20395154.78900  20395154.42400  20395153.01300
       305.00000       215.00000
  -2276407.74906  -1773826.95305  24418422.93900  24418421.98500  24418424.11300
        13.00000        10.00000
   -373449.34805   -290998.29104  25513687.35400  25513686.32700  25513686.11400
         7.00000         3.00000
 04  8 27  0 58 30.0000000  0 10G26G15G 9G29G18G10G22G21G 3G28
 -14855852.22308 -11575987.09007  21440138.03800  21440138.26500  21440137.90300
       171.00000        90.00000
 -18150742.34508 -14143434.69107  21594968.73600  21594968.45600  21594969.00900
       118.00000        62.00000
 -16043740.32908 -12501607.79107  21645761.63900  21645761.35600  21645762.52700
       144.00000        78.00000
  -9095760.89707  -7087605.66707  22550353.50100  22550354.01300  22550354.10200
        72.00000        46.00000
 -20834897.15508 -16234979.80308  20703241.16200  20703240.82300  20703239.50000
       274.00000       188.00000
   6219703.75500   4846514.65505  25416416.62100  25416415.59300  25416421.39500
          .00000         6.00000
 -11948614.73007  -9310603.77407  22767199.42800  22767199.65000  22767198.00400
        80.00000        48.00000
 -26784919.67208 -20871363.87208  20400821.52400  20400821.22300  20400819.98800
       303.00000       212.00000
  -2266897.48105  -1766416.38205  24420231.20700  24420230.71300  24420232.03800
         7.00000         8.00000
   -407141.76505   -317252.05505  25507274.22900  25507273.43200  25507275.09000
         6.00000         4.00000
 04  8 27  0 59  0.0000000  0 10G26G15G 9G29G18G10G22G21G 3G28
 -14770517.87208 -11509492.80307  21456376.69500  21456376.89800  21456376.44300
       172.00000        89.00000
 -18222325.15408 -14199213.50707  21581347.21800  21581346.59900  21581347.58600
       118.00000        67.00000
 -16131593.88508 -12570065.08107  21629043.17400  21629043.24000  21629044.48100
       150.00000        80.00000
  -9011179.72307  -7021698.28807  22566449.91300  22566449.82900  22566449.05700
        76.00000        45.00000
 -20877300.42708 -16268021.31808  20695172.01900  20695171.83300  20695170.47900
       273.00000       190.00000
   6316481.29200   4921925.68505  25434834.95600  25434831.98700  25434836.39300
          .00000         4.00000
 -12029336.51507  -9373503.83507  22751838.19100  22751838.10800  22751836.38600
        70.00000        46.00000
 -26754503.45108 -20847662.93908  20406609.62600  20406609.34600  20406608.10100
       302.00000       212.00000
  -2256826.23206  -1758568.69905  24422148.99900  24422148.43000  24422148.70700
        11.00000         8.00000
   -440362.93105   -343138.61705  25500954.73000  25500954.02600  25500953.58500
         9.00000         5.00000
 04  8 27  0 59 30.0000000  0 10G26G15G 9G29G18G10G22G21G 3G28
 -14684953.82208 -11442819.53607  21472659.09100  21472659.19100  21472658.85300
       169.00000        89.00000
 -18293498.95908 -14254673.61107  21567802.80600  21567802.51700  21567803.68800
       120.00000        69.00000
 -16219050.54308 -12638213.09607  21612400.99400  21612400.98300  21612402.06800
       151.00000        81.00000
  -8926492.18507  -6955708.03907  22582565.10100  22582564.99600  22582564.71400
        74.00000        46.00000
 -20919451.73608 -16300866.50008  20687150.80700  20687150.53400  20687149.21600
       270.00000       192.00000
   6413241.77500   4997323.41905  25453246.76200  25453247.82700  25453247.73200
        -1.00000         4.00000
 -12109978.78507  -9436341.92907  22736492.19800  22736491.97000  22736490.93400
        69.00000        45.00000
 -26723539.93708 -20823535.54008  20412501.46900  20412501.26700  20412500.09600
       300.00000       206.00000
  -2246282.91006  -1750353.15305  24424154.24600  24424154.85000  24424155.65600
        12.00000         7.00000
   -473199.14105   -368725.26405  25494704.27900  25494704.78900  25494706.01000
         9.00000         5.00000
 04  8 27  1  0  0.0000000  0 10G15G28G 9G29G18G10G26G22G21G 3
 -18364171.49808 -14309743.10807  21554354.32900  21554353.91600  21554354.91800
       117.00000        68.00000
   -505559.29205   -393940.94905  25488546.71200  25488546.69700  25488549.12000
         9.00000         5.00000
 -16306017.54608 -12705979.56507  21595851.85600  21595851.78300  21595852.51700
       158.00000        79.00000
  -8841610.44507  -6889566.45707  22598717.05000  22598717.10400  22598717.06200
        67.00000        46.00000
 -20961260.45708 -16333444.72108  20679194.78700  20679194.58700  20679193.39400
       268.00000       198.00000
   6510074.20700   5072777.25505  25471673.42000  25471673.01300  25471675.39700
        -1.00000         4.00000
 -14599073.04408 -11375899.46807  21489001.17900  21489001.66000  21489001.59900
       163.00000        89.00000
 -12190450.92307  -9499047.44607  22721178.64000  22721178.98900  22721176.91700
        76.00000        42.00000
 -26691940.42208 -20798912.55908  20418514.89400  20418514.66200  20418513.29100
       305.00000       203.00000
  -2235178.75706  -1741700.66805  24426266.87700  24426267.74500  24426268.71400
        12.00000         8.00000
 04  8 27  1  0 30.0000000  0 10G15G28G 9G29G18G10G26G22G21G 3
 -18434399.19508 -14364465.98107  21540991.03600  21540990.47400  21540990.98500
       125.00000        68.00000
   -537500.61105   -418830.30804  25482467.91600  25482467.39600  25482469.20600
         9.00000         3.00000
 -16392550.78008 -12773408.04207  21579384.67800  21579384.72300  21579385.97300
       154.00000        84.00000
  -8756595.02607  -6823320.71607  22614895.20500  22614894.93800  22614895.17900
        64.00000        46.00000
 -21002784.29608 -16365800.95708  20671293.16900  20671292.83100  20671291.72800
       262.00000       204.00000
   6606919.40400   5148241.02104  25490103.01500  25490101.79700  25490104.24200
        -2.00000         3.00000
 -14512936.55408 -11308780.14707  21505392.48500  21505392.70100  21505392.88200
       155.00000        89.00000
 -12270810.69107  -9561665.41507  22705887.82400  22705887.44500  22705884.60100
        79.00000        38.00000
 -26659764.67608 -20773840.56808  20424637.68000  20424637.41600  20424636.08300
       304.00000       195.00000
  -2223573.67506  -1732657.77305  24428476.84900  24428476.59700  24428477.27600
        15.00000         8.00000
 04  8 27  1  1  0.0000000  0 10G15G28G 9G29G18G10G26G22G21G 3
 -18504108.85508 -14418785.19507  21527724.98600  21527725.01200  21527725.47200
       131.00000        69.00000
   -568951.02506   -443337.14504  25476484.50900  25476484.13000  25476484.99400
        12.00000         3.00000
 -16478576.91908 -12840441.36307  21563014.99700  21563014.94200  21563015.96200
       160.00000        87.00000
  -8671377.35607  -6756917.37007  22631111.20100  22631111.38900  22631111.67700
        62.00000        46.00000
 -21043951.72808 -16397879.47708  20663459.14500  20663458.93100  20663457.81300
       259.00000       208.00000
   6703847.06000   5223769.01405  25508546.11400  25508545.27300  25508551.69900
          .00000         4.00000
 -14426476.60308 -11241408.77807  21521845.46100  21521845.44100  21521846.03800
       154.00000        90.00000
 -12350986.75607  -9624140.23307  22690630.47100  22690630.09100  22690627.78900
        77.00000        39.00000
 -26626942.66708 -20748264.99508  20430883.81400  20430883.43000  20430881.93600
       309.00000       191.00000
  -2211398.26205  -1723170.48205  24430793.57500  24430792.67900  24430794.04100
         9.00000         8.00000
 04  8 27  1  1 30.0000000  0 10G15G28G 9G29G18G10G26G22G21G 3
 -18573362.69608 -14472749.22107  21514546.96300  21514546.40200  21514547.18600
       128.00000        71.00000
   -599973.39605   -467510.40005  25470579.92100  25470580.64700  25470583.69300
         9.00000         4.00000
 -16564157.40908 -12907127.43307  21546729.50800  21546729.14700  21546729.79100
       156.00000        79.00000
  -8586023.48907  -6690407.89807  22647354.23100  22647353.96800  22647353.80400
        61.00000        46.00000
 -21084826.25408 -16429729.74908  20655680.66500  20655680.64900  20655679.81100
       259.00000       214.00000
   6800792.21100   5299310.76504  25526997.87000  25526996.79600  25526997.66900
          .00000         3.00000
 -14339760.07008 -11173837.47707  21538347.21200  21538347.37800  21538347.56000
       161.00000        89.00000
 -12431042.60207  -9686521.37407  22675396.70700  22675396.56600  22675393.78400
        87.00000        39.00000
 -26593539.49508 -20722236.57008  20437240.08000  20437239.76400  20437238.33900
       308.00000       188.00000
  -2198717.89405  -1713289.73505  24433207.47900  24433206.81500  24433206.97600
         9.00000         8.00000
 04  8 27  1  2  0.0000000  0  9G15G28G 9G29G18G26G22G21G 3
 -18642174.90008 -14526369.10607  21501451.87400  21501451.78000  21501452.43800
       127.00000        70.00000
   -630583.25305   -491362.28405  25464755.05100  25464755.25500  25464759.99600
         6.00000         6.00000
 -16649306.07308 -12973477.01407  21530526.35400  21530526.17200  21530526.84800
       157.00000        81.00000
  -8500551.96707  -6623806.75407  22663618.29200  22663618.59500  22663618.33100
        63.00000        45.00000
 -21125423.53508 -16461363.99408  20647955.78600  20647955.55600  20647954.29200
       270.00000       213.00000
 -14252806.11808 -11106081.16807  21554894.50400  21554894.44200  21554894.29200
       163.00000        87.00000
 -12510994.07107  -9748821.19307  22660182.16000  22660182.02700  22660179.70000
        89.00000        42.00000
 -26559572.96708 -20695769.16208  20443703.28500  20443703.11000  20443701.88400
       301.00000       183.00000
  -2185550.37706  -1703029.36805  24435711.59100  24435711.00500  24435712.79800
        13.00000         8.00000
 04  8 27  1  2 30.0000000  0  9G15G28G 9G29G18G26G22G21G 3
 -18710486.74808 -14579599.11207  21488452.54100  21488452.32900  21488453.31900
       128.00000        73.00000
   -660722.82305   -514847.72305  25459021.46300  25459020.99100  25459024.83900
         6.00000         7.00000
 -16733964.00108 -13039444.21007  21514415.58000  21514415.64000  21514416.82300
       155.00000        82.00000
  -8414908.66107  -6557071.75407  22679915.82400  22679915.90000  22679915.66000
        62.00000        42.00000
 -21165686.73508 -16492737.91708  20640293.99700  20640293.71000  20640292.44200
       272.00000       215.00000
 -14165561.13308 -11038098.08307  21571496.22800  21571496.43600  21571496.25100
       158.00000        85.00000
 -12590784.08107  -9810995.20807  22644998.43100  22644998.51000  22644995.66300
        86.00000        38.00000
 -26524987.94008 -20668819.81408  20450284.97600  20450284.78100  20450283.18500
       304.00000       180.00000
  -2171840.61906  -1692346.48806  24438321.20700  24438320.99500  24438322.18000
        16.00000        11.00000
 04  8 27  1  3  0.0000000  0  9G15G28G 9G29G18G26G22G21G 3
 -18778336.78308 -14632469.26007  21475540.89400  21475540.82900  21475541.85700
       131.00000        73.00000
   -690431.70805   -537997.57205  25453370.10000  25453368.92800  25453370.60800
         7.00000         4.00000
 -16818169.29508 -13105058.69607  21498392.17100  21498392.33500  21498393.25800
       167.00000        83.00000
  -8329135.94607  -6490235.90007  22696238.01500  22696237.81900  22696237.98700
        61.00000        43.00000
 -21205655.51008 -16523882.41308  20632688.01400  20632687.81000  20632686.56700
       271.00000       212.00000
 -14078068.59408 -10969922.10307  21588145.55600  21588145.64100  21588145.34000
       154.00000        83.00000
 -12670452.84707  -9873074.73507  22629837.65900  22629837.70800  22629835.84300
        81.00000        41.00000
 -26489826.18208 -20641421.05808  20456975.91800  20456975.56500  20456974.38400
       297.00000       181.00000
  -2157630.57105  -1681273.79406  24441025.13200  24441024.42400  24441027.35100
         8.00000        12.00000
 04  8 27  1  3 30.0000000  0  9G15G28G 9G29G18G26G22G21G 3
 -18845676.05208 -14684941.41107  21462727.03500  21462726.82400  21462727.47100
       136.00000        74.00000
   -719661.83405   -560774.27404  25447807.02500  25447805.78400  25447808.75500
         6.00000         3.00000
 -16901872.31108 -13170281.80107  21482464.87000  21482464.62500  21482464.52600
       172.00000        80.00000
  -8243189.27307  -6423264.50307  22712593.01000  22712592.77000  22712593.20300
        56.00000        42.00000
 -21245282.37408 -16554760.48108  20625147.46200  20625147.17300  20625145.73800
       274.00000       212.00000
 -13990284.38108 -10901518.84307  21604850.67500  21604850.60800  21604850.14500
       152.00000        82.00000
 -12749952.74107  -9935022.67507  22614709.38200  22614709.06900  22614707.47500
        77.00000        43.00000
 -26454041.80108 -20613537.14308  20463785.38400  20463785.20000  20463784.01600
       296.00000       183.00000
  -2142874.87105  -1669775.87205  24443832.51900  24443832.41400  24443833.98800
         7.00000        10.00000
 04  8 27  1  4  0.0000000  0  9G15G28G 9G29G18G26G22G21G 3
 -18912522.12008 -14737029.25007  21450006.89200  21450006.57400  21450006.92500
       136.00000        72.00000
   -748431.70905   -583192.38505  25442333.64600  25442332.50200  25442332.90900
         5.00000         5.00000
 -16985090.04808 -13235126.76207  21466628.32000  21466628.19400  21466629.26100
       166.00000        86.00000
  -8157090.29707  -6356174.41907  22728977.46800  22728976.96100  22728977.19800
        56.00000        41.00000
 -21284586.36808 -16585386.96508  20617667.99500  20617667.84000  20617666.43800
       279.00000       210.00000
 -13902230.98008 -10832905.82207  21621606.11500  21621606.52000  21621606.17400
       148.00000        78.00000
 -12829302.76607  -9996853.84207  22599609.33400  22599609.12300  22599607.98300
        78.00000        49.00000
 -26417655.50008 -20585184.20308  20470709.60300  20470709.37200  20470708.06600
       300.00000       181.00000
  -2127594.62505  -1657869.28505  24446741.83700  24446741.18700  24446742.47100
         7.00000        10.00000
 04  8 27  1  4 30.0000000  0  9G15G28G 9G29G18G26G22G21G 3
 -18978894.92708 -14788748.31107  21437376.56000  21437376.14800  21437376.57600
       136.00000        71.00000
   -776762.57605   -605268.42505  25436939.85200  25436941.55200  25436942.14600
         4.00000         6.00000
 -17067842.22408 -13299608.94507  21450881.73100  21450881.65400  21450881.58000
       179.00000        83.00000
  -8070863.14607  -6288984.45707  22745385.20500  22745385.10500  22745386.01900
        54.00000        40.00000
 -21323588.79808 -16615778.46908  20610246.15700  20610245.75800  20610244.47500
       271.00000       210.00000
 -13813933.36608 -10764102.50107  21638408.77100  21638408.93200  21638408.45900
       146.00000        75.00000
 -12908524.45307 -10058584.99607  22584534.68400  22584534.27200  22584532.12100
        84.00000        46.00000
 -26380690.87508 -20556380.61708  20477743.59100  20477743.45400  20477742.38500
       295.00000       185.00000
  -2111813.38305  -1645572.23806  24449743.89200  24449742.71700  24449745.45700
         6.00000        11.00000
 04  8 27  1  5  0.0000000  0  9G15G28G 9G29G18G26G22G21G 3
 -19044734.13708 -14840051.57707  21424847.72300  21424847.28200  21424847.92900
       135.00000        73.00000
   -804595.09804   -626956.18005  25431643.14900  25431642.60100  25431645.87300
         2.00000         6.00000
 -17150068.19608 -13363681.08807  21435234.25400  21435233.98600  21435234.99400
       175.00000        89.00000
  -7984451.69607  -6221650.88707  22761828.57600  22761829.03400  22761829.59800
        53.00000        39.00000
 -21362230.59108 -16645888.95108  20602892.89900  20602892.56800  20602891.26900
       270.00000       216.00000
 -13725335.86508 -10695065.51207  21655268.66500  21655268.59500  21655268.46700
       145.00000        76.00000
 -12987559.30007 -10120170.56207  22569494.70400  22569494.59300  22569492.16300
        90.00000        47.00000
 -26343090.96608 -20527082.00708  20484898.80600  20484898.45900  20484897.26900
       292.00000       183.00000
  -2095474.40305  -1632840.59306  24452852.94400  24452852.55200  24452854.19100
        10.00000        11.00000
 04  8 27  1  5 30.0000000  0  9G15G28G 9G29G18G26G22G21G 3
 -19110143.10908 -14891019.59807  21412400.88000  21412400.37000  21412400.90400
       141.00000        73.00000
   -832033.66105   -648336.94405  25426422.44400  25426422.20400  25426424.49600
         5.00000         7.00000
 -17231870.84808 -13427423.38507  21419667.44900  21419667.42800  21419668.07200
       176.00000        86.00000
  -7897963.49107  -6154257.52007  22778288.28100  22778287.54400  22778287.70800
        51.00000        38.00000
 -21400616.93308 -16675800.38408  20595588.04100  20595587.97700  20595586.71800
       271.00000       222.00000
 -13636546.96108 -10625879.36507  21672164.21800  21672164.50000  21672164.68200
       142.00000        75.00000
 -13066511.79407 -10181691.95307  22554470.94400  22554470.72500  22554468.12700
        98.00000        49.00000
 -26304962.68108 -20497371.67608  20492154.28000  20492154.09700  20492152.98600
       293.00000       184.00000
  -2078684.61806  -1619757.68406  24456047.68200  24456047.92100  24456050.09500
        11.00000        11.00000
 04  8 27  1  6  0.0000000  0  9G15G28G 9G29G18G26G22G21G 3
 -19175021.32008 -14941574.04007  21400055.08800  21400054.55600  21400055.26200
       138.00000        77.00000
   -858978.60404   -669333.03905  25421295.02400  25421295.14200  25421294.80000
         2.00000         5.00000
 -17313149.15408 -13490757.08907  21404200.98500  21404200.86100  21404201.19100
       180.00000        87.00000
  -7811301.95607  -6086729.09007  22794778.86300  22794778.84000  22794778.88300
        52.00000        37.00000
 -21438648.63508 -16705435.47208  20588350.81100  20588350.82700  20588349.51600
       272.00000       227.00000
 -13547470.88608 -10556469.44407  21689115.37400  21689115.13000  21689114.98600
       136.00000        73.00000
 -13145282.72507 -10243071.87907  22539481.06800  22539480.83500  22539478.07500
       100.00000        47.00000
 -26266208.63508 -20467173.73608  20499529.31400  20499528.93500  20499527.72200
       290.00000       184.00000
  -2061347.12505  -1606247.99206  24459345.79900  24459346.45500  24459348.80300
         9.00000        11.00000
 04  8 27  1  6 30.0000000  0  9G15G28G 9G29G18G26G22G21G 3
 -19239393.70108 -14991734.32907  21387805.30500  21387804.88500  21387805.47600
       140.00000        81.00000
   -885456.38100   -689965.12705  25416251.65000  25416256.17800  25416257.36400
          .00000         4.00000
 -17393927.83108 -13553701.46507  21388828.75900  21388828.74900  21388829.45400
       177.00000        89.00000
  -7724496.35607  -6019088.40307  22811297.54900  22811297.60200  22811297.54300
        56.00000        37.00000
 -21476351.92008 -16734814.65108  20581175.94100  20581176.01600  20581174.80700
       273.00000       227.00000
 -13458137.35508 -10486858.91507  21706114.06600  21706114.61200  21706114.75800
       137.00000        73.00000
 -13223898.73808 -10304331.07707  22524520.81400  22524520.74000  22524518.30100
       101.00000        50.00000
 -26226856.53408 -20436509.78808  20507017.69900  20507017.30600  20507016.17900
       293.00000       179.00000
  -2043490.45405  -1592333.76706  24462745.92400  24462745.24200  24462747.38200
         9.00000        14.00000
 04  8 27  1  7  0.0000000  0  9G15G28G 9G29G18G26G22G21G 3
 -19303267.88108 -15041506.40707  21375650.14500  21375649.74100  21375650.68200
       139.00000        80.00000
   -911475.34400   -710239.71205  25411301.78300  25411300.04100  25411303.91400
          .00000         5.00000
 -17474213.87108 -13616261.98207  21373551.04200  21373550.82500  21373551.50400
       180.00000        89.00000
  -7637558.19507  -5951344.42007  22827840.72100  22827841.17000  22827841.30900
        58.00000        36.00000
 -21513735.59808 -16763944.78508  20574062.44700  20574062.22000  20574060.92900
       271.00000       229.00000
 -13368558.79808 -10417057.45507  21723160.90100  21723161.08100  21723161.11300
       138.00000        73.00000
 -13302368.87207 -10365476.61907  22509588.50800  22509588.30000  22509585.75800
        95.00000        50.00000
 -26186918.46608 -20405389.23408  20514617.64300  20514617.29400  20514615.93200
       294.00000       174.00000
  -2025125.88405  -1578023.73106  24466240.09900  24466239.93100  24466242.04400
        10.00000        13.00000
 04  8 27  1  7 30.0000000  0  9G15G28G 9G29G18G26G22G21G 3
 -19366618.42908 -15090870.46807  21363595.18400  21363594.69100  21363595.23300
       141.00000        76.00000
   -937011.07100   -730137.75905  25406440.61200  25406443.90400  25406444.10100
          .00000         6.00000
 -17553981.51308 -13678418.54007  21358372.15100  21358372.00700  21358371.97200
       191.00000        87.00000
  -7550466.14807  -5883480.52407  22844413.97100  22844413.89700  22844414.45400
        52.00000        37.00000
 -21550775.46208 -16792807.01508  20567013.88200  20567013.68000  20567012.44000
       269.00000       232.00000
 -13278714.60608 -10347049.01107  21740257.79200  21740257.80800  21740257.95100
       136.00000        73.00000
 -13380668.99107 -10426489.66707  22494688.07700  22494688.03600  22494685.99300
        98.00000        53.00000
 -26146371.66408 -20373794.35008  20522333.53000  20522333.17200  20522331.91300
       291.00000       174.00000
  -2006231.78506  -1563301.14205  24469835.80500  24469835.77600  24469836.80000
        15.00000        10.00000
 04  8 27  1  8  0.0000000  0  9G15G28G 9G29G18G26G22G21G 3
 -19429463.41808 -15139840.58407  21351636.00800  21351635.63300  21351636.32300
       142.00000        79.00000
   -962083.09004   -749674.51805  25401673.36200  25401672.32500  25401674.12000
         1.00000         6.00000
 -17633248.46908 -13740184.95607  21343287.60500  21343287.56600  21343288.12800
       185.00000        88.00000
  -7463242.54807  -5815514.11507  22861012.15500  22861012.16500  22861012.65000
        51.00000        38.00000
 -21587491.15608 -16821416.64608  20560027.23100  20560026.91900  20560025.67500
       269.00000       233.00000
 -13188627.68008 -10276851.42407  21757400.63500  21757400.69300  21757400.86600
       136.00000        73.00000
 -13458818.66408 -10487385.49407  22479816.88700  22479816.51200  22479814.35100
       101.00000        54.00000
 -26105238.50008 -20341742.55108  20530160.84300  20530160.54100  20530159.11700
       291.00000       167.00000
  -1986829.85106  -1548182.79206  24473528.12300  24473528.12900  24473528.98700
        16.00000        11.00000
 04  8 27  1  8 30.0000000  0  9G15G28G 9G29G18G26G22G21G 3
 -19491821.87908 -15188431.58307  21339769.60300  21339769.08700  21339770.00000
       140.00000        81.00000
   -986711.27904   -768865.39205  25396986.07200  25396987.07800  25396987.63300
         1.00000         5.00000
 -17712033.33008 -13801575.71807  21328295.36100  21328295.39300  21328295.92000
       191.00000        92.00000
  -7375910.28407  -5747463.03907  22877630.62600  22877630.43400  22877631.40800
        45.00000        36.00000
 -21623903.21008 -16849789.67708  20553098.33800  20553098.04800  20553096.56700
       270.00000       231.00000
 -13098321.76808 -10206483.20407  21774585.20300  21774585.52200  21774585.45700
       136.00000        71.00000
 -13536838.15608 -10548179.89007  22464969.89600  22464970.05100  22464968.01800
       102.00000        55.00000
 -26063541.26508 -20309251.22508  20538095.51600  20538095.20700  20538093.98600
       287.00000       165.00000
  -1966942.45106  -1532686.16605  24477311.29900  24477312.33300  24477314.08900
        15.00000        10.00000
 04  8 27  1  9  0.0000000  0  9G15G28G 9G29G18G26G22G21G 3
 -19553676.13408 -15236629.68107  21327999.28700  21327998.77300  21327999.53600
       145.00000        84.00000
  -1010878.88504   -787697.34505  25392389.89200  25392389.57600  25392385.73900
         1.00000         5.00000
 -17790317.64108 -13862576.44307  21313398.81800  21313398.65600  21313398.81500
       198.00000        91.00000
  -7288455.46207  -5679316.44907  22894272.80300  22894272.84900  22894273.50100
        44.00000        37.00000
 -21659994.97408 -16877913.12208  20546230.08400  20546229.93700  20546228.61500
       264.00000       232.00000
 -13007783.80908 -10135934.16407  21791814.36500  21791814.46100  21791813.88300
       137.00000        68.00000
 -13614710.91608 -10608859.93807  22450151.02600  22450150.99100  22450149.52900
       101.00000        56.00000
 -26021265.27608 -20276308.91808  20546140.29800  20546140.04200  20546139.05400
       287.00000       167.00000
  -1946555.60706  -1516800.36305  24481190.71400  24481190.68200  24481193.74300
        11.00000         9.00000
 04  8 27  1  9 30.0000000  0  9G15G28G 9G29G18G26G22G21G 3
 -19614986.49808 -15284403.97807  21316331.99400  21316331.78200  21316332.59000
       153.00000        82.00000
  -1034547.53304   -806140.43405  25387887.06200  25387887.19700  25387884.71900
         3.00000         6.00000
 -17868061.63008 -13923156.14307  21298604.46800  21298604.36700  21298604.51900
       197.00000        91.00000
  -7200842.72007  -5611046.82707  22910945.89700  22910945.17400  22910945.95400
        42.00000        37.00000
 -21695728.21308 -16905757.19408  20539430.28300  20539430.02000  20539428.83100
       260.00000       235.00000
 -12916978.86208 -10065177.08407  21809093.70100  21809094.10200  21809093.73100
       134.00000        68.00000
 -13692398.83808 -10669395.94807  22435367.98200  22435367.58000  22435365.81900
       101.00000        56.00000
 -25978374.40008 -20242887.48208  20554302.24500  20554301.99900  20554300.57200
       291.00000       160.00000
  -1925633.46605  -1500497.47405  24485173.35700  24485172.54100  24485174.08100
        10.00000         9.00000
 04  8 27  1 10  0.0000000  0 10G15G28G 9G29G18G26G22G21G 3G19
 -19675787.13208 -15331781.08807  21304762.32700  21304761.87000  21304762.26300
       158.00000        76.00000
  -1057752.35800   -824222.14305  25383470.60200  25383471.11800  25383468.48400
          .00000         7.00000
 -17945299.06308 -13983341.11507  21283906.37400  21283906.17900  21283907.07000
       195.00000        95.00000
  -7113110.01207  -5542683.71507  22927640.58700  22927640.45600  22927641.29200
        43.00000        38.00000
 -21731138.28208 -16933349.44908  20532692.09900  20532691.90700  20532690.51100
       264.00000       239.00000
 -12825945.90208  -9994242.32907  21826416.75000  21826416.89800  21826417.16700
       125.00000        69.00000
 -13769937.33508 -10729815.51807  22420612.35900  22420612.60600  22420610.63500
       102.00000        56.00000
 -25934906.46008 -20209016.37908  20562573.79000  20562573.69600  20562572.36400
       295.00000       159.00000
  -1904213.91406  -1483806.97905  24489250.36300  24489249.62900  24489249.96500
        15.00000        10.00000
         -.69814         -.69215  25262352.54400  25262352.11900  25262352.74000
         2.00000         5.00000
 04  8 27  1 10 30.0000000  0 10G15G28G 9G29G18G26G22G21G 3G19
 -19736111.49508 -15378787.07807  21293283.22500  21293282.56200  21293282.85300
       156.00000        74.00000
  -1080528.26500   -841969.62105  25379138.27200  25379137.76800  25379136.18400
          .00000         8.00000
 -18022063.20308 -14043157.29707  21269299.12400  21269298.93100  21269299.19400
       206.00000        99.00000
  -7025295.02207  -5474256.48707  22944351.21600  22944351.08200  22944351.86500
        46.00000        37.00000
 -21766260.12408 -16960717.11008  20526008.40500  20526008.27800  20526007.09300
       260.00000       246.00000
 -12734723.38108  -9923159.87807  21843775.89100  21843776.05400  21843776.14000
       119.00000        68.00000
 -13847361.51108 -10790146.01407  22405879.89900  22405879.36600  22405877.21500
       101.00000        57.00000
 -25890898.59408 -20174724.55608  20570948.72700  20570948.20200  20570946.92800
       292.00000       162.00000
  -1882334.12606  -1466757.84605  24493412.92400  24493412.07600  24493413.92300
        11.00000        10.00000
    -46478.80405    -36217.38805  25253509.48900  25253508.66100  25253506.96500
         7.00000         5.00000
 04  8 27  1 11  0.0000000  0 10G15G28G 9G29G18G26G22G21G 3G19
 -19795891.86608 -15425369.17807  21281907.54500  21281906.93500  21281907.21900
       158.00000        80.00000
  -1102808.39904   -859330.78105  25374896.20100  25374897.91100  25374896.13900
         1.00000         7.00000
 -18098285.95108 -14102551.60708  21254793.99000  21254793.85400  21254794.70800
       199.00000       102.00000
  -6937333.82807  -5405715.33707  22961089.24100  22961089.27300  22961090.21700
        45.00000        36.00000
 -21801027.59708 -16987808.64208  20519392.13500  20519392.13500  20519391.15300
       253.00000       249.00000
 -12643247.95808  -9851880.35207  21861183.40100  21861183.34900  21861183.28300
       115.00000        69.00000
 -13924604.80708 -10850335.56507  22391179.66500  22391180.04200  22391177.89200
       104.00000        54.00000
 -25846285.97808 -20139961.49708  20579438.13500  20579437.87700  20579436.47300
       308.00000       163.00000
  -1859930.06906  -1449300.16305  24497676.57100  24497676.39800  24497677.66000
        14.00000        10.00000
    -92451.38505    -72040.16505  25244761.93000  25244760.80500  25244760.09100
         8.00000         7.00000
 04  8 27  1 11 30.0000000  0 10G15G28G 9G29G18G26G22G21G 3G19
 -19855178.07608 -15471566.21807  21270625.00800  21270624.67000  21270625.49600
       157.00000        83.00000
  -1124643.76304   -876345.29905  25370741.95700  25370742.24900  25370741.35600
         2.00000         8.00000
 -18174016.54808 -14161562.42908  21240382.84700  21240382.75100  21240383.56800
       201.00000       101.00000
  -6849280.07707  -5337102.05007  22977846.13600  22977845.83800  22977846.37000
        48.00000        37.00000
 -21835491.13208 -17014663.33208  20512834.03100  20512833.89900  20512832.85900
       250.00000       248.00000
 -12551574.03508  -9780446.16007  21878628.51800  21878628.35700  21878628.13600
       114.00000        67.00000
 -14001718.10308 -10910423.81407  22376505.95700  22376506.15900  22376504.17000
       110.00000        57.00000
 -25801122.81908 -20104769.44608  20588032.07800  20588031.79600  20588030.66200
       301.00000       162.00000
  -1837055.28905  -1431475.73105  24502028.02200  24502028.95700  24502030.34900
         8.00000        10.00000
   -137968.95706   -107508.41205  25236099.58200  25236098.17300  25236098.04800
        11.00000         7.00000
 04  8 27  1 12  0.0000000  0 10G15G28G 9G29G18G26G22G21G 3G19
 -19913909.16808 -15517330.69707  21259448.92500  21259448.61800  21259449.57300
       158.00000        88.00000
  -1145974.55600   -892966.64805  25366682.26500  25366682.06200  25366681.89600
        -1.00000         9.00000
 -18249193.69408 -14220141.98808  21226077.22600  21226077.19000  21226077.79600
       207.00000       102.00000
  -6761076.77907  -5268372.26407  22994630.83300  22994630.55600  22994630.69000
        51.00000        36.00000
 -21869591.29508 -17041234.88608  20506345.13800  20506344.85600  20506343.80400
       247.00000       246.00000
 -12459645.40708  -9708813.49207  21896121.71100  21896121.36600  21896121.58800
       108.00000        64.00000
 -14078641.72308 -10970364.27207  22361867.36300  22361867.68100  22361866.10100
       103.00000        58.00000
 -25755351.19508 -20069103.26508  20596742.55700  20596742.18200  20596740.68400
       312.00000       161.00000
  -1813652.69605  -1413239.98005  24506482.46700  24506481.71800  24506483.25900
         5.00000         9.00000
   -182971.55605   -142575.40705  25227535.63900  25227533.60300  25227534.92900
         8.00000         8.00000
 04  8 27  1 12 30.0000000  0 10G15G28G 9G29G18G26G22G21G 3G19
 -19972072.24608 -15562652.57207  21248381.43000  21248380.89900  21248381.21500
       156.00000        88.00000
  -1166789.03100   -909185.71905  25362718.27700  25362717.10700  25362721.69700
        -1.00000         9.00000
 -18323804.16608 -14278279.99208  21211879.42000  21211879.04500  21211879.58300
       203.00000       101.00000
  -6672715.04207  -5199518.98207  23011445.03900  23011445.11500  23011445.26000
        50.00000        36.00000
 -21903316.54708 -17067514.29708  20499927.31700  20499927.24000  20499926.05700
       245.00000       248.00000
 -12367453.76008  -9636975.87907  21913664.68400  21913664.93900  21913665.09800
       108.00000        62.00000
 -14155364.25508 -11030148.03607  22347268.16600  22347268.06200  22347265.90100
       106.00000        58.00000
 -25708961.84708 -20032955.75108  20605570.26200  20605569.89700  20605568.49800
       316.00000       160.00000
  -1789712.99205  -1394585.72005  24511037.06100  24511037.36300  24511039.12000
         8.00000        10.00000
   -227447.10705   -177231.76805  25219071.21900  25219070.75600  25219070.82400
         7.00000         9.00000
 04  8 27  1 13  0.0000000  0 10G15G28G 9G29G18G26G22G21G 3G19
 -20029710.79308 -15607565.72607  21237413.03400  21237412.43800  21237412.92700
       157.00000        87.00000
  -1187131.75600   -925037.19005  25358846.63400  25358844.99400  25358850.38400
        -1.00000        10.00000
 -18397891.08008 -14336010.02408  21197781.42000  21197781.11600  21197781.83900
       213.00000       106.00000
  -6584242.10107  -5130579.07607  23028282.03300  23028281.56700  23028281.37300
        50.00000        37.00000
 -21936711.52908 -17093536.35008  20493572.55700  20493572.37200  20493571.30400
       245.00000       254.00000
 -12275047.09508  -9564970.71907  21931248.84600  21931249.34200  21931249.51800
       105.00000        59.00000
 -14231930.09708 -11089809.69407  22332697.46700  22332697.86300  22332696.03200
       112.00000        60.00000
 -25662001.81108 -19996363.54008  20614506.08800  20614505.78800  20614504.60900
       311.00000       159.00000
  -1765283.32405  -1375549.64106  24515687.00000  24515686.20400  24515688.65400
        10.00000        13.00000
   -271439.86805   -211511.88805  25210699.93700  25210699.22000  25210699.29800
        10.00000        10.00000
 04  8 27  1 13 30.0000000  0 10G15G28G 9G29G18G26G22G21G 3G19
 -20086833.99808 -15652077.30807  21226542.48700  21226542.14900  21226542.96100
       162.00000        88.00000
  -1207013.23200   -940529.25705  25355063.01400  25355066.67700  25355069.59400
          .00000         7.00000
 -18471463.26308 -14393338.97108  21183780.30300  21183780.42900  21183781.47000
       211.00000       108.00000
  -6495670.84507  -5061562.54707  23045136.20800  23045136.01400  23045135.83500
        47.00000        35.00000
 -21969786.70308 -17119309.20008  20487278.37800  20487278.27800  20487277.31700
       244.00000       254.00000
 -12182439.21208  -9492808.76407  21948872.34900  21948872.22400  21948872.33800
       103.00000        59.00000
 -14308349.82808 -11149357.50807  22318156.23000  22318156.01700  22318154.06700
       114.00000        63.00000
 -25614483.74208 -19959336.49808  20623548.63900  20623548.42700  20623547.15100
       315.00000       158.00000
  -1740376.72805  -1356141.96406  24520425.60000  24520425.58500  24520427.87800
        10.00000        13.00000
   -314959.97406   -245423.70706  25202418.75900  25202418.71200  25202418.41400
        16.00000        11.00000
 04  8 27  1 14  0.0000000  0 10G15G28G 9G29G18G26G22G21G 3G19
 -20143411.98708 -15696164.04907  21215776.09900  21215775.65800  21215776.44200
       159.00000        92.00000
  -1226404.65800   -955639.45005  25351377.80400  25351375.94200  25351376.57600
          .00000        10.00000
 -18544490.33108 -14450243.15208  21169884.14100  21169883.87200  21169884.56800
       207.00000       106.00000
  -6406975.42907  -4992449.27707  23062013.88200  23062013.86000  23062014.49200
        42.00000        36.00000
 -22002513.41208 -17144810.52908  20481051.01400  20481050.77700  20481049.52200
       252.00000       251.00000
 -12089604.69607  -9420470.20607  21966537.61400  21966537.76400  21966538.00200
       100.00000        56.00000
 -14384594.68308 -11208769.05107  22303646.35200  22303646.62000  22303644.83400
       112.00000        61.00000
 -25566381.58408 -19921854.32608  20632702.09500  20632701.80200  20632700.58200
       305.00000       155.00000
  -1714967.02906  -1336342.24406  24525261.92600  24525261.12400  24525263.47500
        12.00000        13.00000
   -357978.59306   -278944.74705  25194232.71000  25194232.63400  25194232.01900
        16.00000        10.00000
 04  8 27  1 14 30.0000000  0 10G15G28G 9G29G18G26G22G21G 3G19
 -20199461.50508 -15739838.98907  21205110.43900  21205109.94100  21205110.71800
       160.00000        93.00000
  -1245323.95400   -970381.73405  25347773.55500  25347773.47000  25347773.91700
        -2.00000         8.00000
 -18616988.82408 -14506735.45308  21156088.09900  21156087.95600  21156088.71500
       216.00000       110.00000
  -6318176.28907  -4923255.18207  23078910.07000  23078910.85100  23078912.03900
        36.00000        35.00000
 -22034909.51408 -17170054.23608  20474886.31700  20474885.95500  20474884.68200
       251.00000       249.00000
 -11996564.84907  -9347971.65107  21984242.60800  21984242.62700  21984243.21900
        99.00000        58.00000
 -14460682.33408 -11268058.09907  22289167.60900  22289167.90100  22289165.44200
       118.00000        58.00000
 -25517715.74408 -19883932.91308  20641962.65600  20641962.57500  20641961.36000
       295.00000       153.00000
  -1689074.60806  -1316166.36406  24530189.35000  24530188.74100  24530190.76800
        11.00000        11.00000
   -400513.25106   -312088.67805  25186139.03800  25186138.12600  25186137.90100
        15.00000         9.00000
 04  8 27  1 15  0.0000000  0 10G15G28G19G 9G29G18G26G22G21G 3
 -20254964.06208 -15783087.72107  21194548.45600  21194548.06000  21194548.74500
       161.00000        89.00000
  -1263753.69200   -984742.59405  25344269.81300  25344269.06400  25344269.24500
        -1.00000         9.00000
   -442546.35906   -344841.77205  25178140.65200  25178138.60300  25178139.91200
        12.00000         8.00000
 -18688939.55308 -14562800.92208  21142396.23000  21142395.84700  21142397.09900
       208.00000       112.00000
  -6229258.57007  -4853968.67106  23095830.80300  23095830.97200  23095832.03400
        34.00000        31.00000
 -22066957.47408 -17195026.66708  20468787.82400  20468787.51900  20468786.07500
       251.00000       247.00000
 -11903305.56208  -9275302.09507  22001989.38500  22001989.42900  22001989.52700
       103.00000        59.00000
 -14536595.74308 -11327211.39007  22274722.13100  22274722.28000  22274720.19800
       121.00000        64.00000
 -25468470.81108 -19845560.26808  20651333.86700  20651333.62100  20651332.53400
       287.00000       155.00000
  -1662684.68506  -1295602.84606  24535210.24000  24535210.46400  24535212.81100
        11.00000        11.00000
 04  8 27  1 15 30.0000000  0 10G15G28G19G 9G29G18G26G22G21G 3
 -20309905.27608 -15825899.05407  21184093.29500  21184092.94000  21184093.47200
       166.00000        84.00000
  -1281680.92800   -998711.82705  25340859.91800  25340859.06300  25340858.46700
          .00000        10.00000
   -484064.58906   -377193.67005  25170237.96100  25170238.30300  25170238.61600
        16.00000         8.00000
 -18760328.02008 -14618428.27408  21128810.95500  21128811.09500  21128812.18700
       220.00000       112.00000
  -6140211.86207  -4784581.66906  23112776.26500  23112776.59800  23112777.30700
        35.00000        30.00000
 -22098644.46708 -17219717.82208  20462757.75600  20462757.51600  20462756.24000
       250.00000       250.00000
 -11809817.28708  -9202454.11907  22019780.24500  22019780.07000  22019780.53300
       111.00000        62.00000
 -14612321.73108 -11386218.62407  22260311.88200  22260311.95300  22260309.69700
       118.00000        62.00000
 -25418636.02308 -19806727.98608  20660816.93300  20660816.62200  20660815.77700
       271.00000       151.00000
  -1635786.85006  -1274643.50505  24540328.72400  24540328.68000  24540330.64300
        11.00000        10.00000
 04  8 27  1 16  0.0000000  0 10G15G28G19G 9G29G18G26G22G21G 3
 -20364311.01308 -15868293.14007  21173740.36000  21173740.04300  21173740.66300
       170.00000        86.00000
  -1299132.84104  -1012310.67305  25337537.80300  25337537.83500  25337537.50600
         2.00000        10.00000
   -525094.82906   -409165.27705  25162432.47900  25162430.67800  25162430.74300
        16.00000         8.00000
 -18831179.91408 -14673637.51108  21115328.60100  21115328.66900  21115329.04000
       226.00000       111.00000
  -6051065.72807  -4715117.18106  23129741.04800  23129741.04800  23129740.74000
        39.00000        27.00000
 -22129997.33408 -17244148.61908  20456791.56800  20456791.31800  20456789.98200
       250.00000       253.00000
 -11716130.39408  -9129451.37007  22037607.71900  22037608.17400  22037608.74300
       114.00000        63.00000
 -14687887.21108 -11445100.78407  22245932.33100  22245932.19200  22245930.37200
       114.00000        63.00000
 -25368241.27408 -19767459.37908  20670406.68600  20670406.47700  20670405.61600
       269.00000       150.00000
  -1608410.45606  -1253311.32006  24545538.39400  24545537.17000  24545541.18800
        11.00000        12.00000
 04  8 27  1 16 30.0000000  0 10G15G28G19G 9G29G18G26G22G21G 3
 -20418217.01408 -15910297.81207  21163482.50000  21163482.12400  21163482.62900
       170.00000        89.00000
  -1316145.94504  -1025567.65105  25334297.78400  25334298.81700  25334300.01600
         1.00000         9.00000
   -565673.61606   -440785.12305  25154709.51100  25154708.51500  25154709.28500
        14.00000         8.00000
 -18901530.39108 -14728456.03608  21101941.54400  21101941.35700  21101942.24900
       228.00000       115.00000
  -5961859.59207  -4645605.94906  23146718.28900  23146717.76100  23146716.84800
        44.00000        27.00000
 -22161052.73408 -17268347.62908  20450881.82100  20450881.60200  20450880.37800
       246.00000       258.00000
 -11622284.65608  -9056324.85307  22055466.60200  22055466.70400  22055466.37900
       113.00000        59.00000
 -14763328.83808 -11503886.44207  22231576.14300  22231576.18500  22231574.23500
       117.00000        66.00000
 -25317325.39108 -19727784.69208  20680095.71900  20680095.59400  20680094.60300
       271.00000       151.00000
  -1580595.25506  -1231637.16706  24550832.59800  24550832.24200  24550834.77500
        19.00000        12.00000
 04  8 27  1 17  0.0000000  0 10G15G28G19G 9G29G18G26G22G21G 3
 -20471534.01808 -15951843.51707  21153336.76300  21153336.27400  21153336.88300
       176.00000        91.00000
  -1332632.61100  -1038414.36905  25331162.94200  25331163.07100  25331161.67500
          .00000         8.00000
   -605712.62606   -471984.33505  25147091.48800  25147089.78900  25147090.00900
        15.00000         7.00000
 -18971289.91008 -14782814.08308  21088666.73600  21088666.70400  21088666.84200
       234.00000       111.00000
  -5872508.08107  -4575981.43706  23163720.30300  23163720.31000  23163719.48500
        45.00000        26.00000
 -22191722.82608 -17292246.39608  20445045.66400  20445045.40500  20445044.09500
       247.00000       262.00000
 -11528195.54208  -8983008.70107  22073371.08400  22073371.17100  22073370.97100
       106.00000        58.00000
 -14838558.49808 -11562506.91907  22217260.37700  22217260.30600  22217258.27500
       118.00000        62.00000
 -25265803.20608 -19687637.56008  20689900.15700  20689899.87400  20689898.95000
       271.00000       147.00000
  -1552255.75906  -1209554.51906  24556224.68600  24556224.75800  24556226.98000
        19.00000        12.00000
 04  8 27  1 17 30.0000000  0 10G15G28G19G 9G29G18G26G22G21G 3
 -20524315.26308 -15992971.75607  21143293.04600  21143292.46200  21143292.70400
       183.00000        87.00000
  -1348646.98600  -1050893.11705  25328116.87600  25328114.94800  25328114.48500
          .00000         9.00000
   -645266.21106   -502805.30305  25139564.56600  25139563.67700  25139563.95400
        13.00000         7.00000
 -19040511.44508 -14836752.91508  21075493.95700  21075494.03900  21075494.56500
       231.00000       112.00000
  -5783067.95507  -4506287.86406  23180740.17400  23180739.72700  23180739.75600
        40.00000        27.00000
 -22222062.29008 -17315887.53408  20439272.38700  20439272.05700  20439270.73400
       245.00000       265.00000
 -11433920.66308  -8909547.79007  22091310.39800  22091310.75100  22091310.81100
       101.00000        55.00000
 -14913630.50208 -11621004.55707  22202974.39700  22202974.50600  22202972.37600
       122.00000        61.00000
 -25213731.45008 -19647062.19108  20699809.75300  20699809.22600  20699807.88500
       275.00000       145.00000
  -1523449.05606  -1187107.77106  24561705.41900  24561705.52300  24561708.73700
        11.00000        11.00000
 04  8 27  1 18  0.0000000  0 10G15G28G19G 9G29G18G26G22G21G 3
 -20576536.78208 -16033663.84807  21133355.44800  21133355.02100  21133355.20400
       180.00000        87.00000
  -1364166.33204  -1062986.07305  25325161.75200  25325161.14800  25325161.44600
         1.00000         9.00000
   -684311.13005   -533229.90305  25132133.94500  25132132.94300  25132132.63400
         8.00000         6.00000
 -19109170.54708 -14890253.49308  21062428.91900  21062428.93900  21062429.21800
       245.00000       114.00000
  -5693518.78507  -4436509.32206  23197779.71800  23197779.83400  23197780.43300
        35.00000        29.00000
 -22252048.00208 -17339253.01708  20433566.06200  20433565.92600  20433564.60100
       247.00000       265.00000
 -11339440.28107  -8835926.74907  22109289.63700  22109289.81300  22109289.97000
       100.00000        55.00000
 -14988521.93608 -11679361.48507  22188722.99700  22188723.31600  22188721.07900
       128.00000        64.00000
 -25161090.13108 -19606043.01008  20709826.25100  20709826.15700  20709825.30800
       275.00000       145.00000
  -1494154.51206  -1164280.94105  24567281.24900  24567281.24600  24567282.48400
        11.00000         9.00000
 04  8 27  1 18 30.0000000  0 10G15G28G19G 9G29G18G26G22G21G 3
 -20628181.47208 -16073906.45807  21123527.43600  21123526.99900  21123527.73300
       171.00000        88.00000
  -1379174.50400  -1074680.75105  25322303.74300  25322302.21100  25322306.44600
          .00000         9.00000
   -722831.29905   -563245.62605  25124804.48900  25124802.19500  25124802.07000
         7.00000         5.00000
 -19177249.78008 -14943302.22108  21049473.75400  21049473.58700  21049474.34000
       234.00000       116.00000
  -5603847.14707  -4366635.35706  23214842.67300  23214843.02800  23214844.22400
        32.00000        27.00000
 -22281663.51308 -17362330.03608  20427930.72200  20427930.23400  20427928.80400
       243.00000       260.00000
 -11244741.63008  -8762135.62307  22127310.29300  22127310.51200  22127310.63600
       102.00000        56.00000
 -15063216.68408 -11737565.16507  22174509.57400  22174509.47400  22174507.23400
       128.00000        65.00000
 -25107865.10708 -19564568.99008  20719955.01800  20719954.58000  20719953.80300
       270.00000       145.00000
  -1464359.03906  -1141063.76306  24572951.36500  24572950.35400  24572953.72900
        11.00000        11.00000
 04  8 27  1 19  0.0000000  0 10G15G28G19G 9G29G18G26G22G21G 3
 -20679298.16108 -16113737.63207  21113800.17900  21113799.76500  21113800.61700
       172.00000        92.00000
  -1393721.91000  -1086016.38905  25319533.16300  25319533.07600  25319536.01800
        -1.00000         9.00000
   -760876.60405   -592891.36405  25117562.08100  25117563.18000  25117563.18700
         8.00000         6.00000
 -19244797.79208 -14995937.01508  21036619.95500  21036619.63400  21036620.20400
       237.00000       117.00000
  -5514105.45106  -4296706.79906  23231921.63600  23231920.80500  23231921.62600
        29.00000        29.00000
 -22310958.91908 -17385157.61908  20422355.65000  20422355.43200  20422354.03400
       243.00000       256.00000
 -11149877.88207  -8688215.85007  22145362.54800  22145362.63700  22145362.90800
       100.00000        58.00000
 -15137764.51808 -11795654.35207  22160322.49500  22160323.12800  22160321.04200
       126.00000        66.00000
 -25054108.64808 -19522680.87108  20730184.64400  20730184.35000  20730183.17100
       275.00000       140.00000
  -1434115.26406  -1117497.21806  24578707.01500  24578706.49600  24578708.57000
        15.00000        11.00000
 04  8 27  1 19 30.0000000  0 10G15G28G19G 9G29G18G26G22G21G 3
 -20729856.34908 -16153133.61407  21104179.52600  21104179.17000  21104179.59800
       180.00000        92.00000
  -1407779.22100  -1096970.20505  25316858.94700  25316860.42200  25316863.50100
          .00000         8.00000
   -798417.66405   -622144.11705  25110420.46600  25110418.51000  25110419.27200
        10.00000         6.00000
 -19311783.73908 -15048133.83308  21023872.35500  21023872.47900  21023872.94600
       235.00000       114.00000
  -5424266.86706  -4226702.76606  23249016.68300  23249016.71500  23249017.55300
        29.00000        31.00000
 -22339904.85308 -17407712.89608  20416847.46600  20416847.32300  20416845.82500
       247.00000       256.00000
 -11054822.95107  -8614147.11007  22163450.70000  22163450.74300  22163451.52600
        98.00000        59.00000
 -15212136.12008 -11853606.21507  22146170.02300  22146170.52200  22146168.45600
       125.00000        68.00000
 -24999794.81608 -19480358.43908  20740520.07700  20740519.61000  20740518.95400
       265.00000       141.00000
  -1403396.68406  -1093560.72706  24584552.50800  24584552.11300  24584555.11400
        18.00000        12.00000
 04  8 27  1 20  0.0000000  0 10G15G28G19G 9G29G18G26G22G21G 3
 -20779821.83708 -16192067.74907  21094671.54400  21094671.14400  21094671.43700
       183.00000        91.00000
  -1421313.33800  -1107516.25105  25314284.58600  25314285.08500  25314286.73100
          .00000         8.00000
   -835420.75506   -650977.69405  25103378.93200  25103377.58200  25103376.72900
        11.00000         5.00000
 -19378173.01708 -15099865.71308  21011239.00800  21011238.99900  21011240.01200
       228.00000       119.00000
  -5334300.62707  -4156599.24906  23266137.58300  23266137.27400  23266137.37400
        32.00000        29.00000
 -22368468.36408 -17429970.17408  20411412.15300  20411411.84700  20411410.48800
       243.00000       264.00000
 -10959546.86407  -8539906.04107  22181581.27400  22181581.35900  22181581.72600
        93.00000        58.00000
 -15286298.19008 -11911394.81407  22132057.76700  22132058.08600  22132056.06800
       130.00000        69.00000
 -24944892.69408 -19437577.59108  20750967.47300  20750967.25500  20750966.10300
       265.00000       132.00000
  -1372172.82306  -1069230.48106  24590493.99200  24590494.18700  24590496.15200
        16.00000        11.00000
 04  8 27  1 20 30.0000000  0 10G15G28G19G 9G29G18G26G22G21G 3
 -20829228.90408 -16230566.75207  21085269.78500  21085269.29100  21085269.55300
       189.00000        93.00000
  -1434359.61005  -1117682.16005  25311804.55000  25311804.34300  25311804.86900
         4.00000        10.00000
   -871921.11206   -679419.49605  25096433.44800  25096432.10200  25096431.81100
        16.00000         4.00000
 -19443999.24808 -15151158.85108  20998712.51000  20998712.48900  20998713.40900
       222.00000       115.00000
  -5244244.38807  -4086425.62406  23283275.44900  23283275.25700  23283275.04800
        35.00000        29.00000
 -22396684.57608 -17451956.83308  20406042.90400  20406042.51700  20406041.23100
       243.00000       275.00000
 -10864087.92507  -8465522.48807  22199746.19100  22199746.64800  22199747.01800
        90.00000        57.00000
 -15360285.63708 -11969047.33607  22117978.77900  22117978.65300  22117976.68500
       131.00000        69.00000
 -24889440.05408 -19394367.77308  20761519.57200  20761519.36300  20761518.73100
       259.00000       135.00000
  -1340481.38106  -1044535.86405  24596524.99500  24596524.31800  24596526.79500
        12.00000         9.00000
 04  8 27  1 21  0.0000000  0 10G15G28G19G 9G29G18G26G22G21G 3
 -20878121.23308 -16268664.66407  21075965.86500  21075965.35400  21075965.73900
       197.00000        97.00000
  -1446963.22304  -1127503.14405  25309406.50400  25309406.16300  25309405.70700
         3.00000         9.00000
   -907963.63706   -707504.56305  25089574.56300  25089573.25300  25089573.48000
        18.00000         4.00000
 -19509306.10808 -15202047.29408  20986285.01900  20986284.79800  20986285.59800
       223.00000       115.00000
  -5154145.70207  -4016218.90706  23300420.54400  23300420.46100  23300420.17000
        40.00000        28.00000
 -22424598.30708 -17473707.78808  20400730.54000  20400730.55000  20400729.41300
       240.00000       278.00000
 -10768494.27207  -8391033.95907  22217936.42500  22217937.27100  22217937.08000
        83.00000        52.00000
 -15434143.31408 -12026598.74507  22103924.17300  22103924.22500  22103921.90800
       136.00000        68.00000
 -24833484.55808 -19350766.11408  20772168.10100  20772167.72600  20772166.62900
       267.00000       131.00000
  -1308370.08205  -1019514.12205  24602636.54100  24602635.71400  24602636.55400
        10.00000         9.00000
 04  8 27  1 21 30.0000000  0 10G15G28G19G 9G29G18G26G22G21G 3
 -20926364.64308 -16306256.92107  21066785.25400  21066784.72600  21066785.46400
       194.00000       100.00000
  -1458991.35904  -1136875.70005  25307118.46800  25307117.73800  25307116.66700
         2.00000        10.00000
   -943415.22106   -735129.16105  25082828.67100  25082827.45800  25082826.67600
        25.00000         5.00000
 -19573959.13508 -15252426.26008  20973982.41600  20973981.95000  20973982.76400
       226.00000       119.00000
  -5063873.89407  -3945877.29906  23317599.36200  23317598.78300  23317598.41100
        39.00000        26.00000
 -22452076.23008 -17495119.15808  20395502.24200  20395501.80900  20395500.57200
       237.00000       279.00000
 -10672636.05307  -8316339.27807  22236178.41800  22236178.55700  22236179.08000
        81.00000        51.00000
 -15507737.87108 -12083945.12107  22089919.09800  22089919.48500  22089917.42800
       142.00000        70.00000
 -24776895.64908 -19306670.88508  20782936.49300  20782936.13000  20782935.37800
       262.00000       130.00000
  -1275708.62406   -994063.68505  24608851.37600  24608850.80800  24608852.71200
        12.00000        10.00000
 04  8 27  1 22  0.0000000  0 10G15G28G19G 9G29G18G26G22G21G 3
 -20974084.79708 -16343441.44307  21057704.46400  21057703.99900  21057704.47100
       197.00000       100.00000
  -1470570.90505  -1145898.74206  25304914.19900  25304913.97400  25304914.72700
         5.00000        11.00000
   -978402.48806   -762391.91005  25076169.81400  25076168.86700  25076169.07600
        24.00000         5.00000
 -19638083.84408 -15302393.53908  20961779.44900  20961779.42600  20961780.07100
       230.00000       120.00000
  -4973558.04907  -3875501.36806  23334784.99400  23334784.73400  23334785.16700
        38.00000        25.00000
 -22479245.18008 -17516289.76508  20390331.99000  20390331.67100  20390330.45500
       236.00000       279.00000
 -10576643.04007  -8241539.55307  22254445.52200  22254445.46500  22254445.65700
        83.00000        49.00000
 -15581196.09708 -12141185.27507  22075940.46100  22075940.91200  22075938.69100
       144.00000        69.00000
 -24719802.08808 -19262182.41208  20793800.82100  20793800.62900  20793799.82400
       267.00000       130.00000
  -1242626.59306   -968285.51405  24615146.36300  24615146.72600  24615147.97600
        15.00000         9.00000
 04  8 27  1 22 30.0000000  0 10G15G28G19G 9G29G18G26G22G21G 3
 -21021252.92508 -16380195.82607  21048728.89200  21048728.45700  21048728.67400
       202.00000        98.00000
  -1481673.90105  -1154550.41105  25302803.48500  25302801.97200  25302800.12900
         4.00000        10.00000
  -1012897.35906   -789271.03505  25069606.28400  25069605.27700  25069604.21200
        20.00000         5.00000
 -19701650.56308 -15351926.02708  20949683.49400  20949683.39600  20949683.74300
       242.00000       123.00000
  -4883172.56606  -3805071.15906  23351984.02300  23351983.60500  23351984.75500
        31.00000        22.00000
 -22506076.75008 -17537197.48008  20385225.98900  20385225.73800  20385224.53400
       233.00000       281.00000
 -10480490.41507  -8166615.46607  22272743.00800  22272742.84500  22272743.56500
        85.00000        50.00000
 -15654489.41108 -12198296.91807  22061994.31800  22061993.89900  22061991.53600
       140.00000        70.00000
 -24662179.46808 -19217281.69508  20804766.47400  20804766.21300  20804765.09200
       273.00000       128.00000
  -1209098.45706   -942159.75906  24621525.87200  24621526.03700  24621527.26000
        14.00000        11.00000
 04  8 27  1 23  0.0000000  0 10G15G28G19G 9G29G18G26G22G21G 3
 -21067837.75908 -16416495.69308  21039864.35500  21039863.70900  21039863.87400
       199.00000       101.00000
  -1492270.43505  -1162807.44706  25300784.78400  25300784.02800  25300784.91100
         6.00000        11.00000
  -1046869.79006   -815743.00105  25063141.79700  25063140.48500  25063141.38600
        19.00000         5.00000
 -19764628.16008 -15400999.45408  20937698.69400  20937698.87900  20937699.46300
       243.00000       123.00000
  -4792689.41706  -3734564.84206  23369201.89700  23369201.99900  23369202.80200
        31.00000        22.00000
 -22532541.03808 -17557819.00208  20380190.06800  20380189.80200  20380188.58600
       237.00000       284.00000
 -10384151.03107  -8091545.85407  22291075.03600  22291075.53200  22291076.25500
        84.00000        50.00000
 -15727587.55508 -12255256.48407  22048084.09900  22048083.75600  22048081.09300
       148.00000        69.00000
 -24603999.58808 -19171946.75008  20815837.51100  20815837.39200  20815836.57300
       273.00000       129.00000
  -1175096.92205   -915665.09505  24627996.11100  24627996.18900  24627998.63500
        10.00000        10.00000
 04  8 27  1 23 30.0000000  0 10G15G28G19G 9G29G18G26G22G21G 3
 -21113812.65008 -16452320.27708  21031115.52800  21031114.89000  21031115.40100
       194.00000       104.00000
  -1502335.08105  -1170650.01205  25298867.96400  25298867.87000  25298868.15900
         4.00000        10.00000
  -1080293.83306   -841787.72305  25056780.77700  25056779.22800  25056779.23800
        14.00000         4.00000
 -19826989.51808 -15449592.70408  20925832.51000  20925832.23700  20925832.61500
       255.00000       125.00000
  -4702085.61506  -3663964.52406  23386442.49800  23386442.91900  23386444.70000
        27.00000        23.00000
 -22558612.38108 -17578134.33508  20375228.84200  20375228.58400  20375227.20200
       238.00000       279.00000
 -10287602.41707  -8016313.18607  22309447.48800  22309447.98800  22309448.42500
        82.00000        46.00000
 -15800464.62408 -12312043.78407  22034215.98800  22034215.82600  22034213.03100
       150.00000        71.00000
 -24545239.57908 -19126159.75708  20827019.44100  20827019.20800  20827018.11600
       278.00000       125.00000
  -1140599.14005   -888783.75405  24634561.30100  24634560.49500  24634563.08600
         6.00000         9.00000
 04  8 27  1 24  0.0000000  0 10G15G28G19G 9G29G18G26G22G21G 3
 -21159210.57108 -16487695.27507  21022476.09600  21022475.62500  21022476.24100
       188.00000       100.00000
  -1511902.02404  -1178104.77305  25297047.00200  25297046.12200  25297049.30200
         3.00000        10.00000
  -1113203.57006   -867431.65005  25050518.41100  25050516.91000  25050516.38400
        13.00000         4.00000
 -19888767.39008 -15497731.28208  20914076.61700  20914076.37800  20914076.57500
       256.00000       126.00000
  -4611397.44106  -3593298.45106  23403701.06500  23403700.89100  23403701.93500
        27.00000        23.00000
 -22584324.69708 -17598169.91408  20370336.13800  20370335.84200  20370334.24000
       238.00000       276.00000
 -10190881.45107  -7940946.23607  22327853.17100  22327853.43300  22327853.56900
        80.00000        45.00000
 -15873154.55008 -12368685.26807  22020383.31200  22020383.24100  22020380.97400
       148.00000        75.00000
 -24485936.51208 -19079949.59808  20838304.69400  20838304.26100  20838303.07800
       274.00000       125.00000
  -1105642.22405   -861544.63205  24641214.14400  24641213.11500  24641215.48100
         5.00000         9.00000
 04  8 27  1 24 30.0000000  0 10G15G28G19G 9G29G18G26G22G21G 3
 -21204020.01808 -16522611.72807  21013949.20800  21013948.64700  21013949.16500
       188.00000        98.00000
  -1520961.37904  -1185164.05105  25295322.09900  25295321.67700  25295325.14600
         2.00000        10.00000
  -1145588.64505   -892666.75304  25044355.77600  25044353.85600  25044355.26900
        10.00000         3.00000
 -19949950.02508 -15545406.04008  20902433.37400  20902433.52400  20902433.73700
       260.00000       124.00000
  -4520616.87006  -3522560.39506  23420976.17700  23420976.61700  23420976.49300
        29.00000        24.00000
 -22609667.53508 -17617917.58308  20365513.34500  20365513.08200  20365511.72000
       232.00000       279.00000
 -10093981.06507  -7865439.48007  22346293.26600  22346293.22500  22346293.45100
        81.00000        46.00000
 -15945646.59408 -12425172.54107  22006588.17000  22006588.43600  22006586.33100
       156.00000        78.00000
 -24426082.50408 -19033310.13508  20849694.73900  20849694.20900  20849693.06000
       279.00000       124.00000
  -1070218.39305   -833941.67805  24647954.82800  24647954.61100  24647956.16300
         5.00000         8.00000
 04  8 27  1 25  0.0000000  0 10G15G28G19G 9G29G18G26G22G21G 3
 -21248273.16408 -16557094.69307  21005527.91900  21005527.49800  21005528.00100
       183.00000       100.00000
  -1529546.30305  -1191853.58406  25293687.76300  25293688.81900  25293691.70500
         5.00000        12.00000
  -1177482.01505   -917518.73405  25038287.02300  25038284.63100  25038284.41500
         7.00000         5.00000
 -20010569.12908 -15592641.68608  20890897.99700  20890898.09400  20890898.47300
       261.00000       126.00000
  -4429779.15106  -3451777.83206  23438261.99400  23438262.27900  23438262.84600
        27.00000        24.00000
 -22634673.67008 -17637402.88508  20360754.71900  20360754.59800  20360753.41200
       230.00000       288.00000
  -9996937.22307  -7789820.94107  22364759.93100  22364760.06700  22364760.22700
        82.00000        47.00000
 -16017973.64008 -12481531.25707  21992824.85200  21992824.99200  21992822.48600
       159.00000        74.00000
 -24365713.14808 -18986269.10408  20861182.04200  20861181.79100  20861181.13400
       268.00000       123.00000
  -1034363.41504   -806002.83305  24654777.38100  24654777.88400  24654778.70500
         3.00000         7.00000
 04  8 27  1 25 30.0000000  0 10G15G28G19G 9G29G18G26G22G21G 3
 -21291937.24208 -16591118.63608  20997218.94100  20997218.62000  20997219.20000
       181.00000       105.00000
  -1537625.09305  -1198148.75505  25292151.78000  25292151.57000  25292154.36500
         4.00000        10.00000
  -1208851.74905   -941962.67605  25032316.81800  25032316.26300  25032314.29800
         6.00000         4.00000
 -20070591.48608 -15639412.32808  20879475.99600  20879475.98800  20879476.54600
       255.00000       127.00000
  -4338854.62606  -3380927.61106  23455564.99500  23455565.28700  23455565.50800
        28.00000        26.00000
 -22659311.09108 -17656600.87308  20356066.45600  20356066.16500  20356065.15500
       226.00000       294.00000
  -9899720.82307  -7714067.94007  22383259.61400  22383260.16400  22383259.94000
        86.00000        47.00000
 -16090103.44008 -12537736.27407  21979099.48800  21979099.32300  21979096.63200
       163.00000        75.00000
 -24304799.02208 -18938803.57708  20872774.07200  20872773.78000  20872772.27400
       280.00000       118.00000
   -998048.24405   -777705.34205  24661689.70100  24661689.22400  24661689.67600
         5.00000         7.00000
 04  8 27  1 26  0.0000000  0 10G15G28G19G 9G29G18G26G22G21G 3
 -21335015.71408 -16624686.26708  20989021.95300  20989021.34600  20989021.86400
       191.00000       109.00000
  -1545202.53404  -1204053.22105  25290712.33700  25290711.18000  25290712.22100
         3.00000         9.00000
  -1239702.52905   -966002.23305  25026446.06500  25026446.07600  25026445.28300
         6.00000         5.00000
 -20130020.35708 -15685720.51108  20868167.36200  20868167.35000  20868167.44000
       265.00000       126.00000
  -4247850.24306  -3310015.17106  23472882.20800  23472882.40200  23472883.24600
        26.00000        26.00000
 -22683584.06508 -17675514.87708  20351447.65800  20351447.39400  20351446.01600
       230.00000       290.00000
  -9802339.54907  -7638186.46407  22401790.90700  22401791.04100  22401791.63100
        84.00000        49.00000
 -16162040.17708 -12593790.85007  21965409.73900  21965410.01600  21965407.61600
       163.00000        77.00000
 -24243347.62108 -18890919.39008  20884467.74500  20884467.26600  20884466.48700
       265.00000       120.00000
   -961280.34905   -749055.12305  24668683.28100  24668684.25700  24668686.23200
         5.00000         8.00000
 04  8 27  1 26 30.0000000  0 10G15G28G19G 9G29G18G26G22G21G 3
 -21377488.77608 -16657782.15008  20980938.95800  20980938.70500  20980939.37900
       186.00000       108.00000
  -1552260.25404  -1209552.73705  25289366.76300  25289367.22800  25289369.21200
         2.00000         9.00000
  -1270015.52005   -989622.79705  25020678.27300  25020676.94600  25020677.65100
         4.00000         4.00000
 -20188835.64108 -15731550.58208  20856974.76100  20856974.79200  20856975.24100
       261.00000       126.00000
  -4156749.47506  -3239027.60506  23490217.20600  23490217.42800  23490219.02800
        24.00000        24.00000
 -22707473.81108 -17694130.26308  20346901.39300  20346901.09900  20346899.94000
       229.00000       288.00000
  -9704777.66107  -7562164.24307  22420356.12100  22420356.33400  22420357.16500
        82.00000        48.00000
 -16233764.77408 -12649680.11507  21951760.85100  21951761.03000  21951759.00400
       160.00000        77.00000
 -24181342.80908 -18842603.98508  20896266.48500  20896266.31100  20896265.48500
       267.00000       115.00000
   -924043.63405   -720039.54305  24675770.46800  24675769.74400  24675772.14400
         6.00000         9.00000
 04  8 27  1 27  0.0000000  0 10G15G28G19G 9G29G18G26G22G21G 3
 -21419401.86608 -16690441.69908  20972963.08900  20972962.68000  20972963.45200
       182.00000       107.00000
  -1558844.82105  -1214683.52805  25288118.50900  25288115.96300  25288116.38700
         5.00000         9.00000
  -1299837.26704  -1012860.53505  25014999.59700  25015001.48900  25015001.33200
         2.00000         4.00000
 -20247082.40908 -15776937.65208  20845891.10900  20845891.18400  20845891.54400
       269.00000       129.00000
  -4065600.98106  -3168002.84706  23507563.63000  23507563.11000  23507564.19400
        24.00000        24.00000
 -22731026.57908 -17712483.06808  20342419.54400  20342419.30200  20342417.95900
       228.00000       288.00000
  -9607084.52807  -7486039.75807  22438947.18100  22438946.83700  22438947.67700
        79.00000        46.00000
 -16305323.26108 -12705439.96207  21938144.29900  21938144.25700  21938141.65100
       169.00000        74.00000
 -24118833.70008 -18793895.60308  20908161.78100  20908161.49100  20908160.39300
       266.00000       113.00000
   -886387.16506   -690696.89605  24682936.39400  24682936.14100  24682937.51300
        11.00000         8.00000
 04  8 27  1 27 30.0000000  0 10G15G28G19G 9G29G18G26G22G21G 3
 -21460689.77908 -16722614.09008  20965106.20100  20965105.90400  20965106.62000
       191.00000       107.00000
  -1564892.43405  -1219395.91606  25286964.60600  25286964.89000  25286965.13200
         6.00000        11.00000
  -1329103.41704  -1035665.33204  25009433.41100  25009432.95200  25009431.04900
         2.00000         3.00000
 -20304695.28008 -15821830.76808  20834927.87700  20834927.68100  20834927.82400
       267.00000       127.00000
  -3974342.62606  -3096892.49206  23524928.50100  23524928.52900  23524929.65700
        24.00000        24.00000
 -22754177.91408 -17730523.06808  20338013.92200  20338013.68800  20338012.33600
       227.00000       287.00000
  -9509198.69707  -7409765.11307  22457574.34900  22457573.75000  22457574.38300
        74.00000        43.00000
 -16376651.03008 -12761020.01707  21924570.66400  21924570.84900  21924568.57900
       167.00000        78.00000
 -24055758.96608 -18744746.48408  20920164.06300  20920163.94100  20920163.44600
       259.00000       115.00000
   -848249.45605   -660979.23205  24690193.94700  24690192.61900  24690195.41000
         9.00000         7.00000
 04  8 27  1 28  0.0000000  0 10G15G28G19G 9G29G18G26G22G21G 3
 -21501399.90608 -16754336.26808  20957359.15800  20957358.93700  20957359.64200
       192.00000       104.00000
  -1570451.54505  -1223727.64805  25285905.05700  25285905.87700  25285907.42400
         5.00000        10.00000
  -1357862.06605  -1058074.68705  25003959.60700  25003958.37900  25003959.60700
         4.00000         4.00000
 -20361721.39408 -15866266.68208  20824076.08200  20824075.90100  20824076.02800
       269.00000       130.00000
  -3883024.94506  -3025735.91406  23542305.86600  23542306.09500  23542307.38200
        27.00000        23.00000
 -22776976.03408 -17748287.83108  20333675.38800  20333675.34800  20333674.04400
       226.00000       286.00000
  -9411171.24407  -7333380.11607  22476227.33800  22476227.37100  22476227.92500
        70.00000        41.00000
 -16447795.91108 -12816457.55907  21911032.28600  21911032.33400  21911029.97800
       163.00000        81.00000
 -23992169.50108 -18695196.27308  20932265.32700  20932264.97400  20932263.99400
       262.00000       109.00000
   -809681.70706   -630926.47305  24697534.43100  24697533.86000  24697534.36500
        15.00000         8.00000
 04  8 27  1 28 30.0000000  0 10G15G28G19G 9G29G18G26G22G21G 3
 -21541525.58808 -16785603.03407  20949723.72500  20949723.36500  20949723.68500
       198.00000        99.00000
  -1575516.76804  -1227674.58905  25284941.78600  25284940.95100  25284943.96100
         2.00000         9.00000
  -1386107.95905  -1080084.51605  24998585.67400  24998585.25200  24998584.05200
         8.00000         4.00000
 -20418153.93508 -15910240.05808  20813337.35600  20813337.13000  20813337.61500
       268.00000       133.00000
  -3791644.39506  -2954530.33406  23559696.52800  23559696.01400  23559695.88600
        29.00000        21.00000
 -22799415.02608 -17765772.75108  20329405.50400  20329405.28900  20329403.93900
       220.00000       281.00000
  -9312999.52907  -7256882.71507  22494909.19000  22494909.13800  22494909.83000
        72.00000        39.00000
 -16518751.86208 -12871747.88607  21897529.89500  21897529.83100  21897527.59300
       168.00000        85.00000
 -23928062.30608 -18645242.64208  20944464.50000  20944464.16700  20944463.12300
       256.00000       108.00000
   -770681.13105   -600536.49505  24704953.71200  24704954.20700  24704957.57700
         7.00000        10.00000
 04  8 27  1 29  0.0000000  0 10G15G28G19G 9G29G18G26G22G21G 3
 -21581041.32108 -16816394.51607  20942204.44700  20942204.13900  20942204.24500
       212.00000        99.00000
  -1580064.04300  -1231217.89305  25284074.33900  25284074.68400  25284077.14900
          .00000         7.00000
  -1413816.45505  -1101675.54305  24993314.04100  24993313.08300  24993312.08300
        10.00000         5.00000
 -20473966.99008 -15953730.72408  20802716.03100  20802715.94200  20802716.60800
       260.00000       134.00000
  -3700178.58506  -2883258.33406  23577101.74400  23577101.55500  23577101.79800
        28.00000        21.00000
 -22821470.27508 -17782958.65408  20325208.75100  20325208.41100  20325206.88900
       219.00000       282.00000
  -9214661.84507  -7180255.97307  22513621.81700  22513622.54500  22513622.25700
        75.00000        37.00000
 -16589494.20708 -12926871.76807  21884068.58800  21884068.13600  21884065.67900
       163.00000        83.00000
 -23863415.61308 -18594868.61808  20956766.29900  20956765.96100  20956765.24400
       253.00000       109.00000
   -731225.85504   -569792.15505  24712462.57700  24712462.06600  24712464.77900
         2.00000         8.00000
 04  8 27  1 29 30.0000000  0 10G15G28G19G 9G29G18G26G22G21G 3
 -21619970.30508 -16846728.79008  20934796.64200  20934796.17100  20934796.48100
       213.00000       103.00000
  -1584117.77304  -1234376.64205  25283304.85500  25283304.39700  25283306.44600
         3.00000         7.00000
  -1441011.75605  -1122866.71005  24988138.33700  24988136.88800  24988137.21500
         9.00000         8.00000
 -20529183.60608 -15996756.63108  20792208.82500  20792208.68000  20792209.19300
       262.00000       136.00000
  -3608653.91206  -2811940.43906  23594518.00400  23594517.52200  23594517.83000
        26.00000        19.00000
 -22843165.84008 -17799864.28508  20321080.10400  20321079.92000  20321078.43300
       220.00000       286.00000
  -9116185.21407  -7103520.97607  22532362.04000  22532362.08800  22532362.47500
        76.00000        38.00000
 -16660046.48208 -12981847.53607  21870642.02600  21870642.19600  21870640.10900
       164.00000        84.00000
 -23798256.34208 -18544095.18308  20969166.06400  20969165.74100  20969164.34500
       262.00000       107.00000
   -691343.03500   -538714.70805  24720051.31900  24720050.83900  24720056.15900
        -1.00000         8.00000
 04  8 27  1 30  0.0000000  0 10G26G22G29G15G28G19G 9G18G21G 3
  -9017523.49407  -7026641.74207  22551136.87000  22551136.88900  22551137.12500
        74.00000        39.00000
 -16730359.36108 -13036636.77407  21857262.53700  21857262.37900  21857259.84100
       169.00000        82.00000
  -3517023.43506  -2740540.12206  23611954.25500  23611953.99100  23611954.86800
        25.00000        20.00000
 -21658262.71508 -16876567.02308  20927509.14600  20927508.91800  20927509.72300
       200.00000       102.00000
  -1587629.51705  -1237113.03405  25282633.82300  25282635.06100  25282637.79600
         4.00000         7.00000
  -1467645.18106  -1143620.04405  24983070.84400  24983068.93200  24983069.65300
        11.00000         9.00000
 -20583753.78408 -16039278.81808  20781824.12400  20781824.22400  20781824.99500
       266.00000       137.00000
 -22864452.34708 -17816451.16008  20317029.42200  20317029.14400  20317027.85800
       221.00000       295.00000
 -23732538.53208 -18492886.53008  20981671.22000  20981671.20400  20981670.12900
       258.00000       107.00000
   -650986.80304   -507268.31705  24727729.23800  24727727.94400  24727733.27300
         1.00000         6.00000
 04  8 27  1 30 30.0000000  0 10G26G22G29G15G28G19G 9G18G21G 3
  -8918716.42207  -6949649.25907  22569938.92500  22569939.11600  22569939.94000
        69.00000        40.00000
 -16800469.44508 -13091267.97507  21843920.62800  21843920.58700  21843918.14400
       163.00000        81.00000
  -3425326.35506  -2669087.89106  23629402.96000  23629402.77200  23629403.78500
        21.00000        17.00000
 -21695954.73808 -16905937.41108  20920336.83800  20920336.48000  20920337.12200
       203.00000       101.00000
  -1590636.32705  -1239455.97605  25282063.26300  25282064.42800  25282066.05000
         4.00000         8.00000
  -1493753.67805  -1163964.31906  24978100.86700  24978100.67100  24978101.49900
        10.00000        13.00000
 -20637712.93808 -16081324.88508  20771556.31200  20771556.12400  20771556.64700
       264.00000       137.00000
 -22885366.43908 -17832747.84808  20313049.31000  20313049.35100  20313048.09500
       223.00000       302.00000
 -23666301.40308 -18441273.21108  20994276.10800  20994275.89600  20994274.88900
       260.00000       107.00000
   -610196.56604   -475483.78305  24735491.35700  24735492.86200  24735495.41000
         3.00000         7.00000
 04  8 27  1 31  0.0000000  0 10G26G22G29G15G28G19G 9G18G21G 3
  -8819822.43607  -6872589.03707  22588757.52900  22588757.55500  22588758.43700
        65.00000        40.00000
 -16870431.55208 -13145783.87907  21830607.25400  21830607.35700  21830604.97700
       168.00000        81.00000
  -3333620.12306  -2597628.54406  23646854.62800  23646853.99800  23646855.98900
        23.00000        20.00000
 -21733100.86808 -16934882.45507  20913267.64400  20913267.66400  20913268.41800
       203.00000       100.00000
  -1593194.14304  -1241449.07005  25281577.31100  25281576.90800  25281579.21500
         2.00000         7.00000
  -1519392.86705  -1183942.91506  24973222.26600  24973221.43300  24973222.27600
        10.00000        12.00000
 -20691115.64008 -16122937.35108  20761394.60400  20761394.21700  20761394.33800
       273.00000       135.00000
 -22905963.61008 -17848797.58808  20309130.01000  20309129.84400  20309128.57500
       223.00000       301.00000
 -23599603.57208 -18389300.90308  21006968.22400  21006968.04000  21006967.00500
       253.00000       107.00000
   -569030.85805   -443406.63505  24743328.38200  24743328.82500  24743329.45500
         8.00000         5.00000
 04  8 27  1 31 30.0000000  0 10G26G22G29G15G28G19G 9G18G21G 3
  -8720734.07807  -6795377.36107  22607612.60700  22607613.47400  22607614.63300
        60.00000        40.00000
 -16940135.48208 -13200098.59507  21817342.99100  21817343.15500  21817340.51600
       169.00000        81.00000
  -3241796.86406  -2526078.00006  23664327.70700  23664327.97500  23664328.63300
        23.00000        19.00000
 -21769590.18408 -16963315.67608  20906324.37100  20906323.91700  20906324.73200
       198.00000       103.00000
  -1595193.16004  -1243006.76605  25281198.79300  25281198.46900  25281197.31500
         3.00000         8.00000
  -1544452.78305  -1203470.09206  24968454.26400  24968453.35800  24968453.42700
         8.00000        11.00000
 -20743850.72608 -16164029.59208  20751358.94600  20751358.70500  20751359.10300
       266.00000       135.00000
 -22926133.80608 -17864514.61308  20305291.76600  20305291.55600  20305290.39300
       219.00000       305.00000
 -23532337.58208 -18336885.87508  21019769.02900  21019768.47800  21019767.43800
       253.00000       109.00000
   -527382.20106   -410953.18305  24751254.88600  24751254.14300  24751254.65200
        14.00000         7.00000
 04  8 27  1 32  0.0000000  0 10G26G22G29G15G28G19G 9G18G21G 3
  -8621534.00207  -6718078.63407  22626491.00300  22626490.61500  22626491.23700
        57.00000        38.00000
 -17009660.32708 -13254273.76807  21804112.93700  21804112.85900  21804110.36000
       171.00000        82.00000
  -3149938.33606  -2454499.98306  23681808.72200  23681808.83100  23681809.47700
        25.00000        22.00000
 -21805501.65808 -16991298.63208  20899491.41700  20899490.65100  20899490.97600
       209.00000       106.00000
  -1596713.85205  -1244191.69105  25280909.75100  25280908.85400  25280909.79900
         6.00000         7.00000
  -1569013.30205  -1222608.15405  24963779.43900  24963779.10100  24963778.81200
         4.00000        10.00000
 -20795996.83008 -16204662.89608  20741435.82000  20741435.70600  20741436.02800
       269.00000       136.00000
 -22945956.33208 -17879960.72908  20301519.48700  20301519.38300  20301518.23600
       212.00000       305.00000
 -23464586.10208 -18284092.54508  21032661.40400  21032660.89800  21032660.02200
       239.00000       107.00000
   -485333.65905   -378188.11005  24759256.03200  24759255.23500  24759256.69900
         7.00000         7.00000
 04  8 27  1 32 30.0000000  0 10G26G22G29G15G28G19G 9G18G21G 3
  -8522190.86007  -6640668.43707  22645395.37500  22645395.17200  22645395.83100
        56.00000        39.00000
 -17078971.50708 -13308282.45407  21790923.37500  21790923.45100  21790921.09100
       179.00000        86.00000
  -3058012.65206  -2382869.64506  23699301.14400  23699301.63000  23699302.34800
        25.00000        20.00000
 -21840800.30508 -17018804.07608  20892774.36800  20892773.73000  20892774.07200
       216.00000       108.00000
  -1597722.61005  -1244977.67105  25280718.36600  25280717.88400  25280717.51200
         7.00000         6.00000
  -1593040.51905  -1241330.64406  24959207.55000  24959206.15800  24959207.55400
         5.00000        12.00000
 -20847518.67808 -16244809.75608  20731631.49200  20731631.55100  20731631.76800
       277.00000       137.00000
 -22965397.18908 -17895109.44208  20297820.12500  20297819.89000  20297818.75000
       208.00000       307.00000
 -23396318.18608 -18230896.78808  21045652.23300  21045651.76200  21045651.07900
       240.00000       104.00000
   -442853.93504   -345087.06905  24767337.34500  24767336.66000  24767341.54600
         3.00000         6.00000
 04  8 27  1 33  0.0000000  0 10G26G22G29G15G28G19G 9G18G21G 3
  -8422720.94307  -6563159.45207  22664324.31900  22664323.93300  22664324.30600
        55.00000        39.00000
 -17148081.98608 -13362134.74207  21777772.34900  21777772.30900  21777769.92300
       187.00000        90.00000
  -2966035.35606  -2311199.08506  23716803.32700  23716803.46400  23716805.03800
        19.00000        19.00000
 -21875498.94808 -17045841.98508  20886170.67500  20886170.31600  20886171.02400
       206.00000       112.00000
  -1598233.36305  -1245375.58505  25280620.05200  25280619.61200  25280619.22800
         5.00000         6.00000
  -1616548.31805  -1259648.38306  24954734.88300  24954734.01500  24954733.86900
         7.00000        12.00000
 -20898428.74108 -16284479.90108  20721943.25300  20721943.30900  20721943.86600
       274.00000       137.00000
 -22984469.37808 -17909970.87808  20294190.62200  20294190.48500  20294189.34300
       209.00000       302.00000
 -23327549.82108 -18177311.06908  21058738.23000  21058737.75600  21058737.35000
       235.00000       103.00000
   -399959.41304   -311662.79505  24775498.91900  24775497.59100  24775501.21200
         1.00000         4.00000
 04  8 27  1 33 30.0000000  0 10G26G22G29G15G28G19G 9G18G21G 3
  -8323073.58607  -6485512.20907  22683286.51700  22683286.56800  22683286.78600
        57.00000        37.00000
 -17216938.23408 -13415788.92907  21764669.53400  21764669.36400  21764666.97800
       190.00000        93.00000
  -2873955.21706  -2239448.37406  23734324.71300  23734325.37200  23734328.00000
        19.00000        21.00000
 -21909543.65008 -17072370.32208  20879692.20600  20879691.88900  20879692.77800
       210.00000       118.00000
  -1598193.21704  -1245344.26705  25280627.15000  25280626.54400  25280627.79000
         2.00000         7.00000
  -1639483.52705  -1277519.90305  24950369.68300  24950369.47400  24950369.16600
         7.00000        10.00000
 -20948672.80908 -16323631.09108  20712383.00700  20712382.70800  20712382.76100
       280.00000       138.00000
 -23003119.64508 -17924503.55608  20290641.52100  20290641.39900  20290640.28900
       206.00000       297.00000
 -23258230.67008 -18123296.16808  21071929.24800  21071929.01800  21071928.38700
       240.00000       102.00000
   -356599.81904   -277876.12905  24783752.25100  24783751.75700  24783752.49000
         2.00000         5.00000
 04  8 27  1 34  0.0000000  0 10G26G22G29G15G28G19G 9G18G21G 3
  -8223326.78907  -6407787.47907  22702266.86200  22702266.96600  22702267.79600
        54.00000        36.00000
 -17285614.82408 -13469303.12207  21751600.64000  21751600.62000  21751598.06900
       190.00000        92.00000
  -2781849.44606  -2167677.70006  23751852.39700  23751852.34900  23751854.81700
        18.00000        20.00000
 -21943008.53208 -17098446.86308  20873324.11700  20873323.88700  20873324.70100
       213.00000       123.00000
  -1597677.73704  -1244942.56505  25280724.91200  25280723.20200  25280726.86200
         1.00000         7.00000
  -1661921.62105  -1295004.08906  24946098.61900  24946099.19000  24946100.40900
         6.00000        13.00000
 -20998324.98408 -16362321.06008  20702933.61200  20702933.65300  20702934.14700
       272.00000       139.00000
 -23021423.06808 -17938765.96108  20287158.87700  20287158.49900  20287157.32400
       205.00000       302.00000
 -23188438.92308 -18068913.01907  21085210.35600  21085210.07300  21085209.31200
       239.00000        99.00000
   -312853.25406   -243787.98405  24792077.28200  24792077.04200  24792079.46400
        11.00000         6.00000
 04  8 27  1 34 30.0000000  0 11G26G22G29G15G28G19G 9G18G21G 3G14
  -8123421.43907  -6329939.17907  22721278.67400  22721278.62800  22721279.36200
        56.00000        33.00000
 -17354049.43208 -13522628.75907  21738577.42000  21738577.69500  21738575.42000
       188.00000        93.00000
  -2689658.29006  -2095840.48106  23769396.23600  23769396.61600  23769397.82900
        20.00000        19.00000
 -21975830.94008 -17124022.76008  20867078.09100  20867077.65600  20867078.83200
       198.00000       122.00000
  -1596625.64804  -1244122.73005  25280923.50000  25280923.01900  25280926.99500
         3.00000         8.00000
  -1683800.96105  -1312052.87106  24941935.93500  24941935.99800  24941936.90200
         4.00000        12.00000
 -21047322.48908 -16400500.90008  20693610.24700  20693610.00000  20693610.22800
       280.00000       138.00000
 -23039317.44808 -17952709.63208  20283753.46500  20283753.32500  20283752.19900
       208.00000       310.00000
 -23118115.60908 -18014115.65107  21098591.96800  21098591.86100  21098591.63300
       233.00000        99.00000
   -268660.71706   -209352.30805  24800487.84300  24800487.60100  24800488.71900
        11.00000         6.00000
    -64530.37800    -50283.05104  24166793.61600  24166794.15200  24166796.82000
        -1.00000         3.00000
 04  8 27  1 35  0.0000000  0 11G26G22G29G15G28G19G 9G18G21G 3G14
  -8023390.12807  -6251992.74407  22740314.50600  22740313.98900  22740314.58600
        57.00000        35.00000
 -17422271.40308 -13575788.69707  21725595.48700  21725595.43100  21725593.23400
       185.00000        93.00000
  -2597413.63606  -2023961.60506  23786950.47200  23786950.61600  23786951.97600
        22.00000        19.00000
 -22008040.37408 -17149121.02208  20860949.24700  20860948.78400  20860949.53000
       204.00000       120.00000
  -1595067.63605  -1242908.67405  25281221.44600  25281220.59800  25281223.20200
         5.00000         7.00000
  -1705151.75905  -1328689.82305  24937873.70900  24937873.39700  24937874.28400
         4.00000         9.00000
 -21095694.12408 -16438193.04808  20684404.99900  20684405.11800  20684405.20800
       282.00000       138.00000
 -23056832.46908 -17966357.70408  20280420.57600  20280420.32300  20280419.32900
       208.00000       315.00000
 -23047293.65408 -17958929.73607  21112069.45900  21112069.24100  21112068.55000
       234.00000        98.00000
   -224055.03106   -174594.72205  24808976.80500  24808976.43300  24808978.18200
        15.00000         8.00000
   -161206.19504   -125614.77304  24148399.42800  24148399.06300  24148399.05400
         1.00000         3.00000
 04  8 27  1 35 30.0000000  0 11G26G22G29G15G28G19G 9G18G21G 3G14
  -7923224.15007  -6173941.37107  22759374.91500  22759375.14000  22759375.66000
        62.00000        36.00000
 -17490269.03408 -13628773.83507  21712655.84900  21712656.04300  21712653.92700
       190.00000        93.00000
  -2505106.03506  -1952033.65706  23804516.81400  23804517.08100  23804516.77300
        22.00000        18.00000
 -22039624.74508 -17173732.22708  20854939.07300  20854938.47400  20854939.03900
       204.00000       117.00000
  -1592992.72805  -1241291.82905  25281614.22200  25281615.35100  25281618.02100
         4.00000         6.00000
  -1725963.07405  -1344906.41405  24933912.81500  24933913.16500  24933913.00800
         5.00000         5.00000
 -21143427.68608 -16475387.99808  20675321.75000  20675321.71400  20675321.99000
       284.00000       142.00000
 -23073956.35308 -17979700.99409  20277161.91900  20277161.77700  20277160.75800
       207.00000       318.00000
 -22975964.53308 -17903348.63607  21125642.70200  21125642.36700  21125642.00900
       222.00000        97.00000
   -179027.91605   -139508.71205  24817542.71900  24817541.88200  24817546.01200
         6.00000         6.00000
   -257733.88104   -200831.05404  24130030.71800  24130030.10600  24130030.02900
         1.00000         3.00000
 04  8 27  1 36  0.0000000  0 11G26G22G29G15G28G19G 9G18G21G 3G14
  -7822947.34107  -6095803.63207  22778457.55800  22778457.32800  22778457.86400
        61.00000        35.00000
 -17558062.70008 -13681600.04207  21699755.21300  21699755.21400  21699753.00100
       191.00000        91.00000
  -2412758.62806  -1880074.71206  23822090.51300  23822090.22000  23822089.83200
        24.00000        16.00000
 -22070604.19308 -17197872.05408  20849043.18800  20849042.77600  20849043.80700
       201.00000       116.00000
  -1590422.38904  -1239288.97905  25282104.87800  25282105.05400  25282105.70600
         3.00000         6.00000
  -1746256.00505  -1360719.10805  24930052.52200  24930051.57200  24930051.11800
         8.00000         5.00000
 -21190543.40208 -16512101.50708  20666356.16200  20666355.96000  20666356.05600
       286.00000       143.00000
 -23090710.28408 -17992756.01609  20273973.65700  20273973.53400  20273972.66900
       204.00000       320.00000
 -22904151.97908 -17847390.82607  21139307.96700  21139307.79800  21139307.50100
       217.00000        94.00000
   -133603.47005   -104113.08105  24826187.36600  24826186.49400  24826189.16200
         8.00000         7.00000
   -354134.07700   -275948.00504  24111685.45200  24111684.51500  24111686.12400
          .00000         2.00000
 04  8 27  1 36 30.0000000  0 11G26G22G29G15G28G19G 9G18G21G 3G14
  -7722525.22607  -6017552.68607  22797566.55100  22797567.06000  22797567.81200
        62.00000        38.00000
 -17625614.92008 -13734238.11107  21686900.32800  21686900.38800  21686898.13400
       188.00000        91.00000
  -2320336.28706  -1808057.38306  23839676.67500  23839677.21000  23839677.82700
        19.00000        17.00000
 -22100941.22108 -17221511.29208  20843270.82800  20843270.35900  20843270.81400
       223.00000       113.00000
  -1587320.29404  -1236871.74205  25282695.18000  25282694.31500  25282696.73800
         1.00000         6.00000
  -1765993.95906  -1376099.39805  24926297.02500  24926296.23500  24926294.41500
        11.00000         4.00000
 -21237003.41208 -16548304.07808  20657514.54600  20657514.63500  20657515.14100
       278.00000       145.00000
 -23107056.97408 -18005493.70009  20270863.20100  20270863.01600  20270861.93200
       204.00000       321.00000
 -22831821.80408 -17791029.66807  21153072.66200  21153072.19300  21153071.42700
       224.00000        93.00000
    -87747.67805    -68381.34905  24834912.74100  24834911.88900  24834916.00700
         6.00000         8.00000
   -450369.91600   -350936.92004  24093371.68600  24093371.36500  24093374.19000
          .00000         2.00000
 04  8 27  1 37  0.0000000  0 11G26G22G29G15G28G19G 9G18G21G 3G14
  -7622009.73707  -5939228.95807  22816694.33900  22816694.33800  22816695.31600
        56.00000        35.00000
 -17692974.33308 -13786725.94407  21674082.76200  21674082.44600  21674080.00300
       188.00000        89.00000
  -2227890.43506  -1736021.71706  23857269.48200  23857269.04500  23857269.29200
        17.00000        17.00000
 -22130684.49908 -17244687.87708  20837610.87000  20837610.45900  20837610.93000
       230.00000       114.00000
  -1583736.24105  -1234079.00605  25283379.18900  25283377.39300  25283379.48200
         5.00000         6.00000
  -1785226.69605  -1391085.98905  24922634.04000  24922635.33200  24922632.66100
         5.00000         4.00000
 -21282855.70608 -16584033.10108  20648789.32800  20648789.28800  20648789.83700
       274.00000       151.00000
 -23123045.46808 -18017952.26609  20267820.84900  20267820.47300  20267819.35600
       203.00000       319.00000
 -22759026.76908 -17734306.29107  21166925.04300  21166924.56300  21166923.69300
       221.00000        90.00000
    -41512.65106    -32354.07705  24843710.88100  24843710.57000  24843713.36500
        11.00000         8.00000
   -546490.33204   -425835.85104  24075080.42400  24075081.06700  24075081.20900
         1.00000         2.00000
 04  8 27  1 37 30.0000000  0 10G26G22G29G15G28G19G 9G18G21G 3
  -7521350.30707  -5860793.08007  22835848.71900  22835848.86600  22835849.84200
        54.00000        34.00000
 -17760087.17308 -13839021.64507  21661311.95300  21661311.53200  21661308.95500
       190.00000        89.00000
  -2135369.57906  -1663927.60906  23874873.38700  23874874.38900  23874876.35500
        18.00000        17.00000
 -22159779.80008 -17267359.53208  20832074.09700  20832073.76300  20832074.17200
       227.00000       115.00000
  -1579617.62505  -1230869.68505  25284161.54500  25284161.15000  25284160.89800
         6.00000         5.00000
  -1803900.94804  -1405637.36905  24919083.48600  24919080.94400  24919081.64700
         3.00000         5.00000
 -21328046.16208 -16619246.40408  20640189.87400  20640189.76200  20640190.22700
       269.00000       149.00000
 -23138622.38408 -18030090.12709  20264856.79500  20264856.35100  20264855.14000
       204.00000       317.00000
 -22685716.40308 -17677181.35707  21180875.17500  21180874.89500  21180874.84700
       221.00000        96.00000
      5152.03906      4007.94505  24852592.56700  24852592.14400  24852594.88400
        12.00000         9.00000
 04  8 27  1 38  0.0000000  0 11G26G22G29G15G28G19G 9G18G21G 3G14
  -7420610.96807  -5782294.94607  22855018.88600  22855019.00600  22855019.90400
        51.00000        32.00000
 -17827014.30208 -13891172.64007  21648575.33200  21648575.42800  21648572.87600
       188.00000        88.00000
  -2042837.20606  -1591824.54506  23892483.55400  23892483.03200  23892485.11400
        17.00000        18.00000
 -22188287.98008 -17289573.69008  20826649.53400  20826648.99800  20826649.33300
       231.00000       115.00000
  -1575026.59605  -1227292.27505  25285034.57000  25285035.05000  25285036.96700
         7.00000         7.00000
  -1822078.81304  -1419801.98005  24915622.41000  24915621.21800  24915624.10700
         1.00000         7.00000
 -21372635.59108 -16653991.37708  20631704.27300  20631704.36300  20631705.13400
       266.00000       150.00000
 -23153848.80008 -18041954.86908  20261959.34000  20261958.87300  20261957.57600
       203.00000       312.00000
 -22611954.83308 -17619704.84207  21194911.47100  21194911.44300  21194910.64600
       231.00000        89.00000
     52181.71405     40654.38905  24861542.94300  24861542.33600  24861543.90800
        10.00000         8.00000
    -31929.34100    -24880.10204  24038585.05600  24038583.90800  24038583.13700
          .00000         2.00000
 04  8 27  1 38 30.0000000  0 11G26G22G29G15G28G19G 9G18G21G 3G14
  -7319720.56907  -5703679.09606  22874217.83800  22874218.19800  22874218.74100
        52.00000        31.00000
 -17893681.43708 -13943121.03907  21635889.34200  21635889.07400  21635886.53500
       187.00000        90.00000
  -1950221.57606  -1519656.57806  23910106.49400  23910107.09100  23910109.80700
        17.00000        18.00000
 -22216134.78508 -17311272.50108  20821350.37300  20821349.73100  20821350.19000
       219.00000       112.00000
  -1569889.78505  -1223289.58505  25286012.51500  25286011.24900  25286013.13500
         4.00000         5.00000
  -1839686.84400  -1433522.53605  24912272.46900  24912268.81400  24912272.54100
          .00000        10.00000
 -21416549.34308 -16688209.84208  20623348.43500  20623348.20000  20623348.77700
       276.00000       153.00000
 -23168650.93908 -18053489.01108  20259142.30500  20259142.07200  20259140.84000
       204.00000       311.00000
 -22537671.38808 -17561821.65507  21209047.55300  21209047.11000  21209046.51300
       221.00000        89.00000
     99647.17005     77640.36305  24870574.64300  24870574.12500  24870575.03600
         8.00000         8.00000
   -127592.42800    -99422.69104  24020379.63100  24020379.29600  24020380.06700
          .00000         2.00000
 04  8 27  1 39  0.0000000  0 11G26G22G29G15G28G19G 9G18G21G 3G14
  -7218731.19707  -5624986.11806  22893434.79000  22893435.56500  22893436.58000
        49.00000        29.00000
 -17960137.55708 -13994905.01107  21623243.01700  21623242.87800  21623240.25400
       192.00000        90.00000
  -1857573.92806  -1447463.68206  23927738.17900  23927737.47500  23927739.80700
        18.00000        18.00000
 -22243369.26608 -17332494.16708  20816167.44900  20816167.05700  20816167.67200
       207.00000       111.00000
  -1564257.68604  -1218900.98205  25287085.37800  25287083.30100  25287084.67400
         3.00000         4.00000
  -1856774.88104  -1446837.92106  24909022.82600  24909020.23200  24909020.63900
         2.00000        11.00000
 -21459836.10408 -16721939.74508  20615111.19900  20615110.90000  20615111.49200
       283.00000       153.00000
 -23183078.21508 -18064731.04908  20256396.86400  20256396.66400  20256395.48700
       205.00000       316.00000
 -22462918.72108 -17503572.85907  21223272.53000  21223272.08400  21223271.80200
       223.00000        90.00000
    147495.70005    114924.89205  24879676.52300  24879676.79900  24879680.71700
         5.00000         9.00000
   -223123.59400   -173862.47604  24002197.31900  24002201.61400  24002198.96400
        -1.00000         2.00000
 04  8 27  1 39 30.0000000  0 11G26G22G29G15G28G19G 9G18G21G 3G14
  -7117628.82107  -5546205.10006  22912674.68700  22912675.05200  22912675.28800
        51.00000        27.00000
 -18026365.31908 -14046511.03907  21610640.10800  21610640.03800  21610637.49800
       193.00000        90.00000
  -1764879.75806  -1375234.51506  23945375.60100  23945375.83300  23945378.71800
        16.00000        16.00000
 -22269974.08408 -17353225.19008  20811105.18500  20811104.69000  20811104.85100
       217.00000       111.00000
  -1558114.24104  -1214113.91304  25288253.28500  25288251.72900  25288254.07400
         2.00000         3.00000
  -1873326.87305  -1459735.59506  24905871.40800  24905872.11200  24905871.49800
         5.00000        12.00000
 -21502478.47508 -16755167.54308  20606996.38800  20606996.34600  20606996.85200
       294.00000       153.00000
 -23197113.73108 -18075667.82209  20253725.91600  20253725.80200  20253724.61200
       204.00000       319.00000
 -22387683.17208 -17444947.78207  21237589.09400  21237588.79800  21237588.31100
       215.00000        83.00000
    195740.91705    152518.53405  24888857.92200  24888858.38400  24888862.99700
         5.00000        10.00000
   -318506.20200   -248186.59105  23984052.33500  23984053.60000  23984054.11200
        -1.00000         4.00000
 04  8 27  1 40  0.0000000  0 11G26G22G29G15G28G19G 9G18G21G 3G14
  -7016374.34607  -5467305.54006  22931943.32900  22931943.28300  22931943.70000
        51.00000        26.00000
 -18092322.52108 -14097906.24207  21598088.85900  21598088.94900  21598086.31600
       200.00000        91.00000
  -1672098.94706  -1302937.85306  23963030.74200  23963032.02200  23963034.71200
        17.00000        18.00000
 -22295906.99408 -17373432.65608  20806170.27200  20806169.65300  20806169.84100
       211.00000       111.00000
  -1551418.28005  -1208896.27305  25289529.67800  25289528.15300  25289527.59100
         5.00000         4.00000
  -1889301.48804  -1472183.32406  24902830.55700  24902830.80100  24902829.41600
         1.00000        11.00000
 -21544434.01908 -16787860.14208  20599012.80300  20599012.69000  20599012.90000
       300.00000       153.00000
 -23210715.73408 -18086266.78909  20251137.85700  20251137.52300  20251136.20200
       202.00000       317.00000
 -22311926.05308 -17385916.29207  21252005.76300  21252005.25200  21252004.47400
       216.00000        81.00000
    244421.73405    190451.60605  24898122.90800  24898123.22800  24898125.50800
         5.00000         7.00000
   -413698.33900   -322362.14504  23965938.42500  23965937.16500  23965935.89600
        -1.00000         3.00000
 04  8 27  1 40 30.0000000  0 11G26G22G29G15G28G19G 9G18G21G 3G14
  -6915048.16407  -5388350.10706  22951224.73200  22951224.80100  22951224.95400
        51.00000        24.00000
 -18158086.58908 -14149150.95107  21585574.46200  21585574.34100  21585572.10800
       202.00000        95.00000
  -1579311.56806  -1230636.06806  23980688.80200  23980689.61100  23980690.84400
        18.00000        15.00000
 -22321245.53308 -17393176.97108  20801348.31900  20801347.77800  20801348.05100
       204.00000       111.00000
  -1544248.56605  -1203309.47305  25290893.62100  25290892.18500  25290893.60000
         4.00000         5.00000
  -1904777.15205  -1484242.27106  24899887.94200  24899886.01100  24899885.95000
         6.00000        12.00000
 -21585779.87008 -16820077.66208  20591144.63800  20591144.42900  20591144.93100
       290.00000       152.00000
 -23223961.57408 -18096588.22009  20248616.77500  20248616.71100  20248615.59700
       199.00000       317.00000
 -22235727.98508 -17326541.20107  21266505.37600  21266505.12800  21266504.46600
       208.00000        76.00000
    293457.12105    228660.91505  24907453.51800  24907454.60500  24907456.36200
         9.00000         7.00000
   -508777.61500   -396449.79705  23947842.80100  23947842.94400  23947844.52200
        -1.00000         4.00000
 04  8 27  1 41  0.0000000  0 11G26G22G29G15G28G19G 9G18G21G 3G14
  -6813614.05007  -5309310.56606  22970526.17300  22970526.98500  22970527.09000
        51.00000        23.00000
 -18223618.16308 -14200214.48607  21573103.74000  21573103.94200  21573101.50800
       203.00000        95.00000
  -1486480.60006  -1158300.32606  23998354.70800  23998355.02400  23998356.20400
        20.00000        16.00000
 -22345950.36908 -17412427.49108  20796647.08000  20796646.46100  20796647.26900
       209.00000       119.00000
  -1536567.10804  -1197323.92005  25292355.86600  25292355.09500  25292353.04600
         2.00000         4.00000
  -1919715.42305  -1495882.46706  24897043.83100  24897042.90000  24897042.32500
         9.00000        11.00000
 -21626476.80908 -16851789.53308  20583400.88700  20583400.56200  20583400.60000
       300.00000       155.00000
 -23236812.67008 -18106602.05509  20246171.53000  20246171.21000  20246170.24100
       196.00000       322.00000
 -22159053.98108 -17266795.25507  21281095.92400  21281095.80200  21281094.83200
       206.00000        74.00000
    342882.66606    267174.28905  24916861.06500  24916860.65700  24916863.12700
        13.00000         7.00000
   -603705.22400   -470419.34705  23929777.99900  23929774.69800  23929779.57100
        -2.00000         4.00000
 04  8 27  1 41 30.0000000  0 11G26G22G29G15G28G19G 9G18G21G 3G14
  -6712056.06407  -5230174.50906  22989852.81400  22989852.88700  22989853.31000
        47.00000        24.00000
 -18288897.89808 -14251081.79007  21560682.04300  21560681.78700  21560679.15600
       205.00000        93.00000
  -1393589.44306  -1085917.67706  24016031.63300  24016032.28900  24016032.56200
        23.00000        14.00000
 -22370002.49508 -17431169.40308  20792069.92100  20792069.42700  20792070.41500
       206.00000       124.00000
  -1528356.02800  -1190925.66204  25293914.57700  25293914.68200  25293917.71100
          .00000         3.00000
  -1934098.45505  -1507090.02706  24894306.12300  24894305.48800  24894306.90300
         7.00000        11.00000
 -21666505.46608 -16882980.66508  20575782.65900  20575782.71200  20575783.46800
       288.00000       154.00000
 -23249250.09808 -18116293.55809  20243804.61800  20243804.49400  20243803.56100
       200.00000       328.00000
 -22081887.95408 -17206665.90807  21295780.41900  21295779.98300  21295779.51800
       203.00000        79.00000
    392713.83005    306003.68405  24926342.91500  24926342.78300  24926343.90800
         8.00000         5.00000
   -698462.82700   -544256.32205  23911747.45900  23911747.01400  23911747.91300
          .00000         5.00000
 04  8 27  1 42  0.0000000  0 11G26G22G29G15G28G19G 9G18G21G 3G14
  -6610411.10207  -5150970.70106  23009196.30100  23009195.81800  23009195.03600
        47.00000        23.00000
 -18353959.85308 -14301779.39207  21548301.12400  21548300.82700  21548298.24100
       198.00000        94.00000
  -1300674.58706  -1013516.58406  24033713.79300  24033713.95100  24033713.78000
        24.00000        14.00000
 -22393436.13308 -17449429.37408  20787610.72300  20787610.12500  20787611.23800
       208.00000       127.00000
  -1519650.60304  -1184142.27705  25295573.38700  25295574.78300  25295575.33100
         1.00000         4.00000
  -1947961.34306  -1517892.28205  24891668.97000  24891667.82700  24891668.28800
        13.00000         9.00000
 -21705899.70908 -16913677.45508  20568287.01300  20568286.66700  20568286.72700
       296.00000       153.00000
 -23261308.32908 -18125689.58409  20241509.96400  20241510.01700  20241508.98200
       201.00000       329.00000
 -22004267.90208 -17146182.77307  21310550.49500  21310550.21100  21310549.76600
       190.00000        76.00000
    442913.04806    345119.92505  24935894.63100  24935894.55000  24935895.35200
        12.00000         4.00000
   -793084.40600   -617987.36605  23893742.18400  23893740.36500  23893741.61300
          .00000         4.00000
 04  8 27  1 42 30.0000000  0 11G26G22G29G15G28G19G 9G18G21G 3G14
  -6508667.37407  -5071689.92506  23028556.38400  23028556.51800  23028557.08400
        41.00000        27.00000
 -18418788.83608 -14352295.45907  21535964.24800  21535964.39400  21535961.83500
       205.00000        97.00000
  -1207723.18406   -941086.98706  24051400.69200  24051401.12700  24051401.98000
        20.00000        12.00000
 -22416236.21108 -17467195.67208  20783272.19700  20783271.85500  20783272.35400
       228.00000       125.00000
  -1510437.11404  -1176962.98304  25297326.64800  25297326.42700  25297325.52800
         3.00000         3.00000
  -1961290.03406  -1528278.29305  24889132.89800  24889131.83800  24889132.75800
        14.00000         9.00000
 -21744644.21508 -16943867.95108  20560914.02500  20560913.72900  20560913.91700
       294.00000       153.00000
 -23272972.41408 -18134778.48909  20239290.69400  20239290.38000  20239289.20500
       196.00000       322.00000
 -21926181.89508 -17085336.56507  21325409.84900  21325409.74700  21325409.25300
       194.00000        75.00000
    493491.79106    384531.87905  24945520.18800  24945519.91800  24945522.71100
        13.00000         6.00000
   -887555.41400   -691601.06805  23875761.35300  23875764.06400  23875762.84300
          .00000         5.00000
 04  8 27  1 43  0.0000000  0 11G26G22G29G15G28G19G 9G18G21G 3G14
  -6406818.64707  -4992327.34006  23047938.19100  23047937.83800  23047938.28400
        39.00000        27.00000
 -18483375.55008 -14402622.74207  21523673.62700  21523673.82300  21523671.23800
       203.00000        96.00000
  -1114728.69506   -868623.81306  24069097.84000  24069097.59600  24069097.55500
        20.00000        14.00000
 -22438393.58108 -17484461.15808  20779055.65900  20779055.21400  20779056.03500
       224.00000       128.00000
  -1500707.85704  -1169381.72204  25299177.62600  25299177.07400  25299177.82300
         3.00000         2.00000
  -1974076.41006  -1538241.73605  24886699.78000  24886699.01400  24886699.54600
        11.00000        10.00000
 -21782729.65808 -16973544.89808  20553666.34300  20553666.10500  20553666.44400
       292.00000       154.00000
 -23284233.60708 -18143553.44109  20237147.67300  20237147.45700  20237146.24800
       197.00000       322.00000
 -21847624.64008 -17024123.15707  21340359.43600  21340358.79000  21340358.50400
       188.00000        79.00000
    544455.49506    424243.76705  24955218.72600  24955218.48900  24955219.61000
        12.00000         6.00000
   -981867.18700   -765090.68805  23857814.17000  23857813.39300  23857818.35000
        -1.00000         6.00000
 04  8 27  1 43 30.0000000  0 11G26G22G29G15G28G19G 9G18G21G 3G14
  -6304869.26307  -4912886.32406  23067337.40900  23067337.73100  23067339.09700
        39.00000        29.00000
 -18547721.29208 -14452762.26107  21511428.90300  21511429.16700  21511426.86900
       206.00000        97.00000
  -1021694.67006   -796129.84906  24086801.77500  24086801.14900  24086801.73800
        21.00000        14.00000
 -22459909.78508 -17501227.02708  20774961.18400  20774960.72700  20774961.58500
       228.00000       124.00000
  -1490465.48904  -1161400.65904  25301126.25100  25301125.92400  25301126.51300
         2.00000         3.00000
  -1986322.94506  -1547784.51306  24884370.66900  24884368.45400  24884369.46200
        12.00000        12.00000
 -21820157.25108 -17002709.23608  20546544.12000  20546543.96600  20546544.07100
       298.00000       153.00000
 -23295093.87908 -18152015.98709  20235080.90100  20235080.72100  20235079.71700
       195.00000       326.00000
 -21768601.25508 -16962546.52507  21355397.14100  21355396.71000  21355396.05800
       195.00000        78.00000
    595799.16005    464251.77705  24964989.26400  24964988.25100  24964991.08000
         6.00000         5.00000
  -1076021.40004   -838457.51005  23839897.38800  23839897.67100  23839899.42800
         1.00000         5.00000
 04  8 27  1 44  0.0000000  0 11G26G22G29G15G28G19G 9G18G21G 3G14
  -6202824.32707  -4833370.84706  23086755.15400  23086756.03000  23086758.42300
        37.00000        30.00000
 -18611827.87208 -14502715.41907  21499230.32100  21499230.24100  21499227.61700
       209.00000        97.00000
   -928625.42806   -723608.45206  24104511.48800  24104511.51300  24104512.58300
        18.00000        14.00000
 -22480787.19208 -17517495.13508  20770988.43200  20770987.91900  20770988.60100
       236.00000       121.00000
  -1479713.24304  -1153022.28905  25303172.55200  25303172.08400  25303173.79900
         2.00000         4.00000
  -1998032.89005  -1556909.13805  24882140.97100  24882139.65500  24882139.96800
         8.00000         9.00000
 -21856929.40408 -17031362.84008  20539546.36300  20539546.37100  20539546.78300
       298.00000       156.00000
 -23305555.55308 -18160167.93609  20233090.07900  20233089.96900  20233088.99900
       196.00000       334.00000
 -21689117.47708 -16900611.14907  21370521.89100  21370521.55800  21370521.38800
       182.00000        75.00000
    647517.09905    504551.42905  24974830.48100  24974829.39100  24974832.25200
         7.00000         5.00000
  -1170020.43804   -911703.43605  23822012.76700  23822013.68700  23822011.53600
         2.00000         6.00000
 04  8 27  1 44 30.0000000  0 11G26G22G29G15G28G19G 9G18G21G 3G14
  -6100682.10607  -4753779.55106  23106193.38900  23106193.55300  23106195.52500
        40.00000        29.00000
 -18675690.80808 -14552478.73207  21487077.92700  21487077.54700  21487074.82400
       204.00000        97.00000
   -835518.84406   -651057.94306  24122229.47700  24122229.56700  24122230.73800
        16.00000        16.00000
 -22501021.24608 -17533261.92808  20767137.65900  20767137.21200  20767138.14300
       226.00000       120.00000
  -1468448.22100  -1144244.37904  25305316.10500  25305316.76500  25305314.43100
          .00000         3.00000
  -2009202.85305  -1565613.00305  24880014.56700  24880014.37100  24880013.55900
         5.00000         7.00000
 -21893041.52208 -17059502.13408  20532674.69100  20532674.58800  20532674.92600
       299.00000       158.00000
 -23315614.34808 -18168005.96309  20231176.08400  20231175.73300  20231174.86300
       192.00000       337.00000
 -21609172.19608 -16838316.15507  21385735.27200  21385734.79700  21385734.66300
       182.00000        77.00000
    699610.22906    545143.41405  24984742.86200  24984743.36700  24984744.66100
        11.00000         6.00000
  -1263860.19304   -984825.25505  23804150.52000  23804152.98500  23804153.80900
         3.00000         5.00000
 04  8 27  1 45  0.0000000  0 11G22G21G15G28G19G 9G29G18G14G26G 3
 -18739291.90708 -14602038.00607  21474974.51200  21474974.44800  21474971.95500
       210.00000       100.00000
 -21528751.35708 -16775650.60707  21401038.53100  21401038.49000  21401038.11200
       186.00000        72.00000
 -22520594.35908 -17548513.69908  20763413.65200  20763413.03600  20763413.76600
       231.00000       124.00000
  -1456653.61304  -1135053.80104  25307559.94300  25307561.46900  25307559.30600
         1.00000         3.00000
  -2019815.87005  -1573882.92405  24877994.15400  24877993.52600  24877992.88900
         5.00000         7.00000
 -21928475.25208 -17087112.81508  20525932.05000  20525931.83100  20525931.87700
       301.00000       159.00000
   -742359.31706   -578466.19906  24139955.40800  24139955.51600  24139958.46400
        12.00000        16.00000
 -23325252.62208 -18175516.30509  20229342.02500  20229341.74100  20229340.78200
       190.00000       333.00000
  -1357523.20505  -1057809.36205  23786329.57000  23786329.75700  23786331.84100
         4.00000         6.00000
  -5998427.77707  -4674100.90506  23125651.75400  23125651.86200  23125653.69200
        40.00000        27.00000
    752092.97205    586039.00205  24994729.33100  24994729.55300  24994735.12400
         7.00000         7.00000
 04  8 27  1 45 30.0000000  0 11G22G21G15G28G19G 9G29G18G14G26G 3
 -18802639.28908 -14651399.58608  21462919.76000  21462919.81600  21462917.45900
       215.00000       103.00000
 -21447866.54208 -16712623.51407  21416430.67800  21416430.33300  21416429.90700
       178.00000        69.00000
 -22539514.95308 -17563257.02608  20759813.21800  20759812.70700  20759813.07900
       238.00000       121.00000
  -1444339.38304  -1125458.34304  25309904.27600  25309904.63900  25309905.77200
         3.00000         3.00000
  -2029881.66605  -1581726.38905  24876080.45700  24876078.92200  24876078.66900
         9.00000         8.00000
 -21963239.26508 -17114201.63408  20519316.14400  20519316.11600  20519316.74000
       294.00000       164.00000
   -649157.54406   -505841.53206  24157691.53000  24157692.40000  24157693.79800
        14.00000        15.00000
 -23334479.10408 -18182705.77709  20227586.31400  20227586.06000  20227584.99500
       192.00000       332.00000
  -1451018.20005  -1130662.52605  23768541.62400  23768540.88500  23768539.55500
         7.00000         6.00000
  -5896072.74107  -4594343.79306  23145129.94500  23145130.17700  23145131.08500
        45.00000        26.00000
    804953.08204    627228.64605  25004789.38500  25004789.21700  25004792.50700
         3.00000         5.00000
 04  8 27  1 46  0.0000000  0 11G22G21G15G28G19G 9G29G18G14G26G 3
 -18865765.33708 -14700588.69208  21450907.00400  21450907.27500  21450904.99200
       218.00000       108.00000
 -21366554.27208 -16649263.34007  21431903.83000  21431903.53500  21431903.25500
       176.00000        69.00000
 -22557815.69708 -17577517.34908  20756330.50700  20756329.98200  20756330.57100
       224.00000       120.00000
  -1431539.26705  -1115484.23404  25312341.19600  25312339.95200  25312340.34600
         4.00000         2.00000
  -2039433.89105  -1589169.65205  24874262.72400  24874262.09300  24874261.40100
         6.00000        10.00000
 -21997366.04308 -17140793.91808  20512822.31500  20512822.22400  20512822.62200
       303.00000       166.00000
   -555948.15505   -433210.92306  24175427.50700  24175428.99900  24175430.78400
        10.00000        15.00000
 -23343326.64808 -18189599.97709  20225902.31800  20225902.20300  20225901.43600
       190.00000       333.00000
  -1544377.99605  -1203410.33905  23750772.80900  23750772.42500  23750773.94400
         4.00000         6.00000
  -5793651.93307  -4514535.43706  23164619.44900  23164619.87000  23164620.50500
        40.00000        23.00000
    858154.57105    668684.32505  25014914.18500  25014913.10300  25014914.60600
         6.00000         4.00000
 04  8 27  1 46 30.0000000  0 11G22G21G15G28G19G 9G29G18G14G26G 3
 -18928621.60408 -14749567.57408  21438946.00800  21438946.07700  21438943.96700
       218.00000       111.00000
 -21284769.39208 -16585534.89807  21447467.42500  21447466.92800  21447466.54400
       184.00000        67.00000
 -22575448.43108 -17591257.14708  20752974.57200  20752974.20800  20752975.41400
       218.00000       123.00000
  -1418206.43404  -1105095.03704  25314878.19900  25314878.14900  25314877.99000
         1.00000         3.00000
  -2048425.29005  -1596175.95906  24872552.38300  24872551.29400  24872551.72900
        10.00000        11.00000
 -22030807.33608 -17166852.05608  20506458.33000  20506458.36300  20506458.95300
       296.00000       166.00000
   -462685.18706   -360538.57906  24193177.22700  24193177.70000  24193177.92500
        13.00000        14.00000
 -23351747.21108 -18196161.45809  20224299.98400  20224299.77900  20224299.01400
       186.00000       334.00000
  -1637554.44805  -1276015.33005  23733040.63500  23733040.91000  23733043.83800
         6.00000         6.00000
  -5691120.44607  -4434640.82806  23184131.05900  23184131.06000  23184131.48500
        38.00000        23.00000
    911742.39405    710441.02404  25025111.95300  25025111.78300  25025112.05700
         8.00000         3.00000
 04  8 27  1 47  0.0000000  0 11G22G21G15G28G19G 9G29G18G14G26G 3
 -18991248.25108 -14798367.53908  21427028.77400  21427028.74000  21427026.53000
       220.00000       113.00000
 -21202556.60808 -16521473.01107  21463111.61800  21463111.45400  21463110.85100
       186.00000        67.00000
 -22592454.09408 -17604508.31008  20749738.84400  20749738.43500  20749739.10400
       219.00000       120.00000
  -1404382.85200  -1094323.41204  25317509.27100  25317508.18300  25317506.99400
          .00000         2.00000
  -2056897.56206  -1602777.71606  24870938.35700  24870938.20100  24870939.38500
        11.00000        13.00000
 -22063603.62708 -17192407.59508  20500217.52900  20500217.50200  20500218.03700
       295.00000       168.00000
   -369411.35506   -287857.76806  24210927.88700  24210927.28200  24210927.96400
        12.00000        14.00000
 -23359781.60208 -18202422.02209  20222771.37500  20222770.98300  20222770.05100
       185.00000       331.00000
  -1730588.55305  -1348509.37205  23715340.72100  23715339.87900  23715339.66200
         9.00000         7.00000
  -5588521.39407  -4354693.56606  23203653.78900  23203654.40700  23203655.00100
        35.00000        21.00000
    965672.00405    752464.04205  25035375.46700  25035374.97700  25035374.96700
        10.00000         5.00000
 04  8 27  1 47 30.0000000  0 11G22G21G15G28G19G 9G29G18G14G26G 3
 -19053603.47308 -14846956.00708  21415162.79600  21415163.01500  21415160.71900
       225.00000       115.00000
 -21119877.62108 -16457047.85707  21478845.31000  21478844.78900  21478844.50500
       181.00000        71.00000
 -22608791.14908 -17617238.48308  20746629.69000  20746629.30800  20746630.07400
       216.00000       115.00000
  -1390027.94600  -1083137.74804  25320240.51500  25320240.39500  25320241.73700
          .00000         3.00000
  -2064810.19205  -1608943.41306  24869432.63100  24869431.71700  24869433.35200
        10.00000        12.00000
 -22095713.12708 -17217427.97408  20494107.31200  20494107.25600  20494107.82700
       295.00000       170.00000
   -276086.92506   -215137.56206  24228685.71400  24228685.88400  24228687.47900
        13.00000        16.00000
 -23367388.57608 -18208349.53209  20221324.02600  20221323.58800  20221322.39700
       188.00000       325.00000
  -1823438.91505  -1420860.22905  23697670.78400  23697670.19100  23697669.62600
         9.00000         7.00000
  -5485815.72607  -4274663.23806  23223198.89800  23223199.05600  23223200.17900
        34.00000        24.00000
   1019981.68304    794783.22905  25045706.72900  25045707.08400  25045710.24900
         1.00000         6.00000
 04  8 27  1 48  0.0000000  0 11G22G21G15G28G19G 9G29G18G14G26G 3
 -19115752.46408 -14895383.77708  21403336.36400  21403336.41900  21403334.04000
       225.00000       116.00000
 -21036801.08608 -16392312.93407  21494654.11900  21494653.78300  21494653.11300
       179.00000        64.00000
 -22624525.34108 -17629498.88908  20743636.42600  20743635.76900  20743636.01000
       228.00000       114.00000
  -1375208.84004  -1071590.41604  25323061.47000  25323061.22000  25323062.40500
         1.00000         3.00000
  -2072229.85005  -1614724.99905  24868021.97600  24868019.99800  24868021.13500
         7.00000        10.00000
 -22127201.51108 -17241964.36208  20488115.28800  20488115.13200  20488115.70400
       295.00000       169.00000
   -182779.79006   -142430.78006  24246442.53800  24246442.22100  24246443.86500
        13.00000        15.00000
 -23374633.74908 -18213995.13009  20219944.92400  20219944.82500  20219943.65000
       190.00000       323.00000
  -1916171.27305  -1493119.14105  23680022.48100  23680021.92600  23680024.18000
         7.00000         7.00000
  -5383072.02107  -4194603.26406  23242750.22900  23242750.37600  23242751.12300
        35.00000        21.00000
   1074602.30200    837344.71305  25056101.84700  25056100.58400  25056103.36800
          .00000         4.00000
 04  8 27  1 48 30.0000000  0 11G22G21G15G28G19G 9G29G18G14G26G 3
 -19177614.36408 -14943587.83208  21391564.37200  21391564.44000  21391562.19400
       225.00000       116.00000
 -20953251.19408 -16327209.14007  21510553.12800  21510552.80700  21510552.26300
       172.00000        67.00000
 -22639576.32108 -17641226.93508  20740772.27500  20740771.68000  20740772.11800
       233.00000       117.00000
  -1359846.49704  -1059619.74205  25325983.73400  25325983.37100  25325983.40800
         2.00000         4.00000
  -2079077.30805  -1620060.70205  24866718.81200  24866717.51600  24866717.92100
         5.00000         7.00000
 -22157988.58608 -17265954.28108  20482256.63800  20482256.55800  20482257.18900
       297.00000       170.00000
    -89411.59406    -69676.45706  24264209.06900  24264209.01500  24264211.78900
        12.00000        17.00000
 -23381436.95608 -18219296.33909  20218650.51000  20218650.22700  20218649.15700
       189.00000       328.00000
  -2008705.48805  -1565223.66505  23662414.23000  23662413.72700  23662415.53600
         8.00000         8.00000
  -5280212.56307  -4114453.09206  23262324.14200  23262324.34100  23262325.48900
        39.00000        24.00000
   1129610.73604    880208.37405  25066569.01500  25066569.16900  25066572.54700
         1.00000         4.00000
 04  8 27  1 49  0.0000000  0 11G22G21G15G28G19G 9G29G18G14G26G 3
 -19239211.64008 -14991585.69508  21379843.07100  21379843.00700  21379840.43100
       235.00000       115.00000
 -20869253.28308 -16261756.26407  21526537.52800  21526537.06300  21526537.06100
       166.00000        74.00000
 -22653966.94008 -17652440.40208  20738033.50100  20738032.96000  20738033.59700
       219.00000       114.00000
  -1343964.77304  -1047244.35505  25329006.40900  25329006.12800  25329007.22900
         2.00000         4.00000
  -2085376.41505  -1624969.08505  24865520.45500  24865518.99200  24865517.87800
         8.00000         6.00000
 -22188096.79008 -17289415.20408  20476527.22800  20476527.12600  20476527.72900
       298.00000       170.00000
      3992.99606      3106.25206  24281983.40000  24281983.53500  24281985.59400
        15.00000        13.00000
 -23387820.90808 -18224270.84809  20217435.52500  20217435.42900  20217434.44000
       193.00000       334.00000
  -2101064.41405  -1637191.58105  23644838.16200  23644837.98300  23644838.69100
         9.00000         7.00000
  -5177262.53707  -4034232.36006  23281914.85200  23281915.14200  23281916.04500
        39.00000        23.00000
   1184980.87604    923353.82705  25077106.36800  25077105.97900  25077108.85900
         1.00000         5.00000
 04  8 27  1 49 30.0000000  0 11G22G21G15G28G19G 9G29G18G14G26G 3
 -19300584.44908 -15039408.65008  21368163.86200  21368163.98200  21368161.69900
       237.00000       118.00000
 -20784851.73208 -16195988.84707  21542598.23600  21542597.98500  21542597.53200
       158.00000        65.00000
 -22667738.26508 -17663171.30908  20735412.82500  20735412.43400  20735412.84000
       227.00000       112.00000
  -1327605.81304  -1034497.08604  25332119.73600  25332118.90900  25332120.52400
         1.00000         3.00000
  -2091169.10905  -1629482.88305  24864419.03800  24864417.40300  24864416.82700
        10.00000         6.00000
 -22217566.86008 -17312378.88008  20470919.64800  20470919.30700  20470919.55400
       297.00000       166.00000
     97391.15106     75883.93806  24299756.88900  24299756.77700  24299758.37400
        15.00000        12.00000
 -23393826.47308 -18228950.51609  20216292.92500  20216292.69700  20216291.66800
       196.00000       335.00000
  -2193289.00706  -1709054.81605  23627288.95600  23627288.57100  23627288.73000
        13.00000         5.00000
  -5074265.30607  -3953974.83906  23301513.95100  23301514.79800  23301516.22100
        36.00000        25.00000
   1240668.47200    966746.70105  25087702.82100  25087702.07000  25087707.57700
          .00000         6.00000
 04  8 27  1 50  0.0000000  0 11G22G21G15G28G19G 9G29G18G14G26G 3
 -19361695.47208 -15087027.61808  21356535.06000  21356535.04500  21356532.62000
       242.00000       120.00000
 -20700013.40808 -16129881.09907  21558742.91600  21558742.47800  21558741.95400
       159.00000        66.00000
 -22680853.66308 -17673391.10608  20732916.94700  20732916.48300  20732917.30900
       218.00000       116.00000
  -1310734.35200  -1021350.49104  25335329.65800  25335327.77900  25335326.85300
          .00000         2.00000
  -2096419.54205  -1633574.14605  24863419.35700  24863417.73800  24863416.58700
         9.00000         7.00000
 -22246362.11608 -17334816.72708  20465439.69500  20465439.55800  20465439.74100
       297.00000       163.00000
    190817.82506    148683.85206  24317534.13800  24317534.91200  24317536.86800
        13.00000        12.00000
 -23399417.15208 -18233306.89609  20215229.09200  20215228.76500  20215227.67100
       192.00000       332.00000
  -2285342.53106  -1780784.81805  23609771.19000  23609771.08000  23609772.00000
        11.00000         7.00000
  -4971186.84907  -3873654.01306  23321128.78800  23321129.73100  23321131.51200
        35.00000        23.00000
   1296706.71404   1010412.87405  25098369.32700  25098369.38600  25098371.59500
         1.00000         5.00000
 04  8 27  1 50 30.0000000  0 10G22G21G15G19G 9G29G18G14G26G 3
 -19422516.70908 -15134420.77308  21344961.09200  21344961.09300  21344958.64600
       245.00000       120.00000
 -20614714.08308 -16063414.12907  21574974.45600  21574974.28500  21574973.77700
       151.00000        64.00000
 -22693285.52308 -17683078.27108  20730551.27600  20730550.76100  20730551.45100
       218.00000       116.00000
  -2101101.00805  -1637222.06805  24862526.55600  24862527.28700  24862527.25500
         9.00000         8.00000
 -22274454.88508 -17356707.18208  20460093.71100  20460093.70300  20460093.91500
       301.00000       163.00000
    284298.77106    221526.06106  24335323.24300  24335323.60100  24335325.91800
        12.00000        12.00000
 -23404565.23108 -18237318.39309  20214249.40200  20214249.08300  20214248.09500
       188.00000       333.00000
  -2377197.37406  -1852359.93805  23592291.94000  23592292.50500  23592292.97500
        14.00000         7.00000
  -4868001.78007  -3793250.12206  23340765.25700  23340765.56600  23340766.88000
        33.00000        25.00000
   1353120.12005   1054371.27205  25109104.78800  25109104.40600  25109105.96400
         4.00000         4.00000
 04  8 27  1 51  0.0000000  0 10G22G21G15G19G 9G29G18G14G26G 3
 -19483085.46108 -15181617.18808  21333435.57800  21333435.26300  21333432.93500
       241.00000       123.00000
 -20528995.04908 -15996620.11207  21591286.05600  21591285.94800  21591285.97600
       147.00000        62.00000
 -22705072.02508 -17692262.57108  20728308.50200  20728308.05700  20728308.51700
       233.00000       117.00000
  -2105252.73505  -1640457.21305  24861736.59100  24861735.10900  24861738.09000
         7.00000         8.00000
 -22301883.01608 -17378079.74108  20454874.20400  20454874.21400  20454874.49400
       300.00000       165.00000
    377794.03106    294379.42306  24353116.92300  24353115.84600  24353117.97300
        12.00000        12.00000
 -23409308.83908 -18241014.71209  20213346.60800  20213346.30000  20213345.57300
       185.00000       341.00000
  -2468891.68706  -1923809.99405  23574844.42900  23574844.01200  23574843.22900
        16.00000         6.00000
  -4764750.57207  -3712794.68706  23360413.42800  23360413.93600  23360415.21700
        33.00000        23.00000
   1409866.78904   1098589.37905  25119901.22600  25119901.69500  25119903.17700
         1.00000         5.00000
 04  8 27  1 51 30.0000000  0 10G22G21G15G19G 9G29G18G14G26G 3
 -19543419.60608 -15228630.79408  21321953.98600  21321953.90000  21321951.85100
       235.00000       126.00000
 -20442878.64208 -15929516.44307  21607673.51800  21607673.24700  21607673.33500
       151.00000        61.00000
 -22716231.92308 -17700958.60108  20726184.49300  20726183.92300  20726185.13500
       223.00000       122.00000
  -2108894.13405  -1643294.70505  24861043.67200  24861043.13500  24861044.12500
         8.00000         8.00000
 -22328664.82908 -17398948.67208  20449777.96500  20449778.09600  20449778.12300
       308.00000       167.00000
    471283.36806    367228.18406  24370907.20800  24370907.26300  24370908.79100
        12.00000        12.00000
 -23413666.66808 -18244410.43309  20212517.31400  20212517.10900  20212516.30000
       188.00000       344.00000
  -2560444.12706  -1995149.50205  23557421.91400  23557421.64300  23557422.53300
        19.00000         7.00000
  -4661454.44807  -3632304.25606  23380070.13600  23380070.44100  23380071.55800
        34.00000        23.00000
   1466924.94400   1143050.21305  25130756.70800  25130759.29400  25130760.64500
        -1.00000         5.00000
 04  8 27  1 52  0.0000000  0 11G22G21G15G19G 9G29G18G14G26G 3G28
 -19603504.26508 -15275449.99308  21310520.45500  21310520.27200  21310517.92100
       232.00000       125.00000
 -20356353.17208 -15862094.02507  21624139.31500  21624138.67100  21624138.01600
       145.00000        55.00000
 -22726750.99508 -17709155.28608  20724183.18500  20724182.54300  20724183.58000
       229.00000       129.00000
  -2112012.09105  -1645724.32305  24860450.44000  24860449.58900  24860451.58600
         8.00000        10.00000
 -22354786.08908 -17419302.88508  20444807.16300  20444807.26900  20444807.57300
       305.00000       171.00000
    564779.31906    440082.06206  24388698.63600  24388698.80200  24388700.02800
        11.00000        12.00000
 -23417623.84308 -18247493.95809  20211764.62800  20211764.09300  20211763.21700
       185.00000       337.00000
  -2651839.92206  -2066366.94505  23540029.80500  23540029.84800  23540029.36100
        22.00000         7.00000
  -4558101.22707  -3551769.33506  23399738.04600  23399738.13600  23399739.00400
        35.00000        22.00000
   1524305.82000   1187762.58605  25141677.41900  25141677.28200  25141680.56100
        -1.00000         5.00000
      6363.88104      4959.30205  25349143.55200  25349143.34300  25349144.43200
         2.00000         4.00000
 04  8 27  1 52 30.0000000  0 11G22G21G15G19G 9G29G18G14G26G 3G28
 -19663265.70708 -15322017.33708  21299148.32700  21299148.08500  21299145.79900
       233.00000       130.00000
 -20269349.25008 -15794298.79407  21640695.18500  21640695.01300  21640694.58700
       143.00000        54.00000
 -22736555.91508 -17716795.49708  20722317.72300  20722317.06600  20722317.83300
       233.00000       131.00000
  -2114534.41905  -1647689.75705  24859971.01600  24859969.71500  24859969.29100
         8.00000         9.00000
 -22380173.51608 -17439085.28008  20439976.58400  20439976.26300  20439976.56300
       302.00000       174.00000
    658353.25705    512996.73306  24406505.50300  24406505.08300  24406506.47300
         9.00000        11.00000
 -23421107.56608 -18250208.56109  20211101.73800  20211101.24300  20211100.10200
       185.00000       329.00000
  -2743006.16906  -2137405.53705  23522680.87500  23522680.84700  23522682.11000
        21.00000         8.00000
  -4454620.18007  -3471134.81206  23419429.25500  23419430.05300  23419430.63200
        34.00000        22.00000
   1582079.36400   1232780.90605  25152672.52200  25152674.75400  25152676.12100
        -1.00000         4.00000
     25812.67300     20114.21805  25352842.99000  25352842.07600  25352844.08000
          .00000         4.00000
 04  8 27  1 53  0.0000000  0 10G22G21G15G19G 9G29G18G14G26G28
 -19722796.93408 -15368405.29208  21287819.33000  21287819.40800  21287817.36300
       226.00000       130.00000
 -20181964.19408 -15726206.57807  21657324.28900  21657324.10700  21657323.70800
       150.00000        54.00000
 -22745740.50108 -17723952.32908  20720569.97200  20720569.14000  20720570.02400
       219.00000       129.00000
  -2116555.62506  -1649264.71506  24859587.48000  24859586.42400  24859586.38100
        11.00000        12.00000
 -22404920.79208 -17458368.85908  20435267.41800  20435267.04700  20435267.21100
       302.00000       174.00000
    751909.81705    585897.85606  24424308.63600  24424309.06700  24424310.07300
         8.00000        11.00000
 -23424211.44308 -18252627.18809  20210510.71500  20210510.54600  20210509.44000
       189.00000       327.00000
  -2834036.39006  -2208338.12305  23505357.81600  23505358.44200  23505359.63700
        23.00000        10.00000
  -4351107.16006  -3390475.39106  23439126.38700  23439126.90700  23439128.27200
        29.00000        20.00000
     45731.59000     35635.47705  25356634.31100  25356634.84100  25356636.96500
          .00000         4.00000
 04  8 27  1 53 30.0000000  0 10G22G21G15G19G 9G29G18G14G26G28
 -19782058.36608 -15414583.01708  21276542.36200  21276542.34600  21276540.15300
       224.00000       129.00000
 -20094162.67808 -15657789.83707  21674032.47600  21674032.06000  21674031.76900
       141.00000        54.00000
 -22754266.51308 -17730595.98008  20718947.15600  20718946.60200  20718947.52200
       227.00000       127.00000
  -2118038.18005  -1650419.95605  24859305.16100  24859303.99900  24859302.85400
         8.00000         9.00000
 -22428989.27708 -17477123.50308  20430686.98100  20430686.80200  20430687.12100
       303.00000       177.00000
    845486.01105    658814.27406  24442115.46400  24442115.28600  24442117.46800
         9.00000        15.00000
 -23426896.64708 -18254719.56909  20209999.54100  20209999.55000  20209998.64400
       189.00000       331.00000
  -2924891.82506  -2279134.51406  23488069.78000  23488069.63800  23488070.26500
        25.00000        12.00000
  -4247526.03306  -3309762.86006  23458837.98800  23458837.54800  23458839.42900
        26.00000        19.00000
     66158.18700     51552.20904  25360520.34300  25360518.87000  25360521.83800
        -1.00000         2.00000
 04  8 27  1 54  0.0000000  0 10G22G21G15G19G 9G29G18G14G26G28
 -19841028.55608 -15460533.80308  21265320.57100  21265320.65200  21265318.51000
       228.00000       130.00000
 -20005926.33008 -15589034.28107  21690823.02900  21690822.66500  21690822.32900
       130.00000        53.00000
 -22762113.06308 -17736710.18208  20717453.72500  20717453.27600  20717454.24800
       220.00000       124.00000
  -2118962.27705  -1651140.04105  24859128.41900  24859126.56000  24859127.62400
         9.00000         8.00000
 -22452358.07408 -17495332.94108  20426239.86500  20426239.73100  20426240.31500
       304.00000       181.00000
    939101.16305    731761.04606  24459929.58400  24459929.84700  24459930.53000
         9.00000        11.00000
 -23429142.25108 -18256469.40409  20209572.39300  20209572.25000  20209571.27100
       184.00000       329.00000
  -3015551.74406  -2349778.52606  23470818.69100  23470818.01900  23470818.41700
        30.00000        13.00000
  -4143857.96206  -3228982.61106  23478566.02300  23478565.98500  23478567.94800
        30.00000        22.00000
     87112.05500     67879.84004  25364506.04600  25364508.19200  25364509.06800
          .00000         1.00000
 04  8 27  1 54 30.0000000  0  9G22G21G15G19G 9G29G18G14G26
 -19899765.58908 -15506302.90608  21254143.15100  21254143.30900  21254141.19100
       232.00000       126.00000
 -19917317.99508 -15519988.86207  21707685.03100  21707684.60600  21707683.94500
       146.00000        51.00000
 -22769339.21308 -17742340.95508  20716078.66400  20716078.19200  20716079.13400
       218.00000       121.00000
  -2119387.87505  -1651471.65005  24859047.34300  24859046.33900  24859046.78600
         9.00000         8.00000
 -22475086.14908 -17513043.12108  20421914.86600  20421914.73700  20421915.33200
       303.00000       183.00000
   1032694.53306    804690.87506  24477739.74200  24477739.95800  24477741.70300
        11.00000        12.00000
 -23431007.09408 -18257922.54009  20209217.26600  20209217.25500  20209216.46900
       184.00000       326.00000
  -3106074.65007  -2420315.78006  23453592.41600  23453592.20600  23453591.20300
        35.00000        13.00000
  -4040164.20207  -3148182.34006  23498299.31300  23498299.01100  23498299.97700
        36.00000        23.00000
 04  8 27  1 55  0.0000000  0 11G22G21G15G19G 9G29G18G14G26G 3G28
 -19958179.80908 -15551820.46708  21243027.53300  21243027.52400  21243025.27500
       240.00000       125.00000
 -19828252.00208 -15450586.82007  21724633.51600  21724633.22600  21724632.94400
       137.00000        54.00000
 -22775856.13308 -17747419.08608  20714838.94300  20714838.54800  20714839.10900
       238.00000       121.00000
  -2119227.05805  -1651346.30605  24859079.09800  24859075.87900  24859078.49400
         8.00000         9.00000
 -22497084.25108 -17530184.48408  20417728.66200  20417728.63000  20417728.88300
       303.00000       179.00000
   1126353.52905    877671.79906  24495562.16700  24495561.96600  24495563.91400
         9.00000        13.00000
 -23432402.13808 -18259009.60309  20208952.11100  20208951.84800  20208950.95100
       182.00000       323.00000
  -3196371.51907  -2490676.92106  23436409.00600  23436408.41300  23436408.93400
        35.00000        14.00000
  -3936357.94607  -3067294.42106  23518053.84500  23518053.43000  23518053.57700
        37.00000        22.00000
     39646.74900     30894.09505  25208555.92300  25208556.91800  25208558.10900
          .00000         4.00000
         -.16714         -.39214  25372765.63500  25372766.82500  25372770.27100
         1.00000         2.00000
 04  8 27  1 55 30.0000000  0 10G22G21G15G19G 9G29G18G14G26G28
 -20016343.64808 -15597142.92908  21231959.43100  21231959.52200  21231956.87300
       252.00000       122.00000
 -19738804.99908 -15380887.90507  21741654.86100  21741654.33600  21741654.34900
       126.00000        57.00000
 -22781737.29108 -17752001.81308  20713719.58300  20713719.04000  20713720.00300
       230.00000       124.00000
  -2118554.08405  -1650821.91105  24859206.39100  24859204.94100  24859205.44300
         9.00000         7.00000
 -22518425.90908 -17546814.33508  20413667.54700  20413667.35600  20413667.97800
       304.00000       182.00000
   1220003.29806    950645.56006  24513385.03100  24513384.45300  24513385.60700
        13.00000        13.00000
 -23433400.55308 -18259787.59609  20208762.18100  20208761.88800  20208761.05500
       183.00000       327.00000
  -3286515.65507  -2560919.05506  23419254.89700  23419254.62200  23419254.94400
        40.00000        16.00000
  -3832514.71807  -2986377.69706  23537813.62700  23537813.37300  23537814.55500
        34.00000        23.00000
     22455.76600     17497.78904  25377042.13600  25377040.47400  25377041.85900
          .00000         3.00000
 04  8 27  1 56  0.0000000  0 10G22G21G15G19G 9G29G18G14G26G28
 -20074226.70408 -15642246.59908  21220944.96600  21220944.82700  21220942.35500
       255.00000       127.00000
 -19648950.56108 -15310871.49907  21758753.43100  21758753.20900  21758752.94900
       136.00000        50.00000
 -22786953.12708 -17756066.09808  20712727.03600  20712726.55800  20712727.55900
       232.00000       124.00000
  -2117340.44105  -1649876.23605  24859437.67400  24859436.49700  24859436.84000
         9.00000         9.00000
 -22539081.63608 -17562909.69708  20409736.94200  20409736.87600  20409737.25500
       310.00000       182.00000
   1313671.91105   1023634.03206  24531207.60100  24531207.86900  24531209.90900
        10.00000        13.00000
 -23433972.67908 -18260233.41509  20208653.20400  20208653.16000  20208652.24900
       185.00000       333.00000
  -3376477.18407  -2631018.88606  23402136.08800  23402135.55900  23402136.21400
        39.00000        18.00000
  -3728606.95406  -2905410.68006  23557586.25000  23557586.16500  23557587.00900
        31.00000        20.00000
     45420.39200     35392.30505  25381409.82500  25381407.48100  25381414.60600
        -1.00000         4.00000
 04  8 27  1 56 30.0000000  0 10G22G21G15G19G 9G29G18G14G26G28
 -20131839.58008 -15687139.73608  21209981.54100  21209981.42800  21209978.92200
       256.00000       127.00000
 -19558703.51708 -15240549.15307  21775926.99200  21775926.73400  21775926.48600
       136.00000        51.00000
 -22791515.64808 -17759621.32408  20711859.04700  20711858.58300  20711859.02100
       240.00000       121.00000
  -2115598.82605  -1648519.15205  24859769.39200  24859768.26200  24859768.53800
        10.00000         9.00000
 -22559062.93308 -17578479.53108  20405934.82400  20405934.46800  20405934.63400
       308.00000       177.00000
   1407346.31306   1096627.00406  24549034.09900  24549034.37500  24549036.62500
        13.00000        15.00000
 -23434129.95308 -18260355.97609  20208623.78900  20208623.31100  20208622.26500
       189.00000       334.00000
  -3466267.33307  -2700985.17506  23385048.10900  23385047.80900  23385049.59600
        36.00000        18.00000
  -3624648.49606  -2824404.16006  23577368.16900  23577367.62900  23577370.34800
        23.00000        22.00000
     68881.12500     53673.31204  25385871.25000  25385869.97800  25385874.57600
        -1.00000         2.00000
 04  8 27  1 57  0.0000000  0 10G22G21G15G19G 9G29G18G14G26G28
 -20189198.24108 -15731834.78408  21199066.41500  21199066.38200  21199063.88500
       258.00000       129.00000
 -19468083.64508 -15169936.30407  21793171.48600  21793171.22600  21793171.23300
       128.00000        55.00000
 -22795441.52508 -17762680.45208  20711111.85400  20711111.05300  20711112.06400
       222.00000       126.00000
  -2113346.75505  -1646764.32405  24860196.44700  24860194.75000  24860197.10000
         9.00000        10.00000
 -22578386.30308 -17593536.69608  20402257.80100  20402257.44800  20402257.70600
       312.00000       180.00000
   1501008.24006   1169610.24606  24566859.26800  24566858.51200  24566859.56600
        13.00000        14.00000
 -23433888.74508 -18260168.03409  20208669.33800  20208669.18500  20208668.31900
       189.00000       336.00000
  -3555902.67907  -2770830.83606  23367991.47300  23367990.92700  23367992.16100
        38.00000        18.00000
  -3520657.76206  -2743372.47006  23597155.43500  23597155.47300  23597158.50200
        21.00000        20.00000
     92820.04200     72327.02704  25390428.63100  25390428.10800  25390432.45800
        -2.00000         2.00000
 04  8 27  1 57 30.0000000  0 10G22G21G15G19G 9G29G18G14G26G28
 -20246256.91708 -15776296.07708  21188208.54100  21188208.37800  21188206.06700
       252.00000       133.00000
 -19377049.59008 -15099000.72807  21810494.68300  21810494.46100  21810493.81600
       129.00000        48.00000
 -22798686.19408 -17765208.77908  20710494.57800  20710494.08000  20710494.89300
       235.00000       132.00000
  -2110540.60405  -1644577.75406  24860731.85300  24860730.24400  24860731.97500
         8.00000        12.00000
 -22597007.05508 -17608046.35708  20398714.35700  20398714.10100  20398714.34000
       316.00000       181.00000
   1594701.14906   1242617.61606  24584687.63500  24584687.33800  24584688.12400
        12.00000        13.00000
 -23433204.16308 -18259634.59509  20208799.71900  20208799.42700  20208798.49700
       189.00000       335.00000
  -3645338.15107  -2840520.75906  23350972.72500  23350972.86200  23350973.54900
        45.00000        19.00000
  -3416592.25306  -2662282.53106  23616959.17400  23616959.27300  23616961.70600
        22.00000        18.00000
    117280.50200     91389.12304  25395079.09700  25395074.38000  25395092.11300
        -3.00000         2.00000
 04  8 27  1 58  0.0000000  0  9G22G21G15G19G 9G29G18G14G26
 -20303026.09208 -15820531.78208  21177405.34700  21177405.46700  21177403.19600
       246.00000       135.00000
 -19285615.95208 -15027753.75907  21827894.73500  21827894.21000  21827893.37200
       135.00000        49.00000
 -22801261.01008 -17767215.15008  20710004.26100  20710003.77200  20710004.76000
       225.00000       131.00000
  -2107192.76305  -1641969.03705  24861368.95900  24861367.94800  24861368.43200
         6.00000        10.00000
 -22614936.60308 -17622017.41808  20395302.40100  20395301.98200  20395302.37900
       311.00000       180.00000
   1688412.26105   1315639.21706  24602519.95700  24602519.37700  24602520.84400
        10.00000        12.00000
 -23432087.47508 -18258764.45809  20209012.58200  20209012.08500  20209011.04000
       192.00000       335.00000
  -3734585.18507  -2910063.84206  23333989.69600  23333989.39900  23333990.40200
        44.00000        20.00000
  -3312465.19606  -2581144.63706  23636774.99800  23636775.32200  23636775.69600
        23.00000        18.00000
 04  8 27  1 58 30.0000000  0 10G22G21G15G19G 9G29G18G14G26G28
 -20359516.21608 -15864550.04308  21166656.11700  21166655.78400  21166653.58400
       239.00000       136.00000
 -19193797.44708 -14956206.91907  21845365.99300  21845365.84000  21845366.05400
       118.00000        50.00000
 -22803177.79908 -17768708.76308  20709639.35500  20709638.90800  20709640.27200
       225.00000       136.00000
  -2103315.78405  -1638948.04105  24862106.16900  24862105.00700  24862105.10000
         7.00000         7.00000
 -22632186.40409 -17635458.80608  20392019.43300  20392019.62000  20392019.85500
       323.00000       184.00000
   1782128.71905   1388664.93206  24620353.18700  24620352.85000  24620355.37500
         8.00000        12.00000
 -23430549.65608 -18257566.16209  20209304.64100  20209304.54400  20209303.55200
       191.00000       335.00000
  -3823654.71507  -2979468.61506  23317039.83400  23317039.38100  23317040.96000
        48.00000        20.00000
  -3208290.14106  -2499969.37506  23656600.38500  23656599.60600  23656600.44400
        24.00000        17.00000
      8548.52700      6661.08204  25404680.47800  25404680.17800  25404683.35900
          .00000         2.00000
 04  8 27  1 59  0.0000000  0  9G22G21G15G19G 9G29G18G14G26
 -20415721.93508 -15908346.69308  21155959.79800  21155959.92200  21155957.82100
       236.00000       135.00000
 -19101592.70508 -14884359.09907  21862912.91000  21862912.42100  21862911.31800
       124.00000        45.00000
 -22804432.42108 -17769686.40408  20709401.15300  20709400.69000  20709401.66700
       240.00000       136.00000
  -2098906.28106  -1635512.09405  24862945.52900  24862945.80900  24862944.39000
        11.00000         7.00000
 -22648752.24509 -17648367.23808  20388867.23800  20388867.14600  20388867.67900
       320.00000       189.00000
   1875853.40405   1461697.10806  24638186.10600  24638187.10700  24638190.51100
         6.00000        11.00000
 -23428586.24608 -18256036.24309  20209677.99500  20209677.91200  20209677.37200
       182.00000       339.00000
  -3912542.04507  -3048731.42506  23300125.64300  23300125.12400  23300125.39400
        52.00000        22.00000
  -3104064.63406  -2418754.75706  23676432.52800  23676432.01900  23676434.17400
        21.00000        18.00000
 04  8 27  1 59 30.0000000  0  9G22G21G15G19G 9G29G18G14G26
 -20471635.25308 -15951915.49908  21145320.06100  21145320.20700  21145317.83800
       241.00000       137.00000
 -19008997.97108 -14812207.40007  21880532.60200  21880532.47100  21880532.17400
       122.00000        49.00000
 -22805017.83808 -17770142.58008  20709289.40600  20709288.74800  20709289.89300
       224.00000       128.00000
  -2093958.13406  -1631656.43805  24863887.61700  24863886.73100  24863886.12700
        17.00000         8.00000
 -22664627.08109 -17660737.23308  20385846.70600  20385846.37600  20385846.70400
       323.00000       190.00000
   1969592.17405   1534740.21805  24656024.71700  24656024.72700  24656027.91500
         4.00000        10.00000
 -23426189.87208 -18254168.93909  20210134.41000  20210134.12700  20210133.51100
       186.00000       343.00000
  -4001239.89307  -3117846.55406  23283246.54500  23283246.50500  23283246.82600
        54.00000        23.00000
  -2999783.59506  -2337496.87106  23696274.55900  23696275.43000  23696278.22100
        21.00000        18.00000
