     2.10           OBSERVATION DATA    G (GPS)             RINEX VERSION / TYPE
teqc  2005Sep1                          20131009 00:15:19UTCPGM / RUN BY / DATE
OBSERVATION MODE: IGS-Net                                   COMMENT
WSRT Westerbork_Synth (WSRT)                                MARKER NAME
13506M005                                                   MARKER NUMBER
229                 AOA SNR-12 ACT       3.3.32.2N          REC # / TYPE / VERS
273                 AOAD/M_T        DUTD                    ANT # / TYPE
        0.3888        0.0000        0.0000                  ANTENNA: DELTA H/E/N
  3828735.6941  443305.1350  5064884.8236                   APPROX POSITION XYZ
  6.60450833  52.91461271  82.2809  LonLatAlt  RSW          COMMENT
Linux 2.4.20-8|Pentium IV|gcc|Linux|486/DX+                 COMMENT
HANS VAN DER MAREL  DUT/DEOS                                OBSERVER / AGENCY
     1     1                                                WAVELENGTH FACT L1/2
     7    L1    L2    C1    P2    P1    S1    S2            # / TYPES OF OBSERV
RUN BY HANS VAN DER MAREL                                   COMMENT
H.VANDERMAREL@TUDELFT.NL                                    COMMENT
    P1 =    P1  TurboRogue; =    Y1  Benchmark              COMMENT
    L1 = L1(CA)                                             COMMENT
    P2 =    P2  TurboRogue; =    Y2  Benchmark              COMMENT
    L2 = L2(P2) TurboRogue; = L2(Y2) Benchmark              COMMENT
 SNR is mapped to RINEX snr flag value [0-9]                COMMENT
  L1 & L2: min(max(int(snr_dBHz/6), 0), 9)                  COMMENT
  2013    10     8     0     0    0.0000000     GPS         TIME OF FIRST OBS
  2013    10     8    23    59   30.0000000     GPS         TIME OF LAST OBS
                                                            END OF HEADER
 13 10  8  0  0  0.0000000  0 12G 5G10G28G26G21G 9G 8G13G 7G15G19G27
 -24643194.986 7 -19202474.045 7  21019003.919    21019004.558    21019004.676
        43.100          43.700
  -7583933.422 4  -5909539.123 3  23895296.116    23895298.260    23895295.916
        24.900          23.400
 -15386762.303 5 -11989681.828 4  22326625.554    22326625.950    22326625.542
        35.100          29.500
 -26408640.101 7 -20578149.515 6  20307711.932    20307712.693    20307712.145
        43.000          40.900
  -4314567.528 2  -3362000.448 2  25108774.096    25108773.581    25108773.812
        12.600          12.600
 -29001877.463 7 -22598855.547 7  19857941.811    19857942.605    19857942.076
        46.000          44.700
 -26924416.260 7 -20980055.159 7  20599207.635    20599208.334    20599207.668
        45.300          43.300
    671881.511 1    523564.107 9  25422228.280    25422230.639    25422228.642
        11.000          -3.000
 -16600026.007 6 -12935075.290 5  22027420.050    22027420.354    22027420.583
        37.300          34.400
  -8564140.794 3  -6673351.886 3  23999383.163    23999385.454    23999385.002
        23.000          21.600
  -2917159.586 2  -2273109.579 2  25073166.774    25073164.506    25073165.881
        17.000          15.100
    -59647.609 2    -46478.071 2  25041294.400    25041297.239    25041294.352
        15.100          17.000
 13 10  8  0  0 30.0000000  0 12G 5G10G28G26G21G 9G 8G13G 7G15G19G27
 -24604293.283 7 -19172161.040 7  21026406.813    21026407.227    21026407.441
        43.200          43.500
  -7469715.521 3  -5820538.182 3  23917030.784    23917032.988    23917030.599
        23.000          22.600
 -15456893.082 5 -12044329.164 4  22313280.395    22313280.519    22313280.182
        34.600          29.500
 -26465602.867 7 -20622536.081 6  20296871.798    20296873.028    20296872.479
        43.000          41.000
  -4350798.295 2  -3390232.254 2  25101879.795    25101880.151    25101879.945
        13.900          15.100
 -28979949.659 7 -22581768.946 7  19862114.617    19862115.323    19862114.779
        45.900          44.800
 -26904757.024 7 -20964736.271 7  20602948.783    20602949.467    20602948.687
        45.300          43.500
    777547.119 1    605900.965    25442336.535    25442338.014    25442338.011
         9.000           3.000
 -16520972.643 6 -12873475.272 5  22042463.717    22042463.701    22042464.204
        37.300          34.600
  -8663386.739 3  -6750686.377 3  23980497.191    23980499.252    23980498.997
        22.100          20.500
  -2965608.529 3  -2310861.978 2  25063946.499    25063944.698    25063945.314
        19.300          15.100
    -52818.808 2    -41156.853 2  25042593.293    25042596.445    25042593.847
        16.100          17.800
 13 10  8  0  1  0.0000000  0 12G 5G10G28G26G21G 9G 8G13G 7G15G19G27
 -24564836.566 7 -19141415.561 7  21033915.215    21033915.602    21033915.888
        43.300          43.500
  -7355378.261 3  -5731444.252 3  23938788.217    23938791.113    23938787.991
        23.400          23.800
 -15526624.691 5 -12098665.470 5  22300011.010    22300011.212    22300011.015
        35.500          30.400
 -26522132.956 7 -20666585.503 6  20286115.033    20286115.626    20286115.215
        43.200          41.000
  -4386566.544 2  -3418103.611 2  25095072.631    25095073.402    25095073.707
        12.600          12.600
 -28957464.503 7 -22564248.046 7  19866393.339    19866393.978    19866393.546
        45.900          44.500
 -26884638.286 7 -20949059.330 7  20606777.146    20606778.060    20606777.133
        45.100          43.300
    883247.827 1    688265.175 1  25462450.777    25462451.656    25462451.463
         9.000          11.000
 -16441644.566 6 -12811661.192 5  22057558.949    22057559.248    22057559.635
        37.100          34.300
  -8762533.003 4  -6827943.162 3  23961632.296    23961633.039    23961633.058
        25.600          23.800
  -3013580.102 2  -2348242.408 3  25054817.188    25054816.951    25054815.516
        16.100          18.600
    -45427.993 2    -35397.845 2  25043999.873    25044002.852    25044000.429
        17.000          16.100
 13 10  8  0  1 30.0000000  0 12G 5G10G28G26G21G 9G 8G13G 7G15G19G27
 -24524825.996 7 -19110238.510 7  21041528.796    21041529.440    21041529.654
        43.100          43.400
  -7240923.925 3  -5642259.096 3  23960567.534    23960570.630    23960567.751
        23.000          22.100
 -15595954.963 5 -12152689.039 5  22286817.309    22286817.930    22286817.485
        35.300          30.100
 -26578228.901 7 -20710296.616 6  20275440.041    20275440.896    20275440.514
        43.200          41.200
  -4421870.828 2  -3445613.450 1  25088356.163    25088354.994    25088356.180
        15.100           9.000
 -28934423.262 7 -22546293.827 7  19870777.884    19870778.739    19870778.187
        46.000          44.600
 -26864061.130 7 -20933025.176 7  20610692.717    20610693.693    20610692.760
        45.100          43.400
    988982.334 1    770655.652 2  25482570.318    25482573.000    25482571.293
         6.500          13.900
 -16362043.901 6 -12749634.717 5  22072706.276    22072706.938    22072707.259
        37.100          34.000
  -8861578.489 4  -6905121.444 3  23942783.907    23942784.210    23942784.648
        24.200          19.900
  -3061072.120 2  -2385249.133 3  25045779.760    25045779.040    25045779.149
        17.000          18.600
    -37474.945 2    -29200.733 3  25045513.341    25045515.917    25045513.855
        16.100          18.600
 13 10  8  0  2  0.0000000  0 12G 5G10G28G26G21G 9G 8G13G 7G15G19G27
 -24484262.875 7 -19078630.898 7  21049247.758    21049248.392    21049248.449
        43.000          43.500
  -7126354.758 4  -5552984.442 3  23982370.008    23982372.288    23982369.583
        24.600          21.100
 -15664881.426 5 -12206397.950 5  22273701.194    22273701.529    22273701.052
        35.200          30.600
 -26633889.220 7 -20753668.291 6  20264848.452    20264849.099    20264848.646
        43.200          41.300
  -4456710.220 2  -3472761.026 2  25081726.034    25081725.305    25081725.756
        13.900          13.900
 -28910827.083 7 -22527907.191 7  19875268.177    19875268.963    19875268.411
        45.900          44.700
 -26843026.402 7 -20916634.475 7  20614695.525    20614696.530    20614695.518
        45.200          43.200
   1094750.037 1    853072.071 1  25502697.314    25502698.871    25502698.641
         6.500          11.000
 -16282172.309 6 -12687397.116 5  22087905.401    22087906.063    22087906.378
        37.200          33.800
  -8960521.684 3  -6982220.013 3  23923955.339    23923956.677    23923955.701
        23.400          20.500
  -3108082.477 2  -2421880.549 3  25036833.493    25036833.445    25036831.642
        15.100          19.300
    -28960.009 2    -22565.791 2  25047133.963    25047136.314    25047134.547
        17.800          17.800
 13 10  8  0  2 30.0000000  0 12G 5G10G28G26G21G 9G 8G13G 7G15G19G27
 -24443148.261 7 -19046593.558 7  21057071.673    21057072.185    21057072.427
        43.200          43.300
  -7011672.869 4  -5463621.945 3  24004193.311    24004195.447    24004193.145
        24.200          19.900
 -15733402.427 5 -12259790.914 5  22260662.467    22260662.419    22260662.333
        35.800          30.600
 -26689112.545 7 -20796699.448 6  20254339.115    20254340.480    20254340.064
        43.300          41.200
  -4491083.738 2  -3499545.589 2  25075184.808    25075184.479    25075184.915
        16.100          15.100
 -28886677.147 7 -22509089.054 7  19879863.739    19879864.506    19879863.906
        45.900          44.600
 -26821534.879 7 -20899887.833 7  20618785.234    20618786.278    20618785.275
        45.100          43.200
   1200550.286 1    935513.798 1  25522829.527    25522833.889    25522830.620
         9.000           9.000
 -16202031.787 6 -12624949.967 5  22103155.964    22103156.241    22103156.475
        36.500          34.000
  -9059361.517 4  -7059238.032 3  23905147.316    23905147.237    23905147.848
        24.600          22.600
  -3154608.944 2  -2458134.910 2  25027978.889    25027978.924    25027979.785
        16.100          17.000
    -19883.004 2    -15492.754 2  25048859.861    25048863.623    25048861.104
        13.900          17.000
 13 10  8  0  3  0.0000000  0 12G 5G10G28G26G21G 9G 8G13G 7G15G19G27
 -24401483.015 7 -19014127.146 7  21065000.189    21065000.794    21065001.071
        43.100          43.200
  -6896880.517 4  -5374173.355 3  24026038.034    24026040.110    24026037.748
        24.600          21.100
 -15801515.817 5 -12312866.266 5  22247700.419    22247701.111    22247700.568
        35.500          30.400
 -26743897.278 7 -20839388.848 6  20243914.771    20243915.346    20243914.936
        43.400          41.300
  -4524990.315 1  -3525966.316 2  25068732.195    25068732.229    25068732.063
         9.000          13.900
 -28861974.799 7 -22489840.470 7  19884564.095    19884565.129    19884564.450
        45.800          44.500
 -26799587.850 7 -20882786.249 7  20622961.806    20622962.675    20622961.686
        45.300          43.200
   1306381.814 9   1017979.958 9  25542969.385    25542971.995    25542970.345
        -3.000          -3.000
 -16121624.088 6 -12562294.643 5  22118456.983    22118457.368    22118457.586
        36.800          34.300
  -9158096.292 4  -7136174.185 3  23886358.161    23886358.871    23886359.375
        24.900          20.500
  -3200649.318 2  -2494010.524 2  25019219.195    25019217.974    25019218.949
        17.000          15.100
    -10244.312 2     -7982.031 2  25050694.475    25050697.959    25050696.124
        13.900          16.100
 13 10  8  0  3 30.0000000  0 12G 5G10G28G26G21G 9G 8G13G 7G15G19G27
 -24359268.005 7 -18981232.352 7  21073033.441    21073034.231    21073034.169
        42.700          43.400
  -6781979.954 4  -5284640.473 3  24047903.281    24047905.083    24047902.785
        24.600          21.100
 -15869219.149 5 -12365622.090 5  22234817.184    22234817.238    22234817.045
        35.600          30.600
 -26798242.127 7 -20881735.476 6  20233573.068    20233573.953    20233573.434
        43.300          41.600
  -4558428.653 2  -3552022.159 2  25062369.176    25062369.159    25062369.259
        13.900          15.100
 -28836721.026 7 -22470162.208 7  19889369.796    19889370.738    19889370.239
        46.000          44.500
 -26777186.571 7 -20865330.709 7  20627224.491    20627225.459    20627224.450
        45.200          43.100
   1412244.636 1   1100470.409 2  25563114.764    25563119.033    25563114.049
         9.000          12.600
 -16040951.011 6 -12499432.509 5  22133809.231    22133808.608    22133809.516
        37.200          33.400
  -9256724.991 4  -7213027.695 3  23867589.825    23867591.008    23867590.876
        24.200          21.100
  -3246201.353 2  -2529505.549 3  25010550.863    25010549.980    25010549.648
        15.100          19.300
       -44.252 2       -33.973 3  25052636.321    25052638.846    25052637.149
        17.000          18.600
 13 10  8  0  4  0.0000000  0 12G 5G10G28G26G21G 9G 8G13G 7G15G19G27
 -24316504.580 7 -18947910.221 7  21081171.405    21081171.777    21081172.087
        43.100          42.900
  -6666973.390 4  -5195024.977 3  24069787.807    24069790.082    24069787.350
        24.600          21.100
 -15936510.793 5 -12418057.118 5  22222011.772    22222012.103    22222011.849
        35.600          30.400
 -26852145.603 7 -20923738.183 6  20223315.750    20223316.459    20223315.909
        43.400          41.600
  -4591398.159 2  -3577712.711 2  25056095.991    25056095.357    25056095.321
        12.600          15.100
 -28810917.042 7 -22450055.209 7  19894280.293    19894281.079    19894280.599
        46.000          44.500
 -26754331.866 7 -20847521.842 7  20631573.637    20631574.587    20631573.546
        45.100          43.200
   1518137.558 1   1182984.409 2  25583266.493    25583267.795    25583267.489
         9.000          12.600
 -15960014.532 6 -12436365.124 5  22149210.823    22149210.388    22149211.269
        37.100          33.500
  -9355246.285 4  -7289797.507 4  23848841.626    23848843.003    23848842.693
        25.300          24.200
  -3291263.003 2  -2564618.468 2  25001975.371    25001973.967    25001975.348
        17.800          15.100
     10717.073 2      8351.506 2  25054684.262    25054686.722    25054683.777
        15.100          17.800
 13 10  8  0  4 30.0000000  0 11G 5G10G28G26G21G 9G 8G 7G15G19G27
 -24273194.249 7 -18914161.927 7  21089413.098    21089413.475    21089413.608
        43.000          42.900
  -6551863.214 4  -5105328.757 3  24091692.069    24091694.567    24091691.813
        24.600          18.600
 -16003388.540 6 -12470169.636 5  22209285.649    22209285.890    22209285.575
        36.000          31.000
 -26905606.217 7 -20965395.797 6  20213142.338    20213143.224    20213142.687
        43.400          41.600
  -4623897.989 2  -3603037.245 2  25049910.043    25049911.155    25049910.844
        15.100          13.900
 -28784564.268 7 -22429520.576 7  19899295.242    19899295.888    19899295.328
        46.000          44.500
 -26731024.753 7 -20829360.452 7  20636008.937    20636009.709    20636008.820
        45.200          43.000
 -15878816.415 6 -12373093.880 5  22164661.779    22164662.150    22164662.443
        36.400          33.500
  -9453658.789 3  -7366482.526 3  23830114.762    23830115.543    23830115.251
        23.800          23.400
  -3335831.994 2  -2599347.551 2  24993495.041    24993492.850    24993494.835
        17.000          13.900
     22039.283 2     17173.978 2  25056838.178    25056841.323    25056839.054
        17.800          16.100
 13 10  8  0  5  0.0000000  0 11G 5G10G28G26G21G 9G 8G 7G15G19G27
 -24229338.290 7 -18879988.469 7  21097758.584    21097758.984    21097759.246
        43.000          43.100
  -6436651.786 3  -5015553.634 3  24113616.729    24113618.423    24113616.466
        21.100          21.100
 -16069850.282 6 -12521957.988 5  22196638.292    22196638.709    22196638.159
        36.000          31.800
 -26958622.605 7 -21006707.267 6  20203053.699    20203054.428    20203054.002
        43.600          41.600
  -4655927.065 2  -3627994.951 2  25043815.979    25043815.747    25043816.019
        12.600          15.100
 -28757664.037 7 -22408559.355 7  19904414.046    19904414.720    19904414.220
        45.800          44.300
 -26707266.358 7 -20810847.419 7  20640529.915    20640530.642    20640529.856
        45.200          42.900
 -15797358.758 6 -12309620.396 5  22180162.657    22180162.862    22180163.399
        36.800          33.600
  -9551960.918 3  -7443081.563 3  23811408.233    23811409.458    23811408.691
        23.800          23.000
  -3379906.285 3  -2633691.082 2  24985107.572    24985106.489    24985106.524
        18.600          17.000
     33922.193 2     26433.389 3  25059100.080    25059102.676    25059101.163
        17.800          18.600
 13 10  8  0  5 30.0000000  0 11G 5G10G28G26G21G 9G 8G 7G15G19G27
 -24184937.116 7 -18845390.165 7  21106207.770    21106208.220    21106208.503
        43.000          43.000
  -6321341.050 3  -4925701.112 3  24135559.715    24135560.957    24135558.877
        22.600          20.500
 -16135893.985 5 -12573420.594 5  22184070.014    22184071.023    22184070.176
        35.800          31.100
 -27011193.414 7 -21047671.530 6  20193049.658    20193050.477    20193050.034
        43.500          41.800
  -4687484.464 2  -3652585.153 2  25037810.677    25037811.052    25037811.164
        16.100          13.900
 -28730217.730 7 -22387172.618 7  19909636.742    19909637.599    19909637.039
        45.800          44.200
 -26683057.597 7 -20791983.447 7  20645136.776    20645137.379    20645136.777
        45.200          43.000
 -15715643.063 6 -12245945.835 5  22195712.661    22195712.802    22195713.301
        36.900          33.600
  -9650151.819 4  -7519593.922 3  23792723.436    23792723.626    23792724.057
        25.300          23.400
  -3423483.959 2  -2667647.602 3  24976815.577    24976813.865    24976814.732
        17.000          19.300
     46365.623 3     36129.616 2  25061467.781    25061470.521    25061468.348
        18.600          16.100
 13 10  8  0  6  0.0000000  0 12G 5G10G28G26G21G 9G 8G 3G 7G15G19G27
 -24139992.079 7 -18810368.078 7  21114760.702    21114761.207    21114761.325
        43.200          42.900
  -6205933.236 3  -4835772.976 3  24157520.821    24157523.262    24157519.851
        20.500          21.600
 -16201517.682 5 -12624555.912 5  22171582.378    22171583.051    22171582.633
        35.500          31.300
 -27063317.048 7 -21088287.347 6  20183130.717    20183131.598    20183131.270
        43.800          41.600
  -4718569.273 2  -3676807.123 1  25031895.144    25031894.853    25031896.048
        13.900          11.000
 -28702226.433 7 -22365361.218 7  19914963.145    19914964.270    19914963.553
        45.700          44.200
 -26658399.868 7 -20772769.631 7  20649828.923    20649829.734    20649828.908
        45.200          42.800
     35279.135 2     27490.068 2  24394373.027    24394373.916    24394373.358
        16.100          17.000
 -15633671.413 6 -12182071.831 5  22211311.081    22211311.483    22211311.912
        36.500          33.400
  -9748230.107 4  -7596018.532 4  23774060.488    23774060.055    23774060.669
        26.200          24.200
  -3466562.671 3  -2701215.392 2  24968618.625    24968615.682    24968617.765
        19.900          17.800
     59368.951 2     46262.077 2  25063942.011    25063944.292    25063942.331
        17.000          13.900
 13 10  8  0  6 30.0000000  0 12G 5G10G28G26G21G 9G 8G 3G 7G15G19G27
 -24094504.787 7 -18774923.450 7  21123416.411    21123417.191    21123417.055
        42.700          42.900
  -6090430.586 3  -4745770.932 3  24179500.422    24179502.363    24179499.675
        23.400          23.000
 -16266719.188 6 -12675362.274 5  22159175.380    22159175.325    22159175.364
        36.300          31.000
 -27114992.331 7 -21128553.794 6  20173297.424    20173298.147    20173297.754
        43.700          41.800
  -4749180.459 1  -3700659.980 2  25026070.803    25026070.362    25026071.116
        11.000          15.100
 -28673691.767 7 -22343126.413 7  19920393.375    19920394.128    19920393.569
        45.600          44.000
 -26633294.068 7 -20753206.669 7  20654606.441    20654607.290    20654606.409
        45.200          43.000
     52784.102 3     41130.285 2  24397704.614    24397705.177    24397704.690
        18.600          13.900
 -15551445.834 6 -12117999.957 5  22226958.114    22226958.633    22226958.785
        36.300          33.100
  -9846194.292 4  -7672354.229 4  23755417.693    23755418.304    23755418.343
        25.900          24.200
  -3509140.483 2  -2734392.889 2  24960514.517    24960514.035    24960513.859
        15.100          17.800
     72932.062 2     56830.750 2  25066522.519    25066525.971    25066523.389
        17.000          16.100
 13 10  8  0  7  0.0000000  0 12G 5G10G28G26G21G 9G 8G 3G 7G15G19G27
 -24048476.372 7 -18739057.177 7  21132175.436    21132175.988    21132176.106
        42.800          42.700
  -5974835.632 3  -4655696.956 3  24201497.188    24201499.558    24201496.884
        21.100          21.600
 -16331496.390 6 -12725838.005 5  22146848.532    22146848.982    22146848.503
        36.400          31.800
 -27166217.707 7 -21168469.664 6  20163549.773    20163550.359    20163549.957
        43.800          41.900
  -4779317.454 2  -3724143.359 2  25020335.565    25020336.547    25020335.398
        13.900          13.900
 -28644615.077 7 -22320469.251 7  19925926.363    19925927.227    19925926.686
        45.800          44.100
 -26607741.425 7 -20733295.518 7  20659468.974    20659469.691    20659468.901
        45.400          42.700
     70906.258 2     55251.463 1  24401152.805    24401153.097    24401152.902
        17.000          11.000
 -15468968.063 5 -12053731.583 5  22242652.816    22242653.804    22242653.790
        35.900          33.400
  -9944043.258 4  -7748600.135 4  23736796.418    23736797.912    23736798.115
        25.600          24.200
  -3551215.404 2  -2767178.497 2  24952508.129    24952506.497    24952508.025
        17.000          17.000
     87054.566 2     67835.344 2  25069210.965    25069213.012    25069211.321
        17.000          15.100
 13 10  8  0  7 30.0000000  0 12G 5G10G28G26G21G 9G 8G 3G 7G15G19G27
 -24001908.123 7 -18702770.237 7  21141036.858    21141037.584    21141037.711
        43.000          42.300
  -5859150.278 3  -4565552.550 3  24223511.369    24223513.984    24223511.070
        23.400          22.600
 -16395847.572 6 -12775981.761 5  22134602.465    22134603.329    22134602.766
        36.300          31.600
 -27216991.826 7 -21208033.916 6  20153887.116    20153888.372    20153887.898
        44.000          41.800
  -4808979.240 2  -3747256.461 2  25014691.814    25014691.959    25014691.747
        16.100          17.800
 -28614997.473 7 -22297390.601 7  19931562.557    19931563.321    19931562.778
        45.900          44.200
 -26581742.783 7 -20713036.836 7  20664416.366    20664417.154    20664416.325
        45.500          43.000
     89644.956 2     69853.035 2  24404717.550    24404720.126    24404718.292
        13.900          16.100
 -15386239.825 6 -11989268.038 5  22258395.562    22258396.419    22258396.642
        36.400          33.200
 -10041775.358 4  -7824754.981 3  23718199.830    23718200.603    23718200.753
        26.500          23.000
  -3592785.413 2  -2799570.652 2  24944598.753    24944596.596    24944597.954
        17.000          17.800
    101736.075 2     79275.559 2  25072004.427    25072007.521    25072004.845
        17.000          17.000
 13 10  8  0  8  0.0000000  0 12G 5G10G28G26G21G 9G 8G 3G 7G15G19G27
 -23954801.451 7 -18666063.767 7  21150000.892    21150001.866    21150001.829
        42.600          42.600
  -5743376.653 3  -4475339.361 3  24245542.514    24245544.927    24245542.448
        22.100          22.600
 -16459770.781 6 -12825792.032 5  22122438.586    22122438.840    22122438.749
        36.500          31.600
 -27267313.279 7 -21247245.435 7  20144311.905    20144312.531    20144312.027
        43.900          42.000
  -4838165.004 2  -3769998.615 2  25009136.117    25009136.974    25009138.133
        17.800          13.900
 -28584840.275 7 -22273891.484 7  19937301.348    19937301.993    19937301.548
        45.900          43.900
 -26555299.489 7 -20692431.670 7  20669448.259    20669449.125    20669448.298
        45.400          42.700
    108999.603 1     84934.520 2  24408401.888    24408403.327    24408401.687
         6.500          15.100
 -15303262.746 6 -11924610.578 5  22274185.604    22274186.154    22274186.714
        36.100          32.300
 -10139389.121 4  -7900817.634 3  23699623.952    23699625.087    23699624.969
        25.900          23.400
  -3633848.491 2  -2831567.809 2  24936781.750    24936781.668    24936782.629
        16.100          13.900
    116976.033 1     91150.973 2  25074904.979    25074907.034    25074905.320
        11.000          17.000
 13 10  8  0  8 30.0000000  0 12G 5G10G28G26G21G 9G 8G 3G 7G15G19G27
 -23907157.240 7 -18628938.424 7  21159067.559    21159068.219    21159068.342
        42.700          42.700
  -5627517.084 3  -4385059.187 3  24267590.055    24267591.698    24267589.991
        23.800          20.500
 -16523263.937 6 -12875267.212 5  22110356.271    22110356.524    22110356.411
        36.700          32.300
 -27317180.702 7 -21286103.161 7  20134821.912    20134823.007    20134822.484
        43.900          42.100
  -4866873.777 2  -3792369.095 2  25003673.775    25003674.057    25003674.106
        15.100          13.900
 -28554144.912 7 -22249973.020 7  19943142.153    19943143.087    19943142.629
        45.800          44.000
 -26528412.338 7 -20671480.643 7  20674564.664    20674565.485    20674564.703
        45.200          42.600
    128969.855 2    100495.763 2  24412202.725    24412202.796    24412202.124
        13.900          16.100
 -15220038.999 6 -11859760.911 5  22290022.348    22290023.079    22290023.530
        36.100          32.400
 -10236883.356 4  -7976787.150 3  23681071.340    23681072.046    23681072.407
        26.200          22.600
  -3674402.739 3  -2863168.502 2  24929066.051    24929064.984    24929066.080
        19.300          17.000
    132774.035 2    103461.144 2  25077911.272    25077912.861    25077911.524
        15.100          17.800
 13 10  8  0  9  0.0000000  0 12G 5G10G28G26G21G 9G 8G 3G 7G15G19G27
 -23858977.213 7 -18591395.571 7  21168235.946    21168236.443    21168236.606
        42.700          42.500
  -5511573.816 3  -4294713.799 3  24289653.600    24289655.066    24289653.155
        21.100          19.300
 -16586325.050 6 -12924405.723 5  22098355.911    22098356.406    22098356.000
        36.000          31.600
 -27366592.668 7 -21324605.989 7  20125419.472    20125420.211    20125419.775
        43.900          42.000
  -4895105.187 2  -3814367.573 2  24998302.187    24998302.710    24998302.559
        13.900          16.100
 -28522913.065 7 -22225636.519 7  19949085.493    19949086.380    19949085.790
        45.800          43.800
 -26501082.841 7 -20650184.932 7  20679765.536    20679766.102    20679765.407
        45.300          42.700
    149555.270 2    116536.320 2  24416119.252    24416120.362    24416118.966
        16.100          13.900
 -15136570.363 6 -11794720.428 5  22305906.331    22305906.696    22305907.452
        36.300          32.600
 -10334256.723 4  -8052662.469 4  23662541.995    23662542.939    23662543.388
        26.800          24.600
  -3714446.039 2  -2894371.063 3  24921447.275    24921445.920    24921446.063
        17.800          18.600
    149129.495 2    116205.635 3  25081022.152    25081024.942    25081022.864
        17.000          18.600
 13 10  8  0  9 30.0000000  0 12G 5G10G28G26G21G 9G 8G 3G 7G15G19G27
 -23810262.599 7 -18553436.154 7  21177505.977    21177506.678    21177506.688
        42.900          42.300
  -5395549.116 3  -4204304.949 3  24311732.256    24311733.783    24311732.023
        21.600          18.600
 -16648952.227 6 -12973206.098 5  22086438.435    22086438.832    22086438.518
        36.200          31.600
 -27415547.880 7 -21362752.904 7  20116103.674    20116104.336    20116103.911
        43.800          42.200
  -4922857.849 2  -3835993.036 2  24993022.133    24993020.884    24993021.339
        13.900          12.600
 -28491145.876 7 -22200882.869 7  19955130.597    19955131.582    19955130.888
        45.800          43.900
 -26473312.366 7 -20628545.601 7  20685050.024    20685050.679    20685049.924
        45.400          42.600
    170754.643 2    133055.326 2  24420152.399    24420153.710    24420152.781
        12.600          12.600
 -15052858.812 6 -11729490.657 5  22321836.165    22321836.585    22321837.007
        36.300          32.400
 -10431508.038 4  -8128442.663 4  23644035.591    23644036.563    23644036.820
        26.800          24.600
  -3753976.470 2  -2925173.910 2  24913923.067    24913923.245    24913922.272
        17.000          17.800
    166042.098 3    129384.323 2  25084241.417    25084243.700    25084242.149
        18.600          17.000
 13 10  8  0 10  0.0000000  0 12G 5G10G28G26G21G 9G 8G 3G 7G15G19G27
 -23761014.605 7 -18515061.116 7  21186877.590    21186878.236    21186878.389
        42.700          42.300
  -5279445.115 3  -4113834.305 3  24333825.841    24333828.047    24333825.688
        20.500          19.300
 -16711143.588 6 -13021666.891 5  22074604.101    22074604.070    22074604.129
        36.800          32.100
 -27464044.874 7 -21400542.757 7  20106875.173    20106875.641    20106875.359
        43.900          42.300
  -4950131.333 2  -3857245.115 2  24987831.090    24987830.721    24987831.361
        15.100          15.100
 -28458844.667 7 -22175713.095 7  19961277.402    19961278.302    19961277.596
        45.600          43.700
 -26445101.489 7 -20606563.101 7  20690418.243    20690418.969    20690418.260
        45.300          42.400
    192567.581 2    150052.442 1  24424303.176    24424305.207    24424303.854
        12.600          11.000
 -14968906.034 5 -11664072.925 5  22337812.260    22337812.327    22337812.860
        35.900          33.000
 -10528635.870 4  -8204126.690 4  23625552.538    23625554.102    23625553.742
        26.500          24.200
  -3792992.072 3  -2955575.658 2  24906499.979    24906497.805    24906499.531
        19.300          15.100
    183511.307 2    142996.696 2  25087565.693    25087568.110    25087565.773
        15.100          17.000
 13 10  8  0 10 30.0000000  0 12G 5G10G28G26G21G 9G 8G 3G 7G15G19G27
 -23711234.728 7 -18476271.629 7  21196350.104    21196351.069    21196351.163
        42.600          42.300
  -5163264.026 3  -4023303.628 3  24355934.397    24355936.603    24355934.165
        19.300          19.900
 -16772897.372 6 -13069786.715 5  22062852.311    22062852.967    22062852.436
        36.300          32.800
 -27512082.382 7 -21437974.584 7  20097733.450    20097734.356    20097734.069
        44.200          42.200
  -4976924.996 2  -3878123.305 2  24982732.129    24982732.320    24982732.365
        16.100          12.600
 -28426011.065 7 -22150128.470 7  19967525.142    19967526.358    19967525.629
        45.600          43.800
 -26416451.788 7 -20584238.658 7  20695870.159    20695870.921    20695870.149
        45.300          42.600
    214993.703 2    167527.362 2  24428572.054    24428572.645    24428571.836
        15.100          13.900
 -14884713.940 6 -11598468.708 5  22353833.484    22353833.461    22353834.060
        36.200          32.100
 -10625638.853 4  -8279713.384 3  23607093.689    23607094.149    23607094.510
        27.600          23.800
  -3831490.889 3  -2985574.708 2  24899173.344    24899172.580    24899173.649
        18.600          17.800
    201536.438 2    157042.188 2  25090996.051    25090997.816    25090996.382
        16.100          17.800
 13 10  8  0 11  0.0000000  0 12G 5G10G28G26G21G 9G 8G 3G 7G15G19G27
 -23660924.951 7 -18437069.227 7  21205923.997    21205924.731    21205924.840
        42.800          42.300
  -5047008.242 3  -3932714.687 2  24378056.424    24378058.160    24378055.999
        22.100          16.100
 -16834211.321 6 -13117563.786 5  22051185.108    22051185.204    22051185.033
        36.600          32.100
 -27559659.048 7 -21475047.303 7  20088680.499    20088680.869    20088680.633
        44.200          42.400
  -5003237.952 2  -3898626.925 1  24977725.576    24977725.027    24977725.597
        12.600           9.000
 -28392646.569 7 -22124130.167 7  19973874.552    19973875.347    19973874.779
        45.700          43.800
 -26387364.047 7 -20561572.883 7  20701405.206    20701406.186    20701405.271
        45.200          42.400
    238032.125 3    185479.403 2  24432956.321    24432957.365    24432956.842
        19.300          15.100
 -14800284.125 6 -11532679.249 5  22369899.733    22369900.095    22369900.501
        36.200          32.400
 -10722515.285 4  -8355201.490 4  23588658.837    23588659.744    23588659.642
        27.600          24.900
  -3869471.195 2  -3015169.706 3  24891945.956    24891944.199    24891945.968
        17.800          18.600
    220117.047 2    171520.519 2  25094530.464    25094533.627    25094531.225
        16.100          17.800
 13 10  8  0 11 30.0000000  0 12G 5G10G28G26G21G 9G 8G 3G 7G15G19G27
 -23610085.691 7 -18397454.244 7  21215598.626    21215599.075    21215599.253
        42.700          42.100
  -4930680.000 3  -3842069.338 2  24400193.102    24400195.573    24400192.513
        18.600          17.800
 -16895083.902 6 -13164996.953 5  22039601.323    22039601.320    22039601.339
        36.600          32.600
 -27606773.555 7 -21511759.907 7  20079714.691    20079715.352    20079715.009
        44.400          42.400
  -5029069.510 2  -3918755.406 2  24972810.109    24972810.115    24972810.246
        17.000          15.100
 -28358752.742 7 -22097719.388 7  19980324.258    19980325.139    19980324.575
        45.600          43.700
 -26357839.823 7 -20538566.993 7  20707023.293    20707024.451    20707023.504
        45.200          42.300
    261681.939 2    203907.811 2  24437456.660    24437457.229    24437456.646
        17.800          15.100
 -14715618.408 5 -11466705.982 5  22386011.271    22386011.468    22386011.585
        35.300          32.700
 -10819263.907 4  -8430589.976 3  23570247.782    23570248.580    23570248.932
        26.500          23.800
  -3906931.092 3  -3044359.208 3  24884817.674    24884816.266    24884816.440
        19.900          19.300
    239252.633 3    186431.350 2  25098172.322    25098175.699    25098172.961
        18.600          17.800
 13 10  8  0 12  0.0000000  0 12G 5G10G28G26G21G 9G 8G 3G 7G15G19G27
 -23558718.630 7 -18357427.988 6  21225373.328    21225374.082    21225374.063
        42.700          41.900
  -4814281.183 3  -3751368.977 2  24422343.704    24422345.310    24422342.889
        18.600          17.000
 -16955512.955 6 -13212084.512 5  22028102.173    22028102.262    22028102.106
        36.900          32.800
 -27653424.428 7 -21548111.228 7  20070837.446    20070838.021    20070837.605
        44.400          42.500
  -5054419.069 2  -3938508.316 2  24967984.330    24967985.524    24967985.172
        17.000          13.900
 -28324330.862 7 -22070897.149 7  19986874.499    19986875.424    19986874.810
        45.700          43.600
 -26327880.318 7 -20515221.924 7  20712724.662    20712725.548    20712724.727
        45.300          42.600
    285942.494 2    222812.130 2  24442073.033    24442073.840    24442072.602
        16.100          17.000
 -14630718.778 5 -11400550.440 5  22402166.866    22402167.272    22402167.600
        35.300          32.100
 -10915883.226 4  -8505877.748 4  23551861.461    23551862.860    23551862.765
        25.900          24.600
  -3943868.602 2  -3073141.657 2  24877788.871    24877786.636    24877787.235
        17.000          16.100
    258942.573 2    201774.146 2  25101919.125    25101922.344    25101919.993
        16.100          13.900
 13 10  8  0 12 30.0000000  0 12G 5G10G28G26G21G 9G 8G 3G 7G15G19G27
 -23506825.560 7 -18316991.855 7  21235248.305    21235248.978    21235249.070
        42.600          42.000
  -4697813.929 3  -3660615.275 3  24444506.794    24444508.596    24444506.381
        21.100          19.900
 -17015496.829 6 -13258825.177 5  22016687.220    22016687.980    22016687.494
        37.100          32.800
 -27699610.491 7 -21584100.372 7  20062047.951    20062049.049    20062048.715
        44.400          42.600
  -5079285.900 2  -3957885.048 2  24963253.503    24963253.437    24963253.765
        15.100          16.100
 -28289382.344 7 -22043664.537 7  19993525.027    19993525.744    19993525.327
        45.600          43.500
 -26297486.703 7 -20491538.591 7  20718508.321    20718509.234    20718508.396
        45.000          42.500
    310813.247 2    242191.927 2  24446805.823    24446807.200    24446805.913
        17.000          17.800
 -14545587.176 5 -11334214.116 5  22418367.091    22418367.355    22418367.529
        35.200          32.100
 -11012372.082 4  -8581063.846 4  23533501.457    23533501.305    23533502.394
        28.800          24.900
  -3980282.168 3  -3101515.832 2  24870859.248    24870857.864    24870858.294
        18.600          17.800
    279186.120 2    217548.296 2  25105771.072    25105774.274    25105772.438
        13.900          17.800
 13 10  8  0 13  0.0000000  0 12G 5G10G28G26G21G 9G 8G 3G 7G15G19G27
 -23454407.796 7 -18276146.871 6  21245223.073    21245223.690    21245223.888
        42.700          41.800
  -4581280.818 3  -3569810.281 3  24466681.353    24466684.412    24466681.491
        19.300          21.100
 -17075033.678 6 -13305217.509 5  22005357.953    22005358.227    22005357.900
        36.800          32.400
 -27745330.379 7 -21619726.254 7  20053348.118    20053348.816    20053348.477
        44.500          42.500
  -5103669.159 2  -3976885.004 2  24958613.829    24958613.567    24958613.606
        17.800          15.100
 -28253908.614 7 -22016022.672 7  20000275.501    20000276.208    20000275.764
        45.800          43.600
 -26266660.104 7 -20467517.864 7  20724374.579    20724375.372    20724374.492
        45.100          42.400
    336293.222 2    262046.432 2  24451654.132    24451655.470    24451654.503
        12.600          15.100
 -14460225.276 5 -11267698.361 5  22434611.114    22434610.988    22434611.387
        35.300          32.100
 -11108729.076 4  -8656147.188 4  23515164.572    23515165.425    23515165.783
        26.500          24.200
  -4016169.723 2  -3129480.130 2  24864029.835    24864028.424    24864029.574
        17.800          16.100
    299982.696 2    233753.391 2  25109729.608    25109731.046    25109729.127
        17.000          15.100
 13 10  8  0 13 30.0000000  0 12G 5G10G28G26G21G 9G 8G 3G 7G15G19G27
 -23401466.425 7 -18234893.879 6  21255297.449    21255298.304    21255298.300
        42.700          41.900
  -4464684.170 3  -3478955.760 3  24488868.838    24488871.930    24488869.029
        21.600          18.600
 -17134121.751 6 -13351260.149 5  21994114.049    21994114.270    21994113.903
        37.000          32.700
 -27790582.647 7 -21654987.769 7  20044736.782    20044737.602    20044737.186
        44.500          42.700
  -5127568.443 2  -3995507.807 2  24954065.851    24954064.993    24954066.276
        15.100          16.100
 -28217911.577 7 -21987973.033 7  20007125.485    20007126.239    20007125.758
        45.800          43.600
 -26235401.585 7 -20443160.577 7  20730322.883    20730323.700    20730322.878
        45.000          42.500
    362381.782 2    282375.169 2  24456617.812    24456619.718    24456618.568
        15.100          17.000
 -14374634.839 5 -11201004.525 5  22450897.881    22450898.447    22450898.686
        34.800          32.000
 -11204952.547 4  -8731126.518 4  23496853.916    23496854.700    23496854.647
        27.100          24.600
  -4051529.379 2  -3157033.069 3  24857301.706    24857300.817    24857300.793
        17.800          19.300
    321331.761 2    250389.040 2  25113791.458    25113794.463    25113791.897
        16.100          16.100
 13 10  8  0 14  0.0000000  0 12G 5G10G28G26G21G 9G 8G 3G 7G15G19G27
 -23348003.394 7 -18193234.398 6  21265471.086    21265471.951    21265471.882
        42.400          41.800
  -4348025.930 3  -3388053.252 3  24511068.654    24511070.924    24511068.388
        22.100          19.300
 -17192759.088 6 -13396951.562 5  21982955.556    21982956.091    21982955.635
        37.200          33.200
 -27835366.139 7 -21689883.987 7  20036215.236    20036215.611    20036215.174
        44.300          43.000
  -5150983.232 2  -4013753.091 2  24949609.307    24949609.096    24949609.850
        17.000          15.100
 -28181392.417 7 -21959516.549 7  20014074.997    20014075.573    20014075.174
        45.700          43.400
 -26203712.383 7 -20418467.695 7  20736353.087    20736354.077    20736353.087
        45.200          42.500
    389077.738 2    303177.228 2  24461698.480    24461700.221    24461699.447
        17.800          17.000
 -14288817.530 5 -11134133.904 5  22467228.323    22467228.979    22467229.314
        35.200          31.600
 -11301041.487 4  -8806000.978 4  23478569.303    23478569.301    23478570.157
        29.000          25.300
  -4086359.721 3  -3184173.573 2  24850673.791    24850671.914    24850673.373
        18.600          17.000
    343232.479 2    267454.570 3  25117959.803    25117962.727    25117959.879
        17.000          18.600
 13 10  8  0 14 30.0000000  0 12G 5G10G28G26G21G 9G 8G 3G 7G15G19G27
 -23294020.356 7 -18151169.713 6  21275743.981    21275744.385    21275744.688
        42.500          41.400
  -4231308.158 3  -3297104.342 3  24533278.727    24533281.618    24533279.078
        22.100          19.900
 -17250943.874 6 -13442290.345 5  21971883.333    21971883.645    21971883.288
        37.000          33.200
 -27879679.481 7 -21724413.860 7  20027782.531    20027783.100    20027782.638
        44.300          42.700
  -5173912.316 2  -4031619.905 2  24945247.521    24945247.052    24945247.318
        17.000          12.600
 -28144352.754 7 -21930654.471 7  20021123.237    20021124.103    20021123.522
        45.600          43.400
 -26171593.834 7 -20393440.255 7  20742465.229    20742465.970    20742465.073
        45.200          42.100
    416380.291 2    324451.955 2  24466894.316    24466894.822    24466895.404
        17.000          17.800
 -14202775.500 5 -11067088.186 5  22483601.585    22483602.197    22483602.342
        35.200          31.500
 -11396994.325 4  -8880769.408 4  23460309.335    23460310.368    23460310.458
        26.800          25.300
  -4120658.817 3  -3210900.105 2  24844146.228    24844144.527    24844145.980
        18.600          17.000
    365684.084 2    284949.345 3  25122231.187    25122234.965    25122232.584
        17.800          19.300
 13 10  8  0 15  0.0000000  0 12G 5G10G28G26G21G 9G 8G 3G 7G15G19G27
 -23239518.683 7 -18108700.896 6  21286115.047    21286115.912    21286116.020
        42.500          41.600
  -4114533.419 3  -3206111.057 3  24555500.483    24555503.656    24555500.729
        19.300          19.900
 -17308674.440 6 -13487275.185 5  21960897.430    21960897.650    21960897.533
        37.200          32.800
 -27923521.339 7 -21758576.349 7  20019438.742    20019440.299    20019439.790
        44.500          42.800
  -5196355.770 2  -4049108.301 2  24940976.211    24940974.984    24940976.124
        16.100          15.100
 -28106794.070 7 -21901387.968 7  20028270.318    20028271.325    20028270.694
        45.700          43.400
 -26139047.037 7 -20368079.116 7  20748658.338    20748659.316    20748658.462
        45.100          42.300
    444288.567 2    346198.635 2  24472205.013    24472205.984    24472204.622
        13.900          17.000
 -14116510.289 5 -10999868.548 5  22500017.024    22500017.816    22500018.216
        34.500          31.100
 -11492809.310 4  -8955430.430 4  23442076.744    23442077.312    23442077.529
        27.400          24.600
  -4154424.927 3  -3237211.342 2  24837719.913    24837720.069    24837719.454
        19.300          16.100
    388685.816 2    302872.728 2  25126608.105    25126611.083    25126608.922
        16.100          16.100
 13 10  8  0 15 30.0000000  0 12G 5G10G28G26G21G 9G 8G 3G 7G15G19G27
 -23184499.856 7 -18065829.106 6  21296584.917    21296585.537    21296585.602
        42.500          41.400
  -3997703.705 3  -3115074.956 3  24577732.800    24577735.438    24577732.404
        20.500          20.500
 -17365948.868 6 -13531904.593 5  21949998.544    21949998.885    21949998.656
        37.500          33.600
 -27966890.458 7 -21792370.467 7  20011186.193    20011187.395    20011186.894
        44.600          42.900
  -5218312.926 2  -4066217.779 2  24936798.078    24936797.480    24936798.205
        17.000          16.100
 -28068717.958 7 -21871718.274 7  20035516.157    20035516.983    20035516.380
        45.600          43.400
 -26106073.465 7 -20342385.427 7  20754933.084    20754934.018    20754933.094
        45.000          42.400
    472801.772 2    368416.690 2  24477629.897    24477631.849    24477630.927
        16.100          16.100
 -14030023.800 5 -10932476.492 5  22516475.064    22516476.125    22516476.093
        34.800          31.800
 -11588485.338 4  -9029983.154 4  23423871.351    23423870.646    23423871.786
        28.800          25.900
  -4187656.675 3  -3263106.187 2  24831397.622    24831395.548    24831396.715
        20.500          17.000
    412236.997 2    321224.257 2  25131090.190    25131092.771    25131091.923
        16.100          17.000
 13 10  8  0 16  0.0000000  0 12G 5G10G28G26G21G 9G 8G 3G 7G15G19G27
 -23128965.836 7 -18022555.860 6  21307152.727    21307153.260    21307153.546
        42.400          41.200
  -3880821.416 3  -3023997.855 3  24599975.819    24599977.623    24599975.281
        19.900          18.600
 -17422765.606 6 -13576177.349 5  21939186.921    21939187.085    21939186.802
        37.200          33.500
 -28009785.628 7 -21825795.275 7  20003023.436    20003024.689    20003024.230
        44.700          43.100
  -5239783.277 1  -4082947.858 2  24932711.500    24932711.175    24932711.681
        11.000          16.100
 -28030125.874 7 -21841646.525 7  20042859.986    20042860.844    20042860.201
        45.600          43.500
 -26072674.507 7 -20316360.270 7  20761288.468    20761289.709    20761288.658
        45.100          42.300
    501918.840 2    391105.308 2  24483171.852    24483172.865    24483171.971
        17.800          15.100
 -13943317.738 5 -10864913.340 5  22532974.943    22532975.487    22532975.836
        35.100          31.500
 -11684020.834 4  -9104426.381 4  23405690.439    23405690.851    23405691.292
        28.800          24.900
  -4220351.860 2  -3288582.914 2  24825176.186    24825174.050    24825175.387
        17.800          16.100
    436336.947 2    340003.453 2  25135676.223    25135679.493    25135676.622
        13.900          12.600
 13 10  8  0 16 30.0000000  0 12G 5G10G28G26G21G 9G 8G 3G 7G15G19G27
 -23072917.439 7 -17978881.808 6  21317818.478    21317819.040    21317819.163
        42.400          41.400
  -3763888.615 3  -2932881.379 3  24622226.824    24622229.466    24622226.741
        20.500          19.900
 -17479122.807 6 -13620092.032 5  21928462.236    21928462.556    21928462.045
        37.200          33.500
 -28052205.573 7 -21858849.772 7  19994952.056    19994952.444    19994952.040
        44.500          43.100
  -5260766.046 2  -4099298.046 2  24928719.197    24928718.937    24928719.636
        17.000          13.900
 -27991019.624 7 -21811174.123 7  20050301.482    20050302.331    20050301.782
        45.600          43.100
 -26038851.078 7 -20290004.355 7  20767725.115    20767725.952    20767725.111
        44.900          42.100
    531638.990 3    414263.875 2  24488828.640    24488827.340    24488828.255
        19.300          15.100
 -13856393.777 5 -10797180.399 5  22549516.029    22549516.547    22549516.858
        34.700          31.500
 -11779414.530 4  -9178759.117 4  23387537.344    23387538.437    23387538.229
        27.600          25.600
  -4252509.064 3  -3313640.436 3  24819056.988    24819055.446    24819055.908
        18.600          19.900
    460984.617 2    359209.426 2  25140366.598    25140369.357    25140367.488
        16.100          17.000
 13 10  8  0 17  0.0000000  0 12G 5G10G28G26G21G 9G 8G 3G 7G15G19G27
 -23016356.594 7 -17934808.446 6  21328581.608    21328582.515    21328582.276
        42.200          41.500
  -3646907.345 3  -2841727.164 2  24644486.988    24644490.102    24644486.752
        18.600          17.000
 -17535018.702 6 -13663647.251 5  21917825.595    21917825.935    21917825.551
        37.300          33.600
 -28094148.942 7 -21891532.916 7  19986970.121    19986970.893    19986970.383
        44.700          43.100
  -5281261.100 2  -4115268.233 2  24924819.009    24924818.509    24924818.427
        16.100          13.900
 -27951400.674 7 -21780302.213 7  20057840.568    20057841.537    20057841.050
        45.500          43.200
 -26004604.443 7 -20263318.667 7  20774242.024    20774242.885    20774242.045
        45.100          42.000
    561960.803 2    437891.156 2  24494598.113    24494597.698    24494598.256
        17.000          13.900
 -13769254.110 5 -10729279.374 5  22566098.524    22566098.633    22566099.140
        34.400          31.100
 -11874664.880 4  -9252980.170 4  23369412.264    23369412.237    23369413.037
        29.000          24.600
  -4284126.606 3  -3338277.458 3  24813039.851    24813037.716    24813038.754
        19.300          19.300
    486179.374 3    378841.716 2  25145161.491    25145164.676    25145161.800
        19.900          17.000
 13 10  8  0 17 30.0000000  0 12G 5G10G28G26G21G 9G 8G 3G 7G15G19G27
 -22959285.175 7 -17890337.230 6  21339441.880    21339442.502    21339442.634
        42.300          41.100
  -3529879.579 3  -2750536.714 3  24666756.755    24666759.199    24666756.318
        19.300          19.300
 -17590451.816 6 -13706841.863 5  21907276.930    21907277.127    21907276.939
        37.800          33.600
 -28135614.498 7 -21923843.736 7  19979079.684    19979080.215    19979079.826
        44.700          43.200
  -5301267.593 2  -4130857.701 1  24921011.489    24921011.456    24921010.848
        15.100          11.000
 -27911270.539 7 -21749031.982 7  20065477.438    20065478.146    20065477.622
        45.600          43.200
 -25969935.958 7 -20236304.267 7  20780839.226    20780840.133    20780839.315
        45.000          42.200
    592883.508 2    461986.796 2  24500482.713    24500483.072    24500482.523
        15.100          16.100
 -13681900.159 5 -10661211.368 5  22582721.191    22582721.370    22582722.161
        34.900          31.300
 -11969770.365 4  -9327088.296 4  23351314.767    23351314.485    23351315.079
        29.000          26.200
  -4315202.855 3  -3362492.692 2  24807125.690    24807124.143    24807124.547
        19.900          17.800
    511920.356 3    398899.673 2  25150059.038    25150062.250    25150059.862
        18.600          17.800
 13 10  8  0 18  0.0000000  0 12G 5G10G28G26G21G 9G 8G 3G 7G15G19G27
 -22901704.793 7 -17845469.414 6  21350399.155    21350399.799    21350399.849
        42.100          40.700
  -3412807.723 2  -2659311.898 3  24689034.774    24689037.268    24689034.418
        16.100          18.600
 -17645420.393 6 -13749674.502 5  21896816.778    21896817.041    21896816.900
        37.600          33.900
 -28176601.037 7 -21955781.298 7  19971280.235    19971280.745    19971280.419
        44.800          43.100
  -5320784.723 2  -4146065.848 2  24917297.722    24917297.334    24917297.351
        17.000          15.100
 -27870630.928 7 -21717364.760 7  20073210.969    20073211.536    20073211.179
        45.500          43.000
 -25934846.849 7 -20208962.107 7  20787516.604    20787517.326    20787516.497
        44.900          42.100
    624406.283 2    486550.000 2  24506481.332    24506481.743    24506480.933
        17.000          13.900
 -13594333.665 5 -10592977.751 5  22599384.181    22599384.840    22599385.268
        34.700          30.800
 -12064729.593 4  -9401082.500 4  23333243.473    23333243.931    23333244.044
        26.800          24.900
  -4345736.384 3  -3386285.022 3  24801315.829    24801313.680    24801314.065
        19.300          18.600
    538206.490 2    419382.350 2  25155061.225    25155064.490    25155062.223
        16.100          16.100
 13 10  8  0 18 30.0000000  0 12G 5G10G28G26G21G 9G 8G 3G 7G15G19G27
 -22843616.883 7 -17800206.131 6  21361453.012    21361453.713    21361453.733
        42.300          41.000
  -3295694.259 2  -2568054.691 2  24711321.005    24711323.384    24711320.981
        17.000          16.100
 -17699922.760 6 -13792143.862 5  21886445.428    21886445.699    21886445.297
        37.700          34.100
 -28217107.158 7 -21987344.504 7  19963571.783    19963572.686    19963572.341
        44.900          43.400
  -5339812.774 2  -4160892.896 2  24913677.745    24913676.737    24913677.272
        15.100          12.600
 -27829483.416 7 -21685301.775 7  20081041.028    20081041.759    20081041.245
        45.500          43.000
 -25899338.337 7 -20181293.139 7  20794273.849    20794274.402    20794273.659
        44.900          42.000
    656528.047 2    511579.930 2  24512592.786    24512593.985    24512593.813
        17.000          13.900
 -13506556.478 5 -10524579.957 5  22616087.632    22616088.453    22616088.471
        34.100          30.600
 -12159541.023 4  -9474961.551 4  23315201.915    23315202.700    23315202.395
        29.200          27.100
  -4375725.574 2  -3409653.221 2  24795608.183    24795607.042    24795607.912
        17.800          17.800
    565036.898 2    440289.120 2  25160166.758    25160170.197    25160167.475
        17.000          17.000
 13 10  8  0 19  0.0000000  0 12G 5G10G28G26G21G 9G 8G 3G 7G15G19G27
 -22785023.141 7 -17754548.689 6  21372602.948    21372603.710    21372603.718
        42.100          40.900
  -3178541.296 3  -2476766.670 2  24733614.316    24733616.830    24733613.604
        19.300          16.100
 -17753957.265 6 -13834248.650 5  21876162.737    21876163.283    21876162.796
        37.500          34.500
 -28257131.812 7 -22018532.543 7  19955955.625    19955956.183    19955955.891
        44.800          43.300
  -5358350.976 2  -4175338.275 2  24910149.290    24910148.004    24910149.235
        12.600          13.900
 -27787829.751 7 -21652844.377 7  20088967.288    20088968.258    20088967.703
        45.400          43.100
 -25863411.868 7 -20153298.492 6  20801110.467    20801111.065    20801110.255
        45.000          41.900
    689247.474 2    537075.577 1  24518818.259    24518820.504    24518819.226
        16.100           9.000
 -13418570.613 5 -10456019.558 5  22632831.049    22632831.825    22632831.708
        34.300          31.000
 -12254203.441 4  -9548724.430 4  23297189.147    23297188.507    23297189.579
        29.500          24.600
  -4405168.932 2  -3432596.042 3  24790005.844    24790004.855    24790005.427
        16.100          18.600
    592410.945 2    461619.582 2  25165376.698    25165379.175    25165377.458
        17.800          15.100
 13 10  8  0 19 30.0000000  0 12G 5G10G28G26G21G 9G 8G 3G 7G15G19G27
 -22725925.308 7 -17708498.454 6  21383848.966    21383849.666    21383849.635
        42.100          40.700
  -3061350.740 3  -2385449.354 2  24755915.209    24755917.510    24755915.132
        19.900          17.800
 -17807522.126 6 -13875987.481 5  21865970.236    21865970.108    21865970.135
        38.300          34.400
 -28296673.730 7 -22049344.423 7  19948430.647    19948431.589    19948431.199
        44.700          43.400
  -5376399.026 2  -4189401.693 2  24906714.385    24906714.354    24906715.405
        12.600          15.100
 -27745671.481 7 -21619993.776 7  20096989.889    20096990.538    20096990.163
        45.400          43.000
 -25827068.553 7 -20124979.027 7  20808026.164    20808026.972    20808026.075
        44.700          42.000
    722563.122 2    563035.826 1  24525158.634    24525160.547    24525159.590
        17.800          11.000
 -13330377.514 5 -10387297.683 5  22649613.942    22649614.418    22649614.417
        33.900          30.800
 -12348715.160 4  -9622369.887 4  23279202.981    23279204.213    23279203.542
        29.000          26.800
  -4434064.739 3  -3455112.233 2  24784507.406    24784505.558    24784506.077
        19.300          17.000
    620327.474 2    483372.739 2  25170688.544    25170691.374    25170689.768
        17.000          17.800
 13 10  8  0 20  0.0000000  0 12G 5G10G28G26G21G 9G 8G 3G 7G15G19G27
 -22666325.421 7 -17662057.001 6  21395190.746    21395190.968    21395191.190
        42.100          40.600
  -2944124.939 3  -2294104.607 2  24778222.331    24778224.754    24778222.471
        18.600          17.000
 -17860615.802 6 -13917359.164 5  21855866.783    21855866.498    21855866.617
        38.100          33.900
 -28335731.675 7 -22079779.181 7  19940998.416    19940999.098    19940998.716
        44.800          43.400
  -5393956.252 2  -4203082.630 2  24903374.395    24903373.638    24903373.994
        17.800          15.100
 -27703010.042 7 -21586751.105 7  20105107.994    20105108.862    20105108.225
        45.500          43.000
 -25790309.543 7 -20096335.647 6  20815021.119    20815021.870    20815021.134
        45.000          41.700
    756473.984 2    589459.873 2  24531611.195    24531612.776    24531611.699
        15.100          12.600
 -13241978.934 5 -10318415.692 5  22666435.498    22666435.980    22666436.323
        34.100          30.400
 -12443074.750 4  -9695896.851 4  23261246.855    23261247.606    23261247.897
        29.000          25.600
  -4462411.423 2  -3477200.524 3  24779112.397    24779111.892    24779111.047
        17.800          19.900
    648785.417 2    505547.664 2  25176103.652    25176107.075    25176104.932
        17.800          16.100
 13 10  8  0 20 30.0000000  0 12G 5G10G28G26G21G 9G 8G 3G 7G15G19G27
 -22606224.676 7 -17615225.268 6  21406627.572    21406628.015    21406628.120
        42.000          40.800
  -2826866.082 2  -2202734.063 3  24800536.956    24800538.517    24800536.636
        17.800          18.600
 -17913236.748 6 -13958362.477 5  21845853.302    21845853.301    21845853.152
        38.300          34.300
 -28374304.460 7 -22109835.895 7  19933657.532    19933658.946    19933658.566
        44.800          43.600
  -5411022.189 2  -4216380.772 1  24900126.220    24900126.010    24900126.704
        16.100          11.000
 -27659847.057 7 -21553117.613 7  20113321.558    20113322.572    20113321.900
        45.400          42.900
 -25753136.329 7 -20067369.507 6  20822095.084    20822095.664    20822094.948
        44.900          41.800
    790979.024 2    616346.894 2  24538177.106    24538179.277    24538177.265
        15.100          13.900
 -13153376.603 5 -10249374.926 5  22683296.294    22683296.188    22683296.787
        34.000          30.200
 -12537281.037 5  -9769304.313 4  23243320.665    23243320.757    23243321.459
        30.400          26.800
  -4490207.703 2  -3498859.899 3  24773822.972    24773821.881    24773822.828
        17.800          19.300
    677784.011 2    528143.939 3  25181622.682    25181625.475    25181622.596
        16.100          19.300
 13 10  8  0 21  0.0000000  0 12G 5G10G28G26G21G 9G 8G 3G 7G15G19G27
 -22545625.040 6 -17568004.796 6  21418158.884    21418159.757    21418159.645
        41.900          40.600
  -2709576.344 3  -2111339.435 2  24822855.119    24822857.055    24822855.621
        20.500          13.900
 -17965383.277 6 -13998996.116 5  21835930.217    21835930.254    21835929.990
        37.800          34.700
 -28412390.821 7 -22139513.574 7  19926410.609    19926411.233    19926410.981
        44.900          43.500
  -5427597.296 2  -4229296.427 2  24896972.442    24896972.085    24896972.426
        13.900          16.100
 -27616184.160 7 -21519094.578 7  20121630.233    20121631.317    20121630.648
        45.200          42.700
 -25715550.276 7 -20038081.676 6  20829247.167    20829248.067    20829247.322
        44.800          41.600
    826077.047 2    643695.930 2  24544857.567    24544858.513    24544857.033
        13.900          13.900
 -13064572.378 5 -10180176.843 5  22700195.025    22700195.299    22700195.416
        33.600          30.800
 -12631332.126 4  -9842590.846 4  23225422.889    23225423.619    23225423.875
        29.700          27.100
  -4517452.069 3  -3520089.262 3  24768638.636    24768637.829    24768638.151
        19.900          19.900
    707322.195 2    551160.658 3  25187243.961    25187246.038    25187243.949
        12.600          18.600
 13 10  8  0 21 30.0000000  0 12G 5G10G28G26G21G 9G 8G 3G 7G15G19G27
 -22484528.372 7 -17520397.023 6  21429785.520    21429785.946    21429786.091
        42.100          40.400
  -2592257.689 2  -2019922.325 2  24845179.309    24845182.961    24845179.338
        16.100          13.900
 -18017053.384 6 -14039258.510 5  21826097.304    21826097.617    21826097.337
        38.100          35.100
 -28449989.548 7 -22168811.287 7  19919255.760    19919256.476    19919256.219
        45.100          43.700
  -5443680.189 2  -4241828.562 2  24893911.344    24893911.805    24893911.567
        17.800          12.600
 -27572023.089 7 -21484683.354 7  20130033.999    20130034.948    20130034.315
        45.300          42.700
 -25677552.478 7 -20008473.007 6  20836478.143    20836478.918    20836478.088
        44.900          41.600
    861766.935 2    671506.157 2  24551649.146    24551650.034    24551649.310
        16.100          15.100
 -12975568.089 5 -10110822.881 4  22717131.926    22717131.939    22717132.345
        33.900          29.900
 -12725226.423 4  -9915755.225 4  23207554.610    23207555.352    23207556.087
        29.200          25.900
  -4544142.973 3  -3540887.345 2  24763560.064    24763557.921    24763559.150
        20.500          17.000
    737398.989 2    574597.150 2  25192968.215    25192969.708    25192967.836
        17.800          17.800
 13 10  8  0 22  0.0000000  0 12G 5G10G28G26G21G 9G 8G 3G 7G15G19G27
 -22422936.713 7 -17472403.540 6  21441505.950    21441506.453    21441506.579
        42.100          40.200
  -2474912.584 3  -1928484.598 2  24867511.111    24867512.503    24867510.388
        18.600          16.100
 -18068246.412 6 -14079149.169 5  21816355.485    21816355.739    21816355.585
        38.400          34.300
 -28487099.572 7 -22197728.181 7  19912193.698    19912194.724    19912194.374
        44.900          43.600
  -5459271.345 2  -4253977.537 2  24890944.978    24890944.952    24890944.935
        13.900          17.000
 -27527365.641 7 -21449885.350 7  20138532.288    20138532.959    20138532.385
        45.400          42.700
 -25639144.423 7 -19978544.650 6  20843786.730    20843787.727    20843786.826
        44.800          41.600
    898047.220 3    699776.372 2  24558553.286    24558553.973    24558553.536
        18.600          12.600
 -12886365.295 5 -10041314.225 5  22734105.863    22734106.637    22734107.246
        33.900          30.200
 -12818962.824 5  -9988796.570 4  23189718.615    23189718.715    23189719.056
        30.200          27.100
  -4570279.521 2  -3561253.472 2  24758586.506    24758583.834    24758585.056
        13.900          17.000
    768013.371 2    598452.500 2  25198794.626    25198795.575    25198794.104
        15.100          17.000
 13 10  8  0 22 30.0000000  0 12G 5G10G28G26G21G 9G 8G 3G 7G15G19G27
 -22360851.100 6 -17424025.154 6  21453320.203    21453321.017    21453321.064
        41.800          40.200
  -2357543.216 3  -1837027.921 2  24889845.787    24889847.521    24889845.753
        19.300          13.900
 -18118960.615 6 -14118666.705 5  21806704.964    21806704.950    21806704.941
        38.000          34.300
 -28523719.617 7 -22226263.287 7  19905225.696    19905226.151    19905225.914
        45.000          43.700
  -5474370.002 2  -4265742.709 2  24888073.199    24888071.427    24888072.605
        17.800          13.900
 -27482213.562 7 -21414701.914 7  20147124.036    20147124.965    20147124.482
        45.300          42.600
 -25600327.549 7 -19948297.734 6  20851173.244    20851174.324    20851173.437
        44.900          41.500
    934917.079 2    728506.119 1  24565569.274    24565569.536    24565568.710
        12.600           9.000
 -12796965.946 5  -9971652.411 5  22751118.556    22751119.141    22751119.516
        33.500          30.100
 -12912539.595 5 -10061713.499 4  23171911.228    23171911.246    23171911.946
        30.200          27.400
  -4595859.826 3  -3581186.153 3  24753719.152    24753717.484    24753717.709
        21.100          18.600
    799164.083 2    622725.775 2  25204721.204    25204723.383    25204721.627
        17.000          17.800
 13 10  8  0 23  0.0000000  0 12G 5G10G28G26G21G 9G 8G 3G 7G15G19G27
 -22298273.548 6 -17375263.453 6  21465228.293    21465229.184    21465229.022
        41.800          40.300
  -2240151.521 2  -1745553.887 2  24912184.160    24912186.730    24912183.935
        16.100          17.000
 -18169194.349 6 -14157809.856 5  21797146.164    21797145.970    21797145.979
        38.300          34.900
 -28559848.559 7 -22254415.704 7  19898350.115    19898351.025    19898350.788
        45.000          43.700
  -5488976.099 2  -4277124.105 2  24885292.053    24885291.544    24885291.843
        17.800          15.100
 -27436568.427 7 -21379134.280 7  20155809.980    20155810.956    20155810.453
        45.300          42.400
 -25561103.181 7 -19917733.296 6  20858637.897    20858638.346    20858637.704
        44.800          41.300
    972374.990 2    757694.136 2  24572696.495    24572698.286    24572697.211
        13.900          12.600
 -12707371.815 5  -9901838.825 5  22768168.011    22768168.206    22768168.603
        33.400          30.200
 -13005955.535 4 -10134505.129 4  23154133.986    23154135.228    23154134.853
        29.500          27.400
  -4620882.302 3  -3600684.138 3  24748956.023    24748955.992    24748955.729
        19.300          18.600
    830850.035 2    647416.102 2  25210749.406    25210752.903    25210750.677
        15.100          17.000
 13 10  8  0 23 30.0000000  0 12G 5G10G28G26G21G 9G 8G 3G 7G15G19G27
 -22235205.956 6 -17326119.892 6  21477229.770    21477230.619    21477230.587
        41.900          40.000
  -2122739.747 2  -1654064.217 2  24934526.337    24934529.076    24934526.474
        15.100          13.900
 -18218945.844 6 -14196577.228 5  21787678.371    21787678.615    21787678.375
        38.000          34.900
 -28595485.188 7 -22282184.504 7  19891569.222    19891569.591    19891569.374
        45.100          43.800
  -5503089.449 2  -4288121.507 2  24882606.672    24882606.338    24882606.850
        16.100          15.100
 -27390432.056 7 -21343183.860 7  20164589.761    20164590.481    20164589.868
        45.200          42.400
 -25521472.773 7 -19886852.466 6  20866178.887    20866179.731    20866178.999
        44.600          41.300
   1010419.299 2    787339.032 1  24579936.905    24579937.734    24579937.099
        17.800          11.000
 -12617584.134 5  -9831874.419 5  22785253.953    22785254.495    22785254.712
        32.800          30.200
 -13099208.916 5 -10207170.100 4  23136389.043    23136389.101    23136389.944
        30.400          27.100
  -4645345.870 3  -3619746.647 2  24744300.245    24744298.933    24744300.631
        18.600          17.800
    863070.287 3    672522.787 3  25216881.920    25216883.903    25216882.304
        18.600          18.600
 13 10  8  0 24  0.0000000  0 12G 5G10G28G26G21G 9G 8G 3G 7G15G19G27
 -22171650.331 6 -17276596.047 6  21489324.052    21489324.697    21489324.770
        41.700          39.800
  -2005310.117 2  -1562560.608 2  24956872.792    24956874.846    24956872.727
        16.100          15.100
 -18268213.988 6 -14234967.968 5  21778303.137    21778303.074    21778303.083
        37.800          35.200
 -28630628.391 7 -22309568.822 7  19884881.178    19884882.109    19884881.745
        45.200          43.800
  -5516709.633 2  -4298734.677 2  24880014.942    24880013.971    24880015.010
        16.100          12.600
 -27343806.193 7 -21306852.030 7  20173461.996    20173463.219    20173462.415
        45.200          42.300
 -25481437.577 7 -19855656.213 6  20873797.196    20873798.291    20873797.414
        44.600          41.200
   1049048.875 2    817440.008 2  24587287.522    24587288.924    24587288.062
        17.000          15.100
 -12527605.047 5  -9761760.862 4  22802376.569    22802376.688    22802377.145
        33.400          29.200
 -13192298.304 5 -10279707.252 4  23118674.528    23118675.260    23118675.687
        31.100          27.600
  -4669249.353 3  -3638372.738 2  24739752.695    24739750.871    24739752.435
        21.100          17.800
    895823.644 2    698044.876 2  25223115.308    25223117.109    25223115.333
        17.800          17.000
 13 10  8  0 24 30.0000000  0 12G 5G10G28G26G21G 9G 8G 3G 7G15G19G27
 -22107608.421 6 -17226693.275 6  21501510.908    21501511.561    21501511.634
        41.900          39.900
  -1887864.756 2  -1471044.744 2  24979222.387    24979224.418    24979222.201
        13.900          16.100
 -18316997.045 6 -14272980.726 5  21769020.055    21769020.058    21769020.054
        38.400          35.500
 -28665277.048 7 -22336567.773 7  19878287.696    19878288.760    19878288.349
        45.200          44.000
  -5529836.411 2  -4308963.362 2  24877516.915    24877515.610    24877516.761
        16.100          12.600
 -27296692.362 7 -21270139.952 7  20182427.856    20182428.659    20182428.081
        45.300          42.400
 -25440998.696 7 -19824145.398 6  20881492.729    20881493.646    20881492.694
        44.600          41.300
   1088262.464 2    847996.025 2  24594749.290    24594750.987    24594749.598
        17.000          16.100
 -12437436.086 5  -9691499.351 4  22819535.242    22819535.061    22819535.665
        33.100          29.200
 -13285222.166 4 -10352115.438 4  23100991.521    23100992.037    23100992.170
        29.200          27.400
  -4692591.306 2  -3656561.245 3  24735310.775    24735309.266    24735309.962
        17.800          18.600
    929108.880 2    723981.393 2  25229449.239    25229450.949    25229449.316
        16.100          16.100
 13 10  8  0 25  0.0000000  0 12G 5G10G28G26G21G 9G 8G 3G 7G15G19G27
 -22043082.275 6 -17176413.179 6  21513789.556    21513790.643    21513790.386
        41.500          40.000
  -1770405.728 1  -1379518.234 2  25001573.939    25001576.364    25001573.972
        11.000          16.100
 -18365293.595 6 -14310614.378 5  21759829.146    21759829.559    21759829.113
        38.300          35.400
 -28699430.020 7 -22363180.481 7  19871789.083    19871789.704    19871789.321
        45.400          44.000
  -5542469.492 2  -4318807.340 2  24875112.664    24875112.540    24875113.378
        13.900          13.900
 -27249092.357 7 -21233049.044 7  20191485.685    20191486.618    20191485.926
        45.100          42.400
 -25400157.636 7 -19792321.199 6  20889264.547    20889265.373    20889264.486
        44.400          41.100
   1128058.673 3    879006.169 2  24602322.430    24602323.631    24602322.753
        19.300          12.600
 -12347078.849 5  -9621091.136 4  22836729.592    22836729.894    22836730.225
        32.800          29.900
 -13377978.827 5 -10424393.340 4  23083339.635    23083341.138    23083341.148
        30.800          27.100
  -4715370.460 2  -3674311.211 3  24730975.936    24730974.982    24730975.676
        17.800          18.600
    962924.876 2    750331.512 2  25235883.229    25235886.419    25235883.497
        13.900          16.100
 13 10  8  0 25 30.0000000  0 12G 5G10G28G26G21G 9G 8G 3G 7G15G19G27
 -21978073.469 6 -17125756.990 6  21526160.710    21526161.407    21526161.382
        41.700          39.800
  -1652935.247 2  -1287982.801 3  25023927.821    25023930.228    25023927.913
        17.000          19.300
 -18413102.236 6 -14347867.842 5  21750731.566    21750731.790    21750731.640
        38.300          35.300
 -28733086.145 7 -22389406.036 7  19865384.232    19865385.121    19865384.823
        45.300          44.000
  -5554608.690 2  -4328266.464 1  24872801.857    24872802.011    24872802.792
        16.100          11.000
 -27201007.969 7 -21195580.697 7  20200635.852    20200636.610    20200636.258
        45.100          42.000
 -25358915.645 7 -19760184.587 6  20897112.550    20897113.418    20897112.532
        44.500          41.100
   1168435.564 2    910468.702 2  24610005.206    24610006.816    24610005.994
        17.000          15.100
 -12256535.521 5  -9550537.913 5  22853959.266    22853959.971    22853960.129
        33.100          30.100
 -13470566.816 5 -10496539.807 4  23065721.628    23065722.155    23065722.594
        31.300          27.100
  -4737585.569 3  -3691621.668 3  24726748.876    24726747.306    24726747.807
        21.600          19.900
    997270.381 2    777094.186 2  25242419.584    25242421.817    25242419.531
        16.100          17.800
 13 10  8  0 26  0.0000000  0 12G 5G10G28G26G21G 9G 8G 3G 7G15G19G27
 -21912583.835 6 -17074726.121 6  21538622.897    21538623.443    21538623.713
        41.800          39.500
  -1535455.656 2  -1196440.298 3  25046283.638    25046285.722    25046283.094
        15.100          18.600
 -18460421.473 6 -14384739.962 5  21741726.910    21741727.169    21741726.986
        38.400          35.600
 -28766244.324 7 -22415243.577 7  19859074.528    19859075.366    19859074.990
        45.200          44.100
  -5566254.197 2  -4337340.920 1  24870587.385    24870586.381    24870587.290
        17.000          11.000
 -27152441.077 7 -21157736.366 7  20209877.970    20209878.625    20209878.166
        45.100          42.000
 -25317274.123 7 -19727736.651 6  20905036.504    20905037.647    20905036.587
        44.400          41.000
   1209392.080 2    942382.890 2  24617799.459    24617800.822    24617800.172
        17.000          13.900
 -12165807.090 5  -9479840.452 5  22871224.633    22871225.299    22871225.204
        32.800          30.200
 -13562984.648 5 -10568553.673 4  23048134.023    23048135.649    23048136.119
        30.100          27.600
  -4759235.304 3  -3708491.578 3  24722629.813    24722627.831    24722628.615
        18.600          18.600
   1032144.320 2    804268.673 2  25249054.864    25249057.825    25249056.446
        16.100          13.900
 13 10  8  0 26 30.0000000  0 12G 5G10G28G26G21G 9G 8G 3G 7G15G19G27
 -21846615.535 6 -17023322.270 6  21551176.020    21551176.908    21551176.807
        41.400          39.400
  -1417969.122 2  -1104892.353 2  25068640.400    25068642.472    25068639.693
        12.600          17.000
 -18507250.128 6 -14421229.810 5  21732815.671    21732815.970    21732815.637
        38.200          35.400
 -28798903.459 7 -22440692.252 7  19852859.916    19852860.490    19852860.115
        45.400          44.100
  -5577405.604 2  -4346030.336 1  24868464.645    24868464.732    24868464.291
        17.800          11.000
 -27103393.149 7 -21119517.212 7  20219211.305    20219212.192    20219211.683
        45.100          42.000
 -25275234.624 7 -19694978.603 6  20913036.581    20913037.408    20913036.530
        44.400          41.000
   1250926.779 2    974747.575 1  24625702.527    24625704.710    24625703.679
        16.100          11.000
 -12074895.736 5  -9409000.465 5  22888523.909    22888524.968    22888524.939
        32.400          30.200
 -13655230.801 5 -10640433.788 4  23030581.564    23030581.657    23030582.002
        31.300          27.400
  -4780318.730 2  -3724920.224 2  24718616.884    24718615.152    24718615.941
        17.000          17.800
   1067545.446 2    831853.971 2  25255791.603    25255794.214    25255793.108
        17.000          13.900
 13 10  8  0 27  0.0000000  0 12G 5G10G28G26G21G 9G 8G 3G 7G15G19G27
 -21780170.395 6 -16971546.858 6  21563820.102    21563821.017    21563820.968
        41.200          39.600
  -1300477.375 2  -1013340.355 2  25090998.174    25091000.874    25090997.596
        17.000          17.000
 -18553586.767 6 -14457336.259 6  21723997.987    21723998.444    21723998.096
        38.500          36.100
 -28831062.490 7 -22465751.241 7  19846739.862    19846740.758    19846740.386
        45.400          44.100
  -5588063.019 1  -4354334.831 1  24866435.693    24866436.246    24866435.868
         9.000          11.000
 -27053866.165 7 -21080924.756 6  20228635.811    20228636.828    20228636.257
        44.900          41.800
 -25232798.387 7 -19661911.409 6  20921111.914    20921112.646    20921111.999
        44.600          41.100
   1293038.232 2   1007561.753 1  24633717.648    24633717.946    24633717.730
        16.100           9.000
 -11983803.161 5  -9338019.262 4  22905858.877    22905858.832    22905859.430
        32.700          29.200
 -13747304.096 5 -10712179.194 4  23013061.190    23013060.655    23013061.358
        31.800          27.600
  -4800834.419 2  -3740906.441 3  24714711.220    24714711.257    24714711.046
        15.100          19.900
   1103472.439 2    859849.041 2  25262629.166    25262631.562    25262629.715
        15.100          16.100
 13 10  8  0 27 30.0000000  0 12G 5G10G28G26G21G 9G 8G 3G 7G15G19G27
 -21713250.439 6 -16919401.457 6  21576554.696    21576555.712    21576555.609
        41.300          39.500
  -1182982.454 2   -921785.881 2  25113356.705    25113359.687    25113356.210
        13.900          17.000
 -18599430.058 6 -14493058.277 6  21715274.519    21715274.957    21715274.530
        38.400          36.100
 -28862720.246 7 -22490419.620 7  19840715.847    19840716.572    19840716.061
        45.200          44.200
  -5598226.144 2  -4362254.193 2  24864502.515    24864502.998    24864502.114
        17.000          13.900
 -27003861.925 7 -21041960.420 6  20238151.706    20238152.348    20238151.834
        44.800          41.900
 -25189966.757 7 -19628536.117 6  20929262.468    20929263.391    20929262.593
        44.400          40.800
   1335724.867 2   1040824.093 1  24641839.973    24641841.060    24641840.322
        16.100          11.000
 -11892530.844 5  -9266897.988 4  22923226.812    22923227.510    22923228.008
        32.400          29.200
 -13839202.489 5 -10783788.306 4  22995572.942    22995572.817    22995573.622
        31.300          27.400
  -4820781.518 2  -3756449.604 2  24710916.933    24710914.968    24710916.183
        17.800          17.000
   1139923.968 2    888252.846 2  25269565.484    25269568.486    25269565.616
        17.000          17.000
 13 10  8  0 28  0.0000000  0 12G 5G10G28G26G21G 9G 8G 3G 7G15G19G27
 -21645857.477 6 -16866887.480 6  21589378.993    21589379.886    21589379.892
        41.400          38.900
  -1065486.761 2   -830230.809 2  25135715.576    25135717.859    25135715.169
        15.100          17.800
 -18644778.582 6 -14528394.769 5  21706644.936    21706644.945    21706644.904
        38.600          35.700
 -28893875.780 7 -22514696.660 7  19834787.069    19834787.942    19834787.450
        45.400          44.300
  -5607894.784 2  -4369788.159 3  24862663.447    24862662.943    24862663.046
        17.000          19.300
 -26953382.145 7 -21002625.528 6  20247757.274    20247758.338    20247757.794
        44.800          41.900
 -25146741.198 7 -19594853.868 6  20937488.277    20937489.016    20937488.113
        44.400          40.900
   1378985.007 1   1074533.261 1  24650071.166    24650073.643    24650073.049
        11.000          11.000
 -11801080.514 5  -9195638.016 4  22940629.893    22940630.268    22940630.403
        32.400          29.000
 -13930924.500 5 -10855260.000 4  22978118.952    22978119.135    22978119.379
        31.800          27.900
  -4840158.578 3  -3771548.592 2  24707229.813    24707227.972    24707229.437
        19.900          17.000
   1176898.781 2    917064.375 2  25276601.095    25276603.811    25276602.035
        15.100          13.900
 13 10  8  0 28 30.0000000  0 12G 5G10G28G26G21G 9G 8G 3G 7G15G19G27
 -21577993.619 6 -16814006.573 6  21602293.221    21602293.955    21602294.033
        41.200          38.900
   -947992.475 2   -738676.833 2  25158073.947    25158076.403    25158073.774
        17.000          15.100
 -18689630.844 6 -14563344.572 5  21698109.967    21698109.759    21698109.883
        38.700          35.400
 -28924527.860 7 -22538581.393 7  19828954.072    19828955.047    19828954.601
        45.400          44.300
  -5617068.911 3  -4376936.843 2  24860917.681    24860916.516    24860917.161
        19.300          12.600
 -26902428.528 7 -20962921.419 6  20257453.978    20257454.490    20257453.905
        44.700          41.600
 -25103122.871 7 -19560865.566 6  20945788.561    20945789.299    20945788.539
        44.500          40.800
   1422817.374 2   1108688.351 1  24658412.694    24658414.211    24658412.890
        12.600          11.000
 -11709453.875 5  -9124240.654 4  22958066.119    22958066.180    22958066.326
        32.300          29.700
 -14022468.764 5 -10926593.175 4  22960698.917    22960698.453    22960699.416
        32.100          28.100
  -4858964.461 3  -3786202.546 3  24703651.601    24703649.741    24703651.742
        22.100          19.300
   1214395.373 2    946282.370 2  25283737.281    25283739.242    25283737.366
        16.100          16.100
 13 10  8  0 29  0.0000000  0 12G 5G10G28G26G21G 9G 8G 3G 7G15G19G27
 -21509660.755 6 -16760760.204 6  21615296.506    21615297.449    21615297.392
        41.300          39.000
   -830501.675 2   -647125.550 2  25180431.176    25180434.381    25180431.221
        16.100          16.100
 -18733985.614 6 -14597906.715 6  21689669.226    21689669.646    21689669.351
        39.100          36.100
 -28954675.535 7 -22562073.085 7  19823217.321    19823218.088    19823217.629
        45.500          44.400
  -5625748.192 2  -4383699.958 2  24859265.455    24859266.115    24859265.296
        17.800          16.100
 -26851002.746 7 -20922849.384 6  20267239.453    20267240.610    20267239.944
        44.700          41.700
 -25059113.181 7 -19526572.299 6  20954163.249    20954164.040    20954163.198
        44.200          40.700
   1467220.633 2   1143288.231 2  24666862.893    24666863.701    24666863.201
        17.800          13.900
 -11617652.516 5  -9052707.160 4  22975534.725    22975535.239    22975535.431
        31.800          28.800
 -14113833.546 5 -10997786.485 4  22943312.061    22943312.837    22943312.699
        31.600          27.900
  -4877198.155 3  -3800410.616 3  24700181.077    24700180.134    24700180.944
        18.600          19.300
   1252412.735 2    975906.281 2  25290970.134    25290974.030    25290971.053
        17.000          17.800
 13 10  8  0 29 30.0000000  0 12G 5G10G28G26G21G 9G 8G 3G 7G15G19G27
 -21440860.746 6 -16707149.828 6  21628389.073    21628389.765    21628389.699
        41.400          39.200
   -713016.582 2   -555578.739 2  25202787.936    25202791.065    25202787.908
        15.100          16.100
 -18777841.738 6 -14632080.297 6  21681324.138    21681324.178    21681323.975
        38.500          36.300
 -28984317.773 7 -22585170.933 7  19817576.720    19817577.312    19817576.903
        45.300          44.400
  -5633933.204 2  -4390077.851 2  24857707.765    24857707.443    24857707.667
        15.100          15.100
 -26799106.605 7 -20882410.837 6  20277115.488    20277116.031    20277115.596
        44.800          41.500
 -25014713.731 7 -19491975.334 6  20962612.180    20962613.023    20962612.033
        44.200          40.500
   1512192.451 2   1178331.209 1  24675420.566    24675421.382    24675421.505
        16.100           9.000
 -11525678.177 5  -8981038.861 4  22993037.288    22993037.288    22993037.990
        32.700          28.600
 -14205017.230 5 -11068838.703 4  22925959.619    22925961.015    22925961.020
        31.300          28.600
  -4894858.758 2  -3814172.085 3  24696819.382    24696819.136    24696818.913
        17.800          19.900
   1290949.455 2   1005934.890 2  25298303.399    25298306.712    25298305.515
        15.100          16.100
 13 10  8  0 30  0.0000000  0 12G 5G10G28G26G21G 9G 8G 3G 7G15G19G27
 -21371595.828 6 -16653177.193 6  21641569.573    21641570.430    21641570.140
        41.000          39.200
   -595539.229 2   -464037.981 2  25225143.167    25225146.094    25225143.341
        13.900          13.900
 -18821197.759 6 -14665864.189 6  21673073.689    21673073.591    21673073.437
        38.700          36.400
 -29013453.550 7 -22607874.137 7  19812032.432    19812033.032    19812032.591
        45.600          44.500
  -5641623.798 2  -4396070.556 2  24856244.183    24856243.860    24856244.679
        17.000          15.100
 -26746741.965 7 -20841607.230 6  20287080.068    20287080.653    20287080.275
        44.900          41.300
 -24969925.951 7 -19457075.769 6  20971134.541    20971135.806    20971134.887
        44.200          40.700
   1557731.590 2   1213816.264 1  24684086.953    24684087.516    24684086.980
        15.100           6.500
 -11433532.699 5  -8909237.200 4  23010571.867    23010572.089    23010572.567
        32.700          28.600
 -14296018.706 5 -11139748.932 4  22908642.932    22908644.181    22908644.246
        32.100          27.400
  -4911945.163 3  -3827486.152 3  24693569.317    24693567.238    24693568.603
        19.300          19.900
   1330004.041 2   1036367.030 2  25305736.739    25305739.343    25305736.334
        16.100          17.800
 13 10  8  0 30 30.0000000  0 11G 5G10G28G26G21G 9G 8G 7G15G19G27
 -21301867.751 6 -16598843.649 6  21654838.628    21654839.022    21654839.116
        41.400          38.600
   -478071.931 2   -372505.006 2  25247496.845    25247499.147    25247496.154
        16.100          13.900
 -18864052.565 6 -14699257.531 6  21664918.431    21664918.565    21664918.366
        38.800          36.000
 -29042081.744 7 -22630181.818 7  19806584.344    19806585.282    19806584.822
        45.500          44.500
  -5648819.807 2  -4401677.843 3  24854875.110    24854875.739    24854874.440
        13.900          18.600
 -26693910.869 7 -20800440.144 6  20297133.374    20297134.143    20297133.544
        44.700          41.400
 -24924751.154 7 -19421874.630 6  20979731.648    20979732.388    20979731.517
        44.100          40.400
 -11341217.234 5  -8837303.104 4  23028138.411    23028139.493    23028139.083
        30.800          28.400
 -14386835.904 5 -11210515.555 4  22891361.312    22891362.299    22891362.253
        32.400          29.200
  -4928456.182 3  -3840351.851 3  24690426.779    24690425.684    24690425.810
        21.600          19.900
   1369575.185 2   1067201.691 2  25313266.984    25313269.348    25313267.199
        13.900          17.800
 13 10  8  0 31  0.0000000  0 11G 5G10G28G26G21G 9G 8G 7G15G19G27
 -21231678.868 6 -16544151.028 6  21668194.832    21668195.693    21668195.707
        41.000          38.500
   -360616.665 2   -280981.413 2  25269848.356    25269850.385    25269847.155
        15.100          15.100
 -18906404.814 6 -14732259.267 6  21656858.886    21656859.250    21656859.116
        39.300          36.200
 -29070201.465 7 -22652093.288 7  19801233.086    19801234.259    19801233.790
        45.600          44.600
  -5655521.043 2  -4406899.586 2  24853600.046    24853599.980    24853599.909
        16.100          16.100
 -26640615.027 7 -20758910.922 6  20307274.940    20307276.004    20307275.329
        44.500          41.400
 -24879190.632 7 -19386372.936 6  20988401.529    20988402.303    20988401.409
        44.200          40.600
 -11248733.888 5  -8765238.195 4  23045738.407    23045738.405    23045738.772
        32.000          28.600
 -14477467.654 5 -11281137.676 4  22874114.813    22874115.390    22874115.401
        32.100          28.600
  -4944390.998 3  -3852768.572 2  24687395.123    24687392.674    24687395.360
        22.100          17.800
   1409661.430 2   1098437.723 2  25320895.586    25320897.703    25320895.279
        17.800          17.000
 13 10  8  0 31 30.0000000  0 11G 5G10G28G26G21G 9G 8G 7G15G19G27
 -21161031.266 6 -16489100.973 6  21681638.331    21681639.632    21681639.271
        40.900          38.900
   -243175.500 2   -189468.832 2  25292196.721    25292198.907    25292195.589
        16.100          15.100
 -18948253.484 6 -14764868.607 6  21648895.586    21648895.492    21648895.471
        38.900          36.100
 -29097811.602 7 -22673607.681 7  19795979.442    19795980.155    19795979.729
        45.600          44.500
  -5661727.918 2  -4411736.096 2  24852417.874    24852418.692    24852418.398
        15.100          13.900
 -26586856.238 7 -20717020.962 6  20317505.260    20317505.928    20317505.317
        44.600          41.200
 -24833245.933 7 -19350571.871 6  20997144.337    20997145.272    20997144.220
        44.000          40.400
 -11156084.222 5  -8693043.658 4  23063369.292    23063368.864    23063369.281
        31.500          27.900
 -14567912.010 5 -11351613.792 4  22856903.684    22856904.390    22856904.541
        32.400          28.800
  -4959748.758 3  -3864735.655 2  24684472.544    24684469.791    24684472.313
        19.300          17.800
   1450261.185 2   1130073.878 3  25328620.356    25328623.246    25328620.137
        17.000          19.300
 13 10  8  0 32  0.0000000  0 11G 5G10G28G26G21G 9G 8G 7G15G19G27
 -21089926.414 6 -16433694.616 6  21695169.593    21695170.285    21695170.286
        41.000          38.400
   -125750.443 2    -97968.793 2  25314542.384    25314544.386    25314541.618
        15.100          13.900
 -18989597.048 6 -14797084.349 6  21641027.945    21641028.191    21641027.914
        38.800          36.200
 -29124911.224 7 -22694724.268 7  19790822.507    19790823.204    19790822.804
        45.600          44.600
  -5667440.442 2  -4416187.430 2  24851331.798    24851331.747    24851331.449
        15.100          13.900
 -26532636.155 7 -20674771.548 6  20327822.819    20327823.620    20327823.155
        44.600          41.100
 -24786918.383 7 -19314472.488 6  21005960.349    21005961.146    21005960.221
        44.300          40.500
 -11063269.475 5  -8620720.502 4  23081030.566    23081031.148    23081031.018
        31.600          29.000
 -14658167.530 5 -11421942.766 4  22839729.014    22839728.660    22839729.653
        32.600          28.600
  -4974528.227 2  -3876252.134 3  24681660.834    24681657.998    24681659.174
        17.000          19.300
   1491373.192 2   1162109.143 3  25336444.467    25336446.493    25336444.456
        15.100          18.600
 13 10  8  0 32 30.0000000  0 11G 5G10G28G26G21G 9G 8G 7G15G19G27
 -21018366.987 6 -16377934.050 6  21708786.888    21708787.685    21708787.473
        40.800          38.900
     -8343.741 2     -6483.049 2  25336884.024    25336885.959    25336882.834
        17.000          15.100
 -19030434.622 6 -14828905.817 6  21633256.918    21633257.318    21633256.909
        39.300          36.900
 -29151499.270 7 -22715442.222 7  19785762.959    19785763.706    19785763.349
        45.600          44.700
  -5672658.676 2  -4420253.612 2  24850339.149    24850338.812    24850339.185
        17.800          17.000
 -26477956.729 7 -20632164.212 6  20338228.165    20338228.792    20338228.370
        44.500          41.100
 -24740209.515 7 -19278075.968 6  21014848.516    21014849.453    21014848.532
        44.000          40.400
 -10970291.714 5  -8548270.325 4  23098723.108    23098724.331    23098724.400
        31.800          28.100
 -14748232.644 5 -11492123.347 4  22822589.668    22822589.803    22822590.601
        32.800          27.900
  -4988728.539 2  -3887317.305 3  24678957.041    24678957.110    24678955.940
        17.800          21.600
   1532995.918 2   1194542.388 2  25344364.998    25344366.471    25344365.395
        16.100          17.800
 13 10  8  0 33  0.0000000  0 11G 5G10G28G26G21G 9G 8G 7G15G19G27
 -20946354.802 6 -16321820.680 6  21722490.345    21722491.068    21722490.997
        40.700          38.400
    109042.558 1     84986.775 2  25359222.779    25359224.146    25359221.576
        11.000          15.100
 -19070764.662 6 -14860331.801 6  21625582.361    21625582.627    21625582.325
        39.100          36.700
 -29177574.815 7 -22735760.828 7  19780800.795    19780801.749    19780801.369
        45.600          44.400
  -5677382.419 2  -4423934.425 2  24849438.626    24849439.407    24849439.790
        17.800          13.900
 -26422819.746 7 -20589200.333 6  20348720.271    20348721.146    20348720.548
        44.400          41.300
 -24693120.577 7 -19241383.298 6  21023809.329    21023810.189    21023809.181
        43.800          40.300
 -10877152.534 5  -8475694.367 4  23116447.441    23116448.142    23116448.197
        30.400          28.400
 -14838105.791 5 -11562154.375 4  22805487.346    22805487.774    22805488.093
        32.600          29.000
  -5002348.929 2  -3897930.567 3  24676365.152    24676365.449    24676364.589
        17.800          21.600
   1575127.931 2   1227372.528 2  25352382.336    25352384.935    25352382.212
        16.100          17.000
 13 10  8  0 33 30.0000000  0 11G 5G10G28G26G21G 9G 8G 7G15G19G27
 -20873892.026 6 -16265356.206 6  21736279.408    21736280.406    21736280.182
        40.700          38.300
    226406.364 2    176439.091 2  25381556.373    25381557.582    25381555.657
        15.100          16.100
 -19110586.406 6 -14891361.713 6  21618004.495    21618004.528    21618004.547
        39.200          36.500
 -29203136.959 7 -22755679.381 7  19775936.488    19775937.387    19775936.947
        45.700          44.700
  -5681612.212 2  -4427230.345 2  24848633.589    24848634.876    24848633.968
        15.100          12.600
 -26367227.272 7 -20545881.527 6  20359299.063    20359299.905    20359299.439
        44.400          41.000
 -24645653.337 7 -19204395.841 6  21032841.947    21032842.945    21032842.002
        44.000          40.200
 -10783853.298 5  -8402993.702 4  23134201.977    23134202.352    23134202.409
        31.100          28.600
 -14927785.711 5 -11632034.821 4  22788421.867    22788422.148    22788422.809
        32.600          29.000
  -5015388.665 3  -3908091.395 3  24673884.099    24673883.947    24673882.778
        19.900          21.100
   1617767.544 2   1260598.160 2  25360496.301    25360498.959    25360496.099
        13.900          15.100
 13 10  8  0 34  0.0000000  0 11G 5G10G28G26G21G 9G 8G 7G15G19G27
 -20800980.777 6 -16208542.268 6  21750154.288    21750154.907    21750154.972
        40.700          38.300
    343745.463 2    267872.146 2  25403884.731    25403886.141    25403884.501
        13.900          13.900
 -19149898.556 6 -14921994.541 6  21610523.396    21610523.769    21610523.490
        39.000          36.500
 -29228184.622 7 -22775197.039 7  19771170.208    19771170.935    19771170.591
        45.600          44.700
  -5685348.022 3  -4430141.381 2  24847923.149    24847923.909    24847922.971
        18.600          15.100
 -26311180.993 7 -20502209.111 6  20369964.584    20369965.240    20369964.694
        44.400          41.000
 -24597808.714 7 -19167114.319 6  21041946.589    21041947.456    21041946.446
        43.700          40.400
 -10690395.956 5  -8330169.817 4  23151986.460    23151986.380    23151986.565
        31.000          27.600
 -15017270.257 5 -11701763.029 4  22771393.626    22771394.032    22771394.408
        32.700          28.800
  -5027846.619 3  -3917798.861 3  24671513.860    24671513.485    24671513.221
        22.100          22.100
   1660913.393 2   1294218.237 3  25368706.995    25368709.419    25368707.511
        15.100          18.600
 13 10  8  0 34 30.0000000  0 11G 5G10G28G26G21G 9G 8G 7G15G19G27
 -20727623.169 6 -16151380.525 6  21764113.265    21764114.457    21764114.214
        40.500          38.100
    461057.760 1    359284.301 1  25426207.721    25426209.289    25426207.528
        11.000           6.500
 -19188700.181 6 -14952229.554 6  21603139.683    21603140.120    21603139.777
        39.100          36.900
 -29252716.887 7 -22794313.086 7  19766501.943    19766502.687    19766502.230
        45.600          44.800
  -5688590.079 2  -4432667.648 2  24847306.692    24847306.642    24847306.433
        12.600          15.100
 -26254682.822 7 -20458184.561 6  20380715.626    20380716.490    20380715.895
        44.300          41.100
 -24549588.251 7 -19129539.933 6  21051122.108    21051123.449    21051122.494
        43.700          40.000
 -10596781.937 5  -8257223.850 4  23169800.701    23169800.566    23169800.903
        31.800          27.400
 -15106557.955 5 -11771337.851 4  22754403.065    22754402.811    22754403.669
        32.800          29.500
  -5039722.023 3  -3927052.381 3  24669255.408    24669253.437    24669254.098
        21.100          21.600
   1704563.918 2   1328231.624 2  25377013.041    25377015.375    25377013.259
        17.000          17.000
 13 10  8  0 35  0.0000000  0 11G 5G10G28G26G21G 9G 8G 7G15G19G27
 -20653821.278 6 -16093872.577 6  21778157.805    21778158.432    21778158.391
        40.900          38.100
    578341.203 1    450673.981 2  25448525.505    25448528.376    25448524.113
         9.000          13.900
 -19226990.181 6 -14982065.898 6  21595853.748    21595853.888    21595853.775
        39.300          37.300
 -29276732.921 7 -22813026.881 7  19761931.733    19761932.745    19761932.104
        45.500          44.900
  -5691338.708 2  -4434809.414 2  24846783.472    24846783.335    24846784.076
        17.800          13.900
 -26197734.614 7 -20413809.344 6  20391552.607    20391553.413    20391552.746
        44.400          40.900
 -24500993.516 7 -19091673.912 6  21060370.056    21060370.740    21060369.874
        43.700          40.000
 -10503012.885 5  -8184157.077 4  23187643.808    23187644.173    23187644.781
        30.600          27.100
 -15195647.092 5 -11840757.942 4  22737450.124    22737449.807    22737450.715
        33.200          29.200
  -5051014.380 3  -3935851.610 3  24667106.203    24667103.071    24667106.281
        22.100          19.900
   1748717.595 2   1362637.062 2  25385415.026    25385417.464    25385415.393
        16.100          17.800
 13 10  8  0 35 30.0000000  0 11G 5G10G28G26G21G 9G 8G 7G15G19G27
 -20579577.479 6 -16036020.292 6  21792286.005    21792286.828    21792286.626
        40.900          38.300
    695593.710 1    542039.588 2  25470837.149    25470840.570    25470836.646
         9.000          13.900
 -19264767.036 6 -15011502.393 6  21588665.218    21588665.202    21588664.977
        39.500          37.200
 -29300231.717 7 -22831337.633 7  19757460.067    19757461.097    19757460.424
        45.600          44.900
  -5693593.943 2  -4436566.761 2  24846354.011    24846353.719    24846353.623
        13.900          13.900
 -26140338.306 7 -20369084.952 6  20402474.986    20402475.663    20402474.971
        44.100          40.900
 -24452025.975 7 -19053517.390 6  21069687.862    21069688.924    21069688.028
        43.700          40.200
 -10409090.420 5  -8110970.760 4  23205516.581    23205517.296    23205517.671
        31.000          27.400
 -15284536.217 5 -11910022.195 5  22720534.600    22720534.714    22720535.321
        33.400          30.100
  -5061722.567 3  -3944195.675 2  24665068.799    24665065.569    24665068.269
        23.400          17.000
   1793372.852 2   1397433.398 2  25393912.720    25393915.773    25393913.267
        17.000          17.800
 13 10  8  0 36  0.0000000  0 12G 5G10G28G26G21G 9G 8G18G 7G15G19G27
 -20504893.687 6 -15977825.152 6  21806497.908    21806498.490    21806498.471
        40.600          37.800
    812813.345 1    633379.570 2  25493143.228    25493146.901    25493143.959
        11.000          16.100
 -19302030.221 6 -15040538.625 6  21581573.831    21581574.093    21581573.888
        39.500          37.300
 -29323212.398 7 -22849244.658 7  19753086.967    19753087.961    19753087.328
        45.600          44.900
  -5695356.021 2  -4437939.818 1  24846018.770    24846017.917    24846018.497
        16.100          11.000
 -26082495.626 7 -20324012.736 6  20413481.848    20413482.786    20413482.111
        44.000          40.800
 -24402686.923 7 -19015071.380 6  21079077.019    21079077.845    21079076.951
        43.600          39.800
   -153399.368 1   -119532.231 1  25919298.171    25919298.761    25919298.462
        11.000           6.500
 -10315016.102 5  -8037666.124 4  23223418.783    23223419.287    23223419.469
        30.200          27.400
 -15373223.850 5 -11979129.437 4  22703657.564    22703658.163    22703658.743
        33.100          29.000
  -5071845.984 3  -3952084.009 3  24663141.620    24663138.736    24663140.716
        22.100          18.600
   1838527.865 2   1432619.096 3  25402504.513    25402508.053    25402505.823
        17.000          18.600
 13 10  8  0 36 30.0000000  0 12G 5G10G28G26G21G 9G 8G18G 7G15G19G27
 -20429772.171 6 -15919288.937 6  21820792.545    21820793.726    21820793.334
        40.000          37.700
    929997.798 1    724692.095 1  25515442.678    25515446.257    25515443.688
         9.000           6.500
 -19338778.239 6 -15069173.425 6  21574580.849    21574581.221    21574580.903
        39.300          37.100
 -29345674.038 7 -22866747.236 7  19748812.853    19748813.537    19748813.063
        45.800          45.000
  -5696625.248 2  -4438928.814 2  24845778.553    24845776.928    24845778.280
        16.100          13.900
 -26024208.570 7 -20278594.259 6  20424573.263    20424574.419    20424573.597
        43.900          40.700
 -24352978.105 7 -18976337.237 6  21088536.099    21088537.160    21088536.191
        43.700          39.900
   -253298.907 1   -197376.053    25900288.653    25900287.185    25900288.370
         6.500           3.000
 -10220791.250 5  -7964244.183 4  23241348.975    23241349.571    23241349.724
        30.800          26.200
 -15461708.193 5 -12048078.260 4  22686819.529    22686820.255    22686820.714
        33.800          29.700
  -5081383.959 3  -3959516.203 2  24661326.211    24661322.130    24661324.980
        20.500          16.100
   1884181.047 2   1468192.919 2  25411191.878    25411196.068    25411192.958
        13.900          17.000
 13 10  8  0 37  0.0000000  0 12G 5G10G28G26G21G 9G 8G18G 7G15G19G27
 -20354215.097 6 -15860413.321 6  21835170.878    21835171.621    21835171.702
        40.700          37.300
   1047145.149 1    815975.748 2  25537735.316    25537738.924    25537736.320
         6.500          15.100
 -19375010.450 6 -15097406.299 6  21567686.399    21567686.230    21567686.205
        39.400          37.200
 -29367615.788 7 -22883844.706 7  19744637.040    19744638.088    19744637.671
        45.800          44.900
  -5697401.614 2  -4439533.763 2  24845631.127    24845628.853    24845630.225
        12.600          13.900
 -25965478.922 7 -20232830.905 6  20435749.245    20435750.337    20435749.377
        43.800          40.600
 -24302900.908 7 -18937316.055 6  21098065.340    21098066.547    21098065.516
        43.400          39.900
   -353082.857     -275129.695    25881300.575    25881299.365    25881299.651
                         3.000
 -10126417.752 4  -7890706.414 4  23259307.458    23259308.530    23259308.109
        29.900          27.400
 -15549987.820 5 -12116867.569 5  22670020.781    22670021.287    22670021.562
        33.600          30.100
  -5090335.650 2  -3966491.592 2  24659619.470    24659619.117    24659619.853
        15.100          17.000
   1930331.126 2   1504154.060 2  25419974.581    25419977.773    25419975.705
        17.000          17.800
 13 10  8  0 37 30.0000000  0 11G 5G10G28G26G21G 9G 8G18G 7G15G19
 -20278224.588 6 -15801199.953 6  21849631.189    21849632.259    21849632.312
        40.600          37.800
   1164253.276 1    907228.803 2  25560021.320    25560023.634    25560020.282
         9.000          16.100
 -19410725.598 6 -15125236.271 6  21560889.601    21560889.974    21560889.879
        39.700          37.200
 -29389036.673 7 -22900536.306 7  19740561.015    19740561.885    19740561.430
        45.900          44.900
  -5697685.544 2  -4439754.998 2  24845576.446    24845575.718    24845576.413
        17.000          15.100
 -25906308.607 7 -20186724.174 6  20447008.927    20447009.946    20447009.220
        43.700          40.300
 -24252456.635 7 -18898008.832 6  21107664.881    21107665.635    21107664.804
        43.400          39.400
   -452748.945 1   -352791.557 1  25862333.356    25862333.499    25862334.181
        11.000           6.500
 -10031897.111 5  -7817054.012 4  23277293.753    23277295.200    23277294.833
        30.100          27.400
 -15638061.084 5 -12185496.069 5  22653261.269    22653261.343    22653261.763
        33.600          30.100
  -5098700.576 2  -3973009.679 2  24658027.533    24658027.606    24658029.169
        17.800          15.100
 13 10  8  0 38  0.0000000  0 11G 5G10G28G26G21G 9G 8G18G 7G15G19
 -20201802.919 6 -15741650.629 6  21864173.753    21864175.017    21864174.738
        40.100          37.700
   1281320.048 2    998449.630 2  25582298.918    25582300.404    25582298.676
        12.600          13.900
 -19445922.678 6 -15152662.544 6  21554192.144    21554192.493    21554192.055
        39.700          37.700
 -29409935.993 7 -22916821.492 7  19736584.111    19736584.835    19736584.467
        45.800          44.900
  -5697477.633 2  -4439593.008 2  24845616.188    24845615.369    24845616.387
        12.600          15.100
 -25846699.568 7 -20140275.578 6  20458352.025    20458353.226    20458352.522
        43.900          40.300
 -24201646.745 7 -18858416.715 6  21117333.311    21117334.509    21117333.564
        43.300          39.400
   -552295.312 1   -430360.094 1  25843391.065    25843389.311    25843391.072
         6.500           6.500
  -9937230.962 5  -7743288.199 4  23295309.042    23295309.288    23295309.450
        30.400          27.400
 -15725925.998 5 -12253962.217 5  22636541.005    22636541.297    22636541.681
        34.400          30.200
  -5106477.947 2  -3979069.879 2  24656549.642    24656548.652    24656549.953
        16.100          17.800
 13 10  8  0 38 30.0000000  0 11G 5G10G28G26G21G 9G 8G18G 7G15G19
 -20124952.288 6 -15681767.053 6  21878797.964    21878799.056    21878798.977
        40.200          37.400
   1398343.472 2   1089636.691 1  25604567.748    25604569.236    25604566.463
        13.900          11.000
 -19480601.003 6 -15179684.594 6  21547592.807    21547593.041    21547592.885
        39.400          37.500
 -29430312.782 7 -22932699.512 7  19732706.685    19732707.229    19732706.954
        45.800          45.000
  -5696777.972 2  -4439047.800 2  24845749.418    24845748.289    24845749.189
        16.100          13.900
 -25786653.580 7 -20093486.505 6  20469778.469    20469779.605    20469778.970
        44.000          40.500
 -24150472.834 7 -18818540.944 6  21127071.417    21127072.738    21127071.654
        43.100          39.800
   -651719.601 1   -507833.509 1  25824471.731    25824471.399    25824471.174
         9.000          11.000
  -9842420.891 5  -7669410.249 4  23313350.733    23313350.915    23313351.547
        30.600          26.800
 -15813581.277 5 -12322265.010 5  22619860.313    22619861.013    22619861.393
        34.000          30.100
  -5113667.425 3  -3984672.091 3  24655182.644    24655181.610    24655183.311
        18.600          18.600
 13 10  8  0 39  0.0000000  0 11G 5G10G28G26G21G 9G 8G18G 7G15G19
 -20047674.992 6 -15621551.002 6  21893503.788    21893504.505    21893504.400
        40.000          37.100
   1515321.438 1   1180788.364 2  25626828.086    25626829.863    25626827.903
        11.000          12.600
 -19514759.255 6 -15206301.400 6  21541093.103    21541092.760    21541093.073
        40.000          37.100
 -29450166.297 7 -22948169.782 7  19728928.659    19728929.251    19728928.923
        45.800          45.100
  -5695586.554 2  -4438119.463 2  24845975.987    24845975.063    24845975.723
        17.000          16.100
 -25726172.635 7 -20046358.503 6  20481287.769    20481288.678    20481287.999
        43.600          40.200
 -24098936.286 7 -18778382.600 6  21136878.850    21136879.738    21136878.802
        43.200          39.500
   -751019.849 2   -585210.312 1  25805575.194    25805574.499    25805575.260
        13.900          11.000
  -9747468.291 5  -7595421.229 4  23331419.227    23331419.882    23331420.287
        30.100          27.400
 -15901025.153 5 -12390403.080 5  22603220.559    22603221.012    22603221.384
        33.900          30.100
  -5120268.178 3  -3989815.501 3  24653927.549    24653925.940    24653927.883
        23.400          21.100
 13 10  8  0 39 30.0000000  0 11G 5G10G28G26G21G 9G 8G18G 7G15G19
 -19969973.318 6 -15561004.265 6  21908289.840    21908290.459    21908290.667
        40.300          37.000
   1632252.267 2   1271903.312 2  25649078.784    25649080.553    25649077.993
        12.600          15.100
 -19548396.931 6 -15232512.571 6  21534691.639    21534691.828    21534691.671
        39.500          37.200
 -29469495.583 7 -22963231.562 7  19725250.321    19725251.052    19725250.666
        45.900          45.100
  -5693904.269 2  -4436808.578 2  24846295.201    24846295.676    24846294.579
        13.900          15.100
 -25665258.742 7 -19998893.135 6  20492879.420    20492880.169    20492879.616
        43.600          40.000
 -24047038.366 7 -18737942.670 6  21146754.713    21146755.485    21146754.685
        43.100          39.300
   -850193.749 2   -662488.699 1  25786702.273    25786702.469    25786702.675
        15.100           9.000
  -9652374.828 4  -7521322.455 4  23349514.496    23349515.711    23349515.782
        28.600          26.500
 -15988256.092 5 -12458375.236 5  22586621.472    22586621.302    22586621.918
        34.300          30.200
  -5126279.715 3  -3994499.805 3  24652783.460    24652782.170    24652783.114
        23.000          23.000
 13 10  8  0 40  0.0000000  0 11G 5G10G28G26G21G 9G 8G18G 7G15G19
 -19891849.613 6 -15500128.671 6  21923156.268    21923157.121    21923157.137
        40.000          37.000
   1749133.649 2   1362979.718 1  25671320.504    25671322.245    25671320.445
        12.600           9.000
 -19581512.793 6 -15258317.117 6  21528389.997    21528390.326    21528389.986
        39.500          37.700
 -29488299.944 7 -22977884.315 7  19721672.041    19721672.733    19721672.355
        46.000          45.000
  -5691731.295 2  -4435115.344 2  24846708.994    24846709.517    24846709.693
        17.000          17.000
 -25603913.671 7 -19951091.788 6  20504553.032    20504553.913    20504553.271
        43.700          40.300
 -23994780.705 7 -18697222.417 6  21156699.237    21156699.764    21156699.055
        43.300          39.400
   -949239.072 1   -739666.839 1  25767853.366    25767853.044    25767854.266
         9.000           9.000
  -9557142.009 4  -7447115.095 4  23367637.278    23367638.433    23367638.005
        29.500          26.800
 -16075272.296 5 -12526180.055 5  22570062.666    22570062.842    22570063.355
        34.400          30.600
  -5131701.373 3  -3998724.484 3  24651751.602    24651750.370    24651751.808
        23.800          22.600
 13 10  8  0 40 30.0000000  0 11G 5G10G28G26G21G 9G 8G18G 7G15G19
 -19813305.825 6 -15438925.744 6  21938102.655    21938103.710    21938103.415
        39.800          37.200
   1865963.262 1   1454015.767    25693551.880    25693554.785    25693552.248
         6.500           3.000
 -19614106.254 6 -15283714.600 6  21522187.632    21522187.889    21522187.735
        39.800          37.700
 -29506578.479 7 -22992127.329 7  19718193.734    19718194.424    19718194.094
        45.900          45.100
  -5689067.929 3  -4433039.997 2  24847216.318    24847216.520    24847216.015
        19.300          17.800
 -25542139.409 7 -19902956.007 6  20516307.719    20516309.128    20516308.302
        43.300          39.800
 -23942164.670 7 -18656222.916 6  21166711.296    21166712.409    21166711.431
        43.100          39.300
  -1048153.864 1   -816743.542 1  25749029.698    25749031.076    25749032.497
         9.000           9.000
  -9461771.474 4  -7372800.419 4  23385785.833    23385786.586    23385786.580
        29.700          26.800
 -16162072.131 5 -12593816.272 5  22553544.943    22553545.389    22553545.598
        34.400          30.600
  -5136532.950 3  -4002489.295 3  24650831.713    24650830.903    24650832.252
        23.400          21.100
 13 10  8  0 41  0.0000000  0 11G 5G10G28G26G21G 9G 8G18G 7G15G19
 -19734344.260 6 -15377397.278 6  21953128.574    21953129.472    21953129.241
        39.500          37.200
   1982739.465 1   1545010.175 2  25715773.615    25715776.080    25715773.205
         6.500          13.900
 -19646176.146 6 -15308704.121 6  21516084.921    21516084.932    21516084.869
        39.800          37.700
 -29524330.400 7 -23005959.995 7  19714815.520    19714816.334    19714815.966
        45.800          45.300
  -5685914.690 1  -4430582.903 2  24847816.426    24847815.636    24847815.445
        11.000          12.600
 -25479937.904 7 -19854487.311 6  20528144.736    20528145.630    20528145.039
        43.700          39.700
 -23889191.910 7 -18614945.449 6  21176791.763    21176792.804    21176791.817
        43.100          39.300
  -1146935.683 1   -893716.092 1  25730233.212    25730233.892    25730233.125
         6.500           9.000
  -9366264.720 4  -7298379.598 4  23403960.118    23403961.027    23403960.847
        29.000          27.600
 -16248653.897 5 -12661282.561 5  22537068.996    22537069.499    22537069.672
        34.500          31.100
  -5140773.607 3  -4005793.711 3  24650024.880    24650024.122    24650023.801
        20.500          20.500
 13 10  8  0 41 30.0000000  0 11G 5G10G28G26G21G 9G 8G18G 7G15G19
 -19654967.368 6 -15315545.179 6  21968233.653    21968234.511    21968234.295
        39.900          37.200
   2099460.154 1   1635961.381 2  25737985.356    25737987.890    25737985.283
        11.000          13.900
 -19677721.866 6 -15333285.180 6  21510081.876    21510082.110    21510081.894
        39.800          37.600
 -29541554.965 7 -23019381.736 7  19711537.780    19711538.630    19711538.194
        45.900          45.000
  -5682272.277 2  -4427744.663 2  24848510.013    24848508.081    24848509.706
        16.100          13.900
 -25417310.869 7 -19805687.033 6  20540062.348    20540063.193    20540062.534
        43.500          39.800
 -23835863.901 7 -18573391.164 6  21186939.654    21186940.658    21186939.677
        43.000          38.900
  -1245582.347 1   -970583.644 1  25711461.568    25711462.349    25711461.930
         6.500           6.500
  -9270623.217 4  -7223853.783 4  23422160.170    23422161.055    23422161.043
        29.200          26.500
 -16335016.009 5 -12728577.698 5  22520634.742    22520635.148    22520635.572
        34.300          30.800
  -5144423.108 3  -4008637.449 3  24649328.985    24649328.904    24649328.567
        19.900          18.600
 13 10  8  0 42  0.0000000  0 11G 5G10G28G26G21G 9G 8G18G 7G15G19
 -19575177.419 6 -15253371.216 6  21983416.939    21983417.973    21983417.828
        39.800          36.800
   2216123.323 2   1726867.731 2  25760185.443    25760187.556    25760184.118
        13.900          15.100
 -19708742.611 6 -15357457.177 6  21504178.912    21504179.155    21504179.008
        39.900          37.900
 -29558251.428 7 -23032391.972 7  19708360.761    19708361.304    19708361.041
        45.900          45.200
  -5678141.037 1  -4424525.522 2  24849296.362    24849295.331    24849295.963
        11.000          13.900
 -25354260.132 7 -19756556.600 6  20552060.587    20552061.228    20552060.770
        43.500          39.700
 -23782181.821 7 -18531560.975 6  21197155.179    21197156.052    21197155.219
        43.100          38.600
  -1344091.677 1  -1047344.208 2  25692716.464    25692717.008    25692716.067
        11.000          12.600
  -9174848.411 4  -7149224.111 4  23440385.800    23440386.303    23440386.102
        29.000          27.400
 -16421156.883 5 -12795700.440 5  22504242.696    22504243.262    22504243.421
        34.500          31.300
  -5147480.795 3  -4011020.032 3  24648746.066    24648746.142    24648745.745
        19.300          21.600
 13 10  8  0 42 30.0000000  0 11G 5G10G28G26G21G 9G 8G18G 7G15G19
 -19494976.674 6 -15190877.155 6  21998678.459    21998679.614    21998679.611
        39.900          36.700
   2332726.904 2   1817727.657 1  25782374.025    25782375.691    25782373.401
        13.900           9.000
 -19739237.383 6 -15381219.324 6  21498376.049    21498376.078    21498375.901
        39.800          37.900
 -29574418.968 7 -23044990.061 7  19705284.051    19705284.733    19705284.417
        46.100          45.200
  -5673520.927 2  -4420925.448 1  24850174.133    24850174.201    24850175.041
        17.000          11.000
 -25290787.861 7 -19707097.697 6  20564138.820    20564139.536    20564139.085
        43.400          39.600
 -23728147.183 7 -18489456.064 6  21207437.638    21207438.607    21207437.622
        42.800          38.900
  -1442461.328 2  -1123995.867 1  25673997.940    25673997.982    25673997.750
        13.900          11.000
  -9078942.001 4  -7074491.879 4  23458636.250    23458636.397    23458636.635
        28.600          25.600
 -16507074.625 5 -12862649.317 5  22487893.197    22487893.521    22487893.939
        35.100          30.600
  -5149946.370 1  -4012941.244 2  24648277.421    24648276.392    24648276.140
        11.000          17.800
 13 10  8  0 43  0.0000000  0 11G 5G10G28G26G21G 9G 8G18G 7G15G19
 -19414367.408 6 -15128064.764 6  22014018.143    22014019.195    22014018.963
        40.000          36.400
   2449268.916 2   1908539.625 1  25804550.869    25804553.068    25804550.551
        15.100           9.000
 -19769205.529 6 -15404571.114 6  21492673.259    21492673.198    21492673.186
        39.900          37.700
 -29590056.907 7 -23057175.469 7  19702308.111    19702308.928    19702308.562
        45.900          45.200
  -5668413.009 2  -4416945.256 2  24851146.685    24851146.364    24851146.900
        15.100          17.000
 -25226895.989 7 -19657311.831 6  20576296.900    20576297.932    20576297.243
        43.100          39.300
 -23673761.345 7 -18447077.499 6  21217786.950    21217787.770    21217787.031
        42.800          38.600
  -1540689.622 1  -1200537.471 2  25655305.959    25655305.304    25655305.413
         6.500          13.900
  -8982905.351 4  -6999658.153 4  23476911.524    23476911.465    23476911.927
        29.500          25.600
 -16592767.951 5 -12929423.321 5  22471586.058    22471586.693    22471587.135
        34.900          31.100
  -5151819.544 2  -4014400.843 2  24647920.965    24647919.109    24647921.611
        16.100          17.800
 13 10  8  0 43 30.0000000  0 11G 5G10G28G26G21G 9G 8G18G 7G15G19
 -19333352.377 6 -15064936.197 6  22029434.673    22029435.860    22029435.541
        39.300          36.500
   2565747.652 2   1999302.268 2  25826716.022    25826718.463    25826715.883
        15.100          12.600
 -19798646.261 6 -15427511.925 6  21487070.944    21487070.948    21487070.919
        40.200          37.900
 -29605164.493 7 -23068947.623 7  19699433.268    19699434.111    19699433.661
        45.900          45.300
  -5662817.679 2  -4412585.249 2  24852212.341    24852210.781    24852212.010
        17.000          12.600
 -25162586.582 7 -19607200.611 6  20588534.651    20588535.668    20588535.015
        43.100          39.400
 -23619025.996 7 -18404426.582 6  21228202.674    21228203.643    21228202.769
        42.700          39.000
  -1638773.936 2  -1276966.814 1  25636640.833    25636639.913    25636640.316
        13.900           6.500
  -8886740.095 4  -6924724.201 4  23495211.305    23495211.273    23495211.857
        29.200          25.600
 -16678235.039 5 -12996021.049 5  22455322.379    22455322.804    22455323.108
        35.300          31.100
  -5153100.042 3  -4015398.622 2  24647679.078    24647676.137    24647679.293
        23.000          17.800
 13 10  8  0 44  0.0000000  0 11G 5G10G28G26G21G 9G 8G18G 7G15G19
 -19251933.029 6 -15001492.569 6  22044928.711    22044929.346    22044929.324
        39.500          36.200
   2682160.868 2   2090013.810 1  25848868.590    25848870.320    25848868.054
        16.100           6.500
 -19827558.678 6 -15450041.068 6  21481569.188    21481569.142    21481569.056
        39.900          38.100
 -29619740.874 7 -23080305.841 7  19696659.638    19696660.339    19696659.965
        45.900          45.400
  -5656735.340 1  -4407845.796 2  24853369.551    24853369.046    24853368.685
        11.000          12.600
 -25097861.364 7 -19556765.381 6  20600851.668    20600852.401    20600851.857
        43.100          39.300
 -23563942.874 7 -18361504.679 6  21238684.905    21238685.632    21238684.787
        42.500          38.400
  -1736712.273 2  -1353282.428 1  25618003.514    25618002.540    25618003.217
        15.100           9.000
  -8790447.668 4  -6849691.176 4  23513534.840    23513535.056    23513535.486
        27.900          25.300
 -16763474.074 5 -13062441.056 5  22439102.037    22439102.620    22439102.704
        35.300          31.600
  -5153787.284 3  -4015934.131 2  24647549.218    24647545.332    24647548.639
        23.400          17.800
 13 10  8  0 44 30.0000000  0 12G 5G10G28G26G21G 9G 8G18G 7G15G19G24
 -19170112.178 6 -14937736.085 6  22060498.810    22060499.434    22060499.494
        39.800          36.700
   2798506.360 1   2180672.666 1  25871008.118    25871010.694    25871007.538
        11.000           6.500
 -19855942.177 6 -15472158.062 6  21476167.674    21476167.804    21476167.714
        39.900          37.900
 -29633785.502 7 -23091249.715 7  19693986.896    19693987.721    19693987.349
        46.000          45.400
  -5650166.714 2  -4402727.366 2  24854618.703    24854618.867    24854618.717
        17.000          15.100
 -25032722.407 7 -19506007.758 6  20613246.898    20613248.031    20613247.342
        43.000          39.300
 -23508512.995 7 -18318312.569 6  21249232.666    21249233.594    21249232.649
        42.300          38.600
  -1834502.181 2  -1429482.366 9  25599394.977    25599394.242    25599394.125
        12.600          -3.000
  -8694029.528 4  -6774560.179 4  23531882.797    23531883.134    23531883.090
        27.900          25.600
 -16848483.380 5 -13128682.051 5  22422926.094    22422925.696    22422926.153
        35.500          31.600
  -5153880.883 3  -4016007.078 3  24647530.068    24647528.361    24647530.105
        22.100          18.600
   -205384.897 1   -160039.510 2  25483945.213    25483949.628    25483946.914
        11.000          12.600
 13 10  8  0 45  0.0000000  0 12G 5G10G28G26G21G 9G 8G18G 7G15G19G24
 -19087892.452 6 -14873668.792 6  22076144.408    22076145.535    22076145.023
        39.500          36.500
   2914782.470     2271277.385 1  25893134.330    25893136.880    25893133.503
         3.000           9.000
 -19883795.953 6 -15493862.286 6  21470867.254    21470867.408    21470867.335
        40.200          37.900
 -29647297.666 7 -23101778.678 7  19691415.755    19691416.514    19691416.096
        46.100          45.300
  -5643112.252 2  -4397230.391 2  24855960.926    24855961.529    24855960.458
        17.800          17.000
 -24967171.726 7 -19454929.311 6  20625720.836    20625721.951    20625721.086
        42.700          39.300
 -23452737.860 7 -18274851.434 6  21259846.233    21259847.110    21259846.136
        42.500          38.300
  -1932141.245 2  -1505564.760 2  25580814.946    25580813.762    25580814.836
        13.900          12.600
  -8597487.426 4  -6699332.587 4  23550254.595    23550254.685    23550254.733
        27.600          25.300
 -16933261.469 5 -13194742.888 5  22406792.399    22406793.116    22406793.183
        35.100          31.600
  -5153380.768 3  -4015617.363 3  24647624.996    24647623.899    24647625.126
        22.100          18.600
   -311548.040 1   -242764.043 2  25463742.986    25463748.919    25463741.937
         6.500          15.100
 13 10  8  0 45 30.0000000  0 12G 5G10G28G26G21G 9G 8G18G 7G15G19G24
 -19005276.553 6 -14809292.799 6  22091865.823    22091866.375    22091866.547
        39.300          36.000
   3030987.067 1   2361826.439 1  25915247.102    25915250.057    25915248.224
         9.000           6.500
 -19911119.506 6 -15515153.356 6  21465667.841    21465667.846    21465667.774
        40.000          38.000
 -29660276.676 7 -23111892.193 7  19688945.722    19688946.767    19688946.318
        46.000          45.500
  -5635572.745 3  -4391355.461 2  24857396.934    24857395.009    24857396.951
        18.600          13.900
 -24901211.208 7 -19403531.514 6  20638273.009    20638273.787    20638273.023
        42.700          38.800
 -23396619.190 7 -18231122.604 6  21270525.325    21270526.043    21270525.320
        42.400          38.200
  -2029627.588 2  -1581528.160 9  25562264.453    25562262.125    25562264.288
        15.100          -3.000
  -8500822.610 4  -6624009.387 4  23568648.206    23568649.472    23568649.072
        26.800          26.200
 -17017806.583 5 -13260622.186 5  22390704.056    22390704.492    22390704.611
        35.300          31.500
  -5152286.647 3  -4014764.804 3  24647833.199    24647832.126    24647832.599
        23.000          18.600
   -417661.867 1   -325450.126 2  25443549.761    25443555.070    25443549.538
         6.500          13.900
 13 10  8  0 46  0.0000000  0 12G 5G10G28G26G21G 9G 8G18G 7G15G19G24
 -18922265.855 6 -14744609.152 5  22107661.989    22107663.098    22107662.839
        39.100          35.900
   3147118.345 1   2452318.333 9  25937346.808    25937349.676    25937346.177
         6.500          -3.000
 -19937912.212 6 -15536030.774 6  21460569.480    21460569.477    21460569.492
        39.800          38.400
 -29672721.749 7 -23121589.660 7  19686577.879    19686578.534    19686578.120
        46.000          45.500
  -5627548.192 2  -4385102.565 2  24858923.862    24858922.639    24858924.271
        17.000          12.600
 -24834842.631 7 -19351815.748 6  20650902.512    20650903.214    20650902.494
        42.700          38.900
 -23340158.548 7 -18187127.305 6  21281268.993    21281270.293    21281269.253
        42.000          38.100
  -2126958.750 2  -1657370.649 1  25543742.068    25543741.219    25543741.597
        12.600           9.000
  -8404036.676 4  -6548591.804 4  23587066.379    23587067.209    23587067.256
        26.800          25.900
 -17102116.761 5 -13326318.412 5  22374661.077    22374660.713    22374661.231
        35.600          32.000
  -5150598.461 3  -4013449.300 3  24648154.636    24648153.169    24648155.028
        23.000          19.300
   -523725.394 1   -408096.968 1  25423366.369    25423371.688    25423367.479
         6.500           9.000
 13 10  8  0 46 30.0000000  0 12G 5G10G28G26G21G 9G 8G18G 7G15G19G24
 -18838863.071 6 -14679620.003 6  22123533.060    22123534.312    22123533.916
        39.100          36.100
   3263174.369 1   2542752.559    25959432.120    25959434.633    25959430.882
        11.000           3.000
 -19964173.170 6 -15556493.838 6  21455572.060    21455572.072    21455572.216
        40.200          38.200
 -29684632.343 7 -23130870.646 7  19684311.362    19684311.878    19684311.572
        46.100          45.500
  -5619039.944 2  -4378472.791 2  24860541.996    24860541.705    24860542.164
        15.100          17.000
 -24768068.085 7 -19299783.643 6  20663609.098    20663610.084    20663609.326
        42.700          38.800
 -23283357.114 7 -18142866.454 6  21292078.567    21292079.387    21292078.444
        42.200          38.000
  -2224132.643 1  -1733090.586 1  25525249.950    25525250.476    25525251.324
        11.000           6.500
  -8307131.054 4  -6473080.959 4  23605507.246    23605507.652    23605507.536
        27.600          24.900
 -17186190.583 5 -13391830.476 5  22358661.423    22358661.902    22358662.218
        35.300          32.000
  -5148315.745 3  -4011670.565 3  24648588.078    24648587.882    24648588.069
        19.900          19.900
   -629737.561 1   -490703.856 2  25403193.068    25403198.051    25403194.326
        11.000          13.900
 13 10  8  0 47  0.0000000  0 12G 5G10G28G26G21G 9G 8G18G 7G15G19G24
 -18755070.867 6 -14614327.405 6  22139478.286    22139479.429    22139479.039
        39.300          36.000
   3379153.514 1   2633126.124    25981502.289    25981503.376    25981503.292
        11.000           3.000
 -19989901.746 6 -15576542.065 6  21450676.291    21450675.868    21450676.172
        40.200          38.100
 -29696007.731 7 -23139734.593 7  19682146.487    19682147.168    19682146.921
        46.100          45.500
  -5610048.574 2  -4371466.529 2  24862252.650    24862252.548    24862252.948
        15.100          15.100
 -24700889.479 7 -19247436.693 6  20676392.811    20676393.716    20676393.066
        42.600          38.600
 -23226216.302 7 -18098341.150 6  21302952.093    21302952.973    21302951.969
        42.100          38.100
  -2321146.713 1  -1808686.008 1  25506789.408    25506789.347    25506789.521
         6.500           6.500
  -8210106.874 4  -6397477.743 4  23623970.195    23623970.592    23623971.122
        27.600          24.600
 -17270026.446 5 -13457157.118 5  22342707.905    22342708.517    22342708.927
        35.800          31.600
  -5145438.659 3  -4009428.692 3  24649135.956    24649135.242    24649135.380
        19.900          19.900
   -735697.606 2   -573270.134 2  25383029.748    25383033.437    25383030.856
        16.100          13.900
 13 10  8  0 47 30.0000000  0 11G 5G28G26G21G 9G 8G18G 7G15G19G24
 -18670891.327 6 -14548732.989 6  22155497.351    22155498.156    22155497.968
        39.300          36.000
 -20015097.666 6 -15596175.237 6  21445881.439    21445881.541    21445881.470
        40.300          38.500
 -29706847.322 7 -23148181.035 7  19680083.907    19680084.463    19680084.195
        46.000          45.400
  -5600574.504 2  -4364084.139 2  24864055.398    24864055.294    24864055.331
        17.800          16.100
 -24633308.503 7 -19194776.195 6  20689252.991    20689253.961    20689253.394
        42.600          38.600
 -23168737.869 7 -18053552.774 6  21313889.689    21313890.870    21313889.687
        42.000          38.400
  -2417999.073 2  -1884155.362 2  25488359.860    25488358.895    25488359.269
        16.100          13.900
  -8112966.133 4  -6321783.682 4  23642456.271    23642455.806    23642456.201
        27.100          24.900
 -17353622.415 6 -13522296.814 5  22326799.899    22326800.798    22326801.230
        36.000          32.000
  -5141966.767 3  -4006723.280 3  24649796.874    24649795.947    24649797.207
        21.100          22.100
   -841604.083 1   -655794.706 2  25362876.673    25362880.321    25362877.501
        11.000          13.900
 13 10  8  0 48  0.0000000  0 11G 5G28G26G21G 9G 8G18G 7G15G19G24
 -18586327.111 6 -14482838.818 6  22171589.156    22171590.121    22171589.956
        38.900          36.100
 -20039759.985 6 -15615392.613 6  21441188.534    21441188.500    21441188.481
        40.500          38.600
 -29717150.508 7 -23156209.490 7  19678123.216    19678123.852    19678123.567
        46.100          45.400
  -5590618.369 2  -4356326.114 2  24865951.471    24865950.293    24865951.593
        16.100          15.100
 -24565327.351 7 -19141803.883 6  20702189.068    20702190.569    20702189.555
        42.700          38.900
 -23110923.328 7 -18008502.488 6  21324891.317    21324892.426    21324891.418
        42.000          37.900
  -2514687.358 2  -1959496.894 1  25469961.347    25469960.475    25469960.092
        12.600          11.000
  -8015710.186 4  -6245999.851 4  23660963.331    23660963.129    23660963.242
        27.100          24.900
 -17436976.904 5 -13587248.358 5  22310938.015    22310939.089    22310939.338
        35.900          32.300
  -5137899.787 3  -4003554.224 3  24650571.953    24650569.730    24650570.682
        21.100          23.000
   -947456.024 1   -738276.741 2  25342733.138    25342738.413    25342734.351
        11.000          13.900
 13 10  8  0 48 30.0000000  0 11G 5G28G26G21G 9G 8G18G 7G15G19G24
 -18501380.608 6 -14416646.771 6  22187754.233    22187755.234    22187754.814
        38.700          36.000
 -20063888.171 6 -15634193.787 6  21436597.048    21436596.943    21436596.907
        40.300          38.200
 -29726916.639 7 -23163819.470 7  19676264.696    19676265.508    19676265.137
        46.100          45.600
  -5580181.171 2  -4348193.216 2  24867937.272    24867936.504    24867937.017
        13.900          16.100
 -24496948.067 7 -19088521.334 6  20715201.718    20715202.581    20715201.957
        42.600          38.600
 -23052773.984 6 -17963191.318 6  21335956.934    21335957.880    21335956.860
        41.900          37.700
  -2611209.241 2  -2034708.763 2  25451593.389    25451592.144    25451593.244
        15.100          13.900
  -7918340.278 4  -6170127.215 4  23679491.919    23679491.627    23679492.082
        26.500          24.600
 -17520088.074 6 -13652010.306 5  22295122.863    22295123.290    22295123.848
        36.300          32.000
  -5133237.851 3  -3999921.556 3  24651458.113    24651456.131    24651457.506
        21.600          18.600
  -1053252.697 2   -820715.709 2  25322600.782    25322605.892    25322601.380
        12.600          12.600
 13 10  8  0 49  0.0000000  0 11G 5G28G26G21G 9G 8G18G 7G15G19G24
 -18416054.241 6 -14350158.719 5  22203991.123    22203992.123    22203991.881
        38.500          35.400
 -20087481.651 6 -15652578.299 6  21432106.912    21432107.376    21432107.047
        40.200          38.700
 -29736145.238 7 -23171010.591 7  19674508.713    19674509.336    19674508.972
        46.100          45.700
  -5569263.583 2  -4339686.042 2  24870012.859    24870014.452    24870013.139
        15.100          13.900
 -24428172.806 7 -19034930.230 6  20728289.213    20728289.986    20728289.497
        42.500          38.100
 -22994291.410 6 -17917620.489 6  21347085.924    21347086.844    21347085.945
        41.800          37.900
  -2707562.334 2  -2109789.130 1  25433257.992    25433256.226    25433257.598
        15.100           6.500
  -7820857.896 4  -6094166.949 4  23698041.654    23698042.089    23698042.552
        24.900          25.600
 -17602954.488 6 -13716581.525 5  22279353.884    22279354.548    22279354.797
        36.100          32.800
  -5127980.793 3  -3995825.118 2  24652459.317    24652456.774    24652458.538
        22.100          17.800
  -1158992.699 1   -903110.536 2  25302479.154    25302483.318    25302479.935
        11.000          12.600
 13 10  8  0 49 30.0000000  0 11G 5G28G26G21G 9G 8G18G 7G15G19G24
 -18330350.607 6 -14283376.695 5  22220299.970    22220300.822    22220300.935
        39.300          35.300
 -20110540.156 6 -15670545.951 6  21427719.191    21427719.303    21427719.186
        40.500          38.500
 -29744835.538 7 -23177782.252 7  19672854.887    19672855.599    19672855.288
        46.100          45.600
  -5557866.124 2  -4330804.898 2  24872182.941    24872182.390    24872183.409
        16.100          15.100
 -24359003.232 7 -18981031.871 6  20741451.762    20741452.549    20741451.922
        42.400          38.200
 -22935477.336 7 -17871791.350 6  21358277.489    21358278.849    21358277.805
        42.000          37.700
  -2803744.710 2  -2184736.446 2  25414955.282    25414953.478    25414954.163
        13.900          12.600
  -7723264.414 4  -6018120.117 3  23716612.761    23716613.737    23716613.961
        26.200          23.400
 -17685574.211 6 -13780960.523 5  22263631.647    22263632.444    22263632.601
        36.500          33.000
  -5122128.675 3  -3991265.024 3  24653572.138    24653571.041    24653571.901
        22.100          19.900
  -1264674.945 1   -985460.333 2  25282369.023    25282372.787    25282369.094
        11.000          17.000
 13 10  8  0 50  0.0000000  0 11G 5G28G26G21G 9G 8G18G 7G15G19G24
 -18244271.804 6 -14216302.331 5  22236679.969    22236681.266    22236680.958
        38.500          35.300
 -20133063.195 6 -15688096.355 6  21423433.371    21423433.212    21423433.283
        40.500          38.500
 -29752987.154 7 -23184134.166 7  19671303.636    19671304.394    19671304.112
        46.100          45.700
  -5545989.840 2  -4321550.639 2  24874443.829    24874442.974    24874442.988
        15.100          12.600
 -24289441.330 7 -18926827.796 6  20754688.777    20754689.777    20754689.131
        42.400          38.400
 -22876332.958 6 -17825704.829 6  21369532.511    21369533.558    21369532.523
        41.900          37.700
  -2899753.939 1  -2259548.874 1  25396685.092    25396684.117    25396684.855
         6.500           9.000
  -7625561.474 4  -5941987.990 4  23735204.956    23735206.350    23735205.912
        26.500          24.900
 -17767945.257 6 -13845145.738 5  22247956.884    22247957.702    22247958.042
        36.400          32.800
  -5115681.557 3  -3986241.268 3  24654798.451    24654797.466    24654799.127
        21.600          19.300
  -1370298.972 2  -1067764.791 2  25262269.481    25262273.728    25262269.675
        15.100          16.100
 13 10  8  0 50 30.0000000  0 12G 5G 3G28G26G21G 9G 8G18G 7G15G19G24
 -18157820.393 6 -14148937.625 5  22253131.567    22253132.616    22253132.297
        38.500          35.700
    116087.109 1     90458.444    25127986.158    25127987.473    25127985.653
        11.000           3.000
 -20155050.052 6 -15705228.962 6  21419249.423    21419249.314    21419249.255
        40.100          38.600
 -29760599.458 7 -23190065.838 7  19669854.892    19669855.830    19669855.492
        46.100          45.500
  -5533635.165 2  -4311923.641 2  24876795.521    24876793.890    24876794.998
        17.800          17.800
 -24219489.007 7 -18872319.503 6  20768000.337    20768001.303    20768000.537
        42.000          38.000
 -22816859.660 6 -17779362.008 6  21380850.162    21380850.940    21380850.013
        41.700          37.300
  -2995587.527 2  -2334224.408 2  25378447.769    25378447.454    25378447.005
        13.900          13.900
  -7527750.455 4  -5865771.653 4  23753818.375    23753819.019    23753819.257
        27.100          24.200
 -17850066.563 6 -13909136.362 5  22232330.584    22232330.445    22232330.904
        36.400          32.600
  -5108639.272 3  -3980753.779 3  24656138.024    24656137.961    24656138.366
        19.900          18.600
  -1475863.064 1  -1150022.539 2  25242181.195    25242186.135    25242181.440
        11.000          17.800
 13 10  8  0 51  0.0000000  0 12G 5G 3G28G26G21G 9G 8G18G 7G15G19G24
 -18070999.250 6 -14081284.816 5  22269652.858    22269653.974    22269653.663
        38.100          35.300
    183719.680 9    143159.069 2  25140856.339    25140857.459    25140857.311
        -3.000          12.600
 -20176500.386 6 -15721943.491 6  21415167.668    21415167.372    21415167.498
        40.300          38.600
 -29767671.889 7 -23195576.827 7  19668509.399    19668510.072    19668509.673
        46.000          45.600
  -5520803.149 2  -4301924.667 2  24879236.361    24879236.550    24879236.697
        13.900          17.800
 -24149148.257 7 -18817508.546 6  20781385.913    20781386.737    20781386.133
        42.100          37.800
 -22757058.971 6 -17732764.076 6  21392229.834    21392230.560    21392229.785
        41.800          37.400
  -3091243.605 1  -2408761.627 1  25360245.540    25360244.048    25360244.248
         6.500           6.500
  -7429832.608 4  -5789472.055 4  23772451.014    23772452.099    23772452.349
        26.800          25.600
 -17931936.159 6 -13972930.845 5  22216751.257    22216751.348    22216751.785
        36.400          33.000
  -5101001.879 3  -3974802.525 3  24657592.014    24657591.131    24657591.574
        19.300          20.500
  -1581366.524 2  -1232233.029 2  25222104.755    25222109.730    25222106.555
        13.900          17.000
 13 10  8  0 51 30.0000000  0 12G 5G 3G28G26G21G 9G 8G18G 7G15G19G24
 -17983810.036 6 -14013345.199 5  22286244.822    22286245.578    22286245.414
        38.800          35.300
    251831.479 1    196233.076 9  25153818.164    25153818.313    25153817.874
        11.000          -3.000
 -20197413.853 6 -15738239.690 6  21411187.724    21411187.720    21411187.835
        40.600          38.600
 -29774203.944 7 -23200666.741 7  19667266.396    19667267.115    19667266.672
        46.100          45.700
  -5507494.505 2  -4291554.323 2  24881767.628    24881768.989    24881767.573
        13.900          13.900
 -24078421.300 6 -18762396.636 6  20794844.868    20794845.739    20794844.947
        41.900          37.900
 -22696932.547 6 -17685912.318 6  21403671.321    21403672.152    21403671.425
        41.600          37.200
  -3186719.586 2  -2483158.497 1  25342077.787    25342076.445    25342077.318
        13.900           9.000
  -7331809.623 4  -5713090.543 4  23791104.298    23791104.996    23791105.103
        24.900          24.200
 -18013552.026 6 -14036527.626 5  22201219.878    22201220.293    22201220.621
        36.500          32.800
  -5092769.472 3  -3968387.655 2  24659158.274    24659157.274    24659158.625
        20.500          17.800
  -1686807.627 1  -1314394.955 2  25202039.667    25202044.499    25202039.972
        11.000          17.000
 13 10  8  0 52  0.0000000  0 12G 5G 3G28G26G21G 9G 8G18G 7G15G19G24
 -17896255.970 6 -13945121.284 5  22302905.743    22302906.459    22302906.388
        38.100          34.900
    320420.190 1    249678.747 1  25166869.662    25166870.518    25166868.505
         6.500           6.500
 -20217789.771 6 -15754117.009 6  21407310.448    21407310.387    21407310.333
        40.500          38.700
 -29780195.048 7 -23205335.138 7  19666126.357    19666126.990    19666126.617
        46.100          45.800
  -5493710.050 2  -4280813.194 2  24884390.664    24884391.593    24884390.919
        16.100          12.600
 -24007309.831 6 -18706985.113 6  20808376.668    20808377.582    20808376.913
        41.900          37.700
 -22636481.688 6 -17638807.760 6  21415174.665    21415175.767    21415174.620
        41.000          37.300
  -3282013.287 1  -2557413.360 2  25323943.307    25323942.159    25323943.301
         6.500          12.600
  -7233682.751 4  -5636628.076 3  23809777.567    23809777.708    23809777.923
        25.600          23.800
 -18094912.739 6 -14099925.576 5  22185737.491    22185737.735    22185738.180
        36.700          33.000
  -5083942.080 3  -3961509.169 2  24660839.316    24660836.450    24660838.826
        19.300          17.800
  -1792186.433 2  -1396508.286 2  25181986.006    25181990.640    25181986.681
        12.600          13.900
 13 10  8  0 52 30.0000000  0 12G 5G 3G28G26G21G 9G 8G18G 7G15G19G24
 -17808339.157 6 -13876614.698 5  22319635.395    22319636.470    22319636.386
        38.100          35.100
    389483.195 1    303494.061 9  25180012.392    25180014.546    25180012.011
        11.000          -3.000
 -20237627.740 6 -15769575.157 6  21403535.387    21403535.102    21403535.282
        40.500          38.600
 -29785644.749 7 -23209581.668 7  19665089.307    19665089.846    19665089.545
        46.000          45.600
  -5479450.832 2  -4269702.095 1  24887107.057    24887103.975    24887106.851
        17.800          11.000
 -23935815.870 6 -18651275.548 6  20821981.734    20821982.586    20821981.793
        41.900          37.900
 -22575708.231 6 -17591451.833 6  21426739.515    21426740.744    21426739.662
        41.300          37.500
  -3377122.148 2  -2631524.193 2  25305844.740    25305843.873    25305843.562
        15.100          13.900
  -7135453.456 4  -5560085.793 4  23828469.941    23828470.728    23828470.567
        24.900          24.900
 -18176016.390 6 -14163123.215 5  22170304.422    22170303.925    22170304.827
        37.100          33.200
  -5074519.621 3  -3954166.984 2  24662631.645    24662629.745    24662631.470
        19.300          17.000
  -1897501.092 2  -1478571.684 2  25161945.501    25161950.240    25161945.002
        13.900          16.100
 13 10  8  0 53  0.0000000  0 12G 5G 3G28G26G21G 9G 8G18G 7G15G19G24
 -17720062.013 6 -13807827.342 5  22336434.000    22336435.471    22336435.001
        38.400          35.300
    459018.028 9    357676.871 9  25193243.644    25193247.132    25193241.824
        -3.000          -3.000
 -20256927.394 6 -15784613.842 6  21399862.385    21399862.716    21399862.623
        40.700          38.900
 -29790552.575 7 -23213405.951 7  19664155.165    19664155.949    19664155.531
        46.100          45.700
  -5464717.739 2  -4258221.705 1  24889911.086    24889908.015    24889911.340
        17.800           9.000
 -23863941.486 6 -18595269.544 6  20835659.087    20835659.802    20835659.257
        41.900          37.600
 -22514613.504 6 -17543845.556 6  21438365.405    21438366.587    21438365.487
        41.200          37.000
  -3472044.383 2  -2705489.554 1  25287781.686    25287780.985    25287781.158
        15.100          11.000
  -7037123.186 4  -5483464.837 4  23847181.802    23847182.614    23847181.960
        24.600          24.600
 -18256861.435 6 -14226119.357 5  22154919.787    22154919.753    22154920.412
        37.000          32.700
  -5064502.465 3  -3946361.409 3  24664538.591    24664535.522    24664538.040
        21.100          19.300
  -2002750.637 2  -1560584.291 2  25141918.219    25141922.065    25141918.095
        13.900          16.100
 13 10  8  0 53 30.0000000  0 12G 5G 3G28G26G21G 9G 8G18G 7G15G19G24
 -17631427.121 6 -13738761.227 5  22353300.970    22353302.104    22353301.790
        38.000          35.500
    529022.683      412224.956 9  25206564.984    25206564.227    25206563.729
         3.000          -3.000
 -20275688.396 6 -15799232.789 6  21396292.589    21396292.658    21396292.445
        40.600          38.900
 -29794918.016 7 -23216807.600 7  19663324.280    19663325.423    19663324.828
        46.100          45.800
  -5449511.526 2  -4246372.722 2  24892802.433    24892802.677    24892802.437
        16.100          17.000
 -23791688.588 6 -18538968.588 6  20849408.044    20849409.114    20849408.398
        41.800          37.200
 -22453199.049 6 -17495990.148 6  21450052.332    21450053.408    21450052.350
        41.100          36.900
  -3566777.286 2  -2779307.449 2  25269754.168    25269753.993    25269753.772
        15.100          15.100
  -6938693.489 4  -5406766.405 3  23865912.183    23865912.338    23865913.023
        24.600          23.000
 -18337445.962 6 -14288912.489 5  22139584.971    22139584.906    22139585.650
        36.700          33.000
  -5053890.757 2  -3938092.541 2  24666557.095    24666555.081    24666557.145
        17.800          17.800
  -2107934.326 2  -1642545.619 2  25121902.020    25121905.984    25121902.454
        17.000          17.000
 13 10  8  0 54  0.0000000  0 12G 5G 3G28G26G21G 9G 8G18G 7G15G19G24
 -17542437.003 6 -13669418.300 5  22370234.989    22370236.089    22370235.992
        37.700          34.600
    599494.190      467137.943 9  25219974.941    25219977.069    25219975.325
         3.000          -3.000
 -20293910.547 6 -15813431.857 6  21392824.961    21392824.964    21392824.916
        40.500          39.000
 -29798740.700 7 -23219786.314 7  19662597.131    19662598.027    19662597.443
        46.100          45.800
  -5433832.900 1  -4234155.656 2  24895782.759    24895786.613    24895784.870
         9.000          17.000
 -23719059.234 6 -18482374.294 6  20863229.249    20863230.130    20863229.371
        41.600          37.600
 -22391466.178 6 -17447886.621 6  21461799.948    21461800.878    21461799.909
        41.200          37.000
  -3661318.462 2  -2852975.908 1  25251764.526    25251762.706    25251763.671
        17.000           9.000
  -6840165.394 4  -5329991.308 4  23884662.252    23884662.291    23884662.187
        24.900          24.900
 -18417768.476 6 -14351501.449 5  22124299.792    22124300.156    22124300.778
        37.000          33.100
  -5042684.797 2  -3929360.597 3  24668689.175    24668687.631    24668688.537
        16.100          19.900
  -2213050.554 2  -1724454.375 2  25101899.247    25101903.701    25101900.039
        17.000          16.100
 13 10  8  0 54 30.0000000  0 12G 5G 3G28G26G21G 9G 8G18G 7G15G19G24
 -17453094.483 6 -13599800.778 5  22387236.728    22387237.436    22387237.376
        37.600          34.500
    670430.495 1    522413.033 9  25233473.925    25233473.819    25233476.022
         9.000          -3.000
 -20311593.248 6 -15827210.575 6  21389460.091    21389460.038    21389459.985
        40.500          38.700
 -29802020.049 7 -23222341.656 7  19661973.159    19661973.957    19661973.504
        46.300          45.800
  -5417683.254 2  -4221571.547 2  24898860.082    24898859.069    24898859.750
        17.000          13.900
 -23646055.562 6 -18425488.326 6  20877121.020    20877122.159    20877121.281
        41.600          37.100
 -22329416.439 6 -17399536.185 6  21473607.513    21473608.397    21473607.434
        41.100          36.600
  -3755666.008 2  -2926493.516 1  25233810.509    25233808.655    25233810.397
        16.100          11.000
  -6741540.260 4  -5253140.561 3  23903429.943    23903430.216    23903430.034
        24.900          23.800
 -18497827.015 6 -14413884.723 5  22109065.009    22109065.618    22109065.993
        37.100          33.500
  -5030884.528 3  -3920165.576 3  24670934.933    24670934.109    24670934.556
        21.100          19.300
  -2318098.880 2  -1806310.211 2  25081909.220    25081913.475    25081910.350
        13.900          17.000
 13 10  8  0 55  0.0000000  0 11G 5G28G26G21G 9G 8G18G 7G15G19G24
 -17363401.778 6 -13529910.390 5  22404304.479    22404305.841    22404305.253
        37.900          34.800
 -20328736.419 6 -15840568.882 6  21386197.613    21386197.786    21386197.643
        40.500          39.000
 -29804755.756 7 -23224473.376 7  19661452.488    19661453.290    19661452.909
        46.300          45.800
  -5401063.510 3  -4208621.093 1  24902023.827    24902020.562    24902023.446
        19.300           9.000
 -23572679.316 6 -18368312.041 6  20891084.204    20891085.237    20891084.343
        41.300          37.100
 -22267051.164 6 -17350939.871 6  21485475.290    21485475.912    21485475.287
        41.100          36.500
  -3849817.720 1  -2999858.469 2  25215892.595    25215892.404    25215893.960
        11.000          13.900
  -6642819.591 4  -5176215.404 3  23922215.145    23922215.926    23922215.603
        24.200          23.400
 -18577620.041 6 -14476061.105 5  22093881.580    22093881.780    22093881.958
        37.400          33.500
  -5018490.440 3  -3910507.845 2  24673293.758    24673291.520    24673293.388
        19.300          17.800
  -2423078.251 2  -1888112.303 2  25061931.477    25061936.545    25061932.244
        15.100          17.000
 13 10  8  0 55 30.0000000  0 11G 5G28G26G21G 9G 8G18G 7G15G19G24
 -17273361.626 6 -13459749.262 5  22421438.536    22421439.709    22421439.547
        37.700          35.100
 -20345339.669 6 -15853506.465 6  21383038.239    21383038.369    21383038.380
        40.900          39.300
 -29806947.266 7 -23226181.050 7  19661035.422    19661036.300    19661035.889
        46.300          45.900
  -5383974.362 2  -4195304.855 9  24905273.030    24905272.213    24905274.055
        16.100          -3.000
 -23498932.399 6 -18310846.923 6  20905117.938    20905118.999    20905118.005
        41.400          37.300
 -22204372.131 6 -17302099.072 6  21497402.407    21497403.656    21497402.435
        40.600          36.300
  -3943770.916 3  -3073068.804 1  25198014.276    25198014.037    25198014.449
        18.600           6.500
  -6544004.642 3  -5099216.772 3  23941018.985    23941020.323    23941019.577
        22.600          23.800
 -18657145.723 6 -14538029.160 5  22078748.677    22078748.236    22078748.946
        37.300          33.600
  -5005502.547 3  -3900387.395 3  24675764.917    24675763.772    24675764.803
        18.600          19.300
  -2527987.168 2  -1969859.487 2  25041967.266    25041972.707    25041969.098
        16.100          16.100
 13 10  8  0 56  0.0000000  0 11G 5G28G26G21G 9G 8G18G 7G15G19G24
 -17182977.395 6 -13389320.019 5  22438638.095    22438639.265    22438638.893
        37.800          34.400
 -20361402.703 6 -15866023.099 6  21379981.832    21379981.528    21379981.771
        40.700          38.900
 -29808594.246 7 -23227464.414 7  19660721.945    19660722.737    19660722.462
        46.200          45.700
  -5366416.828 2  -4181623.641 2  24908614.691    24908614.758    24908613.802
        15.100          16.100
 -23424816.825 6 -18253094.539 6  20919221.769    20919222.532    20919221.818
        41.300          37.100
 -22141380.851 6 -17253014.973 6  21509389.263    21509390.513    21509389.353
        40.600          36.300
  -4037523.481 2  -3146122.782 1  25180174.245    25180173.317    25180174.246
        16.100          11.000
  -6445097.004 3  -5022145.909 3  23959840.453    23959842.159    23959841.256
        23.000          23.400
 -18736402.078 6 -14599787.352 5  22063666.244    22063666.358    22063666.840
        37.300          33.800
  -4991921.086 3  -3889804.423 2  24678348.580    24678348.081    24678348.733
        19.300          17.800
  -2632824.748 2  -2051551.060 2  25022018.220    25022022.768    25022019.002
        13.900          17.000
 13 10  8  0 56 30.0000000  0 11G 5G28G26G21G 9G 8G18G 7G15G19G24
 -17092249.878 6 -13318623.281 5  22455902.812    22455904.134    22455903.702
        37.300          34.400
 -20376925.444 6 -15878118.729 6  21377027.610    21377027.604    21377027.629
        40.300          38.900
 -29809696.276 7 -23228323.145 7  19660512.462    19660513.033    19660512.758
        46.200          45.800
  -5348392.189 1  -4167578.548 2  24912044.766    24912045.473    24912043.723
        11.000          17.000
 -23350334.726 6 -18195056.547 6  20933395.284    20933395.965    20933395.312
        41.300          36.800
 -22078078.767 6 -17203688.678 5  21521435.025    21521436.362    21521435.175
        40.800          35.900
  -4131072.802 2  -3219018.354 1  25162372.901    25162371.566    25162372.726
        13.900          11.000
  -6346097.992 3  -4945003.869 4  23978679.911    23978680.728    23978680.346
        23.400          24.200
 -18815387.575 6 -14661334.486 5  22048635.485    22048635.734    22048636.440
        37.600          34.000
  -4977746.622 3  -3878759.363 3  24681046.809    24681045.963    24681046.214
        19.900          19.900
  -2737589.794 2  -2133186.138 2  25002082.536    25002086.566    25002083.911
        15.100          17.800
 13 10  8  0 57  0.0000000  0 11G 5G28G26G21G 9G 8G18G 7G15G19G24
 -17001182.291 6 -13247661.553 5  22473232.753    22473233.873    22473233.342
        37.200          34.400
 -20391907.434 6 -15889793.000 6  21374176.679    21374176.942    21374176.665
        40.600          39.200
 -29810253.029 7 -23228756.985 7  19660406.328    19660407.169    19660406.733
        46.300          45.900
  -5329901.308 2  -4153170.081 2  24915563.583    24915563.768    24915562.681
        17.000          17.000
 -23275488.075 6 -18136734.493 6  20947637.801    20947638.772    20947638.138
        41.200          36.800
 -22014467.383 6 -17154121.375 6  21533540.342    21533541.273    21533540.153
        40.700          36.100
  -4224417.161 2  -3291754.214 1  25144609.530    25144609.344    25144609.242
        16.100          11.000
  -6247008.897 3  -4867791.605 3  23997535.830    23997536.359    23997536.152
        23.000          23.800
 -18894100.512 6 -14722669.238 5  22033656.574    22033657.200    22033657.838
        37.600          33.900
  -4962979.603 3  -3867252.577 3  24683858.390    24683856.231    24683857.090
        21.100          20.500
  -2842281.516 2  -2214764.078 2  24982160.153    24982164.655    24982161.357
        12.600          17.800
 13 10  8  0 57 30.0000000  0 11G 5G28G26G21G 9G 8G18G 7G15G19G24
 -16909777.314 6 -13176436.923 5  22490626.711    22490627.677    22490627.270
        37.300          34.100
 -20406348.656 6 -15901045.895 6  21371428.418    21371428.736    21371428.627
        40.900          39.200
 -29810264.105 7 -23228765.620 7  19660404.363    19660405.002    19660404.629
        46.300          45.800
  -5310945.093 2  -4138399.008 2  24919170.399    24919169.909    24919170.662
        13.900          15.100
 -23200278.735 6 -18078129.821 6  20961949.196    20961950.620    20961949.767
        41.000          36.500
 -21950548.133 6 -17104314.179 6  21545703.496    21545704.688    21545703.569
        40.500          36.300
  -4317553.943 3  -3364328.341 1  25126885.544    25126885.188    25126885.851
        18.600           9.000
  -6147831.142 4  -4790510.276 3  24016408.599    24016409.844    24016409.090
        24.200          23.800
 -18972538.860 6 -14783790.034 5  22018730.509    22018730.982    22018731.547
        37.800          34.500
  -4947620.178 3  -3855284.208 3  24686780.709    24686778.317    24686779.859
        21.100          19.900
  -2946898.632 2  -2296283.878 2  24962251.648    24962257.006    24962252.940
        13.900          17.000
 13 10  8  0 58  0.0000000  0 11G 5G28G26G21G 9G 8G18G 7G15G19G24
 -16818037.492 6 -13104951.369 5  22508084.011    22508084.829    22508084.640
        37.200          33.500
 -20420248.716 6 -15911877.093 6  21368783.527    21368783.324    21368783.515
        40.600          38.900
 -29809729.170 7 -23228348.794 7  19660506.175    19660506.845    19660506.432
        46.300          45.900
  -5291524.850 2  -4123266.350 2  24922866.662    24922865.164    24922865.795
        13.900          16.100
 -23124708.480 6 -18019243.918 6  20976330.302    20976331.125    20976330.664
        41.100          36.300
 -21886322.290 6 -17054268.073 6  21557925.489    21557926.420    21557925.522
        40.600          36.200
  -4410480.659 2  -3436738.831 1  25109202.283    25109201.964    25109202.955
        13.900          11.000
  -6048566.012 3  -4713160.866 3  24035297.634    24035299.199    24035298.751
        22.100          23.800
 -19050701.168 6 -14844695.720 5  22003857.145    22003857.420    22003857.629
        38.100          34.000
  -4931668.698 3  -3842854.454 3  24689814.886    24689814.399    24689815.086
        19.900          20.500
  -3051440.351 1  -2377744.932 2  24942358.076    24942363.097    24942358.744
         6.500          17.000
 13 10  8  0 58 30.0000000  0 11G 5G28G26G21G 9G 8G18G 7G15G19G24
 -16725965.632 6 -13033207.083 5  22525605.035    22525605.796    22525605.618
        37.500          33.500
 -20433607.697 6 -15922286.681 6  21366241.536    21366241.195    21366241.425
        40.500          39.100
 -29808647.857 7 -23227506.215 7  19660711.993    19660712.594    19660712.267
        46.300          45.900
  -5271641.645 3  -4107772.933 2  24926649.874    24926649.629    24926649.294
        18.600          12.600
 -23048779.798 6 -17960078.719 6  20990779.237    20990780.106    20990779.413
        40.700          36.500
 -21821791.454 6 -17003984.313 5  21570205.183    21570206.292    21570205.109
        40.200          35.700
  -4503195.056 2  -3508983.825 2  25091559.035    25091559.139    25091559.333
        13.900          13.900
  -5949215.019 3  -4635744.534 3  24054203.133    24054204.095    24054203.864
        22.100          23.400
 -19128585.562 6 -14905384.850 5  21989036.453    21989036.375    21989036.701
        37.800          34.300
  -4915125.560 3  -3829963.696 3  24692962.955    24692962.851    24692961.956
        18.600          21.100
  -3155905.817 1  -2459146.568 3  24922479.062    24922483.455    24922479.646
        11.000          19.300
 13 10  8  0 59  0.0000000  0 11G 5G28G26G21G 9G 8G18G 7G15G19G24
 -16633564.321 6 -12961206.089 5  22543188.240    22543189.455    22543188.761
        36.800          33.500
 -20446425.237 6 -15932274.364 6  21363802.600    21363802.345    21363802.444
        41.000          39.300
 -29807019.854 7 -23226237.642 7  19661021.855    19661022.392    19661022.167
        46.400          46.000
  -5251296.434 2  -4091919.569 2  24930521.356    24930522.218    24930521.240
        15.100          17.000
 -22972494.335 6 -17900635.511 6  21005295.896    21005296.673    21005296.065
        40.900          36.400
 -21756957.377 6 -16953464.261 5  21582542.565    21582543.714    21582542.648
        40.200          35.800
  -4595694.840 1  -3581061.565 1  25073956.014    25073957.326    25073957.309
        11.000           6.500
  -5849779.271 3  -4558262.179 3  24073125.769    24073126.584    24073126.522
        21.600          22.100
 -19206190.334 6 -14965856.095 5  21974268.859    21974268.713    21974269.049
        38.100          34.400
  -4897991.457 3  -3816612.440 3  24696223.564    24696222.575    24696223.811
        19.300          19.300
  -3260293.278 2  -2540487.413 3  24902615.041    24902618.860    24902615.647
        12.600          18.600
 13 10  8  0 59 30.0000000  0 11G 5G28G26G21G 9G 8G18G 7G15G19G24
 -16540835.750 6 -12888950.080 5  22560833.996    22560834.708    22560834.633
        36.500          33.400
 -20458701.078 6 -15941839.940 6  21361466.551    21361466.247    21361466.364
        40.600          39.300
 -29804844.893 7 -23224542.869 7  19661435.744    19661436.456    19661436.014
        46.300          46.100
  -5230490.264 2  -4075706.992 2  24934480.761    24934481.340    24934480.253
        15.100          12.600
 -22895853.929 6 -17840915.722 6  21019879.551    21019880.908    21019880.069
        40.500          36.200
 -21691821.473 6 -16902709.024 5  21594937.699    21594938.563    21594937.662
        40.300          35.700
  -4687977.566 2  -3652970.205 2  25056396.334    25056396.512    25056397.109
        17.800          12.600
  -5750260.202 3  -4480714.878 3  24092063.595    24092064.660    24092064.590
        23.800          23.400
 -19283513.769 6 -15026108.111 5  21959554.409    21959554.494    21959554.913
        38.100          34.500
  -4880266.615 3  -3802800.867 3  24699597.271    24699595.179    24699596.843
        19.300          20.500
  -3364602.125 2  -2621767.004 3  24882766.421    24882770.448    24882767.102
        15.100          20.500
 13 10  8  1  0  0.0000000  0 11G 5G28G26G21G 9G 8G18G 7G15G19G24
 -16447782.516 6 -12816441.096 5  22578541.191    22578542.418    22578542.021
        36.700          33.500
 -20470435.442 6 -15950983.590 6  21359233.331    21359233.077    21359233.421
        40.800          39.100
 -29802122.674 7 -23222421.667 7  19661953.649    19661954.416    19661953.977
        46.300          46.200
  -5209224.371 2  -4059136.184 1  24938527.880    24938527.003    24938527.637
        17.800           9.000
 -22818860.722 6 -17780921.026 6  21034530.892    21034532.472    21034531.296
        40.300          36.300
 -21626385.041 6 -16851719.602 5  21607389.852    21607390.801    21607389.899
        40.100          35.500
  -4780041.209 2  -3724708.116 2  25038877.824    25038877.161    25038878.360
        17.800          12.600
  -5650659.029 3  -4403103.594 4  24111017.867    24111018.285    24111018.288
        23.400          24.200
 -19360554.080 6 -15086139.516 5  21944894.370    21944894.231    21944894.699
        38.400          34.500
  -4861951.366 3  -3788529.235 2  24703082.590    24703080.885    24703082.130
        21.600          17.000
  -3468830.902 2  -2702984.196 2  24862930.879    24862935.537    24862931.968
        16.100          17.000
 13 10  8  1  0 30.0000000  0 11G 5G28G26G21G 9G 8G18G 7G15G19G24
 -16354407.391 6 -12743681.276 5  22596309.842    22596311.127    22596310.824
        37.100          33.200
 -20481628.090 6 -15959705.128 6  21357103.182    21357103.348    21357103.375
        41.000          39.300
 -29798852.906 7 -23219873.794 7  19662575.936    19662576.556    19662576.224
        46.200          46.000
  -5187499.678 2  -4042207.868 2  24942662.997    24942660.335    24942662.630
        16.100          15.100
 -22741516.743 6 -17720653.001 5  21049249.527    21049250.362    21049249.554
        40.700          35.900
 -21560649.673 6 -16800497.246 5  21619898.539    21619899.933    21619898.800
        40.000          35.600
  -4871883.286 2  -3796273.417 2  25021401.577    25021400.791    25021401.188
        17.800          13.900
  -5550977.026 3  -4325429.355 3  24129986.142    24129987.193    24129986.947
        21.600          22.600
 -19437309.294 6 -15145948.773 5  21930287.940    21930288.191    21930288.560
        38.300          34.500
  -4843046.331 3  -3773798.031 3  24706679.342    24706678.532    24706679.416
        21.100          18.600
  -3572978.808 2  -2784138.404 2  24843112.334    24843116.925    24843112.664
        12.600          15.100
 13 10  8  1  1  0.0000000  0 11G 5G28G26G21G 9G 8G18G 7G15G19G24
 -16260713.277 6 -12670672.899 5  22614139.014    22614140.501    22614139.940
        36.700          33.200
 -20492279.114 6 -15968004.612 6  21355076.366    21355076.565    21355076.457
        40.900          39.500
 -29795035.276 7 -23216899.019 7  19663302.466    19663303.000    19663302.693
        46.200          46.000
  -5165318.147 2  -4024923.565 2  24946882.847    24946882.296    24946882.327
        12.600          15.100
 -22663823.971 6 -17660113.178 6  21064033.444    21064034.794    21064033.779
        40.300          36.000
 -21494617.181 6 -16749043.359 5  21632464.322    21632465.476    21632464.350
        39.800          35.100
  -4963501.462 2  -3867664.191 1  25003964.671    25003966.545    25003965.941
        15.100          11.000
  -5451215.668 3  -4247693.277 3  24148970.487    24148971.028    24148970.622
        23.000          21.600
 -19513777.900 6 -15205534.690 5  21915736.457    21915736.581    21915737.003
        38.600          34.700
  -4823552.346 3  -3758607.918 3  24710389.391    24710388.085    24710388.719
        21.600          20.500
  -3677045.194 2  -2865229.036 3  24823308.826    24823313.652    24823310.028
        15.100          19.300
 13 10  8  1  1 30.0000000  0 11G 5G28G26G21G 9G 8G18G 7G15G19G24
 -16166702.334 6 -12597417.642 5  22632029.239    22632030.488    22632029.909
        36.500          33.200
 -20502388.281 6 -15975881.874 6  21353153.031    21353152.884    21353152.867
        41.000          39.400
 -29790669.629 7 -23213497.219 7  19664133.031    19664133.774    19664133.403
        46.400          46.100
  -5142680.604 2  -4007283.950 1  24951191.093    24951190.893    24951190.417
        12.600          11.000
 -22585784.353 6 -17599303.101 5  21078884.090    21078885.386    21078884.193
        40.300          35.900
 -21428288.448 6 -16697358.641 5  21645086.082    21645087.451    21645086.207
        39.700          35.400
  -5054893.577 2  -3938878.830 2  24986574.288    24986574.117    24986575.577
        17.000          13.900
  -5351376.038 3  -4169896.191 3  24167969.078    24167970.597    24167969.147
        20.500          23.000
 -19589957.978 6 -15264895.783 5  21901240.224    21901240.058    21901240.465
        38.800          34.800
  -4803469.690 3  -3742959.101 2  24714210.283    24714208.705    24714209.687
        20.500          17.800
  -3781028.736 2  -2946255.166 2  24803522.094    24803525.961    24803522.353
        16.100          17.800
 13 10  8  1  2  0.0000000  0 11G 5G28G26G21G 9G 8G18G 7G15G19G24
 -16072377.316 6 -12523917.642 5  22649978.793    22649979.456    22649979.575
        36.700          33.000
 -20511955.393 6 -15983336.757 6  21351332.396    21351332.274    21351332.230
        40.700          39.200
 -29785755.640 7 -23209668.147 7  19665068.070    19665068.942    19665068.563
        46.300          46.100
  -5119587.841 2  -3989289.575 2  24955586.099    24955584.910    24955585.146
        17.000          13.900
 -22507399.873 6 -17538224.290 5  21093800.139    21093801.176    21093800.245
        40.200          35.600
 -21361664.971 6 -16645444.251 5  21657764.497    21657765.615    21657764.311
        39.700          35.600
  -5146057.340 2  -4009915.556 2  24969226.790    24969226.516    24969227.234
        16.100          12.600
  -5251459.694 3  -4092039.334 3  24186984.019    24186983.357    24186983.772
        22.600          21.100
 -19665847.736 6 -15324030.652 5  21886798.754    21886798.636    21886799.080
        38.600          34.900
  -4782799.062 3  -3726852.093 2  24718142.198    24718141.569    24718142.810
        20.500          17.800
  -3884928.079 2  -3027215.642 3  24783750.684    24783755.397    24783751.633
        17.000          19.300
 13 10  8  1  2 30.0000000  0 11G 5G28G26G21G 9G 8G18G 7G15G19G24
 -15977740.963 5 -12450175.054 5  22667987.210    22667988.376    22667987.887
        35.900          33.200
 -20520981.029 6 -15990369.712 6  21349614.786    21349614.597    21349614.706
        40.700          39.300
 -29780293.176 7 -23205411.682 7  19666107.683    19666108.315    19666108.009
        46.300          45.900
  -5096041.090 2  -3970941.448 2  24960065.464    24960065.082    24960065.640
        15.100          13.900
 -22428672.322 6 -17476878.152 5  21108781.878    21108782.540    21108781.809
        40.000          35.800
 -21294748.398 6 -16593301.479 5  21670497.900    21670499.264    21670498.205
        39.700          35.300
  -5236990.200 2  -4080772.357 2  24951923.258    24951923.003    24951923.044
        17.000          15.100
  -5151467.785 3  -4014123.579 3  24206010.445    24206011.119    24206011.007
        22.600          21.600
 -19741445.515 6 -15382938.009 5  21872413.078    21872412.883    21872413.457
        38.700          34.700
  -4761540.934 3  -3710287.335 2  24722189.405    24722187.367    24722188.547
        20.500          17.800
  -3988742.408 1  -3108109.899 3  24763995.408    24763999.962    24763996.000
         9.000          20.500
 13 10  8  1  3  0.0000000  0 11G 5G28G26G21G 9G 8G18G 7G15G19G24
 -15882795.777 6 -12376191.827 5  22686054.833    22686056.114    22686055.601
        36.000          33.400
 -20529464.500 6 -15996980.203 6  21348000.310    21348000.280    21348000.262
        41.000          39.700
 -29774281.978 7 -23200727.636 7  19667251.437    19667252.253    19667251.869
        46.300          46.000
  -5072041.839 2  -3952240.752 2  24964632.872    24964632.178    24964633.476
        16.100          13.900
 -22349603.909 6 -17415266.410 5  21123827.554    21123828.941    21123827.907
        40.100          35.600
 -21227540.424 6 -16540931.631 5  21683287.618    21683288.733    21683287.536
        39.700          35.200
  -5327689.577 2  -4151447.165 2  24934663.411    24934663.556    24934663.035
        15.100          15.100
  -5051401.493 3  -3936149.867 3  24225052.228    24225053.596    24225052.914
        21.600          22.600
 -19816749.628 6 -15441616.540 5  21858082.799    21858083.096    21858083.331
        38.900          34.900
  -4739696.124 3  -3693265.365 3  24726346.769    24726344.792    24726346.030
        19.300          21.100
  -4092470.902 2  -3188937.239 3  24744256.906    24744260.967    24744257.971
        17.800          21.600
 13 10  8  1  3 30.0000000  0 11G 5G28G26G21G 9G 8G18G 7G15G19G24
 -15787544.284 6 -12301969.905 5  22704180.946    22704181.676    22704181.350
        36.400          32.100
 -20537406.198 6 -16003168.521 6  21346489.019    21346489.238    21346488.986
        40.800          39.500
 -29767721.809 7 -23195615.825 7  19668499.824    19668500.721    19668500.278
        46.200          46.200
  -5047591.575 2  -3933188.601 2  24969285.920    24969286.392    24969285.523
        17.800          17.000
 -22270196.552 6 -17353390.555 5  21138938.716    21138939.662    21138938.796
        39.700          35.800
 -21160042.405 6 -16488335.787 5  21696132.178    21696133.158    21696131.991
        39.400          35.200
  -5418153.860 2  -4221938.861 2  24917448.261    24917448.576    24917449.065
        17.000          12.600
  -4951262.237 3  -3858119.302 3  24244107.617    24244108.810    24244108.901
        19.900          19.900
 -19891758.205 6 -15500064.777 5  21843809.192    21843809.455    21843809.748
        38.700          35.100
  -4717265.074 3  -3675786.590 3  24730615.053    24730614.052    24730614.718
        21.600          19.900
  -4196111.958 2  -3269696.491 3  24724535.007    24724538.097    24724534.767
        13.900          19.900
 13 10  8  1  4  0.0000000  0 11G 5G28G26G21G 9G 8G18G 7G15G19G24
 -15691989.200 6 -12227511.415 5  22722364.358    22722365.326    22722364.932
        36.300          32.300
 -20544805.745 6 -16008934.392 6  21345081.016    21345081.116    21345081.004
        40.900          39.700
 -29760612.638 7 -23190076.222 7  19669852.770    19669853.550    19669853.189
        46.400          46.000
  -5022691.418 2  -3913785.918 2  24974024.617    24974023.348    24974024.591
        12.600          12.600
 -22190452.207 6 -17291252.110 5  21154113.460    21154114.337    21154113.535
        39.800          35.300
 -21092255.833 6 -16435515.090 5  21709031.380    21709032.375    21709031.480
        39.500          34.900
  -5508380.085 2  -4292245.010 1  24900279.313    24900278.787    24900278.677
        17.800          11.000
  -4851051.256 3  -3780032.857 3  24263177.029    24263179.147    24263177.641
        19.900          22.100
 -19966469.274 6 -15558281.185 5  21829591.678    21829592.506    21829592.767
        38.900          35.100
  -4694248.692 3  -3657851.733 3  24734994.821    24734993.683    24734993.997
        19.900          21.600
  -4299664.967 2  -3350387.134 3  24704828.876    24704832.838    24704829.672
        13.900          18.600
 13 10  8  1  4 30.0000000  0 11G 5G28G26G21G 9G 8G18G 7G15G19G24
 -15596133.305 5 -12152818.534 5  22740604.882    22740606.178    22740605.525
        35.500          32.600
 -20551664.296 6 -16014278.711 6  21343775.759    21343775.900    21343775.786
        41.100          39.400
 -29752954.175 7 -23184108.598 7  19671309.876    19671310.835    19671310.464
        46.400          46.000
  -4997342.295 2  -3894033.324 1  24978846.862    24978846.974    24978846.687
        12.600           9.000
 -22110372.829 6 -17228852.605 5  21169351.990    21169352.904    21169352.218
        40.000          35.400
 -21024182.032 6 -16382470.573 5  21721985.234    21721986.297    21721985.431
        39.600          34.700
  -5598365.994 2  -4362363.911 2  24883155.936    24883155.548    24883155.314
        16.100          15.100
  -4750770.057 3  -3701891.704 3  24282260.293    24282261.740    24282260.975
        21.100          22.600
 -20040881.213 6 -15616264.514 5  21815431.546    21815432.373    21815432.579
        38.900          35.600
  -4670647.571 3  -3639461.258 3  24739484.692    24739484.249    24739485.074
        19.300          19.300
  -4403128.988 2  -3431008.412 3  24685140.173    24685144.854    24685140.748
        16.100          22.100
 13 10  8  1  5  0.0000000  0 11G 5G28G26G21G 9G 8G18G 7G15G19G24
 -15499979.257 6 -12077893.331 5  22758902.419    22758903.485    22758903.350
        36.000          32.100
 -20557981.273 6 -16019201.020 6  21342573.891    21342573.900    21342573.904
        40.900          39.700
 -29744746.266 7 -23177712.834 7  19672871.919    19672872.791    19672872.340
        46.400          46.100
  -4971546.078 2  -3873932.447 1  24983755.888    24983756.317    24983756.011
        12.600          11.000
 -22029960.384 6 -17166193.557 5  21184653.975    21184655.119    21184654.346
        39.900          35.100
 -20955822.670 6 -16329203.540 5  21734993.944    21734994.739    21734993.804
        39.100          34.800
  -5688109.527 3  -4432293.923 2  24866078.517    24866077.438    24866077.952
        19.300          13.900
  -4650419.768 3  -3623696.681 3  24301357.279    24301357.969    24301357.864
        21.600          23.400
 -20114992.574 6 -15674013.620 5  21801328.890    21801329.458    21801329.629
        39.200          35.500
  -4646462.641 3  -3620615.846 3  24744087.743    24744086.313    24744087.240
        19.300          19.900
  -4506502.753 2  -3511559.377 2  24665468.223    24665473.491    24665468.751
        15.100          15.100
 13 10  8  1  5 30.0000000  0 11G 5G28G26G21G 9G 8G18G 7G15G19G24
 -15403529.254 5 -12002737.508 5  22777256.170    22777257.470    22777256.908
        35.400          32.400
 -20563756.467 6 -16023701.158 6  21341474.913    21341474.837    21341474.882
        41.100          39.500
 -29735988.808 7 -23170888.846 7  19674538.431    19674539.324    19674538.855
        46.200          46.000
  -4945303.812 2  -3853483.913 2  24988751.426    24988750.232    24988750.800
        17.000          12.600
 -21949216.765 6 -17103276.463 5  21200019.213    21200020.143    21200019.407
        39.800          35.300
 -20887179.063 6 -16275715.025 5  21748055.921    21748057.305    21748056.033
        38.800          34.900
  -5777608.408 2  -4502033.340 2  24849047.098    24849046.889    24849047.091
        17.000          13.900
  -4550001.590 3  -3545448.813 3  24320466.039    24320466.896    24320466.123
        19.300          20.500
 -20188801.057 6 -15731526.719 5  21787283.391    21787284.054    21787284.355
        39.100          35.600
  -4621694.444 2  -3601315.954 3  24748801.827    24748799.206    24748800.257
        17.800          18.600
  -4609785.104 2  -3592039.096 3  24645814.725    24645818.915    24645815.903
        17.800          22.600
 13 10  8  1  6  0.0000000  0 11G 5G28G26G21G 9G 8G18G 7G15G19G24
 -15306786.063 5 -11927353.236 5  22795665.845    22795667.129    22795666.487
        35.300          32.400
 -20568990.157 6 -16027779.346 6  21340478.918    21340478.764    21340478.923
        41.000          39.500
 -29726681.704 7 -23163636.556 7  19676309.388    19676310.409    19676309.947
        46.400          46.200
  -4918616.747 2  -3832688.783 2  24993828.879    24993828.400    24993829.613
        12.600          12.600
 -21868143.990 6 -17040102.879 5  21215446.524    21215447.511    21215446.844
        39.500          34.800
 -20818252.799 6 -16222006.257 5  21761172.003    21761173.485    21761172.227
        38.900          34.400
  -5866860.190 2  -4571580.202 1  24832062.437    24832062.398    24832063.007
        13.900           9.000
  -4449516.534 2  -3467148.809 3  24339588.175    24339588.581    24339587.987
        17.800          23.000
 -20262305.022 6 -15788802.529 5  21773296.128    21773296.632    21773297.045
        39.100          35.700
  -4596343.726 3  -3581562.131 2  24753625.564    24753623.026    24753624.716
        20.500          17.800
  -4712974.938 2  -3672446.739 3  24626178.208    24626182.520    24626178.916
        12.600          19.300
 13 10  8  1  6 30.0000000  0 11G 5G28G26G21G 9G 8G18G 7G15G19G24
 -15209752.957 6 -11851743.055 5  22814131.000    22814131.920    22814131.602
        36.000          32.100
 -20573682.864 6 -16031435.992 6  21339586.012    21339585.810    21339585.888
        41.000          39.700
 -29716824.845 7 -23155955.893 7  19678185.084    19678186.086    19678185.607
        46.400          46.100
  -4891486.384 2  -3811548.270 2  24998990.556    24998991.614    24998990.943
        12.600          17.000
 -21786744.020 6 -16976674.341 5  21230936.607    21230937.533    21230936.855
        39.100          34.700
 -20749045.254 6 -16168078.312 5  21774341.939    21774343.198    21774342.116
        38.900          34.600
  -5955862.604 3  -4640932.728 2  24815125.721    24815125.655    24815126.553
        18.600          15.100
  -4348966.061 2  -3388797.808 3  24358721.370    24358722.078    24358722.013
        17.800          20.500
 -20335502.969 6 -15845839.886 5  21759366.496    21759367.637    21759368.178
        39.300          35.800
  -4570411.331 3  -3561355.021 2  24758561.246    24758557.789    24758560.161
        20.500          17.800
  -4816071.527 2  -3752781.707 3  24606560.229    24606564.859    24606560.801
        17.000          21.600
 13 10  8  1  7  0.0000000  0 11G 5G28G26G21G 9G 8G18G 7G15G19G24
 -15112431.874 5 -11775908.461 5  22832650.473    22832651.484    22832651.067
        35.500          32.000
 -20577834.501 6 -16034671.025 6  21338795.885    21338795.766    21338795.837
        40.900          39.500
 -29706418.149 7 -23147846.784 7  19680165.493    19680166.389    19680166.030
        46.400          46.100
  -4863914.455 2  -3790063.673 1  25004238.925    25004237.742    25004238.853
        16.100           9.000
 -21705018.747 6 -16912992.317 5  21246488.280    21246489.478    21246488.866
        39.800          35.100
 -20679558.092 6 -16113932.473 5  21787564.924    21787566.042    21787565.188
        38.900          34.300
  -6044613.332 3  -4710089.140 2  24798237.588    24798237.442    24798237.309
        19.300          12.600
  -4248351.520 3  -3310396.889 3  24377868.117    24377868.651    24377868.597
        18.600          20.500
 -20408392.951 6 -15902637.273 6  21745496.235    21745497.025    21745497.439
        39.600          36.000
  -4543898.187 3  -3540695.416 3  24763606.265    24763603.568    24763605.797
        19.300          19.900
  -4919073.813 2  -3833043.175 3  24586959.054    24586963.455    24586960.095
        15.100          21.600
 13 10  8  1  7 30.0000000  0 11G 5G28G26G21G 9G 8G18G 7G15G19G24
 -15014826.025 5 -11699851.982 5  22851224.465    22851225.253    22851224.952
        35.400          32.300
 -20581445.071 6 -16037484.445 6  21338108.421    21338108.586    21338108.641
        41.000          39.700
 -29695461.447 7 -23139309.102 7  19682250.498    19682251.377    19682250.981
        46.400          46.100
  -4835901.776 2  -3768235.612 2  25009568.691    25009568.852    25009569.119
        15.100          13.900
 -21622970.258 6 -16849058.435 5  21262101.799    21262102.655    21262101.952
        39.300          34.400
 -20609792.853 6 -16059569.961 5  21800841.174    21800841.856    21800840.907
        38.600          33.800
  -6133109.735 2  -4779047.371 2  24781397.995    24781397.157    24781397.483
        16.100          17.000
  -4147674.176 2  -3231947.065 3  24397025.661    24397027.181    24397026.612
        17.000          21.100
 -20480973.275 6 -15959193.362 6  21731685.028    21731685.340    21731685.935
        39.700          36.200
  -4516805.218 3  -3519584.013 3  24768760.703    24768760.008    24768760.664
        20.500          19.300
  -5021980.310 2  -3913230.020 3  24567376.207    24567381.508    24567376.406
        17.000          19.900
 13 10  8  1  8  0.0000000  0 11G 5G28G26G21G 9G 8G18G 7G15G19G24
 -14916937.678 5 -11623575.380 5  22869851.543    22869852.922    22869852.301
        34.800          32.100
 -20584515.009 6 -16039876.597 6  21337524.304    21337524.527    21337524.425
        41.100          39.800
 -29683954.805 7 -23130342.886 7  19684440.184    19684441.053    19684440.621
        46.300          46.100
  -4807449.938 2  -3746065.342 2  25014983.168    25014982.826    25014982.536
        12.600          16.100
 -21540600.506 6 -16784874.225 5  21277776.276    21277777.179    21277776.403
        39.500          34.500
 -20539750.786 6 -16004991.729 5  21814169.384    21814170.625    21814169.497
        38.600          34.000
  -6221349.161 2  -4847805.352 2  24764604.444    24764605.601    24764605.512
        17.000          15.100
  -4046934.931 2  -3153448.989 3  24416196.125    24416197.848    24416196.530
        17.000          23.000
 -20553241.909 6 -16015506.581 6  21717933.283    21717933.058    21717933.487
        39.600          36.100
  -4489133.115 3  -3498021.357 3  24774026.914    24774025.544    24774026.120
        20.500          19.300
  -5124790.672 3  -3993341.946 3  24547813.025    24547817.419    24547814.302
        18.600          21.100
 13 10  8  1  8 30.0000000  0 11G 5G28G26G21G 9G 8G18G 7G15G19G24
 -14818769.773 5 -11547080.933 5  22888532.731    22888533.585    22888533.343
        34.800          31.500
 -20587044.696 6 -16041847.771 6  21337043.226    21337043.315    21337043.182
        41.100          39.700
 -29671898.120 7 -23120948.073 7  19686734.680    19686735.314    19686734.941
        46.300          46.100
  -4778560.366 1  -3723554.037 1  25020479.742    25020480.129    25020480.684
        11.000          11.000
 -21457911.516 6 -16720441.257 5  21293511.057    21293512.324    21293511.370
        39.000          34.700
 -20469433.367 6 -15950198.946 5  21827551.033    21827551.616    21827550.675
        38.400          33.900
  -6309330.276 2  -4916362.097 2  24747863.317    24747863.244    24747863.458
        17.800          12.600
  -3946135.202 2  -3074903.780 3  24435377.841    24435378.929    24435378.352
        16.100          21.100
 -20625197.124 6 -16071575.586 6  21704240.153    21704240.446    21704240.947
        39.900          36.200
  -4460882.841 3  -3476008.162 3  24779403.266    24779401.480    24779402.350
        18.600          19.900
  -5227503.300 2  -4073377.710 3  24528267.622    24528271.621    24528267.907
        16.100          23.000
 13 10  8  1  9  0.0000000  0 11G 5G28G26G21G 9G 8G18G 7G15G19G24
 -14720325.187 5 -11470370.891 5  22907265.654    22907267.200    22907266.514
        34.100          31.100
 -20589034.328 6 -16043398.121 6  21336664.486    21336664.494    21336664.542
        40.700          39.700
 -29659291.336 7 -23111124.613 7  19689133.396    19689134.324    19689133.935
        46.200          46.100
  -4749234.840 2  -3700702.961 2  25026061.793    25026060.799    25026061.639
        12.600          15.100
 -21374905.257 6 -16655761.060 5  21309307.102    21309307.833    21309307.348
        39.100          34.000
 -20398842.100 6 -15895192.767 5  21840983.869    21840984.664    21840983.695
        38.400          34.000
  -6397050.522 2  -4984715.532 2  24731170.046    24731170.385    24731170.395
        16.100          16.100
  -3845276.255 3  -2996312.409 3  24454569.784    24454572.056    24454571.197
        19.900          21.100
 -20696837.319 6 -16127399.103 6  21690606.961    21690607.942    21690608.437
        39.700          36.500
  -4432055.340 3  -3453545.177 3  24784889.866    24784886.601    24784889.168
        23.000          19.900
  -5330117.303 3  -4153336.619 3  24508740.519    24508743.875    24508741.674
        18.600          22.600
 13 10  8  1  9 30.0000000  0 11G 5G28G26G21G 9G 8G18G 7G15G19G24
 -14621605.639 5 -11393446.593 5  22926051.130    22926053.126    22926052.143
        34.400          32.000
 -20590483.832 6 -16044527.595 6  21336388.514    21336388.539    21336388.596
        40.900          39.400
 -29646134.528 7 -23100872.566 7  19691637.165    19691638.082    19691637.592
        46.400          46.100
  -4719474.587 2  -3677513.168 2  25031723.400    25031723.992    25031722.178
        15.100          13.900
 -21291583.459 6 -16590834.992 5  21325162.553    21325163.518    21325162.828
        38.900          34.500
 -20327978.508 6 -15839974.390 5  21854468.810    21854469.477    21854468.455
        38.300          33.400
  -6484507.203 3  -5052863.574 2  24714528.533    24714528.038    24714529.195
        19.900          16.100
  -3744359.179 3  -2917675.731 3  24473774.494    24473775.787    24473774.496
        19.900          21.100
 -20768160.680 6 -16182975.742 6  21677034.821    21677035.596    21677035.935
        40.000          36.500
  -4402651.635 3  -3430633.171 2  24790484.267    24790482.058    24790483.685
        19.300          17.000
  -5432631.693 2  -4233217.925 3  24489232.091    24489236.450    24489233.423
        13.900          22.100
 13 10  8  1 10  0.0000000  0 11G 5G28G26G21G 9G 8G18G 7G15G19G24
 -14522614.699 5 -11316310.829 5  22944888.879    22944890.011    22944889.598
        34.600          32.100
 -20591393.816 6 -16045236.669 6  21336215.747    21336215.494    21336215.620
        41.200          39.700
 -29632427.583 7 -23090191.836 7  19694245.543    19694246.410    19694245.944
        46.400          46.100
  -4689280.860 2  -3653985.597 1  25037468.193    25037468.854    25037469.630
        15.100          11.000
 -21207948.260 6 -16525664.716 5  21341077.855    21341078.736    21341078.116
        38.800          33.900
 -20256844.045 6 -15784544.938 5  21868004.886    21868005.904    21868004.967
        38.100          33.500
  -6571698.004 2  -5120804.462 2  24697937.209    24697935.533    24697936.162
        16.100          12.600
  -3643385.201 3  -2838994.727 3  24492988.857    24492990.276    24492989.918
        18.600          21.100
 -20839165.123 6 -16238303.867 6  21663523.541    21663523.936    21663524.161
        40.000          36.600
  -4372672.525 3  -3407272.835 3  24796188.685    24796185.809    24796188.106
        22.100          19.300
  -5535045.179 2  -4313020.591 3  24469742.936    24469747.887    24469744.305
        16.100          23.400
 13 10  8  1 10 30.0000000  0 11G 5G28G26G21G 9G 8G18G 7G15G19G24
 -14423354.800 5 -11238965.473 5  22963777.339    22963778.596    22963778.190
        34.400          31.800
 -20591764.550 6 -16045525.540 6  21336144.553    21336145.039    21336144.800
        40.900          39.700
 -29618170.556 7 -23079082.470 7  19696958.543    19696959.384    19696958.934
        46.300          46.000
  -4658655.430 2  -3630121.636 2  25043296.593    25043297.205    25043296.896
        12.600          15.100
 -21124001.401 6 -16460251.590 5  21357052.473    21357053.459    21357052.603
        38.300          34.100
 -20185439.988 6 -15728905.420 5  21881592.881    21881593.760    21881592.645
        37.900          33.500
  -6658620.824 2  -5188536.534 2  24681396.060    24681395.371    24681395.676
        17.800          12.600
  -3542355.595 3  -2760270.403 3  24512214.390    24512215.261    24512215.046
        19.900          19.300
 -20909849.427 6 -16293382.544 6  21650072.563    21650073.047    21650073.295
        39.800          36.800
  -4342119.156 3  -3383464.990 3  24802001.774    24802001.642    24802001.463
        19.300          21.100
  -5637357.122 2  -4392744.136 3  24450274.019    24450278.622    24450274.643
        17.000          21.600
 13 10  8  1 11  0.0000000  0 11G 5G28G26G21G 9G 8G18G 7G15G19G24
 -14323828.611 5 -11161412.631 5  22982716.747    22982717.826    22982717.552
        34.300          31.300
 -20591596.320 6 -16045394.436 6  21336176.810    21336176.894    21336176.905
        40.900          39.600
 -29603363.531 7 -23067544.534 7  19699776.397    19699777.120    19699776.637
        46.300          46.100
  -4627599.872 2  -3605922.513 2  25049206.987    25049207.405    25049207.238
        15.100          12.600
 -21039744.995 6 -16394597.261 5  21373086.107    21373086.665    21373086.177
        38.500          33.000
 -20113767.790 6 -15673056.964 5  21895231.380    21895232.339    21895231.477
        38.100          33.200
  -6745273.393 3  -5256057.999 1  24664907.533    24664905.827    24664906.962
        19.900           9.000
  -3441271.768 3  -2681503.797 2  24531449.877    24531450.684    24531451.108
        19.900          17.800
 -20980211.356 6 -16348210.020 6  21636683.122    21636683.530    21636683.796
        40.000          36.700
  -4310992.510 3  -3359210.474 2  24807925.345    24807924.645    24807925.335
        19.300          17.000
  -5739566.329 3  -4472387.619 3  24430824.462    24430828.694    24430825.996
        18.600          21.100
 13 10  8  1 11 30.0000000  0 11G 5G28G26G21G 9G 8G18G 7G15G19G24
 -14224038.868 5 -11083654.414 5  23001706.204    23001707.107    23001706.916
        34.700          30.800
 -20590889.300 6 -16044843.504 6  21336311.455    21336311.315    21336311.561
        41.100          39.300
 -29588006.540 7 -23055578.055 7  19702698.749    19702699.464    19702699.030
        46.400          46.000
  -4596115.470 2  -3581389.246 2  25055199.312    25055198.683    25055198.941
        13.900          15.100
 -20955181.024 6 -16328703.265 5  21389177.782    21389178.707    21389178.116
        38.400          33.400
 -20041829.115 6 -15617000.858 5  21908921.012    21908921.673    21908920.953
        37.800          33.200
  -6831653.275 3  -5323367.008 1  24648469.367    24648468.068    24648468.996
        18.600           9.000
  -3340134.696 3  -2602695.753 2  24550696.468    24550696.081    24550696.786
        19.300          17.800
 -21050249.354 6 -16402785.077 6  21623355.724    21623355.698    21623356.199
        40.200          36.700
  -4279293.624 3  -3334510.038 3  24813957.551    24813956.905    24813957.358
        19.300          19.900
  -5841671.596 2  -4551950.145 3  24411394.262    24411398.189    24411394.977
        17.800          20.500
 13 10  8  1 12  0.0000000  0 11G 5G28G26G21G 9G 8G18G 7G15G19G24
 -14123988.560 5 -11005693.159 5  23020744.950    23020746.205    23020745.796
        34.400          30.600
 -20589644.047 6 -16043873.175 6  21336548.437    21336548.334    21336548.315
        41.200          39.600
 -29572099.605 7 -23043183.048 7  19705725.746    19705726.451    19705726.036
        46.300          46.000
  -4564203.918 2  -3556523.144 2  25061270.959    25061271.719    25061271.172
        13.900          15.100
 -20870311.381 6 -16262571.084 5  21405328.527    21405328.913    21405328.466
        38.100          33.500
 -19969625.191 6 -15560738.063 5  21922660.962    21922661.871    21922660.855
        37.700          33.200
  -6917758.085 2  -5390461.653 2  24632083.866    24632083.634    24632083.404
        17.000          13.900
  -3238945.498 2  -2523847.043 3  24569952.442    24569952.549    24569953.146
        17.800          19.900
 -21119961.432 6 -16457106.164 6  21610089.853    21610089.952    21610090.555
        40.600          36.800
  -4247023.526 3  -3309364.531 3  24820099.433    24820097.353    24820098.397
        19.900          19.900
  -5943672.129 2  -4631431.029 3  24391984.589    24391988.561    24391984.956
        16.100          21.600
 13 10  8  1 12 30.0000000  0 11G 5G28G26G21G 9G 8G18G 7G15G19G24
 -14023679.668 5 -10927530.407 5  23039833.613    23039834.351    23039833.964
        34.400          31.000
 -20587860.668 6 -16042483.512 6  21336887.689    21336887.800    21336887.666
        40.900          39.700
 -29555642.741 7 -23030359.527 7  19708857.222    19708858.049    19708857.556
        46.400          46.000
  -4531866.534 2  -3531325.176 2  25067425.699    25067424.564    25067424.109
        16.100          16.100
 -20785137.916 6 -16196202.164 5  21421535.746    21421536.860    21421536.092
        38.000          33.100
 -19897157.596 6 -15504269.822 5  21936450.735    21936452.072    21936450.978
        37.400          33.200
  -7003585.484 3  -5457340.140 2  24615751.285    24615750.728    24615751.273
        18.600          17.000
  -3137705.365 2  -2444958.653 3  24589216.769    24589219.019    24589217.739
        17.800          21.100
 -21189345.865 6 -16511171.945 6  21596886.896    21596886.560    21596887.053
        40.300          37.000
  -4214183.269 3  -3283774.709 3  24826347.530    24826346.671    24826347.480
        21.600          19.900
  -6045566.779 2  -4710829.444 3  24372594.324    24372598.956    24372595.397
        17.800          23.000
 13 10  8  1 13  0.0000000  0 11G 5G28G26G21G 9G 8G18G 7G15G19G24
 -13923115.249 5 -10849168.549 5  23058970.118    23058971.292    23058970.665
        34.100          30.600
 -20585539.950 6 -16040675.153 6  21337329.525    21337329.353    21337329.482
        41.100          39.700
 -29538636.092 7 -23017107.604 7  19712093.443    19712094.352    19712093.878
        46.200          46.000
  -4499105.149 2  -3505796.871 1  25073659.580    25073658.496    25073659.425
        16.100          11.000
 -20699662.635 6 -16129598.058 5  21437801.209    21437802.350    21437801.483
        38.000          33.100
 -19824428.002 6 -15447597.420 5  21950290.859    21950291.999    21950291.011
        37.800          32.700
  -7089133.137 3  -5524000.637 2  24599472.533    24599472.275    24599472.165
        19.900          17.000
  -3036415.342 2  -2366031.411 3  24608490.886    24608493.748    24608492.002
        17.000          19.300
 -21258400.919 6 -16564981.077 6  21583745.846    21583745.890    21583746.239
        40.300          37.000
  -4180774.097 3  -3257741.591 2  24832706.060    24832703.432    24832704.905
        20.500          17.800
  -6147354.578 2  -4790144.578 3  24353224.207    24353228.812    24353226.060
        17.800          22.100
 13 10  8  1 13 30.0000000  0 11G 5G28G26G21G 9G 8G18G 7G15G19G24
 -13822298.141 5 -10770609.786 5  23078155.111    23078155.804    23078155.628
        33.500          30.400
 -20582682.317 6 -16038448.421 6  21337873.323    21337873.117    21337873.263
        41.100          39.800
 -29521079.793 7 -23003427.381 7  19715434.217    19715435.311    19715434.766
        46.400          46.200
  -4465921.495 2  -3479939.437 2  25079973.911    25079973.624    25079973.950
        12.600          12.600
 -20613887.543 6 -16062760.336 5  21454124.112    21454124.749    21454124.255
        38.300          33.200
 -19751437.811 6 -15390721.952 5  21964180.668    21964181.666    21964180.503
        37.900          33.200
  -7174398.681 3  -5590441.321 2  24583246.742    24583245.669    24583246.603
        21.600          13.900
  -2935076.739 2  -2287066.285 3  24627774.821    24627777.423    24627776.715
        16.100          19.300
 -21327124.873 6 -16618532.210 6  21570667.706    21570668.117    21570668.531
        40.300          37.500
  -4146797.189 3  -3231266.067 2  24839171.609    24839169.022    24839170.462
        19.300          17.000
  -6249034.270 2  -4869375.461 3  24333875.534    24333879.856    24333876.361
        15.100          22.600
 13 10  8  1 14  0.0000000  0 11G 5G28G26G21G 9G 8G18G 7G15G19G24
 -13721230.891 5 -10691856.111 5  23097387.228    23097388.396    23097388.030
        33.200          30.400
 -20579287.941 6 -16035803.443 6  21338519.284    21338519.027    21338519.135
        41.200          39.500
 -29502973.930 7 -22989318.923 7  19718879.679    19718880.732    19718880.161
        46.300          46.000
  -4432316.882 2  -3453754.070 2  25086369.030    25086368.820    25086369.589
        15.100          13.900
 -20527814.251 6 -15995690.246 5  21470503.308    21470504.022    21470503.416
        38.300          32.800
 -19678188.236 6 -15333644.367 5  21978119.568    21978120.613    21978119.523
        37.300          32.800
  -7259380.106 3  -5656660.624 2  24567075.442    24567075.588    24567075.405
        19.300          17.000
  -2833690.888 3  -2208064.348 3  24647069.127    24647070.439    24647070.110
        18.600          19.900
 -21395515.886 6 -16671823.898 6  21557652.605    21557653.690    21557654.204
        40.400          37.400
  -4112253.706 2  -3204349.059 2  24845745.296    24845742.724    24845744.362
        17.800          17.800
  -6350604.952 2  -4948521.397 3  24314547.864    24314551.208    24314547.822
        17.000          22.100
 13 10  8  1 14 30.0000000  0 11G 5G28G26G21G 9G 8G18G 7G15G19G24
 -13619916.076 5 -10612909.527 5  23116667.628    23116667.935    23116667.864
        33.600          30.400
 -20575357.265 6 -16032740.569 6  21339267.154    21339267.182    21339267.023
        41.000          39.700
 -29484318.620 7 -22974782.328 7  19722429.750    19722430.699    19722430.134
        46.400          46.000
  -4398293.160 2  -3427242.090 2  25092842.765    25092842.294    25092843.062
        15.100          12.600
 -20441444.954 6 -15928389.507 5  21486938.547    21486939.482    21486938.882
        37.800          33.100
 -19604680.713 6 -15276365.790 5  21992107.448    21992108.610    21992107.462
        37.100          32.600
  -7344074.608 3  -5722656.328 2  24550957.606    24550958.351    24550958.580
        21.600          16.100
  -2732258.752 3  -2129026.324 3  24666371.344    24666371.638    24666371.428
        19.900          19.900
 -21463572.234 6 -16724854.822 6  21544702.708    21544702.871    21544703.352
        40.600          37.700
  -4077144.562 3  -3176991.270 2  24852425.348    24852423.896    24852425.245
        18.600          16.100
  -6452065.694 2  -5027581.678 3  24295240.812    24295244.372    24295241.042
        16.100          23.400
 13 10  8  1 15  0.0000000  0 11G 5G28G26G21G 9G 8G18G 7G15G19G24
 -13518356.615 5 -10533772.301 5  23135992.986    23135994.088    23135993.756
        33.400          30.200
 -20570890.961 6 -16029260.322 6  21340116.971    21340117.026    21340117.023
        41.300          39.700
 -29465114.021 7 -22959817.712 7  19726084.380    19726085.282    19726084.664
        46.200          46.100
  -4363851.937 2  -3400404.819 2  25099396.036    25099398.010    25099395.261
        13.900          13.900
 -20354781.399 6 -15860859.475 5  21503430.265    21503431.398    21503430.520
        37.800          32.700
 -19530916.876 6 -15218887.488 5  22006144.886    22006145.531    22006144.822
        37.800          33.200
  -7428480.352 3  -5788427.011 2  24534896.047    24534896.704    24534896.696
        18.600          17.800
  -2630781.562 2  -2049953.224 3  24685682.267    24685682.327    24685682.778
        17.800          18.600
 -21531291.984 6 -16777623.455 6  21531816.467    21531816.281    21531816.786
        40.700          37.600
  -4041471.183 3  -3149193.833 2  24859214.263    24859212.338    24859213.489
        21.600          17.800
  -6553415.377 2  -5106555.443 3  24275953.645    24275958.090    24275954.423
        17.000          22.100
 13 10  8  1 15 30.0000000  0 11G 5G28G26G21G 9G 8G18G 7G15G19G24
 -13416555.386 5 -10454446.695 5  23155365.748    23155366.663    23155365.943
        33.100          30.400
 -20565889.517 6 -16025363.086 6  21341068.830    21341068.690    21341068.820
        41.200          39.600
 -29445360.313 7 -22944425.226 7  19729843.325    19729844.255    19729843.623
        46.400          46.000
  -4328994.391 2  -3373243.134 2  25106029.630    25106030.482    25106030.592
        15.100          16.100
 -20267825.720 6 -15793101.813 5  21519977.365    21519978.423    21519977.611
        37.700          33.000
 -19456898.222 6 -15161210.617 5  22020229.866    22020230.514    22020229.747
        36.800          32.400
  -7512594.979 3  -5853970.917 2  24518890.244    24518889.229    24518890.371
        21.100          13.900
  -2529260.335 2  -1970845.843 3  24705000.874    24705001.389    24705000.473
        17.800          18.600
 -21598673.468 6 -16830128.502 6  21518993.432    21518994.140    21518994.523
        40.900          37.700
  -4005234.677 3  -3120957.575 2  24866110.311    24866107.532    24866109.345
        19.900          16.100
  -6654652.850 3  -5185441.746 4  24256689.550    24256694.246    24256689.929
        19.300          24.900
 13 10  8  1 16  0.0000000  0 11G 5G28G26G21G 9G 8G18G 7G15G19G24
 -13314515.088 5 -10374934.789 4  23174783.357    23174784.057    23174783.652
        33.200          29.500
 -20560353.306 6 -16021049.146 6  21342122.290    21342122.143    21342122.128
        41.100          39.500
 -29425057.696 7 -22928605.009 7  19733706.818    19733707.575    19733707.146
        46.500          45.900
  -4293722.917 1  -3345758.900 2  25112742.656    25112742.686    25112742.684
        11.000          13.900
 -20180579.794 6 -15725117.985 5  21536579.288    21536580.697    21536579.775
        37.500          32.700
 -19382625.940 6 -15103336.123 5  22034363.105    22034363.929    22034363.100
        36.500          31.600
  -7596415.960 3  -5919285.949 2  24502940.304    24502938.948    24502939.763
        22.100          17.800
  -2427696.366 2  -1891705.098 3  24724325.843    24724328.657    24724328.202
        17.800          19.900
 -21665715.130 6 -16882368.744 6  21506236.387    21506236.480    21506236.814
        40.600          37.900
  -3968436.359 3  -3092283.546 2  24873112.025    24873110.133    24873111.695
        19.300          16.100
  -6755777.068 2  -5264239.800 3  24237445.544    24237449.738    24237446.402
        17.000          22.100
 13 10  8  1 16 30.0000000  0 11G 5G28G26G21G 9G 8G18G 7G15G19G24
 -13212238.018 5 -10295238.387 5  23194245.707    23194246.594    23194246.241
        32.700          30.100
 -20554282.878 6 -16016318.938 6  21343277.371    21343277.365    21343277.322
        41.100          39.800
 -29404206.307 7 -22912357.183 7  19737674.649    19737675.513    19737674.973
        46.400          46.000
  -4258038.833 2  -3317953.153 2  25119533.805    25119532.153    25119534.121
        15.100          15.100
 -20093045.615 6 -15656909.551 5  21553236.762    21553237.857    21553236.926
        37.100          32.800
 -19308101.683 6 -15045265.280 5  22048544.295    22048545.600    22048544.469
        36.900          32.300
  -7679941.071 3  -5984370.455 2  24487045.218    24487043.834    24487045.424
        20.500          15.100
  -2326090.564 2  -1812531.745 3  24743661.788    24743663.564    24743662.639
        16.100          19.900
 -21732414.892 6 -16934342.587 6  21493543.832    21493543.986    21493544.281
        41.100          38.000
  -3931077.449 3  -3063172.716 3  24880221.931    24880220.212    24880220.935
        20.500          18.600
  -6856787.322 2  -5342949.021 3  24218223.687    24218228.426    24218225.269
        17.800          22.100
 13 10  8  1 17  0.0000000  0 11G 5G28G26G21G 9G 8G18G 7G15G19G24
 -13109727.451 5 -10215360.043 4  23213752.233    23213753.882    23213753.174
        32.300          28.800
 -20547678.704 6 -16011172.817 6  21344534.368    21344534.120    21344534.282
        41.400          39.700
 -29382806.483 7 -22895682.004 7  19741746.930    19741747.790    19741747.325
        46.400          46.100
  -4221944.012 1  -3289827.322 2  25126401.380    25126400.676    25126401.734
         9.000          12.600
 -20005225.239 6 -15588478.104 5  21569948.509    21569949.341    21569948.746
        37.400          32.400
 -19233326.710 6 -14986999.079 5  22062773.695    22062775.006    22062773.843
        36.500          32.300
  -7763168.099 3  -6049222.690 2  24471207.250    24471207.506    24471207.495
        18.600          17.000
  -2224444.152 2  -1733326.780 2  24763005.448    24763006.229    24763005.657
        17.000          15.100
 -21798770.931 6 -16986048.593 6  21480916.105    21480916.815    21480917.221
        41.000          37.900
  -3893159.276 3  -3033626.074 3  24887436.468    24887435.733    24887436.143
        19.900          19.300
  -6957682.334 3  -5421568.499 3  24199024.573    24199028.365    24199025.014
        19.900          23.800
 13 10  8  1 17 30.0000000  0 11G 5G28G26G21G 9G 8G18G 7G15G19G24
 -13006985.444 5 -10135301.362 4  23233304.260    23233305.103    23233304.614
        33.100          29.200
 -20540541.667 6 -16005611.481 6  21345892.318    21345892.252    21345892.213
        41.200          39.700
 -29360858.350 7 -22878579.574 7  19745923.414    19745924.420    19745923.876
        46.300          45.900
  -4185440.012 1  -3261382.640 2  25133346.285    25133347.152    25133347.466
         9.000          13.900
 -19917120.159 6 -15519824.808 5  21586714.178    21586715.230    21586714.557
        37.300          32.300
 -19158302.649 6 -14928538.778 5  22077050.245    22077051.504    22077050.370
        36.400          32.300
  -7846094.822 3  -6113840.931 2  24455427.740    24455426.115    24455427.295
        22.600          16.100
  -2122758.417 2  -1654091.179 2  24782355.410    24782356.188    24782356.294
        17.000          17.800
 -21864781.720 6 -17037485.559 6  21468354.793    21468355.372    21468355.702
        41.100          38.100
  -3854683.298 3  -3003644.804 3  24894758.016    24894756.987    24894758.364
        21.100          20.500
  -7058461.192 2  -5500097.440 3  24179846.179    24179850.433    24179847.224
        16.100          23.400
 13 10  8  1 18  0.0000000  0 11G 5G28G26G21G 9G 8G18G 7G15G19G24
 -12904015.204 5 -10055064.820 4  23252898.727    23252899.673    23252899.360
        32.400          29.700
 -20532871.975 6 -15999635.090 6  21347351.715    21347351.786    21347351.801
        41.500          39.500
 -29338362.161 7 -22861050.088 7  19750204.473    19750205.458    19750204.868
        46.300          45.900
  -4148528.530 2  -3232620.503 2  25140372.836    25140372.561    25140372.289
        16.100          17.000
 -19828732.382 6 -15450951.228 5  21603534.266    21603534.895    21603534.179
        37.200          32.300
 -19083030.830 6 -14869885.419 5  22091374.039    22091375.399    22091374.159
        36.700          31.300
  -7928718.547 3  -6178223.042 2  24439703.839    24439703.780    24439703.887
        19.300          15.100
  -2021034.445 2  -1574825.699 2  24801713.557    24801714.119    24801713.481
        17.000          17.800
 -21930445.236 6 -17088651.937 6  21455859.292    21455859.951    21455860.263
        41.000          38.300
  -3815650.672 3  -2973229.729 2  24902185.684    24902183.924    24902185.680
        19.900          17.000
  -7159122.927 2  -5578535.110 3  24160690.184    24160695.284    24160691.679
        13.900          23.800
 13 10  8  1 18 30.0000000  0 11G 5G28G26G21G 9G 8G18G 7G15G19G24
 -12800819.146 5  -9974652.333 5  23272535.701    23272537.614    23272536.564
        33.200          30.600
 -20524670.472 6 -15993244.305 6  21348912.393    21348912.243    21348912.384
        41.200          39.500
 -29315318.113 7 -22843093.697 7  19754589.601    19754590.563    19754589.966
        46.300          45.900
  -4111211.395 2  -3203542.230 1  25147473.224    25147472.425    25147473.921
        13.900           9.000
 -19740063.760 6 -15381858.815 5  21620406.821    21620408.086    21620407.214
        36.500          32.100
 -19007512.668 6 -14811040.107 5  22105744.642    22105746.098    22105744.829
        36.700          32.100
  -8011037.283 3  -6242367.518 2  24424038.873    24424039.193    24424038.919
        21.100          17.000
  -1919273.190 3  -1495531.209 3  24821076.353    24821079.131    24821077.679
        19.300          21.100
 -21995759.945 6 -17139546.507 6  21443430.429    21443430.863    21443431.523
        41.200          38.200
  -3776062.790 2  -2942382.075 3  24909719.480    24909718.090    24909719.145
        16.100          18.600
  -7259666.562 2  -5656880.749 3  24141558.804    24141562.852    24141559.695
        17.000          23.400
 13 10  8  1 19  0.0000000  0 11G 5G28G26G21G 9G 8G18G 7G15G19G24
 -12697400.459 5  -9894066.368 4  23292215.976    23292217.343    23292216.748
        32.700          29.700
 -20515937.817 6 -15986439.627 6  21350574.327    21350573.967    21350574.175
        41.100          39.500
 -29291726.564 7 -22824710.678 7  19759078.840    19759079.783    19759079.292
        46.400          45.800
  -4073490.353 1  -3174149.164 2  25154650.466    25154651.010    25154652.113
        11.000          16.100
 -19651116.262 6 -15312549.094 5  21637333.394    21637334.237    21637333.480
        36.900          31.600
 -18931749.403 6 -14752003.810 5  22120161.749    22120163.318    22120162.021
        36.000          31.600
  -8093048.879 3  -6306272.662 2  24408434.785    24408432.705    24408434.448
        21.600          17.000
  -1817475.677 3  -1416208.543 2  24840449.205    24840449.406    24840449.231
        19.300          17.000
 -22060723.917 6 -17190167.780 6  21431068.504    21431068.770    21431069.235
        41.100          38.300
  -3735921.094 3  -2911102.831 3  24917358.573    24917355.970    24917358.422
        19.300          18.600
  -7360090.703 3  -5735133.290 4  24122448.886    24122453.051    24122449.825
        18.600          24.200
 13 10  8  1 19 30.0000000  0 11G 5G28G26G21G 9G 8G18G 7G15G19G24
 -12593761.534 5  -9813308.788 4  23311937.441    23311939.334    23311938.343
        32.400          29.700
 -20506674.454 6 -15979221.412 6  21352337.067    21352336.831    21352337.020
        41.300          39.800
 -29267587.706 7 -22805901.193 7  19763672.268    19763673.211    19763672.634
        46.300          45.700
  -4035367.285 1  -3144442.925 1  25161905.238    25161905.395    25161905.054
         6.500           9.000
 -19561891.694 6 -15243023.470 5  21654311.933    21654313.129    21654312.309
        37.000          31.500
 -18855742.663 6 -14692777.783 5  22134625.880    22134626.788    22134625.904
        36.300          31.500
  -8174750.859 3  -6369936.543 2  24392884.937    24392885.340    24392886.082
        19.900          17.000
  -1715643.204 2  -1336858.578 3  24859826.167    24859827.845    24859826.977
        16.100          19.900
 -22125335.468 6 -17240514.440 6  21418773.448    21418773.842    21418774.055
        41.300          38.500
  -3695227.068 3  -2879393.230 2  24925102.213    24925100.531    24925102.048
        21.100          17.000
  -7460394.625 3  -5813292.135 4  24103360.956    24103365.855    24103361.581
        18.600          24.900
 13 10  8  1 20  0.0000000  0 11G 5G28G26G21G 9G 8G18G 7G15G19G24
 -12489905.141 5  -9732381.756 4  23331701.869    23331701.867    23331701.938
        32.100          29.000
 -20496881.130 6 -15971590.246 6  21354200.464    21354200.484    21354200.480
        40.900          39.600
 -29242901.953 7 -22786665.557 7  19768369.878    19768370.871    19768370.178
        46.100          45.800
  -3996843.576 1  -3114424.447 2  25169235.913    25169236.832    25169235.122
        11.000          13.900
 -19472392.019 6 -15173283.471 5  21671343.263    21671344.485    21671343.653
        36.700          31.500
 -18779494.050 6 -14633363.293 5  22149135.685    22149136.479    22149135.560
        36.400          31.300
  -8256140.633 3  -6433357.152 2  24377397.176    24377396.779    24377398.056
        20.500          13.900
  -1613776.742 2  -1257482.097 2  24879211.403    24879211.581    24879211.717
        15.100          13.900
 -22189592.732 6 -17290585.032 6  21406545.802    21406545.968    21406546.214
        41.400          38.700
  -3653981.884 3  -2847254.146 3  24932951.164    24932949.530    24932950.177
        19.900          19.300
  -7560576.833 2  -5891356.150 4  24084296.940    24084300.859    24084297.705
        16.100          24.600
 13 10  8  1 20 30.0000000  0 11G 5G28G26G21G 9G 8G18G 7G15G19G24
 -12385833.993 5  -9651287.363 4  23351505.075    23351506.065    23351505.622
        32.000          28.800
 -20486558.694 6 -15963546.777 6  21356164.565    21356164.836    21356164.700
        40.900          39.800
 -29217669.508 7 -22767003.925 7  19773171.556    19773172.431    19773171.898
        46.400          45.900
  -3957921.315 1  -3084095.413 2  25176643.593    25176642.663    25176643.351
         9.000          12.600
 -19382619.321 6 -15103330.742 5  21688426.610    21688427.519    21688426.866
        36.900          31.300
 -18703004.655 6 -14573761.181 5  22163690.968    22163692.025    22163690.850
        36.200          32.000
  -8337215.766 3  -6496532.585 2  24361970.224    24361969.342    24361970.246
        19.900          17.000
  -1511877.725 2  -1178080.342 1  24898600.698    24898602.690    24898601.447
        15.100          11.000
 -22253493.935 6 -17340378.173 6  21394385.363    21394385.770    21394386.301
        41.400          38.600
  -3612187.062 3  -2814686.825 3  24940904.553    24940902.392    24940904.745
        21.100          19.900
  -7660636.773 3  -5969324.896 3  24065256.602    24065260.214    24065256.841
        18.600          23.400
 13 10  8  1 21  0.0000000  0 11G 5G28G26G21G 9G 8G18G 7G15G19G24
 -12281550.705 5  -9570027.680 4  23371349.310    23371350.936    23371350.310
        31.800          28.800
 -20475707.514 6 -15955091.307 6  21358229.568    21358229.596    21358229.728
        41.200          39.500
 -29191890.810 7 -22746916.641 7  19778076.774    19778078.038    19778077.411
        46.400          45.900
  -3918602.433 2  -3053457.293 1  25184123.444    25184125.285    25184124.326
        13.900          11.000
 -19292575.232 6 -15033166.527 5  21705561.506    21705562.150    21705561.708
        36.700          31.000
 -18626275.839 6 -14513972.500 5  22178292.003    22178293.275    22178291.961
        36.100          31.500
  -8417974.625 3  -6559461.548 3  24346602.188    24346601.134    24346602.009
        22.600          19.300
  -1409946.962 2  -1098653.804 3  24917998.700    24918000.458    24917999.040
        17.800          20.500
 -22317037.235 6 -17389892.425 6  21382293.620    21382293.860    21382294.342
        41.500          38.900
  -3569844.173 2  -2781692.369 2  24948961.760    24948959.585    24948961.442
        17.800          17.800
  -7760573.280 3  -6047197.460 4  24046240.325    24046243.191    24046240.165
        20.500          24.900
 13 10  8  1 21 30.0000000  0 12G 5G17G28G26G21G 9G 8G18G 7G15G19G24
 -12177058.396 5  -9488605.126 4  23391233.705    23391235.487    23391234.820
        31.600          29.700
   -203337.631 1   -158445.057 2  25507939.493    25507940.039    25507938.876
         6.500          12.600
 -20464328.583 6 -15946224.597 6  21360395.145    21360394.852    21360395.104
        41.300          39.400
 -29165566.168 7 -22726403.950 7  19783086.321    19783087.352    19783086.862
        46.400          45.700
  -3878888.706 1  -3022511.552 2  25191681.595    25191681.766    25191680.830
         9.000          12.600
 -19202261.782 6 -14962792.422 5  21722747.441    21722748.421    21722747.514
        36.200          31.500
 -18549308.971 6 -14453998.330 5  22192938.057    22192939.509    22192938.346
        36.200          31.100
  -8498414.750 3  -6622142.177 2  24331294.555    24331294.433    24331295.007
        19.900          13.900
  -1307985.455 2  -1019203.229 2  24937401.402    24937402.582    24937402.246
        15.100          17.000
 -22380220.997 6 -17439126.525 6  21370269.910    21370270.454    21370270.973
        41.600          39.000
  -3526954.856 2  -2748272.116 2  24957123.880    24957122.353    24957122.815
        17.000          17.800
  -7860385.478 3  -6124973.157 3  24027245.506    24027249.213    24027245.909
        20.500          23.400
 13 10  8  1 22  0.0000000  0 12G 5G17G28G26G21G 9G 8G18G 7G15G19G24
 -12072359.710 5  -9407021.748 4  23411156.621    23411158.700    23411157.855
        31.600          29.000
   -298658.933 1   -232721.416 2  25489798.549    25489801.446    25489800.357
         9.000          12.600
 -20452422.369 6 -15936947.024 6  21362660.952    21362660.541    21362660.921
        41.300          39.500
 -29138695.901 7 -22705466.084 7  19788199.794    19788200.655    19788200.127
        46.300          45.600
  -3838781.979 1  -2991259.597 2  25199313.928    25199314.528    25199313.232
         9.000          12.600
 -19111680.972 6 -14892209.988 5  21739984.270    21739985.482    21739984.652
        36.600          31.600
 -18472105.608 6 -14393839.878 5  22207629.243    22207630.788    22207629.635
        36.000          31.100
  -8578533.964 3  -6684572.736 2  24316047.995    24316048.083    24316048.569
        22.600          16.100
  -1205994.363 2   -939729.685 3  24956809.909    24956810.473    24956810.680
        16.100          19.300
 -22443043.626 6 -17488079.215 6  21358315.294    21358315.810    21358316.146
        41.600          38.900
  -3483520.252 3  -2714426.976 2  24965389.554    24965387.529    24965388.411
        21.600          16.100
  -7960071.803 3  -6202650.759 3  24008276.146    24008280.068    24008276.604
        21.600          23.800
 13 10  8  1 22 30.0000000  0 12G 5G17G28G26G21G 9G 8G18G 7G15G19G24
 -11967456.807 5  -9325279.262 4  23431119.365    23431121.305    23431120.332
        31.000          28.600
   -393981.267 1   -306998.551 1  25471660.918    25471662.966    25471661.368
         6.500          11.000
 -20439989.917 6 -15927259.387 6  21365026.479    21365026.476    21365026.604
        41.100          39.500
 -29111280.367 7 -22684103.344 7  19793416.859    19793417.773    19793417.130
        46.400          45.700
  -3798283.775 2  -2959702.545 1  25207021.532    25207020.312    25207021.514
        12.600          11.000
 -19020834.364 6 -14821420.434 5  21757271.948    21757273.130    21757272.311
        36.500          31.600
 -18394667.399 5 -14333498.433 5  22222365.946    22222366.577    22222365.725
        35.800          31.100
  -8658329.732 3  -6746751.257 2  24300864.081    24300863.694    24300863.988
        22.600          16.100
  -1103974.601 3   -860233.738 3  24976224.250    24976224.822    24976224.480
        18.600          18.600
 -22505503.199 6 -17536749.006 6  21346429.355    21346430.095    21346430.434
        41.600          39.000
  -3439542.052 3  -2680158.268 3  24973758.141    24973756.012    24973757.567
        18.600          19.900
  -8059631.914 3  -6280230.026 4  23989329.269    23989333.942    23989330.368
        19.900          25.600
 13 10  8  1 23  0.0000000  0 12G 5G17G28G26G21G 9G 8G18G 7G15G19G24
 -11862352.621 5  -9243379.924 4  23451120.547    23451121.372    23451121.169
        30.600          27.600
   -489301.653 2   -381274.247 1  25453521.192    25453523.654    25453521.866
        13.900          11.000
 -20427031.745 6 -15917162.107 6  21367492.547    21367492.381    21367492.490
        41.300          39.500
 -29083319.961 7 -22662316.028 7  19798737.330    19798738.255    19798737.698
        46.300          45.600
  -3757396.556 2  -2927842.387 2  25214801.739    25214801.377    25214801.208
        13.900          13.900
 -18929724.016 6 -14750425.373 5  21774609.598    21774610.804    21774609.933
        36.300          30.800
 -18316995.381 6 -14272974.792 5  22237146.412    22237147.059    22237146.140
        36.100          31.100
  -8737799.948 3  -6808676.093 2  24285741.204    24285740.460    24285741.080
        22.600          15.100
  -1001927.271 2   -780716.336 2  24995642.469    24995643.084    24995643.026
        17.800          15.100
 -22567597.850 6 -17585134.436 6  21334613.176    21334613.881    21334614.262
        41.700          39.400
  -3395021.696 2  -2645467.114 2  24982228.421    24982227.416    24982229.391
        17.800          17.000
  -8159064.706 3  -6357710.072 4  23970408.068    23970412.344    23970408.725
        20.500          25.300
 13 10  8  1 23 30.0000000  0 12G 5G17G28G26G21G 9G 8G18G 7G15G19G24
 -11757050.428 5  -9161326.276 4  23471159.321    23471159.473    23471159.566
        30.800          27.900
   -584617.467 2   -455546.310 1  25435384.768    25435384.778    25435384.585
        12.600          11.000
 -20413548.827 6 -15906655.929 6  21370057.712    21370057.986    21370057.964
        41.000          39.500
 -29054815.119 7 -22640104.471 7  19804161.844    19804162.584    19804162.144
        46.400          45.500
  -3716121.875 2  -2895680.353 2  25222655.287    25222655.834    25222655.420
        12.600          13.900
 -18838351.794 6 -14679226.255 5  21791997.015    21791998.210    21791997.613
        36.100          31.100
 -18239091.178 5 -14212270.230 5  22251970.542    22251971.945    22251970.589
        35.500          31.000
  -8816942.129 3  -6870345.300 2  24270680.153    24270680.773    24270680.938
        22.100          17.800
   -899853.663 2   -701178.481 2  25015066.777    25015067.901    25015067.177
        17.000          17.000
 -22629326.086 6 -17633234.359 6  21322866.739    21322867.400    21322867.768
        41.900          39.300
  -3349960.785 3  -2610354.750 2  24990803.766    24990802.419    24990803.756
        20.500          17.800
  -8258368.744 3  -6435089.776 4  23951511.075    23951515.508    23951512.121
        19.300          24.200
 13 10  8  1 24  0.0000000  0 12G 5G17G28G26G21G 9G 8G18G 7G15G19G24
 -11651552.824 5  -9079120.363 4  23491234.330    23491235.800    23491235.035
        31.000          28.600
   -679925.911 1   -529812.664 1  25417248.010    25417248.590    25417248.551
         9.000          11.000
 -20399541.831 6 -15895741.380 6  21372723.419    21372723.274    21372723.458
        41.000          39.300
 -29025766.289 7 -22617469.038 7  19809689.290    19809690.575    19809689.851
        46.400          45.700
  -3674461.406 2  -2863217.661 1  25230582.658    25230583.526    25230583.678
        12.600          11.000
 -18746719.510 6 -14607824.486 5  21809434.379    21809435.460    21809434.615
        36.200          31.000
 -18160956.145 5 -14151385.803 5  22266838.852    22266840.693    22266839.294
        35.400          31.300
  -8895754.335 3  -6931757.409 2  24255684.231    24255682.825    24255684.434
        22.600          17.800
   -797754.671 1   -621620.814 2  25034493.076    25034496.424    25034495.822
        11.000          17.000
 -22690685.818 6 -17681047.130 6  21311190.311    21311191.019    21311191.407
        41.900          39.500
  -3304360.998 3  -2574822.457 3  24999482.679    24999480.424    24999481.568
        20.500          20.500
  -8357542.893 3  -6512368.296 4  23932639.677    23932642.808    23932640.580
        22.600          24.600
 13 10  8  1 24 30.0000000  0 12G 5G17G28G26G21G 9G 8G18G 7G15G19G24
 -11545862.140 5  -8996764.026 4  23511346.504    23511348.445    23511347.296
        30.400          29.200
   -775224.286 2   -604071.126 2  25399112.944    25399114.949    25399114.019
        12.600          12.600
 -20385011.663 6 -15884419.165 6  21375488.590    21375488.423    21375488.569
        41.000          39.500
 -28996173.894 7 -22594410.048 7  19815320.982    19815321.822    19815321.204
        46.400          45.600
  -3632417.473 2  -2830456.116 1  25238585.173    25238585.227    25238584.966
        13.900          11.000
 -18654829.021 5 -14536221.528 5  21826920.485    21826921.574    21826920.570
        35.600          31.000
 -18082591.468 5 -14090322.438 5  22281751.637    22281752.707    22281751.578
        34.900          30.800
  -8974234.044 3  -6992910.397 2  24240749.393    24240749.135    24240749.252
        22.600          17.800
   -695631.390 2   -542044.213 2  25053928.466    25053929.710    25053929.563
        16.100          16.100
 -22751675.809 7 -17728571.794 6  21299585.006    21299585.028    21299585.437
        42.100          39.400
  -3258224.032 3  -2538871.616 2  25008262.078    25008260.067    25008260.864
        20.500          17.800
  -8456586.738 3  -6589545.279 3  23913791.751    23913795.652    23913792.483
        19.300          23.000
 13 10  8  1 25  0.0000000  0 12G 5G17G28G26G21G 9G 8G18G 7G15G19G24
 -11439981.242 5  -8914259.457 4  23531494.821    23531496.644    23531495.856
        30.800          29.200
   -870509.606 2   -678319.484 2  25380981.110    25380982.320    25380982.084
        13.900          17.000
 -20369959.221 6 -15872689.982 6  21378353.038    21378352.914    21378352.977
        41.200          39.600
 -28966038.310 7 -22570927.779 7  19821055.612    19821056.370    19821055.874
        46.400          45.500
  -3589991.914    -2797397.257 2  25246657.952    25246658.398    25246657.424
         3.000          13.900
 -18562682.117 6 -14464418.763 5  21844455.460    21844456.554    21844455.796
        36.000          30.600
 -18003998.797 5 -14029081.405 5  22296707.393    22296708.360    22296707.445
        35.300          30.100
  -9052379.119 3  -7053802.676 3  24225879.229    24225878.411    24225878.944
        22.100          19.900
   -593484.654 2   -462449.362 3  25073367.150    25073368.408    25073367.570
        17.800          21.100
 -22812293.728 6 -17775806.530 6  21288049.554    21288049.797    21288050.153
        41.900          39.700
  -3211551.403 2  -2502503.337 2  25017142.801    25017140.790    25017141.783
        13.900          15.100
  -8555499.065 3  -6666619.783 4  23894969.481    23894973.396    23894970.272
        20.500          24.900
 13 10  8  1 25 30.0000000  0 12G 5G17G28G26G21G 9G 8G18G 7G15G19G24
 -11333913.627 5  -8831609.394 4  23551678.641    23551680.684    23551679.818
        30.400          28.800
   -965779.110 9   -752555.459 1  25362851.061    25362853.185    25362852.501
        -3.000          11.000
 -20354385.203 6 -15860554.371 6  21381316.450    21381316.508    21381316.447
        41.100          39.300
 -28935360.146 7 -22547022.730 7  19826893.319    19826894.169    19826893.699
        46.400          45.500
  -3547186.725 2  -2764042.614 1  25254802.974    25254802.766    25254802.960
        12.600          11.000
 -18470280.683 5 -14392417.664 5  21862039.172    21862039.970    21862039.256
        35.600          31.000
 -17925179.429 5 -13967663.732 4  22311706.429    22311707.205    22311706.373
        35.100          29.900
  -9130187.466 3  -7114432.542 3  24211071.775    24211071.701    24211072.176
        23.800          18.600
   -491315.712 3   -382837.202 2  25092808.349    25092810.350    25092809.489
        18.600          17.000
 -22872537.994 6 -17822750.105 6  21276584.961    21276585.614    21276586.020
        41.900          39.700
  -3164344.460 3  -2465718.658 2  25026126.047    25026123.935    25026125.296
        19.300          12.600
  -8654278.873 3  -6743591.014 4  23876172.300    23876176.116    23876172.970
        19.900          24.600
 13 10  8  1 26  0.0000000  0 12G 5G17G28G26G21G 9G 8G18G 7G15G19G24
 -11227660.774 5  -8748814.978 4  23571898.616    23571899.375    23571899.287
        30.600          26.500
  -1061030.327 1   -826777.195 2  25344726.267    25344727.413    25344726.755
         9.000          13.900
 -20338290.407 6 -15848012.968 6  21384379.172    21384379.082    21384379.302
        41.100          39.100
 -28904139.764 7 -22522695.172 7  19832834.303    19832835.301    19832834.767
        46.400          45.600
  -3504003.470 2  -2730393.361 2  25263020.134    25263020.227    25263021.076
        13.900          15.100
 -18377626.670 5 -14320219.749 5  21879670.371    21879671.204    21879670.682
        35.500          30.400
 -17846134.834 5 -13906070.552 4  22326747.898    22326749.191    22326747.991
        35.500          29.900
  -9207656.805 3  -7174798.267 2  24196329.328    24196329.841    24196330.367
        23.800          17.000
   -389125.493 1   -303208.476 2  25112254.195    25112255.524    25112255.289
        11.000          17.800
 -22932407.033 6 -17869401.300 6  21265192.390    21265193.029    21265193.192
        41.900          40.000
  -3116605.265 3  -2428519.272 2  25035211.140    25035208.224    25035209.884
        19.900          17.000
  -8752924.911 3  -6820458.004 4  23857400.034    23857404.055    23857401.413
        20.500          25.600
 13 10  8  1 26 30.0000000  0 12G 5G17G28G26G21G 9G 8G18G 7G15G19G24
 -11121225.843 4  -8665878.686 4  23592152.044    23592153.530    23592152.791
        29.200          27.100
  -1156260.313 1   -900982.371    25326604.019    25326605.594    25326604.856
        11.000           3.000
 -20321675.852 6 -15835066.554 6  21387540.889    21387540.740    21387540.984
        41.100          39.200
 -28872377.695 7 -22497945.522 7  19838878.326    19838879.453    19838878.928
        46.500          45.600
  -3460444.093 2  -2696450.999 1  25271310.595    25271309.811    25271311.296
        12.600          11.000
 -18284721.891 5 -14247826.431 5  21897349.726    21897350.542    21897349.724
        35.500          31.000
 -17766866.269 5 -13844302.853 4  22341832.340    22341833.443    22341832.173
        34.800          29.900
  -9284784.514 3  -7234897.760 2  24181652.207    24181652.327    24181653.263
        22.600          15.100
   -286915.185 2   -223564.084 2  25131704.826    25131705.492    25131705.669
        13.900          16.100
 -22991899.040 7 -17915758.709 6  21253871.421    21253872.039    21253872.376
        42.100          40.000
  -3068335.693 3  -2390906.679 2  25044396.854    25044394.471    25044395.760
        22.600          17.800
  -8851436.257 3  -6897220.068 4  23838653.993    23838658.481    23838655.044
        20.500          25.600
 13 10  8  1 27  0.0000000  0 12G 5G17G28G26G21G 9G 8G18G 7G15G19G24
 -11014612.030 5  -8582803.015 4  23612439.881    23612441.698    23612441.115
        30.100          27.600
  -1251465.923 1   -975168.611 1  25308487.690    25308488.412    25308487.888
        11.000          11.000
 -20304542.371 6 -15821715.782 6  21390800.990    21390801.203    21390801.246
        41.100          39.200
 -28840074.429 7 -22472774.156 7  19845025.521    19845026.468    19845025.964
        46.500          45.500
  -3416511.360 2  -2662217.711 1  25279671.431    25279670.780    25279670.260
        15.100          11.000
 -18191568.128 6 -14175239.102 5  21915076.195    21915077.174    21915076.610
        36.100          30.400
 -17687375.051 5 -13782361.667 5  22356959.189    22356960.207    22356959.037
        35.200          30.600
  -9361568.559 3  -7294729.475 2  24167042.269    24167041.188    24167041.807
        23.000          17.800
   -184685.135 2   -143904.310 2  25151158.021    25151159.823    25151159.419
        15.100          17.000
 -23051012.164 7 -17961820.873 6  21242622.837    21242623.226    21242623.470
        42.200          40.000
  -3019536.864 2  -2352881.611 2  25053682.393    25053680.567    25053680.638
        17.800          17.800
  -8949811.881 3  -6973876.330 4  23819934.268    23819938.453    23819934.671
        20.500          26.500
 13 10  8  1 27 30.0000000  0 12G 5G17G28G26G21G 9G 8G18G 7G15G19G24
 -10907821.859 5  -8499589.919 4  23632761.440    23632762.973    23632762.347
        30.100          27.100
  -1346644.781 2  -1049333.969 1  25290376.030    25290376.512    25290377.720
        13.900           9.000
 -20286890.815 6 -15807961.312 6  21394160.133    21394160.137    21394160.310
        41.300          39.300
 -28807230.404 7 -22447181.426 7  19851275.680    19851276.673    19851275.924
        46.400          45.600
  -3372206.695 1  -2627694.652 2  25288101.374    25288100.956    25288100.977
        11.000          12.600
 -18098167.301 5 -14102459.251 5  21932849.882    21932851.029    21932850.114
        35.800          30.100
 -17607662.650 5 -13720248.122 4  22372127.503    22372128.871    22372127.712
        34.700          29.900
  -9438006.964 3  -7354291.846 2  24152496.250    24152495.424    24152496.455
        23.800          17.800
    -82437.055 2    -64230.543 2  25170615.451    25170617.342    25170615.956
        12.600          17.000
 -23109744.848 7 -18007586.597 6  21231446.527    21231446.753    21231447.033
        42.100          40.200
  -2970210.734 3  -2314445.700 2  25063068.926    25063066.072    25063067.979
        19.300          16.100
  -9048050.693 3  -7050426.003 4  23801239.643    23801243.656    23801240.030
        21.100          25.600
 13 10  8  1 28  0.0000000  0 12G 5G17G28G26G21G 9G 8G18G 7G15G19G24
 -10800857.655 4  -8416241.207 4  23653115.910    23653117.583    23653116.871
        29.500          26.800
  -1441793.930 1  -1123476.131 1  25272269.336    25272270.749    25272270.441
         9.000          11.000
 -20268722.389 6 -15793804.092 6  21397617.761    21397617.345    21397617.730
        41.200          39.300
 -28773846.341 7 -22421167.882 7  19857628.424    19857629.330    19857628.773
        46.300          45.500
  -3327531.981 1  -2592883.210 1  25296602.296    25296602.259    25296602.387
         6.500          11.000
 -18004521.052 5 -14029488.167 5  21950670.382    21950671.492    21950670.372
        35.400          30.200
 -17527730.422 5 -13657963.284 4  22387338.166    22387339.602    22387338.164
        34.400          29.900
  -9514097.207 4  -7413582.954 3  24138016.547    24138016.526    24138016.632
        24.600          19.900
     19828.180 2     15456.652 2  25190076.654    25190077.355    25190077.203
        17.000          12.600
 -23168095.113 7 -18053054.326 6  21220342.541    21220342.978    21220343.370
        42.200          40.200
  -2920359.222 3  -2275600.352 2  25072555.675    25072552.464    25072554.425
        19.900          15.100
  -9146151.718 3  -7126868.317 4  23782571.705    23782574.740    23782572.434
        20.500          24.900
 13 10  8  1 28 30.0000000  0 12G 5G17G28G26G21G 9G 8G18G 7G15G19G24
 -10693722.716 4  -8332759.464 4  23673502.584    23673504.939    23673504.008
        27.600          26.800
  -1536910.345 2  -1197592.819 1  25254168.256    25254170.596    25254169.072
        12.600           9.000
 -20250037.974 6 -15779244.803 6  21401173.196    21401173.004    21401173.118
        41.200          39.400
 -28739922.706 7 -22394733.895 7  19864083.879    19864084.797    19864084.311
        46.400          45.500
  -3282489.143 2  -2557784.947 2  25305173.161    25305173.422    25305173.531
        12.600          13.900
 -17910631.466 5 -13956327.474 4  21968536.872    21968538.055    21968537.015
        35.400          29.700
 -17447579.680 5 -13595508.180 5  22402590.338    22402591.691    22402590.460
        34.700          30.200
  -9589837.259 4  -7472601.169 2  24123603.307    24123603.317    24123603.830
        24.200          17.800
    122109.729 2     95156.535 2  25209539.270    25209541.254    25209539.725
        16.100          15.100
 -23226061.491 7 -18098222.927 6  21209311.908    21209312.230    21209312.674
        42.200          40.200
  -2869983.828 3  -2236346.818 3  25082139.914    25082139.198    25082140.251
        19.300          19.900
  -9244113.938 3  -7203202.482 4  23763930.210    23763933.835    23763930.910
        21.100          26.200
 13 10  8  1 29  0.0000000  0 12G 5G17G28G26G21G 9G 8G18G 7G15G19G24
 -10586419.306 4  -8249146.448 4  23693922.577    23693924.246    23693923.075
        28.600          27.600
  -1631991.659 2  -1271682.144 2  25236075.964    25236077.289    25236076.383
        12.600          15.100
 -20230838.517 6 -15764284.177 6  21404826.777    21404826.654    21404826.688
        41.100          39.300
 -28705460.019 7 -22367879.870 7  19870642.032    19870642.940    19870642.423
        46.600          45.500
  -3237080.761    -2522401.814 1  25313814.646    25313814.334    25313815.817
                         9.000
 -17816500.417 5 -13882978.617 4  21986449.197    21986450.470    21986449.456
        34.800          29.700
 -17367212.015 5 -13532884.038 4  22417883.964    22417885.184    22417884.055
        34.700          29.700
  -9665224.833 4  -7531344.723 2  24109257.912    24109257.333    24109258.148
        24.600          17.800
    224406.650 2    174868.363 2  25229005.237    25229007.313    25229006.673
        15.100          16.100
 -23283642.181 7 -18143090.992 6  21198354.505    21198354.995    21198355.351
        42.200          40.200
  -2819086.474 3  -2196686.535 2  25091826.304    25091824.490    25091825.899
        18.600          17.000
  -9341936.317 3  -7279427.656 4  23745314.895    23745318.296    23745315.431
        21.100          24.200
 13 10  8  1 29 30.0000000  0 12G 5G17G28G26G21G 9G 8G18G 7G15G19G24
 -10478950.715 4  -8165404.704 4  23714373.328    23714374.812    23714373.874
        28.100          27.400
  -1727034.997 1  -1345741.885 2  25217988.812    25217991.403    25217989.109
         9.000          13.900
 -20211125.049 6 -15748923.023 6  21408578.022    21408577.978    21408578.123
        41.300          39.200
 -28670458.937 7 -22340606.316 7  19877302.368    19877303.451    19877302.789
        46.400          45.500
  -3191308.480    -2486735.138 2  25322526.073    25322524.729    25322525.326
         3.000          12.600
 -17722129.477 5 -13809442.845 4  22004407.250    22004408.671    22004407.776
        34.800          29.700
 -17286628.723 5 -13470091.878 4  22433218.327    22433219.646    22433218.289
        34.700          29.700
  -9740257.596 3  -7589811.783 3  24094979.427    24094979.153    24094979.870
        23.400          19.300
    326717.949 2    254591.420 2  25248474.715    25248476.221    25248475.192
        12.600          13.900
 -23340835.533 7 -18187657.233 6  21187471.011    21187471.519    21187471.901
        42.200          40.600
  -2767669.128 3  -2156621.112 3  25101611.248    25101609.842    25101610.761
        18.600          20.500
  -9439618.075 3  -7355543.275 4  23726726.403    23726730.232    23726727.344
        21.600          25.600
 13 10  8  1 30  0.0000000  0 12G 5G17G28G26G21G 9G 8G18G 7G15G19G24
 -10371319.411 4  -8081536.184 4  23734854.937    23734856.447    23734855.619
        28.600          27.600
  -1822037.031 1  -1419769.443 2  25199910.241    25199912.981    25199910.903
         9.000          13.900
 -20190898.321 6 -15733161.928 6  21412427.202    21412426.822    21412427.012
        41.200          39.100
 -28634920.061 7 -22312913.698 7  19884065.369    19884066.237    19884065.561
        46.400          45.400
  -3145174.423 2  -2450786.540 2  25331304.057    25331304.481    25331301.753
        13.900          12.600
 -17627520.513 5 -13735721.584 4  22022410.826    22022412.027    22022411.150
        35.200          29.500
 -17205831.090 5 -13407132.700 4  22448593.212    22448594.804    22448593.486
        33.900          28.800
  -9814933.520 3  -7648000.819 2  24080769.013    24080768.926    24080769.017
        23.800          17.800
    429042.431 2    334324.840 1  25267946.855    25267948.304    25267948.220
        17.000          11.000
 -23397639.713 7 -18231920.223 6  21176661.792    21176662.193    21176662.446
        42.400          40.600
  -2715733.333 3  -2116151.650 2  25111494.010    25111492.126    25111493.398
        19.900          17.800
  -9537158.211 3  -7431548.520 4  23708165.704    23708169.560    23708166.275
        23.000          25.900
 13 10  8  1 30 30.0000000  0 12G 5G17G28G26G21G 9G 8G18G 7G15G19G24
 -10263527.835 4  -7997542.776 4  23755366.123    23755368.422    23755367.509
        29.500          27.100
  -1916995.282 2  -1493762.882 2  25181841.140    25181843.015    25181841.588
        12.600          15.100
 -20170159.488 6 -15717001.789 6  21416373.542    21416373.230    21416373.528
        41.000          38.800
 -28598843.893 7 -22284802.411 7  19890930.058    19890931.305    19890930.681
        46.300          45.300
  -3098680.818 2  -2414557.772 1  25340151.267    25340152.043    25340150.638
        15.100           9.000
 -17532675.260 5 -13661816.214 4  22040458.906    22040460.564    22040459.377
        34.400          29.700
 -17124820.561 5 -13344007.633 4  22464008.904    22464010.753    22464009.304
        34.100          28.800
  -9889250.388 4  -7705910.067 3  24066627.917    24066627.064    24066627.684
        24.600          18.600
    531379.347 1    414067.828 2  25287421.361    25287422.484    25287422.097
         6.500          13.900
 -23454052.920 7 -18275878.567 6  21165926.558    21165927.030    21165927.466
        42.300          40.900
  -2663281.126 3  -2075279.843 2  25121475.222    25121473.130    25121474.891
        19.300          17.800
  -9634555.203 3  -7507442.244 4  23689631.251    23689635.097    23689631.869
        21.600          25.600
 13 10  8  1 31  0.0000000  0 12G 5G17G28G26G21G 9G 8G18G 7G15G19G24
 -10155578.888 5  -7913426.735 4  23775908.762    23775910.170    23775909.791
        30.200          27.100
  -2011907.060 2  -1567720.105 2  25163779.432    25163781.225    25163780.487
        15.100          13.900
 -20148909.630 6 -15700443.450 6  21420417.189    21420416.996    21420417.130
        40.900          39.200
 -28562231.183 7 -22256273.040 7  19897897.618    19897898.491    19897897.941
        46.400          45.300
  -3051829.576 1  -2378050.319 1  25349067.357    25349066.918    25349068.344
        11.000           9.000
 -17437595.672 5 -13587728.236 4  22058552.128    22058553.553    22058552.470
        34.300          28.800
 -17043598.361 5 -13280717.618 4  22479465.110    22479466.797    22479465.319
        34.100          29.500
  -9963206.024 3  -7763537.805 3  24052554.019    24052554.079    24052553.971
        23.000          19.300
    633727.778 1    493819.805 2  25306897.093    25306898.868    25306898.068
        11.000          13.900
 -23510073.549 7 -18319531.006 6  21155266.451    21155266.600    21155266.966
        42.700          40.700
  -2610314.219 2  -2034006.941 1  25131554.064    25131553.014    25131553.720
        17.800          11.000
  -9731808.259 3  -7583223.815 4  23671125.037    23671128.837    23671125.490
        22.100          26.500
 13 10  8  1 31 30.0000000  0 12G 5G17G28G26G21G 9G 8G18G 7G15G19G24
 -10047475.403 4  -7829190.270 4  23796480.457    23796481.482    23796481.342
        29.700          26.200
  -2106769.254 3  -1641638.694 2  25145727.748    25145729.364    25145728.580
        19.900          12.600
 -20127149.548 6 -15683487.535 6  21424557.902    21424557.844    21424557.889
        40.800          38.900
 -28525082.566 7 -22227326.077 7  19904966.630    19904967.647    19904966.956
        46.400          45.400
  -3004622.783 1  -2341265.777 2  25358050.434    25358049.119    25358049.565
         6.500          13.900
 -17342283.398 5 -13513458.951 4  22076689.829    22076691.129    22076690.160
        35.200          29.200
 -16962165.879 5 -13217263.754 4  22494962.368    22494962.847    22494962.016
        34.400          28.800
 -10036798.130 4  -7820882.334 2  24038550.022    24038548.897    24038550.192
        24.200          17.000
    736086.835 2    573580.059 2  25326375.249    25326377.310    25326375.952
        15.100          16.100
 -23565699.999 7 -18362876.283 6  21144680.900    21144681.302    21144681.626
        42.500          40.700
  -2556834.269 2  -1992334.245 2  25141731.324    25141730.307    25141730.179
        17.000          17.000
  -9828916.642 3  -7658892.661 4  23652645.761    23652649.227    23652646.496
        23.800          25.900
 13 10  8  1 32  0.0000000  0 12G 5G17G28G26G21G 9G 8G18G 7G15G19G24
  -9939220.156 4  -7744835.540 4  23817080.154    23817081.773    23817081.375
        27.600          26.500
  -2201578.960 3  -1715516.394 2  25127687.379    25127688.020    25127687.514
        19.900          17.000
 -20104880.416 6 -15666134.956 6  21428795.614    21428795.405    21428795.674
        40.900          38.900
 -28487398.587 7 -22197961.948 7  19912137.849    19912138.617    19912138.084
        46.400          45.200
  -2957062.421 1  -2304205.805 2  25367099.334    25367101.489    25367101.257
         9.000          13.900
 -17246740.474 5 -13439009.935 4  22094870.796    22094872.330    22094871.143
        34.300          29.500
 -16880524.553 5 -13153647.152 4  22510497.548    22510498.641    22510497.578
        34.100          29.000
 -10110024.621 4  -7877941.919 2  24024614.446    24024615.477    24024615.314
        24.600          17.000
    838455.673 2    653347.947 2  25345854.757    25345857.216    25345855.875
        15.100          16.100
 -23620930.379 7 -18405912.942 6  21134170.667    21134171.242    21134171.609
        42.400          41.000
  -2502843.568 3  -1950263.590 2  25152005.214    25152003.779    25152004.893
        21.100          16.100
  -9925879.050 4  -7734447.752 4  23634194.303    23634198.001    23634194.846
        24.200          26.200
 13 10  8  1 32 30.0000000  0 12G 5G17G28G26G21G 9G 8G18G 7G15G19G24
  -9830816.130 4  -7660364.909 4  23837708.917    23837710.861    23837709.527
        26.200          27.400
  -2296333.181 2  -1789350.856 3  25109655.367    25109657.291    25109655.322
        17.000          18.600
 -20082103.608 6 -15648386.789 6  21433129.839    21433129.726    21433129.893
        41.100          39.000
 -28449180.064 7 -22168181.291 7  19919410.592    19919411.453    19919410.908
        46.400          45.200
  -2909150.925 2  -2266872.213 2  25376218.556    25376218.032    25376218.109
        12.600          16.100
 -17150968.508 5 -13364382.445 4  22113095.894    22113097.188    22113095.960
        34.300          28.800
 -16798675.512 5 -13089868.700 4  22526072.663    22526074.225    22526072.734
        34.100          29.200
 -10182883.463 4  -7934715.046 3  24010750.816    24010750.289    24010750.847
        25.300          18.600
    940833.575 1    733122.948 2  25365337.682    25365338.858    25365337.467
         9.000          12.600
 -23675762.916 7 -18448639.599 6  21123736.730    21123736.929    21123737.345
        42.700          40.900
  -2448343.998 3  -1907796.420 2  25162376.034    25162374.618    25162376.196
        18.600          15.100
 -10022694.940 3  -7809888.646 4  23615770.640    23615774.560    23615771.563
        22.600          26.500
 13 10  8  1 33  0.0000000  0 12G 5G17G28G26G21G 9G 8G18G 7G15G19G24
  -9722265.465 4  -7575780.002 4  23858365.134    23858367.194    23858366.461
        26.800          25.300
  -2391029.693 2  -1863140.341 2  25091635.503    25091637.013    25091636.045
        17.000          13.900
 -20058820.023 6 -15630243.726 6  21437560.450    21437560.576    21437560.537
        41.300          39.200
 -28410427.620 7 -22137984.592 7  19926784.782    19926785.945    19926785.110
        46.400          45.400
  -2860890.432 1  -2229266.704 1  25385401.486    25385401.871    25385401.395
         9.000           9.000
 -17054969.257 5 -13289577.849 4  22131364.134    22131364.989    22131364.165
        34.000          29.000
 -16716620.125 5 -13025929.458 4  22541687.382    22541688.686    22541687.512
        34.000          28.100
 -10255372.232 4  -7991199.805 2  23996956.529    23996956.011    23996956.654
        24.900          16.100
   1043219.269 1    812903.992 2  25384820.600    25384822.582    25384821.529
        11.000          15.100
 -23730196.119 7 -18491055.075 6  21113378.070    21113378.605    21113379.064
        42.700          41.000
  -2393337.392 3  -1864934.138 2  25172844.158    25172841.928    25172843.708
        18.600          17.000
 -10119362.784 4  -7885214.201 4  23597375.711    23597379.292    23597376.210
        24.200          26.800
 13 10  8  1 33 30.0000000  0 12G 5G17G28G26G21G 9G 8G18G 7G15G19G24
  -9613571.136 4  -7491083.129 4  23879049.325    23879050.672    23879049.827
        25.900          25.300
  -2485665.333 2  -1936882.405 2  25073626.647    25073628.592    25073626.910
        17.000          17.000
 -20035030.781 6 -15611706.643 6  21442087.440    21442087.466    21442087.654
        41.100          39.100
 -28371141.916 7 -22107372.370 7  19934260.545    19934261.677    19934260.933
        46.400          45.200
  -2812282.957 1  -2191390.734 1  25394652.238    25394650.921    25394651.361
         9.000           9.000
 -16958744.483 5 -13214597.518 4  22149675.130    22149676.108    22149675.239
        34.100          28.600
 -16634359.742 5 -12961830.465 4  22557341.654    22557342.327    22557341.302
        33.100          29.000
 -10327488.793 4  -8047394.522 2  23983232.825    23983232.915    23983233.438
        24.900          17.800
   1145611.713 1    892690.289 2  25404306.497    25404306.784    25404305.835
         9.000          12.600
 -23784228.431 7 -18533158.178 6  21103096.099    21103096.554    21103096.988
        42.700          41.200
  -2337825.693 3  -1821678.336 2  25183407.080    25183405.316    25183406.570
        18.600          15.100
 -10215881.499 3  -7960423.548 4  23579008.573    23579012.532    23579009.085
        21.100          26.500
 13 10  8  1 34  0.0000000  0 12G 5G17G28G26G21G 9G 8G18G 7G15G19G24
  -9504736.038 4  -7406276.575 4  23899760.765    23899761.361    23899760.908
        27.600          24.900
  -2580237.195 3  -2010574.759 2  25055630.317    25055631.356    25055631.291
        18.600          16.100
 -20010737.104 6 -15592776.502 6  21446710.387    21446710.238    21446710.451
        41.000          38.800
 -28331323.713 7 -22076345.208 7  19941837.708    19941838.813    19941838.085
        46.300          45.100
  -2763330.336    -2153245.850 1  25403965.748    25403967.240    25403966.768
         3.000          11.000
 -16862296.098 5 -13139442.955 4  22168028.353    22168030.008    22168028.751
        34.400          28.800
 -16551895.761 5 -12897572.843 4  22573033.564    22573035.189    22573033.461
        33.500          29.000
 -10399230.932 4  -8103297.487 3  23969580.350    23969581.218    23969580.942
        24.900          20.500
   1248010.570 2    972481.574 2  25423791.877    25423793.220    25423792.245
        12.600          17.800
 -23837858.165 7 -18574947.581 6  21092890.507    21092891.274    21092891.547
        42.600          41.200
  -2281810.722 3  -1778030.323 2  25194066.570    25194065.059    25194066.767
        20.500          15.100
 -10312250.328 4  -8035516.108 4  23560670.470    23560673.823    23560671.179
        24.200          26.800
 13 10  8  1 34 30.0000000  0 12G 5G17G28G26G21G 9G 8G18G 7G15G19G24
  -9395762.639 4  -7321362.244 4  23920497.751    23920498.454    23920498.165
        27.600          24.900
  -2674742.243 3  -2084215.044 2  25037646.972    25037647.922    25037647.759
        19.900          17.800
 -19985939.822 6 -15573453.934 6  21451429.514    21451428.981    21451429.243
        41.000          38.700
 -28290973.685 7 -22044903.641 7  19949516.063    19949517.095    19949516.522
        46.400          45.100
  -2714034.926    -2114833.833 1  25413345.282    25413347.774    25413348.290
         3.000           9.000
 -16765625.880 5 -13064115.539 4  22186424.243    22186425.495    22186424.328
        33.900          29.200
 -16469229.592 5 -12833157.675 4  22588764.755    22588766.017    22588764.688
        33.500          29.200
 -10470596.684 4  -8158907.180 3  23956001.359    23956000.396    23956001.154
        24.900          20.500
   1350414.664 2   1052276.974 2  25443278.272    25443279.680    25443279.381
        12.600          13.900
 -23891083.406 7 -18616421.801 6  21082762.449    21082762.874    21082763.232
        42.700          41.400
  -2225294.537 3  -1733991.743 2  25204821.427    25204819.798    25204820.815
        19.300          15.100
 -10408468.028 3  -8110490.904 4  23542359.632    23542364.349    23542361.178
        22.100          26.200
 13 10  8  1 35  0.0000000  0 12G 5G17G28G26G21G 9G 8G18G 7G15G19G24
  -9286653.804 4  -7236342.390 4  23941260.341    23941261.659    23941260.790
        27.600          27.100
  -2769177.898 3  -2157801.291 3  25019675.939    25019678.062    25019676.375
        18.600          19.900
 -19960640.346 6 -15553740.050 6  21456243.676    21456243.455    21456243.683
        41.000          38.900
 -28250092.645 7 -22013048.301 7  19957295.522    19957296.474    19957295.937
        46.300          44.900
  -2664398.932    -2076156.478 1  25422792.301    25422791.762    25422793.623
         3.000           6.500
 -16668735.549 5 -12988616.591 4  22204862.067    22204863.003    22204862.095
        33.800          28.100
 -16386362.535 5 -12768585.954 4  22604533.462    22604534.782    22604533.645
        33.200          28.400
 -10541583.976 4  -8214221.969 3  23942492.446    23942491.740    23942492.197
        25.300          18.600
   1452823.377 1   1132076.010 2  25462765.224    25462768.607    25462766.997
         6.500          13.900
 -23943902.489 7 -18657579.526 6  21072711.331    21072711.632    21072712.086
        42.900          41.600
  -2168279.043 2  -1689564.153 2  25215671.471    25215669.841    25215670.715
        16.100          13.900
 -10504533.523 4  -8185347.089 4  23524079.604    23524083.532    23524080.737
        24.600          25.900
 13 10  8  1 35 30.0000000  0 12G 5G17G28G26G21G 9G 8G18G 7G15G19G24
  -9177412.016 4  -7151218.933 4  23962048.464    23962049.663    23962049.022
        27.600          26.200
  -2863541.194 2  -2231331.107 3  25001718.281    25001721.497    25001719.449
        13.900          21.100
 -19934839.989 6 -15533635.869 6  21461153.116    21461153.076    21461153.244
        41.000          38.900
 -28208681.296 7 -21980779.732 7  19965175.995    19965176.935    19965176.322
        46.400          45.200
  -2614424.543 1  -2037215.407 1  25432301.738    25432303.273    25432300.357
         9.000           9.000
 -16571626.945 5 -12912947.566 4  22223340.460    22223341.945    22223340.880
        33.800          28.400
 -16303296.006 5 -12703858.803 4  22620340.942    22620341.926    22620340.706
        32.400          28.100
 -10612190.431 4  -8269239.978 2  23929056.529    23929055.470    23929056.821
        25.600          17.000
   1555235.810 2   1211877.853 1  25482253.837    25482255.424    25482254.423
        13.900          11.000
 -23996313.586 7 -18698419.343 6  21062737.834    21062738.053    21062738.609
        42.700          41.400
  -2110766.660 3  -1644749.361 2  25226614.640    25226613.647    25226615.315
        19.300          13.900
 -10600446.203 4  -8260084.193 4  23505827.728    23505831.867    23505828.578
        24.600          27.100
 13 10  8  1 36  0.0000000  0 12G 5G17G28G26G21G 9G 8G18G 7G15G19G24
  -9068040.437 4  -7065994.339 4  23982861.156    23982862.358    23982861.480
        27.400          26.800
  -2957829.355 2  -2304802.363 3  24983777.092    24983778.756    24983777.696
        16.100          20.500
 -19908539.553 6 -15513142.015 6  21466157.766    21466157.814    21466157.925
        41.000          38.600
 -28166740.440 7 -21948098.562 7  19973156.916    19973158.205    19973157.447
        46.400          45.100
  -2564113.980    -1998012.456 2  25441876.357    25441876.292    25441875.440
         3.000          12.600
 -16474301.677 5 -12837109.717 4  22241860.968    22241862.595    22241861.312
        33.200          28.800
 -16220031.160 5 -12638977.123 4  22636185.855    22636186.629    22636185.815
        33.800          28.600
 -10682414.115 4  -8323959.757 3  23915692.860    23915693.104    23915692.680
        24.900          18.600
   1657651.226 1   1291682.074 2  25501742.432    25501744.934    25501744.097
        11.000          13.900
 -24048315.396 7 -18738940.237 6  21052842.238    21052842.412    21052842.969
        42.800          41.400
  -2052759.031 3  -1599548.654 2  25237652.988    25237651.327    25237652.595
        19.300          17.800
 -10696204.927 4  -8334701.339 4  23487605.629    23487609.453    23487606.536
        24.600          27.100
 13 10  8  1 36 30.0000000  0 11G 5G17G28G26G21G 9G 8G18G15G19G24
  -8958542.138 4  -6980670.999 4  24003697.529    24003698.804    24003698.436
        27.100          24.600
  -3052039.302 2  -2378212.698 3  24965848.777    24965850.687    24965850.039
        17.000          21.100
 -19881740.328 6 -15492259.491 6  21471257.852    21471257.576    21471257.882
        41.000          38.400
 -28124270.851 7 -21915005.385 7  19981238.963    19981239.755    19981239.150
        46.400          44.900
  -2513469.357 2  -1958549.106 2  25451513.244    25451514.510    25451513.015
        12.600          12.600
 -16376761.557 5 -12761104.454 4  22260422.401    22260423.998    22260422.827
        33.900          28.100
 -16136569.220 5 -12573941.853 4  22652068.169    22652068.868    22652067.907
        32.600          28.400
 -10752252.903 4  -8378379.588 3  23902403.186    23902403.003    23902403.648
        25.900          20.500
 -24099905.996 7 -18779140.712 6  21043024.907    21043025.293    21043025.705
        43.000          41.800
  -1994258.229 3  -1553963.696 2  25248785.219    25248784.789    25248786.377
        19.300          17.000
 -10791808.843 3  -8409197.850 4  23469413.139    23469416.679    23469414.028
        23.400          27.600
 13 10  8  1 37  0.0000000  0 11G 5G17G28G26G21G 9G 8G18G15G19G24
  -8848918.878 4  -6895250.290 4  24024557.997    24024559.634    24024558.556
        26.200          25.900
  -3146168.152 2  -2451559.865 3  24947936.883    24947938.753    24947936.801
        17.800          19.900
 -19854443.858 6 -15470989.509 6  21476452.162    21476451.856    21476452.159
        41.000          38.400
 -28081273.398 7 -21881500.888 7  19989420.778    19989421.896    19989421.132
        46.100          44.900
  -2462492.859 1  -1918827.183 1  25461213.718    25461213.739    25461216.053
        11.000           9.000
 -16279008.251 5 -12684933.073 4  22279024.531    22279025.793    22279024.673
        33.400          28.100
 -16052911.455 5 -12508754.013 4  22667986.794    22667988.626    22667987.062
        32.400          27.400
 -10821704.441 4  -8432497.691 3  23889187.328    23889186.796    23889187.189
        25.900          19.300
 -24151083.821 7 -18819019.545 6  21033285.950    21033286.491    21033286.949
        43.100          41.600
  -1935266.484 2  -1507996.177 2  25260011.190    25260010.558    25260011.411
        15.100          15.100
 -10887256.175 4  -8483572.364 4  23451250.019    23451253.576    23451250.739
        24.600          27.600
 13 10  8  1 37 30.0000000  0 11G 5G17G28G26G21G 9G 8G18G15G19G24
  -8739173.396 4  -6809734.352 4  24045441.765    24045443.907    24045442.550
        26.200          25.300
  -3240213.231 3  -2524841.747 3  24930040.430    24930042.320    24930041.616
        21.100          18.600
 -19826651.184 6 -15449332.869 6  21481740.648    21481740.429    21481740.685
        40.800          38.400
 -28037748.789 7 -21847585.625 7  19997702.978    19997704.321    19997703.648
        46.200          44.900
  -2411186.772 1  -1878848.487 1  25470977.854    25470976.922    25470979.568
         6.500          11.000
 -16181043.546 5 -12608596.942 4  22297666.857    22297667.406    22297666.913
        33.500          26.800
 -15969059.293 5 -12443414.682 4  22683943.236    22683945.154    22683943.601
        32.800          28.100
 -10890766.897 4  -8486312.575 3  23876045.776    23876044.740    23876045.461
        25.900          19.300
 -24201847.357 7 -18858575.554 6  21023626.351    21023626.417    21023626.872
        43.000          41.900
  -1875785.758 3  -1461647.635 1  25271332.046    25271329.448    25271331.184
        18.600          11.000
 -10982546.559 4  -8557824.553 4  23433116.668    23433120.414    23433117.742
        24.600          27.600
 13 10  8  1 38  0.0000000  0 11G 5G17G28G26G21G 9G 8G18G15G19G24
  -8629309.113 4  -6724125.843 4  24066349.289    24066350.286    24066349.656
        26.500          25.300
  -3334171.422 3  -2598055.918 3  24912162.253    24912162.749    24912161.782
        19.900          19.900
 -19798363.352 6 -15427290.397 6  21487123.769    21487123.479    21487123.784
        40.900          38.400
 -27993697.902 7 -21813260.266 7  20006085.883    20006086.892    20006086.395
        46.400          44.700
  -2359553.154    -1838614.475 2  25480804.368    25480802.605    25480802.284
         3.000          12.600
 -16082869.022 5 -12532097.335 4  22316348.810    22316349.865    22316348.765
        33.100          28.400
 -15885014.185 5 -12377924.997 4  22699936.515    22699938.394    22699936.952
        32.400          27.900
 -10959438.117 4  -8539822.638 2  23862977.923    23862976.503    23862977.892
        25.900          17.000
 -24252194.929 7 -18897807.428 6  21014045.260    21014045.616    21014046.039
        43.000          41.900
  -1815818.037 3  -1414919.566 2  25282743.317    25282742.037    25282742.074
        18.600          13.900
 -11077678.774 4  -8631953.510 4  23415013.579    23415017.309    23415014.547
        24.900          27.100
 13 10  8  1 38 30.0000000  0 11G 5G17G28G26G21G 9G 8G18G15G19G24
  -8519328.308 4  -6638426.519 4  24087277.821    24087278.908    24087278.042
        24.900          25.300
  -3428039.968 2  -2671200.240 3  24894298.603    24894300.938    24894299.333
        13.900          19.300
 -19769581.757 6 -15404863.175 6  21492601.164    21492600.715    21492600.970
        41.300          38.500
 -27949121.566 7 -21778525.469 7  20014568.470    20014569.623    20014568.840
        46.200          44.800
  -2307594.406    -1798127.182 1  25490690.884    25490690.677    25490690.009
         3.000           9.000
 -15984486.723 5 -12455435.831 4  22335070.652    22335071.325    22335070.780
        33.800          27.600
 -15800777.403 5 -12312285.981 4  22715966.879    22715968.183    22715966.726
        31.800          28.600
 -11027715.957 4  -8593026.156 3  23849985.228    23849984.657    23849984.623
        25.900          21.100
 -24302124.643 7 -18936713.700 7  21004544.173    21004544.299    21004544.734
        42.900          42.000
  -1755365.282 2  -1367813.603 2  25294246.725    25294244.924    25294245.896
        15.100          17.000
 -11172652.027 4  -8705958.617 4  23396940.845    23396944.592    23396941.448
        25.900          28.400
 13 10  8  1 39  0.0000000  0 11G 5G17G28G26G21G 9G 8G18G15G19G24
  -8409233.838 4  -6552638.626 3  24108227.430    24108229.041    24108228.279
        26.200          23.400
  -3521815.899 2  -2744272.380 3  24876453.175    24876455.395    24876453.855
        17.800          22.100
 -19740307.664 6 -15382052.182 6  21498171.242    21498171.228    21498171.402
        41.100          38.400
 -27904020.676 7 -21743381.930 7  20023150.916    20023152.079    20023151.395
        46.300          44.900
  -2255312.851 1  -1757388.334 1  25500639.220    25500638.350    25500640.156
         6.500           6.500
 -15885898.054 5 -12378613.500 4  22353831.181    22353832.329    22353831.425
        33.100          28.100
 -15716350.163 5 -12246498.539 4  22732033.389    22732034.115    22732033.098
        33.100          27.900
 -11095598.355 4  -8645921.521 3  23837066.424    23837066.617    23837066.827
        25.600          18.600
 -24351635.107 7 -18975293.293 7  20995121.908    20995122.735    20995123.097
        43.100          42.100
  -1694429.874 2  -1320331.503 2  25305841.860    25305839.736    25305841.599
        17.800          15.100
 -11267465.341 4  -8779839.065 4  23378898.943    23378901.812    23378899.396
        25.300          27.400
 13 10  8  1 39 30.0000000  0 11G 5G17G28G26G21G 9G 8G18G15G19G24
  -8299028.478 4  -6466764.340 4  24129198.530    24129200.464    24129199.572
        25.300          24.200
  -3615496.427 3  -2817270.163 3  24858626.564    24858628.414    24858626.909
        18.600          21.100
 -19710542.504 6 -15358858.543 6  21503835.407    21503835.327    21503835.555
        40.900          38.200
 -27858396.064 7 -21707830.300 7  20031832.886    20031834.013    20031833.349
        46.200          44.600
  -2202710.547 1  -1716399.525 9  25510649.573    25510649.477    25510648.283
        11.000          -3.000
 -15787104.915 5 -12301631.853 4  22372630.761    22372631.971    22372630.659
        32.100          27.100
 -15631733.625 5 -12180563.581 4  22748135.307    22748135.966    22748135.003
        32.600          28.100
 -11163083.138 4  -8698507.077 3  23824225.768    23824223.978    23824225.351
        25.900          19.300
 -24400724.519 7 -19013544.783 7  20985780.759    20985781.309    20985781.727
        43.000          42.300
  -1633013.886 3  -1272474.924 2  25317529.414    25317527.511    25317528.832
        18.600          13.900
 -11362117.645 4  -8853594.066 4  23360887.036    23360890.243    23360887.341
        24.200          28.100
 13 10  8  1 40  0.0000000  0 11G 5G17G28G26G21G 9G 8G18G15G19G24
  -8188714.693 4  -6380805.558 4  24150191.053    24150192.645    24150191.500
        25.600          25.600
  -3709078.843 3  -2890191.503 3  24840818.985    24840819.681    24840819.690
        22.100          20.500
 -19680287.383 6 -15335283.124 6  21509593.243    21509592.829    21509593.040
        41.100          38.400
 -27812248.559 7 -21671871.215 7  20040614.881    20040615.700    20040615.029
        46.100          44.500
  -2149789.860 1  -1675162.706    25520719.333    25520719.792    25520719.546
         9.000           3.000
 -15688109.158 5 -12224492.330 4  22391469.762    22391470.065    22391469.510
        32.800          27.600
 -15546929.218 5 -12114482.241 4  22764272.261    22764273.696    22764272.405
        31.600          26.200
 -11230168.253 4  -8750781.199 3  23811460.012    23811459.298    23811459.705
        26.500          19.300
 -24449391.457 7 -19051467.077 7  20976520.055    20976520.327    20976520.788
        43.100          42.600
  -1571119.432 3  -1224245.519 2  25329307.232    25329306.016    25329306.913
        18.600          17.000
 -11456607.626 4  -8927222.559 4  23342905.838    23342908.892    23342906.407
        26.200          27.900
 13 10  8  1 40 30.0000000  0 11G 5G17G28G26G21G 9G 8G18G15G19G24
  -8078295.344 4  -6294764.519 4  24171203.456    24171204.723    24171203.710
        25.600          24.200
  -3802559.822 3  -2963033.795 3  24823030.133    24823030.819    24823030.759
        20.500          20.500
 -19649543.665 6 -15311326.972 6  21515442.761    21515443.102    21515443.098
        40.700          38.400
 -27765579.216 7 -21635505.502 7  20049495.518    20049496.641    20049495.983
        46.100          44.700
  -2096553.150 2  -1633679.548    25530850.654    25530849.650    25530850.668
        15.100           3.000
 -15588912.509 5 -12147196.241 4  22410345.775    22410346.631    22410345.877
        32.600          26.800
 -15461938.482 5 -12048255.710 4  22780446.067    22780446.939    22780446.014
        31.600          27.100
 -11296851.609 4  -8802742.257 3  23798770.837    23798769.690    23798770.369
        25.300          18.600
 -24497634.149 7 -19089058.787 7  20967339.797    20967340.112    20967340.611
        43.200          42.300
  -1508748.454 3  -1175644.766 2  25341175.727    25341174.297    25341176.223
        19.300          15.100
 -11550934.415 4  -9000723.930 4  23324955.943    23324959.884    23324956.563
        26.200          28.100
 13 10  8  1 41  0.0000000  0 11G 5G17G28G26G21G 9G 8G18G15G19G24
  -7967773.124 3  -6208643.335 3  24192234.403    24192235.955    24192235.187
        23.400          23.800
  -3895936.856 3  -3035795.129 3  24805261.318    24805261.603    24805261.385
        22.600          19.300
 -19618312.702 6 -15286991.147 6  21521386.374    21521386.031    21521386.349
        40.900          38.100
 -27718388.811 7 -21598733.772 7  20058475.336    20058476.625    20058475.872
        46.000          44.400
  -2043002.598 1  -1591951.872    25541040.931    25541040.694    25541041.488
         9.000           3.000
 -15489516.548 5 -12069744.871 4  22429259.673    22429261.071    22429260.012
        32.100          28.100
 -15376762.111 5 -11981884.529 4  22796655.184    22796655.590    22796654.691
        32.600          27.400
 -11363131.832 4  -8854389.196 2  23786156.963    23786156.392    23786156.883
        26.500          17.800
 -24545451.097 7 -19126318.750 7  20958240.543    20958240.887    20958241.313
        43.100          42.700
  -1445903.618 2  -1126674.712 2  25353135.406    25353133.006    25353133.977
        17.000          15.100
 -11645096.914 4  -9074097.255 4  23307037.785    23307040.843    23307038.013
        24.600          28.100
 13 10  8  1 41 30.0000000  0 11G 5G17G28G26G21G 9G 8G18G15G19G24
  -7857150.683 4  -6122444.054 4  24213284.886    24213286.555    24213285.949
        25.300          24.200
  -3989206.719 3  -3108472.939 3  24787512.284    24787513.338    24787513.082
        23.000          19.300
 -19586595.813 6 -15262276.683 6  21527422.098    21527421.576    21527422.072
        41.000          38.200
 -27670678.386 7 -21561556.829 7  20067554.510    20067555.540    20067554.896
        46.100          44.300
  -1989140.254 2  -1549981.267 1  25551289.384    25551290.678    25551288.532
        13.900           9.000
 -15389922.744 5 -11992139.334 4  22448211.905    22448213.059    22448212.275
        32.600          27.600
 -15291401.825 5 -11915370.028 4  22812897.863    22812899.033    22812897.813
        32.600          27.100
 -11429006.246 4  -8905719.909 3  23773622.239    23773621.615    23773622.090
        26.200          19.300
 -24592840.865 7 -19163245.840 7  20949222.467    20949222.916    20949223.303
        43.200          42.700
  -1382587.017 3  -1077337.093 2  25365184.165    25365182.302    25365183.384
        20.500          15.100
 -11739094.292 4  -9147341.930 4  23289150.427    23289153.729    23289151.030
        25.600          27.900
 13 10  8  1 42  0.0000000  0 11G 5G17G28G26G21G 9G 8G18G15G19G24
  -7746431.110 4  -6036169.082 3  24234353.638    24234355.620    24234355.518
        24.900          22.100
  -4082366.541 3  -3181065.003 3  24769784.063    24769786.237    24769784.691
        22.100          21.600
 -19554394.225 6 -15237184.534 6  21533549.499    21533549.407    21533549.531
        41.000          37.900
 -27622448.754 7 -21523975.304 7  20076732.320    20076733.317    20076732.638
        46.100          44.300
  -1934968.681    -1507770.681 2  25561598.099    25561598.899    25561596.895
         3.000          13.900
 -15290132.909 5 -11914381.040 4  22467201.545    22467202.549    22467201.727
        32.700          26.800
 -15205858.716 5 -11848713.078 4  22829175.466    22829177.555    22829175.705
        31.300          27.400
 -11494472.914 4  -8956732.929 2  23761163.884    23761163.200    23761163.666
        27.100          17.000
 -24639801.469 7 -19199838.518 7  20940286.095    20940286.543    20940286.848
        43.300          42.700
  -1318800.645 3  -1027633.459 1  25377322.581    25377320.265    25377321.216
        18.600           9.000
 -11832925.874 4  -9220457.391 4  23271295.028    23271298.119    23271295.390
        25.900          28.400
 13 10  8  1 42 30.0000000  0 11G 5G17G28G26G21G 9G 8G18G15G19G24
  -7635616.503 4  -5949820.044 3  24255441.454    24255443.333    24255442.944
        24.900          22.600
  -4175413.541 3  -3253569.134 3  24752077.829    24752079.763    24752078.896
        18.600          22.100
 -19521709.700 6 -15211716.064 6  21539768.962    21539769.054    21539769.058
        40.700          38.100
 -27573700.924 7 -21485990.000 7  20086008.680    20086009.935    20086009.021
        46.000          44.400
  -1880489.970 1  -1465319.821 1  25571966.419    25571965.812    25571966.115
         9.000          11.000
 -15190149.142 5 -11836471.625 4  22486227.504    22486228.773    22486227.772
        32.000          26.200
 -15120134.042 5 -11781914.661 4  22845488.752    22845490.382    22845488.752
        31.600          27.100
 -11559529.589 4  -9007426.432 3  23748783.361    23748783.475    23748783.754
        25.600          20.500
 -24686331.197 7 -19236095.450 7  20931431.643    20931432.182    20931432.542
        43.300          42.700
  -1254546.954 2   -977565.698 1  25389549.307    25389547.391    25389548.954
        15.100          11.000
 -11926590.047 4  -9293442.434 4  23253470.922    23253474.035    23253471.707
        25.600          27.900
 13 10  8  1 43  0.0000000  0 11G 5G17G28G26G21G 9G 8G18G15G19G24
  -7524709.883 4  -5863399.315 3  24276546.395    24276548.652    24276547.746
        24.200          23.800
  -4268344.978 3  -3325983.203 3  24734393.629    24734395.442    24734394.310
        19.900          21.100
 -19488543.461 6 -15185872.236 6  21546080.879    21546080.379    21546080.668
        40.600          37.700
 -27524435.894 7 -21447601.675 7  20095383.900    20095384.680    20095384.102
        46.200          44.100
  -1825706.713 1  -1422631.547 1  25582391.812    25582391.694    25582391.351
         6.500           9.000
 -15089972.869 5 -11758412.218 4  22505290.311    22505291.749    22505290.787
        32.000          27.100
 -15034229.188 5 -11714975.820 4  22861836.232    22861837.151    22861836.406
        31.500          25.900
 -11624174.337 4  -9057798.977 3  23736482.224    23736482.244    23736482.525
        27.100          19.900
 -24732428.742 7 -19272015.617 7  20922659.944    20922660.053    20922660.588
        43.400          42.700
  -1189828.161 2   -927135.517 2  25401865.291    25401862.931    25401864.317
        17.000          15.100
 -12020086.238 4  -9366296.589 4  23235679.585    23235682.424    23235680.104
        27.100          28.800
 13 10  8  1 43 30.0000000  0 11G 5G17G28G26G21G 9G 8G18G15G19G24
  -7413713.801 4  -5776908.873 4  24297667.890    24297670.509    24297669.594
        24.200          24.900
  -4361157.596 3  -3398304.689 3  24716732.517    24716733.801    24716732.701
        21.600          23.000
 -19454896.630 6 -15159653.922 6  21552483.403    21552483.243    21552483.367
        40.900          37.900
 -27474654.621 7 -21408811.084 7  20104856.719    20104857.666    20104857.048
        45.900          44.200
  -1770621.160 2  -1379707.779 1  25592873.507    25592872.598    25592872.720
        12.600           6.500
 -14989605.783 5 -11680204.116 4  22524390.019    22524391.105    22524390.078
        32.100          27.400
 -14948145.476 5 -11647897.609 4  22878217.476    22878218.452    22878217.586
        31.300          25.900
 -11688405.687 4  -9107849.373 3  23724259.045    23724258.893    23724259.461
        26.500          19.300
 -24778092.622 7 -19307597.862 7  20913970.211    20913970.578    20913971.098
        43.500          42.800
  -1124646.280 2   -876344.454 2  25414267.555    25414266.344    25414267.781
        12.600          13.900
 -12113413.113 4  -9439018.793 4  23217919.484    23217923.108    23217920.424
        27.400          28.800
 13 10  8  1 44  0.0000000  0 11G 5G17G28G26G21G 9G 8G18G15G19G24
  -7302630.921 3  -5690350.799 4  24318808.015    24318808.475    24318808.179
        23.800          24.200
  -4453848.562 3  -3470531.412 3  24699093.382    24699094.966    24699093.572
        21.600          22.100
 -19420770.853 6 -15133062.400 6  21558977.336    21558977.043    21558977.326
        40.700          37.700
 -27424358.119 7 -21369619.022 7  20114427.755    20114428.965    20114428.145
        46.100          44.300
  -1715235.654 9  -1336550.205 1  25603412.413    25603412.516    25603413.516
        -3.000           6.500
 -14889049.345 5 -11601848.481 4  22543524.908    22543526.679    22543525.212
        32.100          27.100
 -14861884.106 5 -11580680.978 4  22894632.412    22894633.785    22894632.443
        31.100          27.600
 -11752221.336 4  -9157575.834 3  23712116.321    23712115.292    23712116.233
        27.400          20.500
 -24823321.210 7 -19342840.917 7  20905363.483    20905363.882    20905364.308
        43.600          42.900
  -1059003.663 2   -825194.378 2  25426759.640    25426757.500    25426758.123
        15.100          15.100
 -12206569.806 4  -9511608.409 4  23200191.988    23200196.138    23200192.893
        26.800          28.800
 13 10  8  1 44 30.0000000  0 11G 5G17G28G26G21G 9G 8G18G15G19G24
  -7191464.174 3  -5603727.366 4  24339961.501    24339963.212    24339962.130
        23.400          24.200
  -4546415.273 3  -3542661.285 3  24681478.618    24681480.408    24681478.508
        21.600          22.100
 -19386167.643 6 -15106098.857 6  21565562.048    21565561.707    21565561.994
        41.000          37.800
 -27373547.416 7 -21330026.278 7  20124096.611    20124097.813    20124097.180
        46.100          44.000
  -1659552.332    -1293160.709 1  25614007.874    25614010.505    25614010.494
         3.000           6.500
 -14788305.279 5 -11523346.646 4  22562696.544    22562697.206    22562696.410
        32.000          25.600
 -14775446.571 5 -11513327.066 4  22911080.316    22911082.520    22911081.106
        31.300          26.800
 -11815619.039 4  -9206976.659 3  23700052.488    23700051.126    23700052.109
        28.100          19.900
 -24868112.923 7 -19377743.551 7  20896839.672    20896840.299    20896840.659
        43.500          43.000
   -992902.529 2   -773687.047 2  25439338.773    25439337.021    25439338.134
        15.100          15.100
 -12299555.155 4  -9584064.485 4  23182498.070    23182501.296    23182498.950
        26.800          28.800
 13 10  8  1 45  0.0000000  0 11G 5G17G28G26G21G 9G 8G18G15G19G24
  -7080216.576 4  -5517040.958 4  24361130.944    24361133.004    24361131.719
        24.600          24.600
  -4638854.362 3  -3614691.693 3  24663887.776    24663889.673    24663888.891
        23.000          21.600
 -19351088.126 6 -15078764.166 6  21572237.307    21572237.118    21572237.380
        40.800          37.700
 -27322223.460 7 -21290033.602 7  20133863.185    20133864.424    20133863.696
        45.700          44.100
  -1603573.859    -1249541.158 2  25624661.744    25624660.219    25624661.004
                        12.600
 -14687375.377 5 -11444699.986 4  22581902.411    22581903.570    22581902.528
        30.400          25.300
 -14688833.856 5 -11445836.672 4  22927562.938    22927563.946    22927562.874
        30.400          25.900
 -11878597.076 4  -9256050.444 3  23688067.349    23688066.859    23688067.593
        27.100          18.600
 -24912466.490 7 -19412304.772 7  20888399.622    20888400.198    20888400.457
        43.500          43.300
   -926345.262 2   -721824.227 2  25452003.780    25452002.552    25452003.453
        16.100          16.100
 -12392368.205 4  -9656386.317 4  23164836.661    23164839.276    23164837.394
        28.400          29.000
 13 10  8  1 45 30.0000000  0 11G 5G17G28G26G21G 9G 8G18G15G19G24
  -6968889.979 4  -5430292.977 4  24382316.015    24382317.605    24382316.892
        24.200          24.200
  -4731163.168 3  -3686620.624 3  24646322.672    24646323.569    24646323.264
        22.600          21.100
 -19315533.745 6 -15051059.447 6  21579003.081    21579003.044    21579003.197
        40.700          37.800
 -27270387.334 7 -21249641.829 7  20143727.587    20143728.631    20143727.940
        46.000          44.000
  -1547302.525    -1205693.316    25635370.157    25635369.721    25635369.397
         3.000           3.000
 -14586261.431 5 -11365909.918 4  22601143.875    22601145.215    22601144.097
        31.800          26.800
 -14602047.066 5 -11378210.617 4  22944077.649    22944078.937    22944077.656
        30.600          25.600
 -11941153.301 4  -9304795.556 3  23676163.699    23676163.249    23676163.416
        26.800          21.600
 -24956379.786 7 -19446522.923 7  20880043.309    20880043.865    20880044.101
        43.600          43.400
   -859334.040 2   -669607.708 3  25464755.665    25464754.348    25464755.221
        16.100          19.300
 -12485008.034 4  -9728573.165 4  23147207.573    23147211.049    23147207.849
        27.400          29.900
 13 10  8  1 46  0.0000000  0 11G 5G17G28G26G21G 9G 8G18G15G19G24
  -6857486.943 3  -5343485.418 3  24403515.770    24403517.209    24403516.381
        22.100          23.000
  -4823338.737 3  -3758445.744 3  24628782.334    24628783.525    24628782.779
        21.600          22.600
 -19279506.295 6 -15022986.103 6  21585858.984    21585858.871    21585859.009
        40.600          37.800
 -27218040.059 7 -21208851.757 7  20153688.630    20153689.956    20153689.133
        45.800          43.800
  -1490740.458    -1161619.033 1  25646132.153    25646132.237    25646133.378
         3.000           9.000
 -14484965.042 5 -11286977.699 4  22620420.131    22620421.172    22620420.252
        31.300          26.800
 -14515087.643 5 -11310450.050 4  22960625.707    22960626.961    22960625.395
        30.400          25.600
 -12003285.453 4  -9353210.223 3  23664339.957    23664339.108    23664340.064
        27.400          19.300
 -24999851.473 7 -19480396.964 7  20871770.827    20871771.404    20871771.722
        43.600          43.400
   -791871.405 3   -617039.459 2  25477593.663    25477591.898    25477593.298
        19.900          13.900
 -12577473.762 4  -9800624.337 4  23129611.936    23129614.938    23129612.576
        26.500          28.600
 13 10  8  1 46 30.0000000  0 11G 5G17G28G26G21G 9G 8G18G15G19G24
  -6746011.151 3  -5256621.187 3  24424728.454    24424730.647    24424729.053
        21.600          23.800
  -4915378.165 3  -3830164.749 3  24611267.241    24611268.613    24611267.926
        23.000          20.500
 -19243006.930 6 -14994545.032 6  21592804.631    21592804.383    21592804.618
        40.600          37.500
 -27165182.674 7 -21167664.203 7  20163747.374    20163748.399    20163747.628
        45.800          43.800
  -1433890.311 1  -1117320.289 9  25656950.060    25656949.411    25656951.235
         9.000          -3.000
 -14383487.715 5 -11207904.470 4  22639729.772    22639731.544    22639730.410
        30.600          25.900
 -14427956.589 5 -11242555.756 4  22977205.778    22977207.256    22977205.947
        31.100          25.600
 -12064992.549 4  -9401293.663 3  23652597.748    23652597.431    23652597.559
        27.600          21.100
 -25042880.354 7 -19513925.959 7  20863582.978    20863583.141    20863583.553
        43.700          43.300
   -723959.685 3   -564121.282 2  25490516.785    25490515.225    25490515.948
        18.600          15.100
 -12669764.251 4  -9872538.987 5  23112049.400    23112053.282    23112050.169
        27.600          30.100
 13 10  8  1 47  0.0000000  0 11G 5G17G28G26G21G 9G 8G18G15G19G24
  -6634464.467 2  -5169701.710 3  24445954.321    24445956.664    24445955.466
        17.800          21.600
  -5007278.359 3  -3901775.285 3  24593780.485    24593779.757    24593780.114
        20.500          19.300
 -19206037.083 6 -14965737.356 6  21599839.614    21599839.305    21599839.798
        40.700          37.300
 -27111816.328 7 -21126080.048 7  20173902.737    20173903.713    20173903.004
        45.900          44.100
  -1376754.142    -1072799.605 1  25667824.061    25667827.087    25667823.594
         3.000          11.000
 -14281830.898 5 -11128691.399 4  22659074.850    22659076.349    22659074.958
        30.400          25.600
 -14340655.536 5 -11174528.970 4  22993818.793    22993819.918    22993818.985
        30.200          25.600
 -12126272.159 4  -9449044.011 3  23640936.409    23640935.435    23640936.549
        28.100          19.300
 -25085464.341 7 -19547108.286 7  20855478.957    20855479.665    20855480.120
        43.600          43.500
   -655601.106 3   -510854.939 2  25503525.479    25503523.091    25503525.109
        19.900          16.100
 -12761878.538 4  -9944316.323 4  23094520.774    23094523.938    23094521.516
        28.400          29.000
 13 10  8  1 47 30.0000000  0 11G 5G17G28G26G21G 9G 8G18G15G19G24
  -6522850.135 3  -5082729.508 3  24467193.979    24467195.984    24467194.697
        22.100          23.000
  -5099036.634 3  -3973275.226 3  24576317.441    24576319.879    24576318.539
        19.900          21.100
 -19168598.724 6 -14936564.605 6  21606963.813    21606963.593    21606964.035
        40.700          37.400
 -27057942.089 7 -21084100.137 7  20184154.460    20184155.702    20184154.815
        45.700          43.800
  -1319334.445    -1028057.051 9  25678749.615    25678751.839    25678748.725
         3.000          -3.000
 -14179996.650 5 -11049340.064 4  22678454.011    22678454.860    22678453.725
        30.800          25.900
 -14253185.447 5 -11106370.475 4  23010463.942    23010465.160    23010463.768
        30.100          24.600
 -12187122.319 4  -9496459.745 3  23629356.436    23629356.414    23629356.738
        27.600          21.100
 -25127602.357 7 -19579943.096 7  20847460.613    20847461.140    20847461.468
        43.600          43.500
   -586798.012 3   -457242.242 2  25516618.168    25516615.985    25516617.589
        21.100          12.600
 -12853815.226 4 -10015955.264 4  23077025.870    23077029.139    23077026.418
        28.400          29.200
 13 10  8  1 48  0.0000000  0 11G 5G17G28G26G21G 9G 8G18G15G19G24
  -6411170.524 4  -4995706.439 3  24488446.092    24488447.814    24488447.105
        24.200          23.000
  -5190649.971 3  -4044662.216 3  24558885.092    24558886.712    24558884.977
        18.600          23.800
 -19130692.924 6 -14907027.616 6  21614177.212    21614176.899    21614177.195
        40.500          37.400
 -27003561.071 7 -21041725.332 7  20194502.913    20194504.017    20194503.307
        45.800          43.700
  -1261633.491 1   -983095.148 1  25689729.918    25689730.418    25689730.105
         9.000           6.500
 -14077986.436 5 -10969851.619 4  22697865.359    22697866.685    22697865.506
        30.600          25.900
 -14165547.286 5 -11038081.026 4  23027141.017    23027142.403    23027141.153
        30.800          25.300
 -12247541.176 4  -9543539.373 3  23617859.292    23617859.285    23617859.518
        28.100          21.100
 -25169292.712 7 -19612429.082 7  20839527.369    20839527.779    20839528.091
        43.600          43.800
   -517552.635 3   -403284.858 2  25529794.685    25529793.558    25529793.621
        19.300          17.800
 -12945574.011 4 -10087455.590 5  23059564.564    23059568.137    23059565.461
        29.000          30.100
 13 10  8  1 48 30.0000000  0 11G 5G17G28G26G21G 9G 8G18G15G19G24
  -6299428.173 3  -4908634.492 3  24509710.963    24509712.259    24509711.148
        22.100          23.800
  -5282115.604 3  -4115934.095 3  24541479.722    24541481.353    24541480.415
        22.600          22.600
 -19092321.484 6 -14877127.795 6  21621478.853    21621478.855    21621478.982
        40.600          37.400
 -26948674.301 7 -20998956.437 7  20204947.438    20204948.682    20204947.804
        45.600          43.600
  -1203653.735     -937916.307 9  25700763.439    25700763.649    25700761.506
         3.000          -3.000
 -13975801.969 5 -10890227.381 4  22717310.674    22717311.587    22717310.616
        30.400          25.900
 -14077742.659 5 -10969661.858 4  23043849.515    23043850.940    23043849.888
        30.600          25.900
 -12307526.710 4  -9590281.331 3  23606444.676    23606444.831    23606444.731
        27.400          20.500
 -25210533.770 7 -19644564.972 7  20831679.155    20831679.824    20831680.163
        43.700          43.800
   -447867.679 3   -348984.994 2  25543055.671    25543054.076    25543054.690
        19.900          17.000
 -13037153.307 4 -10158816.055 5  23042137.260    23042141.367    23042138.303
        28.400          30.400
 13 10  8  1 49  0.0000000  0 11G 5G17G28G26G21G 9G 8G18G15G19G24
  -6187625.801 3  -4821515.784 4  24530986.088    24530987.575    24530986.570
        22.600          24.200
  -5373430.320 4  -4187088.401 4  24524103.486    24524104.768    24524104.094
        24.200          24.200
 -19053485.645 6 -14846866.092 6  21628869.429    21628869.065    21628869.297
        40.600          37.300
 -26893282.983 7 -20955794.384 7  20215488.038    20215489.317    20215488.530
        45.600          43.600
  -1145397.808 1   -892521.062 1  25711848.631    25711848.110    25711850.615
         6.500           6.500
 -13873444.815 5 -10810468.592 4  22736788.135    22736789.561    22736788.270
        30.100          24.200
 -13989772.782 4 -10901113.920 4  23060589.540    23060591.121    23060589.785
        29.900          25.300
 -12367077.085 4  -9636684.217 3  23595113.353    23595111.840    23595113.320
        28.400          19.300
 -25251324.377 7 -19676349.862 7  20823917.319    20823917.599    20823917.984
        43.700          43.800
   -377745.283 2   -294344.331 2  25556400.318    25556397.733    25556399.014
        16.100          13.900
 -13128552.145 4 -10230035.894 5  23024744.753    23024748.771    23024745.518
        27.600          30.400
 13 10  8  1 49 30.0000000  0 11G 5G17G28G26G21G 9G 8G18G15G19G24
  -6075765.775 3  -4734352.141 3  24552273.070    24552273.830    24552273.188
        23.400          22.600
  -5464591.274 3  -4258122.888 3  24506755.897    24506756.969    24506756.461
        23.800          23.800
 -19014186.939 6 -14816243.718 6  21636347.464    21636347.293    21636347.629
        40.500          37.100
 -26837388.266 7 -20912240.079 7  20226124.322    20226125.783    20226124.898
        45.400          43.600
  -1086867.794 9   -846911.317 9  25722987.337    25722990.065    25722990.089
        -3.000          -3.000
 -13770916.559 5 -10730576.462 4  22756298.917    22756300.356    22756299.035
        31.000          26.200
 -13901638.827 5 -10832438.139 4  23077360.908    23077362.997    23077361.310
        30.600          24.900
 -12426190.416 4  -9682746.538 3  23583864.548    23583863.979    23583864.474
        28.100          19.900
 -25291662.945 7 -19707782.511 7  20816240.802    20816241.488    20816241.730
        43.700          44.000
   -307187.793 3   -239364.620 2  25569826.480    25569824.859    25569826.809
        19.300          16.100
 -13219769.792 4 -10301114.554 4  23007386.912    23007390.067    23007387.392
        28.100          29.000
