     2.10           OBSERVATION DATA    G (GPS)             RINEX VERSION / TYPE
teqc  2005Sep1                          20131007 00:15:20UTCPGM / RUN BY / DATE
OBSERVATION MODE: IGS-Net                                   COMMENT
WSRT Westerbork_Synth (WSRT)                                MARKER NAME
13506M005                                                   MARKER NUMBER
229                 AOA SNR-12 ACT       3.3.32.2N          REC # / TYPE / VERS
273                 AOAD/M_T        DUTD                    ANT # / TYPE
        0.3888        0.0000        0.0000                  ANTENNA: DELTA H/E/N
  3828735.6941  443305.1350  5064884.8236                   APPROX POSITION XYZ
  6.60450833  52.91461271  82.2809  LonLatAlt  RSW          COMMENT
Linux 2.4.20-8|Pentium IV|gcc|Linux|486/DX+                 COMMENT
HANS VAN DER MAREL  DUT/DEOS                                OBSERVER / AGENCY
     1     1                                                WAVELENGTH FACT L1/2
     7    L1    L2    C1    P2    P1    S1    S2            # / TYPES OF OBSERV
RUN BY HANS VAN DER MAREL                                   COMMENT
H.VANDERMAREL@TUDELFT.NL                                    COMMENT
    P1 =    P1  TurboRogue; =    Y1  Benchmark              COMMENT
    L1 = L1(CA)                                             COMMENT
    P2 =    P2  TurboRogue; =    Y2  Benchmark              COMMENT
    L2 = L2(P2) TurboRogue; = L2(Y2) Benchmark              COMMENT
 SNR is mapped to RINEX snr flag value [0-9]                COMMENT
  L1 & L2: min(max(int(snr_dBHz/6), 0), 9)                  COMMENT
  2013    10     6     0     0    0.0000000     GPS         TIME OF FIRST OBS
  2013    10     6    23    59   30.0000000     GPS         TIME OF LAST OBS
                                                            END OF HEADER
 13 10  6  0  0  0.0000000  0 12G28G26G 6G15G21G 8G13G 7G 9G19G10G 5
 -14099923.032 5 -10986950.258 4  22555507.827    22555508.018    22555507.780
        33.200          28.400
 -26023054.395 6 -20277698.573 6  20496658.504    20496659.470    20496659.194
        41.500          39.400
    330492.521 2    257527.295 2  25302263.410    25302265.260    25302264.248
        15.100          12.600
  -6883639.990 3  -5363872.530 3  24320550.032    24320550.963    24320551.387
        19.300          19.300
  -5993477.896 2  -4670244.865 1  25236088.988    25236087.730    25236088.253
        15.100           6.500
 -26811500.170 7 -20892070.132 7  20550531.710    20550532.409    20550531.918
        45.200          43.600
  -1913969.514 2  -1491388.454 1  25095991.460    25095993.543    25095991.788
        13.900          11.000
 -17900697.017 6 -13948587.271 5  21788660.855    21788660.779    21788661.711
        38.600          35.600
 -29478206.643 7 -22970024.867 7  19805633.116    19805633.426    19805633.293
        46.000          45.000
  -2081478.580 2  -1621930.554 2  25235844.044    25235842.966    25235843.730
        15.100          12.600
  -9454679.048 4  -7367265.552 3  23542856.543    23542858.234    23542856.317
        27.400          22.600
 -25190388.322 7 -19628863.645 7  20913483.055    20913483.441    20913483.917
        43.400          44.600
 13 10  6  0  0 30.0000000  0 12G28G26G 6G15G21G 8G13G 7G 9G19G10G 5
 -14176275.633 5 -11046445.765 4  22540978.878    22540978.775    22540978.590
        33.600          28.100
 -26086861.625 6 -20327418.491 6  20484516.751    20484517.319    20484517.082
        41.800          39.300
    356585.196 2    277859.209 1  25307227.998    25307229.247    25307229.699
        17.800          11.000
  -6984383.248 3  -5442373.768 3  24301380.308    24301380.189    24301380.776
        19.300          21.100
  -6037200.696 2  -4704314.603 2  25227769.242    25227767.022    25227768.172
        13.900          17.000
 -26799459.592 7 -20882687.861 7  20552823.022    20552823.668    20552823.123
        45.100          43.500
  -1808997.285 1  -1409591.934 2  25115966.282    25115969.092    25115967.868
         6.500          12.600
 -17826410.163 6 -13890701.420 5  21802797.384    21802797.261    21802798.117
        38.700          35.600
 -29465432.221 7 -22960070.763 7  19808063.711    19808064.249    19808064.059
        45.800          44.900
  -2137331.593 2  -1665452.363 1  25225214.627    25225214.247    25225215.545
        13.900          11.000
  -9342737.176 4  -7280038.130 3  23564158.896    23564159.524    23564158.348
        27.600          22.600
 -25160592.232 7 -19605645.924 7  20919152.850    20919153.334    20919153.934
        43.400          44.300
 13 10  6  0  1  0.0000000  0 12G28G26G 6G15G21G 8G13G 7G 9G19G10G 5
 -14252265.575 5 -11105658.694 4  22526518.189    22526517.915    22526518.223
        34.000          27.900
 -26150260.471 6 -20376820.185 6  20472452.201    20472452.877    20472452.578
        41.800          39.400
    383200.355 2    298598.272 2  25312294.100    25312294.037    25312294.044
        13.900          12.600
  -7085048.104 3  -5520813.874 3  24282223.509    24282224.221    24282224.342
        21.100          22.100
  -6080480.413 2  -4738039.044 2  25219533.353    25219532.029    25219531.909
        15.100          15.100
 -26786944.429 7 -20872935.787 7  20555204.659    20555205.271    20555204.776
        45.100          43.700
  -1703976.001 1  -1327757.203    25135952.417    25135953.166    25135952.534
         6.500           3.000
 -17751817.630 6 -13832577.375 5  21816991.922    21816991.693    21816992.696
        38.700          35.500
 -29452083.245 7 -22949668.964 7  19810604.210    19810604.522    19810604.297
        45.800          44.900
  -2192745.906 2  -1708632.314 2  25214670.851    25214669.325    25214670.686
        16.100          17.800
  -9230639.105 4  -7192688.988 4  23585489.608    23585491.721    23585489.589
        27.400          24.200
 -25130227.361 7 -19581984.999 7  20924931.421    20924931.636    20924932.187
        43.400          44.300
 13 10  6  0  1 30.0000000  0 12G28G26G 6G15G21G 8G13G 7G 9G19G10G 5
 -14327890.580 5 -11164587.258 4  22512127.160    22512126.456    22512127.156
        33.500          27.100
 -26213249.504 6 -20425902.548 6  20460465.974    20460466.330    20460466.252
        41.800          39.500
    410337.583 2    319744.173    25317457.314    25317458.039    25317457.691
        12.600           3.000
  -7185633.059 3  -5599191.737 3  24263083.658    24263083.365    24263084.221
        22.600          19.900
  -6123315.627 2  -4771417.098 2  25211380.963    25211381.271    25211382.306
        16.100          12.600
 -26773955.502 7 -20862814.541 7  20557676.576    20557676.922    20557676.501
        45.200          43.400
  -1598906.276 2  -1245884.672 1  25155946.738    25155948.463    25155947.427
        12.600          11.000
 -17676921.296 6 -13774216.600 5  21831243.938    21831243.987    21831244.790
        38.600          35.200
 -29438160.546 7 -22938820.104 7  19813253.364    19813253.952    19813253.698
        45.700          44.900
  -2247718.714 2  -1751468.259 1  25204210.639    25204207.704    25204208.905
        16.100          11.000
  -9118387.114 4  -7105219.923 4  23606850.501    23606852.429    23606850.210
        27.400          24.200
 -25099294.738 7 -19557881.672 7  20930817.772    20930817.984    20930818.524
        43.400          44.300
 13 10  6  0  2  0.0000000  0 12G28G26G 6G15G21G 8G13G 7G 9G19G10G 5
 -14403148.470 5 -11223229.757 4  22497806.049    22497805.813    22497805.944
        33.400          28.100
 -26275827.180 7 -20474664.367 6  20448557.623    20448558.308    20448558.206
        42.200          39.600
    437995.572 1    341295.868 2  25322720.762    25322721.473    25322721.035
        11.000          13.900
  -7286137.059 3  -5677506.498 3  24243959.381    24243958.055    24243958.980
        22.100          20.500
  -6165704.836 2  -4804447.645 1  25203315.256    25203313.728    25203315.155
        17.000          11.000
 -26760493.794 7 -20852324.902 7  20560238.002    20560238.539    20560237.981
        44.900          43.300
  -1493789.331 2  -1163975.415    25175949.981    25175949.977    25175950.972
        15.100           3.000
 -17601722.945 6 -13715620.494 5  21845553.842    21845554.041    21845554.632
        38.600          35.400
 -29423665.247 7 -22927525.063 7  19816011.974    19816012.320    19816012.203
        45.700          44.800
  -2302247.900 2  -1793958.522 2  25193833.504    25193830.307    25193831.841
        12.600          15.100
  -9005983.523 4  -7017632.744 3  23628240.456    23628241.897    23628240.114
        26.200          23.400
 -25067794.861 7 -19533336.323 7  20936812.188    20936812.084    20936812.717
        43.500          44.200
 13 10  6  0  2 30.0000000  0 12G28G26G 6G15G21G 8G13G 7G 9G19G10G 5
 -14478037.046 5 -11281584.465 4  22483555.048    22483555.319    22483555.124
        33.800          28.600
 -26337991.949 7 -20523104.445 6  20436728.415    20436728.735    20436728.711
        42.100          39.700
    466173.888 2    363252.958 2  25328083.682    25328083.724    25328083.383
        16.100          12.600
  -7386558.899 3  -5755757.262 3  24224849.615    24224848.526    24224849.419
        20.500          19.900
  -6207647.167 1  -4837129.987 2  25195333.407    25195332.324    25195333.282
         9.000          16.100
 -26746559.992 7 -20841467.388 7  20562889.547    20562890.044    20562889.480
        45.200          43.500
  -1388625.975 1  -1082029.975 2  25195961.683    25195961.995    25195963.097
        11.000          12.600
 -17526224.643 6 -13656790.655 5  21859920.712    21859920.718    21859921.576
        38.300          35.100
 -29408598.095 7 -22915784.425 7  19818879.075    19818879.589    19818879.286
        45.800          45.000
  -2356330.838 2  -1836101.060 2  25183542.271    25183539.913    25183542.115
        13.900          16.100
  -8893430.557 4  -6929929.148 3  23649658.760    23649660.157    23649658.391
        26.500          22.600
 -25035728.062 7 -19508349.222 7  20942913.938    20942914.317    20942914.777
        43.400          44.000
 13 10  6  0  3  0.0000000  0 12G28G26G 6G15G21G 8G13G 7G 9G19G10G 5
 -14552553.725 5 -11339649.387 4  22469375.110    22469375.092    22469375.016
        33.800          28.800
 -26399742.268 7 -20571221.570 6  20424977.494    20424978.056    20424977.970
        42.100          39.800
    494871.209 2    385614.503 2  25333544.918    25333544.924    25333544.499
        17.000          15.100
  -7486897.227 3  -5833942.964 3  24205754.250    24205754.522    24205754.658
        18.600          19.300
  -6249141.470 1  -4869463.194 1  25187436.934    25187436.981    25187437.861
        11.000          11.000
 -26732154.796 7 -20830242.558 7  20565630.886    20565631.362    20565630.819
        45.000          43.500
  -1283416.982 1  -1000048.986 1  25215982.483    25215983.633    25215982.697
         6.500           6.500
 -17450427.955 6 -13597728.314 5  21874344.030    21874344.222    21874345.018
        37.900          35.400
 -29392960.363 7 -22903599.179 7  19821854.651    19821855.374    19821855.002
        45.700          44.800
  -2409965.390 2  -1877894.203 2  25173335.178    25173333.131    25173334.147
        15.100          15.100
  -8780730.497 4  -6842110.937 4  23671104.435    23671106.550    23671104.299
        25.300          24.600
 -25003095.302 7 -19482921.111 7  20949124.099    20949124.059    20949124.690
        43.400          44.100
 13 10  6  0  3 30.0000000  0 12G28G26G 6G15G21G 8G13G 7G 9G19G10G 5
 -14626696.341 5 -11397422.843 4  22455266.278    22455266.040    22455266.281
        34.500          28.100
 -26461076.646 7 -20619014.591 6  20413305.896    20413306.593    20413306.457
        42.400          39.800
    524086.817 2    408379.908 1  25339103.255    25339105.300    25339102.999
        16.100           9.000
  -7587150.939 3  -5912062.733 3  24186677.486    24186677.274    24186678.019
        22.100          20.500
  -6290186.201 2  -4901446.106 1  25179627.688    25179626.320    25179626.384
        15.100          11.000
 -26717279.286 7 -20818651.250 7  20568461.528    20568462.079    20568461.538
        45.200          43.400
  -1178163.303     -918033.185 1  25236011.627    25236013.182    25236012.394
         3.000           9.000
 -17374335.021 6 -13538435.122 5  21888823.875    21888824.144    21888824.928
        37.900          34.700
 -29376752.821 7 -22890969.926 7  19824939.121    19824939.486    19824939.340
        45.900          44.700
  -2463149.004 2  -1919335.978 2  25163214.292    25163212.139    25163213.671
        17.000          13.900
  -8667885.503 4  -6754179.801 3  23692578.443    23692580.414    23692578.248
        26.200          23.000
 -24969897.574 7 -19457052.757 7  20955441.353    20955441.445    20955442.009
        43.500          44.100
 13 10  6  0  4  0.0000000  0 11G28G26G 6G15G21G 8G 7G 9G19G10G 5
 -14700462.926 5 -11454903.293 4  22441229.150    22441228.676    22441228.981
        34.400          28.600
 -26521993.635 7 -20666482.371 6  20401713.759    20401714.574    20401714.178
        42.200          40.100
    553819.592 2    431548.261 1  25344762.922    25344762.609    25344761.684
        17.000           9.000
  -7687318.702 3  -5990115.483 3  24167614.867    24167615.228    24167616.752
        21.100          21.600
  -6330780.115 1  -4933077.743 1  25171902.252    25171901.859    25171902.223
        11.000          11.000
 -26701934.237 7 -20806694.067 7  20571381.590    20571382.031    20571381.614
        45.200          43.300
 -17297947.776 6 -13478912.604 5  21903360.055    21903360.166    21903361.030
        38.000          35.100
 -29359976.706 7 -22877897.627 7  19828131.348    19828131.858    19828131.646
        45.800          44.700
  -2515879.059 3  -1960424.333 2  25153180.121    25153178.721    25153179.675
        19.900          13.900
  -8554897.880 4  -6666137.535 3  23714079.589    23714081.215    23714079.371
        26.800          23.000
 -24936135.627 7 -19430744.763 7  20961865.873    20961866.197    20961866.588
        43.300          43.900
 13 10  6  0  4 30.0000000  0 11G28G26G 6G15G21G 8G 7G 9G19G10G 5
 -14773850.906 5 -11512088.712 4  22427263.587    22427263.599    22427263.612
        34.300          28.400
 -26582491.793 7 -20713623.789 6  20390201.363    20390202.227    20390201.787
        42.400          40.000
    584068.572 2    455118.906 2  25350518.597    25350518.423    25350518.578
        12.600          12.600
  -7787399.264 3  -6068100.331 3  24148570.845    24148571.113    24148571.400
        21.600          22.100
  -6370921.992 2  -4964357.100 2  25164263.695    25164262.802    25164263.922
        15.100          12.600
 -26686120.535 7 -20794371.702 7  20574390.793    20574391.308    20574390.804
        45.100          43.400
 -17221268.244 6 -13419162.332 5  21917952.411    21917951.886    21917952.895
        38.200          34.800
 -29342632.944 7 -22864383.004 7  19831431.838    19831432.318    19831432.122
        45.900          44.800
  -2568153.288 2  -2001157.503 2  25143233.677    25143231.462    25143232.603
        17.800          17.000
  -8441769.959 4  -6577985.908 3  23735606.730    23735608.015    23735607.045
        27.600          21.600
 -24901810.472 7 -19403997.900 7  20968397.652    20968397.893    20968398.559
        43.300          43.700
 13 10  6  0  5  0.0000000  0 11G28G26G 6G15G21G 8G 7G 9G19G10G 5
 -14846858.036 5 -11568977.369 4  22413370.661    22413370.658    22413370.755
        34.400          28.800
 -26642569.408 7 -20760437.507 6  20378768.694    20378769.693    20378769.379
        42.400          40.200
    614832.545 2    479090.857 1  25356371.839    25356373.189    25356372.369
        13.900           9.000
  -7887391.301 3  -6146016.171 3  24129542.690    24129543.224    24129543.367
        22.100          21.600
  -6410610.895 2  -4995283.540 2  25156710.898    25156711.114    25156710.220
        13.900          15.100
 -26669839.203 7 -20781684.946 7  20577489.418    20577489.737    20577489.158
        45.100          43.500
 -17144298.358 6 -13359185.806 5  21932599.412    21932598.825    21932599.862
        38.300          34.600
 -29324722.409 7 -22850426.742 7  19834840.303    19834840.555    19834840.449
        45.900          44.700
  -2619969.132 2  -2041533.466 2  25133373.296    25133371.645    25133371.897
        13.900          12.600
  -8328503.741 4  -6489726.530 3  23757160.664    23757162.181    23757160.534
        25.600          21.100
 -24866922.867 7 -19376812.769 7  20975036.547    20975036.867    20975037.303
        43.200          43.900
 13 10  6  0  5 30.0000000  0 12G28G26G 6G15G21G 8G27G 7G 9G19G10G 5
 -14919481.841 5 -11625567.325 4  22399550.940    22399550.920    22399550.990
        34.300          29.200
 -26702225.130 7 -20806922.489 6  20367416.888    20367417.548    20367417.338
        42.400          40.200
    646110.622 2    503463.367 1  25362323.535    25362324.444    25362324.356
        13.900          11.000
  -7987293.701 3  -6223862.161 3  24110532.586    24110532.075    24110533.289
        22.600          20.500
  -6449845.676 1  -5025856.098 2  25149245.072    25149244.822    25149245.699
        11.000          15.100
 -26653091.290 7 -20768634.625 7  20580676.112    20580676.660    20580676.102
        45.100          43.400
      5222.692 2      4069.959 3  25035846.739    25035847.141    25035846.689
        17.000          18.600
 -17067039.803 6 -13298984.338 5  21947300.683    21947300.829    21947301.605
        38.000          34.700
 -29306246.332 7 -22836029.800 7  19838355.844    19838356.309    19838356.200
        45.800          44.600
  -2671324.385 2  -2081550.503 2  25123599.722    25123597.694    25123599.537
        15.100          12.600
  -8215101.585 4  -6401361.227 3  23778740.275    23778742.050    23778740.196
        24.600          20.500
 -24831473.333 7 -19349189.767 7  20981782.497    20981782.741    20981783.328
        43.200          43.800
 13 10  6  0  6  0.0000000  0 12G28G26G 6G15G21G 8G27G 7G 9G19G10G 5
 -14991720.559 5 -11681857.230 4  22385804.432    22385804.029    22385804.551
        34.900          29.000
 -26761457.417 7 -20853077.515 6  20356145.452    20356145.886    20356145.740
        42.600          40.200
    677901.864 2    528235.747 2  25368373.229    25368375.085    25368373.060
        16.100          12.600
  -8087105.515 3  -6301637.605 3  24091539.110    24091538.646    24091539.478
        22.100          23.000
  -6488624.091 2  -5056073.030 2  25141865.352    25141865.555    25141865.124
        13.900          12.600
 -26635877.676 7 -20755221.415 7  20583951.772    20583952.198    20583951.676
        45.100          43.400
      9004.807 2      7017.049 2  25036565.912    25036567.422    25036565.711
        17.000          17.800
 -16989494.453 6 -13238559.401 5  21962056.896    21962057.397    21962057.822
        37.700          34.800
 -29287205.691 7 -22821192.931 7  19841979.247    19841979.728    19841979.537
        45.800          44.800
  -2722216.528 2  -2121206.745 2  25113914.855    25113913.123    25113916.127
        16.100          17.000
  -8101565.882 3  -6312891.893 3  23800345.236    23800347.317    23800345.076
        23.800          19.300
 -24795463.040 7 -19321129.808 7  20988634.547    20988635.293    20988635.730
        43.000          43.600
 13 10  6  0  6 30.0000000  0 12G28G26G 6G15G21G 8G27G 7G 9G19G10G 5
 -15063571.809 5 -11737845.209 5  22372131.321    22372131.435    22372131.351
        34.400          30.100
 -26820264.726 7 -20898901.389 6  20344954.625    20344955.225    20344955.065
        42.600          40.300
    710204.749 2    553406.836 1  25374520.615    25374521.337    25374519.878
        16.100           6.500
  -8186824.999 3  -6379341.073 3  24072562.707    24072563.024    24072563.470
        22.600          21.100
  -6526946.321 1  -5085934.488 2  25134571.397    25134573.347    25134572.824
         6.500          13.900
 -26618199.117 7 -20741445.919 7  20587315.654    20587316.375    20587315.848
        45.400          43.300
     13349.393 2     10402.476 3  25037391.847    25037394.299    25037392.136
        16.100          18.600
 -16911664.299 6 -13177912.530 5  21976866.944    21976867.813    21976868.322
        37.600          34.400
 -29267601.650 7 -22805917.055 7  19845709.667    19845710.228    19845710.026
        45.700          44.700
  -2772643.968 3  -2160500.860 2  25104320.098    25104318.255    25104319.809
        18.600          17.000
  -7987898.626 4  -6224320.025 3  23821975.906    23821977.482    23821975.662
        26.800          23.000
 -24758892.855 7 -19292633.576 7  20995593.982    20995594.292    20995594.916
        43.300          43.400
 13 10  6  0  7  0.0000000  0 12G28G26G 6G15G21G 8G27G 7G 9G19G10G 5
 -15135033.548 5 -11793529.658 4  22358532.822    22358533.116    22358532.795
        34.500          29.200
 -26878645.706 7 -20944393.059 6  20333845.155    20333845.740    20333845.513
        42.600          40.300
    743018.644 1    578976.060 2  25380764.943    25380765.741    25380764.964
        11.000          12.600
  -8286451.049 3  -6456971.740 3  24053604.359    24053604.289    24053604.548
        23.000          22.600
  -6564810.939 2  -5115439.378 2  25127367.471    25127367.432    25127367.506
        12.600          13.900
 -26600056.694 7 -20727308.960 7  20590768.291    20590768.851    20590768.243
        45.000          43.100
     18256.504 2     14226.200 2  25038325.472    25038327.568    25038325.666
        16.100          15.100
 -16833551.079 6 -13117045.098 5  21991731.862    21991732.038    21991732.701
        37.500          34.300
 -29247435.336 7 -22790203.047 7  19849547.287    19849547.710    19849547.538
        45.800          44.400
  -2822603.441 2  -2199430.340 2  25094813.605    25094811.328    25094812.776
        16.100          15.100
  -7874102.421 4  -6135647.673 3  23843631.057    23843631.898    23843630.635
        26.200          21.600
 -24721763.469 7 -19263701.600 7  21002659.771    21002660.000    21002660.276
        43.000          43.400
 13 10  6  0  7 30.0000000  0 12G28G26G 6G15G21G 8G27G 7G 9G19G10G 5
 -15206103.147 5 -11848908.550 4  22345009.096    22345008.681    22345008.998
        35.300          29.700
 -26936598.817 7 -20989551.325 6  20322817.162    20322817.693    20322817.407
        42.800          40.500
    776342.284 2    604942.516 1  25387105.318    25387107.065    25387106.057
        13.900          11.000
  -8385982.474 3  -6534528.672 3  24034662.856    24034663.872    24034665.123
        23.400          21.600
  -6602216.069 2  -5144586.200 2  25120249.860    25120248.575    25120250.214
        12.600          13.900
 -26581451.403 7 -20712811.333 7  20594308.867    20594309.227    20594308.774
        45.200          43.100
     23726.098 2     18488.232 3  25039365.845    25039369.349    25039366.129
        15.100          19.300
 -16755156.988 6 -13055958.786 5  22006649.740    22006650.059    22006650.560
        37.200          34.300
 -29226708.062 7 -22774051.927 7  19853491.531    19853492.048    19853491.754
        45.700          44.600
  -2872092.775 2  -2237993.455 2  25085395.874    25085392.789    25085394.947
        17.800          13.900
  -7760179.388 4  -6046876.487 3  23865310.111    23865310.677    23865309.746
        27.400          21.100
 -24684076.188 7 -19234334.894 7  21009831.283    21009831.526    21009831.988
        43.200          43.400
 13 10  6  0  8  0.0000000  0 12G28G26G 6G15G21G 8G27G 7G 9G19G10G 5
 -15276778.721 5 -11903980.420 4  22331559.696    22331559.341    22331559.685
        34.900          29.900
 -26994122.571 7 -21034375.026 6  20311870.693    20311871.356    20311871.039
        43.000          40.600
    810174.526 1    631305.314 2  25393543.561    25393545.799    25393543.940
        11.000          15.100
  -8485418.033 3  -6612010.909 3  24015741.274    24015742.459    24015742.750
        23.000          22.600
  -6639161.716 2  -5173375.007 2  25113218.896    25113218.015    25113219.066
        12.600          12.600
 -26562384.010 7 -20697953.621 7  20597937.112    20597937.479    20597937.064
        45.200          43.000
     29758.138 2     23188.551 3  25040514.848    25040516.908    25040515.261
        17.000          18.600
 -16676483.647 6 -12994654.899 5  22021620.730    22021621.204    22021621.528
        36.700          33.900
 -29205420.910 7 -22757464.533 7  19857542.457    19857542.946    19857542.652
        46.000          44.700
  -2921110.019 2  -2276188.685 2  25076068.503    25076065.633    25076067.714
        17.800          13.900
  -7646131.568 4  -5958008.072 3  23887012.092    23887013.517    23887011.867
        25.900          22.600
 -24645832.049 7 -19204534.280 7  21017108.574    21017109.130    21017109.554
        42.900          43.400
 13 10  6  0  8 30.0000000  0 12G28G26G 6G15G21G 8G27G 7G 9G19G10G 5
 -15347058.161 5 -11958743.603 4  22318185.946    22318185.655    22318185.834
        34.300          29.500
 -27051215.472 7 -21078862.997 6  20301006.485    20301006.863    20301006.667
        42.900          40.700
    844514.201 2    658063.462 2  25400078.505    25400079.471    25400078.758
        15.100          12.600
  -8584756.367 3  -6689417.387 3  23996838.733    23996838.569    23996839.461
        23.000          21.600
  -6675646.050 2  -5201804.368 2  25106275.488    25106276.272    25106277.369
        17.000          13.900
 -26542855.622 7 -20682736.698 7  20601653.168    20601653.669    20601653.106
        44.900          43.200
     36352.640 3     28327.135 3  25041769.158    25041771.542    25041769.366
        18.600          19.300
 -16597532.892 6 -12933134.837 5  22036645.535    22036644.912    22036645.809
        37.200          34.700
 -29183574.910 7 -22740441.681 7  19861699.371    19861700.195    19861699.747
        45.700          44.700
  -2969652.687 2  -2314014.133 2  25066830.035    25066828.720    25066829.308
        16.100          15.100
  -7531961.092 3  -5869044.090 3  23908737.856    23908739.637    23908737.611
        22.600          22.600
 -24607032.271 7 -19174300.704 7  21024492.365    21024492.538    21024492.998
        43.100          43.400
 13 10  6  0  9  0.0000000  0 12G28G26G 6G15G21G 8G27G 7G 9G19G10G 5
 -15416939.255 5 -12013196.386 5  22304888.370    22304888.003    22304888.230
        35.500          30.400
 -27107876.055 7 -21123014.100 6  20290224.065    20290224.689    20290224.465
        43.000          40.800
    879359.911 1    685215.939 2  25406709.889    25406710.710    25406709.595
         9.000          13.900
  -8683996.094 3  -6766747.048 3  23977954.224    23977954.143    23977954.452
        22.600          21.100
  -6711667.619 2  -5229873.105 2  25099421.615    25099422.000    25099422.094
        15.100          12.600
 -26522867.234 7 -20667161.329 7  20605456.752    20605457.459    20605456.845
        45.100          43.100
     43509.427 2     33903.847 2  25043130.822    25043133.271    25043132.240
        17.800          16.100
 -16518306.874 6 -12871400.281 5  22051721.281    22051721.084    22051722.016
        37.100          34.100
 -29161171.205 7 -22722984.246 7  19865962.917    19865963.335    19865963.133
        45.800          44.600
  -3017718.720 2  -2351468.175 2  25057683.408    25057682.243    25057682.903
        17.000          17.000
  -7417670.089 3  -5779986.200 4  23930485.993    23930488.695    23930486.098
        23.400          24.200
 -24567677.116 7 -19143634.358 7  21031981.375    21031981.508    21031982.038
        43.000          43.300
 13 10  6  0  9 30.0000000  0 12G28G26G 6G15G21G 8G27G 7G 9G19G10G 5
 -15486419.703 5 -12067336.983 5  22291666.407    22291666.158    22291666.430
        35.300          30.200
 -27164102.949 7 -21166827.262 6  20279524.481    20279525.037    20279524.856
        43.000          40.800
    914710.820 2    712762.108 1  25413435.950    25413438.466    25413436.662
        12.600          11.000
  -8783135.742 4  -6843998.715 3  23959089.252    23959088.543    23959089.276
        24.200          22.100
  -6747226.258 2  -5257581.093 2  25092654.892    25092655.027    25092656.011
        15.100          15.100
 -26502419.885 7 -20651228.331 7  20609347.677    20609348.403    20609347.765
        45.100          43.100
     51228.433 2     39918.660 2  25044599.804    25044602.116    25044600.515
        16.100          17.800
 -16438807.296 6 -12809452.567 5  22066849.326    22066849.457    22066850.046
        36.800          33.900
 -29138211.107 7 -22705093.261 7  19870332.033    19870332.562    19870332.311
        45.900          44.500
  -3065305.789 3  -2388549.029 3  25048628.285    25048626.378    25048628.088
        19.900          19.900
  -7303261.346 3  -5690836.560 3  23952257.324    23952260.182    23952257.526
        21.100          22.600
 -24527767.656 7 -19112536.089 7  21039575.703    21039576.052    21039576.608
        43.100          43.100
 13 10  6  0 10  0.0000000  0 12G28G26G 6G15G21G 8G27G 7G 9G19G10G 5
 -15555497.485 5 -12121163.810 5  22278520.903    22278520.957    22278521.042
        35.600          30.200
 -27219894.588 7 -21210301.265 6  20268907.530    20268908.267    20268908.057
        42.900          40.900
    950565.209 2    740700.562 2  25420260.515    25420260.487    25420260.667
        16.100          15.100
  -8882174.599 4  -6921171.808 3  23940242.652    23940241.629    23940242.879
        25.300          22.600
  -6782320.645 2  -5284927.386 2  25085977.794    25085975.972    25085977.430
        16.100          16.100
 -26481514.550 7 -20634938.459 7  20613325.920    20613326.613    20613325.892
        45.000          43.100
     59509.502 2     46371.445 2  25046174.471    25046178.236    25046175.716
        15.100          17.800
 -16359036.033 6 -12747293.155 5  22082029.373    22082029.667    22082030.187
        37.200          34.400
 -29114695.837 7 -22686769.674 7  19874806.905    19874807.469    19874807.111
        45.700          44.500
  -3112411.460 2  -2425254.757 2  25039663.671    25039662.619    25039662.582
        15.100          17.800
  -7188736.764 3  -5601596.660 3  23974050.891    23974053.063    23974050.845
        22.600          22.600
 -24487305.349 7 -19081007.028 7  21047275.631    21047275.779    21047276.305
        42.700          43.100
 13 10  6  0 10 30.0000000  0 12G28G26G 6G15G21G 8G27G 7G 9G19G10G 5
 -15624170.536 5 -12174675.260 4  22265452.927    22265452.746    22265453.063
        35.400          29.500
 -27275249.602 7 -21253435.041 6  20258373.747    20258374.561    20258374.273
        43.100          41.000
    986922.164 2    769030.652    25427178.828    25427178.800    25427178.289
        12.600           3.000
  -8981111.045 3  -6998265.114 3  23921414.687    23921414.567    23921415.483
        21.600          22.100
  -6816949.587 2  -5311910.967 2  25079387.662    25079386.505    25079387.149
        13.900          17.000
 -26460152.148 7 -20618292.433 7  20617391.072    20617391.814    20617391.059
        45.100          43.100
     68352.531 2     53262.122 3  25047857.031    25047860.926    25047858.547
        13.900          18.600
 -16278995.011 6 -12684923.540 5  22097260.451    22097260.846    22097261.470
        37.000          33.800
 -29090626.419 7 -22668014.281 7  19879387.207    19879387.583    19879387.294
        45.700          44.300
  -3159033.872 3  -2461583.899 2  25030791.464    25030790.233    25030791.978
        18.600          13.900
  -7074098.615 4  -5512268.230 3  23995865.921    23995867.922    23995865.808
        24.600          21.100
 -24446291.225 7 -19049047.989 7  21055080.209    21055080.597    21055080.843
        42.600          43.100
 13 10  6  0 11  0.0000000  0 12G28G26G 6G15G21G 8G27G 7G 9G19G10G 5
 -15692436.791 5 -12227869.738 5  22252462.642    22252462.326    22252462.540
        35.800          30.100
 -27330166.535 7 -21296227.458 6  20247923.756    20247924.192    20247924.028
        43.100          40.900
   1023780.694 2    797751.567 1  25434192.111    25434193.684    25434192.480
        13.900           9.000
  -9079943.846 4  -7075277.702 3  23902607.463    23902607.470    23902608.060
        24.900          23.800
  -6851112.162 2  -5338531.156 2  25072887.122    25072885.582    25072886.813
        16.100          15.100
 -26438333.984 7 -20601291.262 7  20621543.109    20621543.646    20621542.988
        44.900          43.000
     77757.315 2     60590.524 2  25049647.587    25049650.110    25049648.150
        16.100          13.900
 -16198686.328 6 -12622345.356 5  22112542.938    22112543.045    22112543.431
        36.500          34.000
 -29066004.054 7 -22648828.021 7  19884072.245    19884073.067    19884072.629
        45.600          44.300
  -3205170.583 3  -2497534.591 2  25022012.602    25022010.590    25022012.245
        19.300          16.100
  -6959349.166 4  -5422853.078 3  24017702.668    24017703.933    24017702.398
        25.300          20.500
 -24404726.206 7 -19016659.675 7  21062989.845    21062990.030    21062990.740
        43.100          42.900
 13 10  6  0 11 30.0000000  0 12G28G26G 6G15G21G 8G27G 7G 9G19G10G 5
 -15760293.951 5 -12280745.424 4  22239549.583    22239549.434    22239549.546
        35.400          29.700
 -27384643.881 7 -21338677.337 6  20237557.223    20237557.555    20237557.359
        43.200          41.200
   1061139.079 2    826861.962 1  25441301.521    25441301.957    25441301.953
        17.000          11.000
  -9178671.523 4  -7152208.321 3  23883820.157    23883820.498    23883820.982
        25.300          22.100
  -6884807.087 1  -5364786.928 2  25066474.274    25066473.826    25066473.721
        11.000          12.600
 -26416061.016 7 -20583935.703 7  20625781.371    20625781.993    20625781.281
        45.100          43.000
     87723.671 2     68356.516 2  25051544.834    25051546.257    25051545.541
        13.900          17.800
 -16118111.553 6 -12559559.828 5  22127875.786    22127875.878    22127876.578
        37.000          33.500
 -29040830.175 7 -22629212.010 7  19888862.799    19888863.431    19888863.144
        45.700          44.200
  -3250819.504 2  -2533105.156 3  25013326.527    25013324.281    25013325.710
        12.600          18.600
  -6844490.909 4  -5333353.130 3  24039559.751    24039560.849    24039558.980
        24.600          19.300
 -24362611.577 7 -18983843.093 7  21071003.740    21071004.289    21071004.665
        42.600          43.000
 13 10  6  0 12  0.0000000  0 12G28G26G 6G15G21G 8G27G 7G 9G19G10G 5
 -15827740.081 5 -12333300.837 5  22226715.161    22226714.860    22226715.081
        35.700          30.200
 -27438680.265 7 -21380783.605 6  20227274.268    20227274.816    20227274.523
        43.100          41.300
   1098996.107 1    856360.909 1  25448504.891    25448505.754    25448505.649
         6.500           6.500
  -9277293.014 3  -7229056.222 3  23865053.022    23865053.354    23865053.777
        23.800          23.000
  -6918034.065 2  -5390678.055 1  25060151.533    25060150.535    25060151.065
        16.100          11.000
 -26393334.546 7 -20566226.765 7  20630105.969    20630106.727    20630106.009
        45.100          43.000
     98251.356 2     76559.901 2  25053548.275    25053550.260    25053548.030
        17.000          17.800
 -16037272.550 6 -12496568.399 5  22143259.477    22143258.941    22143259.876
        37.100          33.500
 -29015106.087 7 -22609167.268 7  19893757.967    19893758.569    19893758.321
        45.700          44.100
  -3295978.396 2  -2568293.885 2  25004732.218    25004730.648    25004731.701
        17.800          17.800
  -6729525.916 3  -5243770.026 3  24061436.422    24061438.046    24061436.103
        23.400          21.100
 -24319948.527 7 -18950599.178 7  21079122.874    21079122.858    21079123.331
        42.900          42.800
 13 10  6  0 12 30.0000000  0 12G28G26G 6G15G21G 8G27G 7G 9G19G10G 5
 -15894772.891 6 -12385534.181 5  22213959.406    22213959.182    22213959.266
        36.100          31.300
 -27492274.262 7 -21422545.163 6  20217075.551    20217076.281    20217075.913
        43.200          41.400
   1137350.648 2    886247.544 1  25455803.722    25455804.590    25455803.800
        16.100           9.000
  -9375807.078 4  -7305820.401 3  23846306.763    23846306.680    23846307.550
        25.300          23.400
  -6950791.459 2  -5416203.311 2  25053918.051    25053916.836    25053917.587
        16.100          12.600
 -26370155.199 7 -20548164.933 7  20634517.199    20634517.556    20634517.047
        45.200          42.800
    109340.100 2     85200.480 2  25055658.273    25055660.359    25055658.688
        15.100          17.800
 -15956171.551 6 -12433372.822 5  22158691.908    22158692.135    22158692.694
        36.700          33.200
 -28988832.860 7 -22588694.622 7  19898757.762    19898758.220    19898757.945
        45.600          44.200
  -3340645.415 3  -2603099.373 2  24996233.759    24996230.914    24996232.879
        18.600          16.100
  -6614456.350 3  -5154105.430 3  24083333.370    24083334.991    24083333.181
        23.400          19.900
 -24276737.995 7 -18916928.646 7  21087345.544    21087345.474    21087346.130
        43.100          43.000
 13 10  6  0 13  0.0000000  0 12G28G26G 6G15G21G 8G27G 7G 9G19G10G 5
 -15961390.426 5 -12437443.936 5  22201282.105    22201282.177    22201282.197
        35.700          32.000
 -27545424.399 7 -21463960.851 6  20206961.788    20206962.138    20206961.846
        43.500          41.500
   1176201.294 2    916520.769 1  25463196.400    25463197.839    25463196.830
        17.000           9.000
  -9474212.052 4  -7382499.589 3  23827581.083    23827580.753    23827581.830
        24.900          23.400
  -6983078.788 2  -5441362.239 2  25047773.317    25047773.322    25047774.640
        16.100          12.600
 -26346523.942 7 -20529750.969 7  20639013.898    20639014.330    20639013.831
        45.100          42.800
    120989.670 3     94278.081 2  25057875.041    25057877.316    25057876.078
        18.600          17.000
 -15874810.043 6 -12369974.253 5  22174174.419    22174174.637    22174175.360
        36.500          33.400
 -28962011.775 7 -22567795.074 7  19903861.810    19903862.043    19903861.859
        45.700          44.100
  -3384818.143 3  -2637519.668 2  24987827.146    24987824.929    24987826.238
        19.300          17.800
  -6499284.471 3  -5064361.118 3  24105250.720    24105251.183    24105249.842
        21.600          19.300
 -24232981.338 7 -18882832.566 7  21095671.924    21095672.150    21095672.658
        42.700          42.700
 13 10  6  0 13 30.0000000  0 12G28G26G 6G15G21G 8G27G 7G 9G19G10G 5
 -16027590.806 5 -12489028.628 5  22188684.564    22188684.707    22188684.625
        35.600          31.100
 -27598129.317 7 -21505029.618 6  20196931.906    20196932.637    20196932.403
        43.400          41.400
   1215546.553 1    947179.346 1  25470684.060    25470684.777    25470685.001
        11.000           9.000
  -9572506.611 4  -7459092.752 4  23808875.944    23808876.477    23808876.642
        24.200          24.600
  -7014894.813 2  -5466153.932 2  25041720.005    25041718.478    25041720.033
        16.100          13.900
 -26322442.078 7 -20510985.881 7  20643596.574    20643596.923    20643596.574
        45.200          42.800
    133199.750 2    103792.447 3  25060198.284    25060201.112    25060199.125
        17.800          18.600
 -15793189.857 6 -12306374.109 5  22189706.259    22189706.346    22189707.272
        36.900          33.200
 -28934644.153 7 -22546469.654 7  19909069.244    19909069.923    19909069.659
        45.600          44.200
  -3428494.512 2  -2671553.151 3  24979516.068    24979513.725    24979515.099
        17.800          19.300
  -6384012.552 3  -4974538.841 2  24127185.448    24127186.446    24127184.742
        23.000          17.800
 -24188679.567 7 -18848311.721 7  21104102.455    21104102.471    21104103.041
        42.800          42.700
 13 10  6  0 14  0.0000000  0 12G28G26G 6G15G21G 8G27G 7G 9G19G10G 5
 -16093371.979 5 -12540286.671 5  22176166.651    22176166.988    22176166.794
        35.500          31.600
 -27650387.493 7 -21545750.272 6  20186987.465    20186988.111    20186987.973
        43.400          41.400
   1255384.914 1    978222.225 1  25478264.870    25478266.280    25478265.122
        11.000           9.000
  -9670689.565 4  -7535598.941 3  23790192.915    23790192.179    23790193.231
        24.900          23.800
  -7046238.531 2  -5490577.618 2  25035754.120    25035754.268    25035755.954
        13.900          15.100
 -26297910.764 7 -20491870.568 7  20648264.840    20648265.184    20648264.757
        45.300          42.700
    145970.016 2    113743.317 2  25062628.542    25062630.947    25062629.213
        15.100          17.000
 -15711312.887 6 -12242573.877 5  22205286.924    22205287.194    22205287.778
        36.300          33.400
 -28906731.554 7 -22524719.577 7  19914380.771    19914381.605    19914381.243
        45.600          43.900
  -3471672.446 2  -2705198.332 2  24971299.580    24971297.284    24971299.132
        17.800          17.800
  -6268642.861 3  -4884640.398 3  24149139.171    24149141.136    24149138.394
        21.600          19.900
 -24143833.919 7 -18813367.076 7  21112636.409    21112636.439    21112636.981
        43.000          42.600
 13 10  6  0 14 30.0000000  0 12G28G26G 6G15G21G 8G27G 7G 9G19G10G 5
 -16158731.829 6 -12591216.414 5  22163729.281    22163728.979    22163729.518
        36.500          31.100
 -27702197.633 7 -21586121.809 6  20177128.339    20177128.977    20177128.858
        43.600          41.400
   1295715.219 2   1009648.410 2  25485940.951    25485941.534    25485941.409
        13.900          12.600
  -9768759.624 4  -7612017.167 3  23771530.057    23771529.894    23771530.984
        24.600          23.800
  -7077109.363 2  -5514632.794 2  25029880.137    25029879.509    25029880.215
        15.100          12.600
 -26272931.007 7 -20472405.827 7  20653018.146    20653018.837    20653018.090
        45.100          42.800
    159300.131 2    124130.406 3  25065165.281    25065167.333    25065165.357
        15.100          19.300
 -15629181.245 6 -12178575.197 5  22220916.128    22220916.195    22220916.877
        36.900          33.000
 -28878275.220 7 -22502545.809 7  19919796.122    19919796.622    19919796.267
        45.700          43.900
  -3514350.119 3  -2738453.683 3  24963177.851    24963176.275    24963177.059
        18.600          18.600
  -6153177.465 3  -4794667.387 3  24171111.693    24171113.790    24171111.407
        22.100          21.100
 -24098445.722 7 -18777999.662 7  21121273.246    21121273.657    21121273.938
        42.700          42.700
 13 10  6  0 15  0.0000000  0 12G28G26G 6G15G21G 8G27G 7G 9G19G10G 5
 -16223668.210 6 -12641816.183 5  22151372.387    22151372.291    22151372.479
        36.300          31.300
 -27753558.222 7 -21626143.045 6  20167355.166    20167355.453    20167355.302
        43.600          41.600
   1336536.290 1   1041456.929 2  25493708.487    25493708.326    25493708.448
         9.000          12.600
  -9866715.540 4  -7688346.437 3  23752889.591    23752889.823    23752890.661
        26.500          23.400
  -7107506.265 2  -5538318.687 2  25024096.271    25024095.512    25024096.101
        15.100          12.600
 -26247503.935 7 -20452592.523 7  20657856.832    20657857.372    20657856.804
        45.200          42.700
    173189.778 2    134953.504 3  25067808.423    25067810.879    25067808.999
        16.100          19.900
 -15546796.632 6 -12114379.403 5  22236593.234    22236593.547    22236594.143
        36.500          33.200
 -28849276.520 7 -22479949.421 7  19925314.388    19925314.889    19925314.559
        45.600          43.800
  -3556525.226 1  -2771317.418 2  24955151.918    24955150.045    24955151.369
        11.000          17.000
  -6037618.495 3  -4704621.452 3  24193102.337    24193103.871    24193102.082
        23.000          22.600
 -24052516.140 7 -18742210.401 7  21130013.206    21130013.739    21130013.978
        42.500          42.600
 13 10  6  0 15 30.0000000  0 12G28G26G 6G15G21G 8G27G 7G 9G19G10G 5
 -16288179.172 6 -12692084.455 5  22139096.316    22139096.314    22139096.353
        36.000          32.300
 -27804467.942 7 -21665812.955 6  20157667.215    20157667.642    20157667.514
        43.600          41.500
   1377846.484 2   1073646.683 1  25501568.466    25501569.657    25501569.454
        13.900           6.500
  -9964555.982 4  -7764585.729 3  23734271.269    23734271.218    23734271.600
        24.200          22.100
  -7137428.519 1  -5561634.703 2  25018402.311    25018401.834    25018401.305
        11.000          12.600
 -26221630.613 7 -20432431.492 7  20662780.425    20662780.888    20662780.319
        45.100          42.700
    187638.536 2    146212.277 2  25070557.941    25070560.692    25070558.512
        17.000          17.000
 -15464160.759 6 -12049987.828 5  22252318.160    22252318.793    22252319.128
        36.300          32.800
 -28819736.651 7 -22456931.344 7  19930935.507    19930936.197    19930935.847
        45.500          43.800
  -3598195.975 3  -2803788.065 2  24947221.681    24947220.502    24947221.759
        18.600          17.800
  -5921968.349 3  -4614504.474 3  24215109.459    24215111.366    24215108.926
        23.000          23.400
 -24006046.717 7 -18706000.468 7  21138856.273    21138856.372    21138856.999
        42.900          42.100
 13 10  6  0 16  0.0000000  0 12G28G26G 6G15G21G 8G27G 7G 9G19G10G 5
 -16352262.949 6 -12742019.845 5  22126901.288    22126901.326    22126901.590
        36.000          31.600
 -27854925.415 7 -21705130.465 6  20148065.352    20148065.973    20148065.716
        43.600          41.800
   1419644.232 2   1106216.298 2  25509522.848    25509523.148    25509522.921
        15.100          13.900
 -10062279.255 4  -7840733.726 3  23715675.188    23715675.189    23715675.948
        25.600          23.800
  -7166875.145 2  -5584580.101 2  25012799.130    25012798.201    25012798.513
        12.600          15.100
 -26195312.453 7 -20411923.835 7  20667788.420    20667789.113    20667788.475
        45.200          42.600
    202645.935 2    157906.368 2  25073414.130    25073416.575    25073414.672
        15.100          16.100
 -15381275.568 6 -11985401.977 5  22268090.782    22268091.022    22268091.870
        36.500          32.700
 -28789656.953 7 -22433492.616 7  19936659.757    19936660.116    19936659.855
        45.600          43.800
  -3639360.016 2  -2835863.919 2  24939388.036    24939386.854    24939388.196
        12.600          16.100
  -5806229.324 3  -4524318.231 3  24237133.990    24237135.818    24237133.876
        22.100          21.100
 -23959038.241 7 -18669370.500 7  21147801.184    21147802.007    21147802.244
        42.400          42.300
 13 10  6  0 16 30.0000000  0 12G28G26G 6G15G21G 8G27G 7G 9G19G10G 5
 -16415917.325 6 -12791620.650 5  22114788.608    22114788.229    22114788.698
        36.700          30.800
 -27904929.237 7 -21744094.484 6  20138549.817    20138550.549    20138550.258
        43.600          41.900
   1461928.209 2   1139164.780 1  25517568.512    25517570.217    25517569.696
        13.900           9.000
 -10159884.206 4  -7916789.523 3  23697102.139    23697101.772    23697102.391
        25.300          23.800
  -7195845.492 2  -5607154.389 2  25007284.212    25007285.322    25007285.044
        17.000          15.100
 -26168550.506 7 -20391070.364 7  20672881.150    20672881.647    20672881.118
        45.100          42.700
    218211.617 2    170035.461 2  25076376.783    25076377.482    25076376.421
        16.100          13.900
 -15298143.283 6 -11920623.579 5  22283910.118    22283910.433    22283911.370
        36.400          31.800
 -28759038.841 7 -22409634.348 7  19942485.772    19942486.548    19942486.227
        45.600          43.800
  -3680015.480 3  -2867543.511 2  24931652.389    24931650.360    24931652.257
        19.300          16.100
  -5690403.419 4  -4434064.293 3  24259174.588    24259176.326    24259174.682
        24.200          21.600
 -23911492.161 7 -18632321.626 7  21156849.452    21156849.714    21156850.116
        42.800          42.400
 13 10  6  0 17  0.0000000  0 12G28G26G 6G15G21G 8G27G 7G 9G19G10G 5
 -16479140.254 6 -12840885.256 5  22102757.408    22102757.268    22102757.496
        36.400          31.300
 -27954478.042 7 -21782703.936 6  20129120.828    20129121.727    20129121.405
        43.700          41.900
   1504696.825 1   1172490.914    25525706.663    25525708.821    25525707.003
         6.500           3.000
 -10257369.552 4  -7992752.121 3  23678550.721    23678550.278    23678551.254
        24.900          22.100
  -7224338.776 2  -5629356.938 2  25001862.637    25001863.484    25001862.812
        15.100          16.100
 -26141345.670 7 -20369871.791 7  20678058.023    20678058.499    20678058.086
        45.100          42.700
    234335.149 2    182599.238 2  25079443.361    25079446.261    25079443.858
        17.800          17.800
 -15214765.297 6 -11855653.727 5  22299776.594    22299776.746    22299777.675
        36.500          32.800
 -28727884.034 7 -22385357.873 7  19948414.591    19948415.108    19948414.826
        45.600          43.800
  -3720160.504 2  -2898825.379 3  24924013.554    24924011.836    24924013.518
        16.100          19.900
  -5574493.040 3  -4343744.525 3  24281231.741    24281233.303    24281231.711
        22.600          19.900
 -23863409.821 7 -18594854.883 7  21165999.110    21165999.342    21165999.844
        42.700          42.200
 13 10  6  0 17 30.0000000  0 12G28G26G 6G15G21G 8G27G 7G 9G19G10G 5
 -16541930.421 6 -12889812.647 5  22090808.692    22090808.896    22090808.901
        36.200          31.800
 -28003570.419 7 -21820957.737 7  20119779.235    20119779.726    20119779.449
        43.900          42.000
   1547948.773 1   1206193.696 1  25533939.124    25533939.392    25533938.491
        11.000          11.000
 -10354733.725 4  -8068620.310 4  23660022.938    23660023.582    23660023.904
        26.800          25.600
  -7252353.681 2  -5651186.738 2  24996531.986    24996532.340    24996532.303
        13.900          12.600
 -26113699.165 7 -20348329.063 7  20683319.094    20683319.542    20683318.976
        45.100          42.500
    251015.936 2    195597.275 3  25082617.969    25082620.451    25082619.013
        17.800          19.300
 -15131143.439 6 -11790493.845 5  22315689.309    22315689.631    22315690.610
        36.100          32.400
 -28696193.910 7 -22360664.270 7  19954444.822    19954445.578    19954445.219
        45.600          43.700
  -3759792.874 2  -2929707.713 3  24916470.826    24916470.121    24916469.992
        15.100          18.600
  -5458500.251 3  -4253360.550 3  24303304.937    24303306.126    24303304.708
        22.100          19.900
 -23814792.718 7 -18556971.441 6  21175250.455    21175250.883    21175251.317
        42.600          41.900
 13 10  6  0 18  0.0000000  0 12G28G26G 6G15G21G 8G27G 7G 9G19G10G 5
 -16604285.670 6 -12938401.133 5  22078943.160    22078942.911    22078943.251
        36.600          32.000
 -28052205.119 7 -21858854.901 7  20110524.352    20110524.866    20110524.628
        43.600          42.200
   1591682.480 2   1240271.885 1  25542260.354    25542262.308    25542260.303
        12.600           6.500
 -10451975.316 4  -8144392.937 3  23641518.350    23641518.081    23641519.756
        27.100          23.400
  -7279889.996 2  -5672643.615 2  24991292.882    24991291.382    24991292.401
        12.600          12.600
 -26085612.114 7 -20326443.048 7  20688663.631    20688664.263    20688663.706
        45.000          42.500
    268253.581 2    209029.171 2  25085898.707    25085900.626    25085899.636
        17.000          16.100
 -15047279.576 6 -11725145.388 5  22331648.392    22331648.407    22331649.246
        36.200          32.400
 -28663969.536 7 -22335554.369 7  19960577.085    19960577.763    19960577.287
        45.500          43.600
  -3798911.397 2  -2960189.670 3  24909028.176    24909024.689    24909027.703
        16.100          19.300
  -5342427.390 3  -4162914.166 3  24325393.060    24325394.384    24325392.538
        20.500          20.500
 -23765642.162 7 -18518672.320 7  21184603.871    21184604.042    21184604.561
        42.700          42.000
 13 10  6  0 18 30.0000000  0 12G28G26G 6G15G21G 8G27G 7G 9G19G10G 5
 -16666203.773 6 -12986648.995 5  22067160.376    22067160.270    22067160.348
        36.200          31.800
 -28100380.573 7 -21896394.217 7  20101356.745    20101357.359    20101357.148
        43.800          42.000
   1635896.358 2   1274724.245 1  25550674.288    25550675.227    25550674.760
        12.600          11.000
 -10549093.286 4  -8220069.273 4  23623037.496    23623038.762    23623037.939
        25.300          24.900
  -7306946.655 2  -5693726.715 2  24986144.832    24986142.869    24986143.937
        17.000          12.600
 -26057085.599 7 -20304214.598 7  20694092.337    20694092.585    20694092.249
        45.100          42.300
    286047.539 2    222894.573 3  25089285.232    25089286.905    25089284.953
        16.100          18.600
 -14963175.772 6 -11659609.968 5  22347653.036    22347652.850    22347653.813
        36.100          32.600
 -28631212.271 7 -22310029.222 7  19966810.428    19966811.229    19966810.802
        45.500          43.800
  -3837513.531 2  -2990269.277 2  24901682.294    24901680.175    24901681.967
        16.100          16.100
  -5226276.802 3  -4072407.231 3  24347495.917    24347497.289    24347495.338
        23.000          20.500
 -23715959.598 7 -18479958.646 6  21194057.607    21194058.266    21194058.638
        42.400          41.900
 13 10  6  0 19  0.0000000  0 12G28G26G 6G15G21G 8G27G 7G 9G19G10G 5
 -16727682.792 6 -13034554.702 5  22055461.552    22055461.402    22055461.480
        36.700          31.600
 -28148095.587 7 -21933574.745 7  20092276.899    20092277.496    20092277.221
        44.000          42.300
   1680588.854 1   1309549.515 1  25559179.092    25559179.991    25559178.787
         9.000           6.500
 -10646085.944 4  -8295647.965 3  23604580.011    23604579.952    23604580.858
        26.800          23.800
  -7333522.917 2  -5714435.473 2  24981086.362    24981085.724    24981086.573
        12.600          13.900
 -26028121.064 7 -20281644.829 7  20699603.866    20699604.453    20699603.892
        45.200          42.600
    304397.205 2    237192.999 2  25092775.628    25092778.257    25092776.642
        15.100          16.100
 -14878833.619 6 -11593888.809 5  22363702.538    22363702.471    22363703.717
        36.300          32.400
 -28597923.634 7 -22284090.031 7  19973145.168    19973145.824    19973145.462
        45.500          43.800
  -3875597.403 2  -3019944.986 3  24894434.518    24894432.374    24894433.441
        17.800          18.600
  -5110050.532 3  -3981841.306 3  24369612.866    24369613.506    24369612.336
        21.100          18.600
 -23665746.261 7 -18440831.391 6  21203613.181    21203613.644    21203614.077
        42.700          41.900
 13 10  6  0 19 30.0000000  0 12G28G26G 6G15G21G 8G27G 7G 9G19G10G 5
 -16788721.098 6 -13082117.003 5  22043846.483    22043846.094    22043846.265
        36.600          32.300
 -28195348.738 7 -21970395.380 7  20083284.885    20083285.535    20083285.307
        44.000          42.200
   1725758.363 2   1344746.487 1  25567773.671    25567774.142    25567773.326
        13.900           9.000
 -10742952.053 4  -8371128.027 4  23586147.589    23586148.139    23586148.196
        26.800          24.900
  -7359618.292 2  -5734769.521 2  24976120.520    24976120.206    24976120.090
        16.100          15.100
 -25998719.408 7 -20258734.447 7  20705198.682    20705199.501    20705198.849
        45.000          42.300
    323302.030 2    251924.035 3  25096373.947    25096376.221    25096373.942
        17.000          18.600
 -14794255.020 5 -11527983.421 5  22379797.976    22379797.594    22379798.204
        35.700          32.400
 -28564105.231 7 -22257738.030 7  19979580.687    19979581.189    19979580.941
        45.500          43.600
  -3913161.163 3  -3049215.441 3  24887286.987    24887284.843    24887285.877
        18.600          18.600
  -4993750.862 3  -3891218.199 2  24391742.934    24391744.756    24391742.743
        19.900          15.100
 -23615003.422 7 -18401291.529 6  21213269.251    21213269.595    21213270.149
        42.600          41.400
 13 10  6  0 20  0.0000000  0 12G28G26G 6G15G21G 8G27G 7G 9G19G10G 5
 -16849316.713 6 -13129334.349 5  22032315.089    22032315.022    22032315.231
        36.600          32.300
 -28242138.751 7 -22006855.126 7  20074381.003    20074381.791    20074381.396
        44.000          42.300
   1771403.363 2                  25576459.868                    25576460.507
        13.900
 -10839690.323 4  -8446508.478 3  23567738.921    23567738.634    23567739.717
        27.600          23.000
  -7385232.101 2  -5754728.340 2  24971245.814    24971246.552    24971245.736
        13.900          16.100
 -25968881.848 7 -20235484.402 7  20710876.760    20710877.402    20710876.829
        45.100          42.300
    342761.487 2    267087.251 3  25100076.693    25100079.512    25100077.005
        13.900          20.500
 -14709441.835 5 -11461895.238 5  22395937.281    22395936.801    22395937.667
        35.700          31.800
 -28529758.467 7 -22230974.317 7  19986116.621    19986117.208    19986116.912
        45.500          43.600
  -3950203.133 3  -3078079.276 3  24880237.655    24880235.681    24880236.473
        18.600          19.300
  -4877379.779 3  -3800539.439 3  24413887.759    24413889.590    24413887.740
        18.600          19.300
 -23563732.799 7 -18361340.406 6  21223025.895    21223026.174    21223026.634
        42.600          41.800
 13 10  6  0 20 30.0000000  0 12G28G26G 6G15G21G 8G27G 7G 9G19G10G 5
 -16909467.839 6 -13176205.347 5  22020869.227    22020868.981    22020869.113
        37.200          32.600
 -28288464.230 7 -22042952.905 7  20065565.461    20065566.289    20065565.955
        44.200          42.400
   1817522.206     1416250.668 1  25585235.888    25585237.747    25585237.920
         3.000           9.000
 -10936299.039 4  -8521787.984 4  23549354.578    23549355.243    23549355.351
        26.800          24.600
  -7410363.569 2  -5774311.291 2  24966464.161    24966463.953    24966463.505
        17.000          12.600
 -25938609.775 7 -20211895.772 7  20716637.463    20716637.940    20716637.447
        45.100          42.300
    362774.898 2    282682.123 2  25103885.189    25103887.137    25103885.011
        13.900          17.800
 -14624395.770 5 -11395625.576 5  22412120.976    22412120.693    22412121.469
        35.900          32.300
 -28494884.901 7 -22203800.110 7  19992752.914    19992753.395    19992753.191
        45.500          43.500
  -3986721.306 2  -3106534.973 2  24873287.586    24873286.278    24873287.962
        17.000          17.000
  -4760939.594 3  -3709806.847 3  24436045.907    24436047.917    24436045.750
        21.100          18.600
 -23511935.637 7 -18320978.997 6  21232882.339    21232882.982    21232883.274
        42.400          41.800
 13 10  6  0 21  0.0000000  0 12G28G26G 6G15G21G 8G27G 7G 9G19G10G 5
 -16969172.650 6 -13222728.558 5  22009507.219    22009507.421    22009507.247
        36.600          32.400
 -28334323.927 7 -22078687.724 7  20056838.727    20056839.417    20056839.067
        44.000          42.300
   1864113.306     1452555.435 1  25594102.339    25594103.622    25594102.770
         3.000           6.500
 -11032777.296 4  -8596965.851 4  23530996.383    23530995.587    23530996.784
        27.900          24.900
  -7435011.914 2  -5793517.794 2  24961772.871    24961773.205    24961772.862
        16.100          15.100
 -25907904.343 7 -20187969.462 7  20722480.446    20722481.010    20722480.415
        45.100          42.400
    383341.619 2    298708.149 2  25107799.237    25107799.949    25107799.640
        15.100          13.900
 -14539118.766 5 -11329175.971 5  22428348.858    22428348.277    22428349.197
        35.700          32.100
 -28459486.056 7 -22176216.590 7  19999489.064    19999489.517    19999489.279
        45.700          43.500
  -4022714.128 3  -3134581.289 2  24866438.281    24866436.801    24866438.205
        18.600          15.100
  -4644432.864 3  -3619022.405 3  24458216.071    24458218.699    24458215.791
        19.900          21.100
 -23459613.535 7 -18280208.540 6  21242839.120    21242839.319    21242839.855
        42.600          41.600
 13 10  6  0 21 30.0000000  0 12G28G26G 6G15G21G 8G27G 7G 9G19G10G 5
 -17028429.204 6 -13268902.484 5  21998231.540    21998231.154    21998231.340
        36.900          33.100
 -28379716.424 7 -22114058.501 7  20048201.025    20048201.441    20048201.299
        44.200          42.500
   1911175.257 1   1489227.055 9  25603058.385    25603060.626    25603059.282
         9.000          -3.000
 -11129123.298 4  -8672040.627 4  23512661.988    23512661.559    23512662.497
        27.900          25.300
  -7459176.440 2  -5812347.293 3  24957175.042    24957175.087    24957175.470
        13.900          19.300
 -25876766.796 7 -20163706.438 7  20728405.786    20728406.319    20728405.742
        45.100          42.300
    404461.001 2    315164.804 2  25111817.713    25111819.926    25111818.245
        16.100          17.000
 -14453612.556 5 -11262547.761 5  22444619.685    22444619.507    22444620.275
        35.300          31.800
 -28423563.366 7 -22148224.882 7  20006324.961    20006325.438    20006325.142
        45.500          43.400
  -4058179.436 3  -3162216.595 3  24859690.604    24859689.129    24859689.758
        21.600          18.600
  -4527861.517 3  -3528187.611 3  24480398.412    24480401.404    24480398.711
        20.500          20.500
 -23406767.837 7 -18239030.086 6  21252895.345    21252895.711    21252896.141
        42.600          41.300
 13 10  6  0 22  0.0000000  0 12G28G26G 6G15G21G 8G27G 7G 9G19G10G 5
 -17087235.781 6 -13314725.773 5  21987040.815    21987040.743    21987040.874
        37.100          33.100
 -28424640.506 7 -22149064.272 7  20039651.823    20039652.632    20039652.385
        44.200          42.500
   1958706.030     1526264.008 1  25612104.470    25612104.667    25612104.779
         3.000          11.000
 -11225335.821 4  -8747011.426 4  23494352.991    23494353.191    23494353.349
        27.400          24.900
  -7482856.823 2  -5830799.525 2  24952668.816    24952667.932    24952669.421
        13.900          13.900
 -25845197.965 7 -20139107.347 7  20734413.121    20734413.704    20734413.087
        45.000          42.400
    426132.319 2    332051.538 2  25115941.098    25115944.517    25115942.287
        13.900          17.800
 -14367879.025 5 -11195742.424 5  22460934.000    22460934.061    22460935.013
        35.600          31.600
 -28387118.099 7 -22119825.978 7  20013260.275    20013260.617    20013260.457
        45.600          43.300
  -4093115.774 3  -3189439.733 2  24853043.183    24853040.053    24853042.431
        19.300          16.100
  -4411227.621 3  -3437304.066 3  24502594.185    24502595.911    24502593.942
        22.100          20.500
 -23353400.303 7 -18197445.008 6  21263050.609    21263051.280    21263051.537
        42.400          41.500
 13 10  6  0 22 30.0000000  0 12G28G26G 6G15G21G 8G27G 7G 9G19G10G 5
 -17145590.651 6 -13360197.087 5  21975936.176    21975936.155    21975936.264
        37.300          33.000
 -28469094.804 7 -22183703.984 7  20031193.193    20031193.292    20031193.263
        44.300          42.700
   2006704.231 9   1563665.163 1  25621237.105    25621237.235    25621235.708
        -3.000           6.500
 -11321413.244 4  -8821876.928 4  23476070.754    23476069.672    23476070.833
        28.600          24.600
  -7506052.294 2  -5848873.916 1  24948255.107    24948253.846    24948255.648
        15.100          11.000
 -25813199.555 7 -20114173.520 7  20740502.242    20740502.859    20740502.153
        45.000          42.400
    448354.905 1    349367.827 2  25120170.793    25120172.687    25120171.525
         9.000          17.800
 -14281919.797 5 -11128761.210 5  22477291.405    22477291.691    22477292.399
        35.200          31.100
 -28350152.117 7 -22091021.318 7  20020294.604    20020295.086    20020294.830
        45.400          43.400
  -4127521.136 3  -3216249.092 2  24846494.865    24846493.170    24846495.412
        19.900          17.800
  -4294533.450 3  -3346373.546 3  24524800.385    24524801.864    24524800.240
        21.100          19.300
 -23299512.194 7 -18155454.289 6  21273305.399    21273305.579    21273306.136
        42.300          41.200
 13 10  6  0 23  0.0000000  0 12G28G26G 6G15G21G 8G27G 7G 9G19G10G 5
 -17203491.985 6 -13405314.993 5  21964917.939    21964917.672    21964918.010
        37.100          33.200
 -28513077.993 7 -22217976.594 7  20022822.798    20022823.640    20022823.446
        44.300          42.700
   2055168.077 1   1601429.102 1  25630459.617    25630459.749    25630459.032
         6.500           6.500
 -11417354.123 4  -8896636.031 4  23457812.446    23457812.917    23457813.641
        26.500          24.600
  -7528762.221 2  -5866569.967 2  24943934.357    24943932.935    24943934.052
        15.100          15.100
 -25780772.657 7 -20088905.805 7  20746672.689    20746673.413    20746672.749
        44.900          42.200
    471128.043 2    367113.120 2  25124503.695    25124506.454    25124504.937
        15.100          17.000
 -14195736.773 5 -11061605.622 5  22493691.654    22493691.575    22493692.508
        35.100          31.500
 -28312667.060 7 -22061812.183 7  20027427.681    20027428.344    20027428.003
        45.600          43.200
  -4161393.956 2  -3242643.479 2  24840048.449    24840048.017    24840048.142
        17.800          16.100
  -4177781.309 3  -3255397.870 3  24547017.143    24547019.478    24547017.147
        19.900          19.300
 -23245105.177 7 -18113059.223 6  21283658.670    21283659.021    21283659.615
        42.400          41.200
 13 10  6  0 23 30.0000000  0 12G28G26G 6G15G21G 8G27G 7G 9G19G10G 5
 -17260938.067 6 -13450078.164 5  21953986.542    21953986.187    21953986.519
        37.500          33.200
 -28556588.815 7 -22251881.130 7  20014543.119    20014543.801    20014543.533
        44.400          42.800
   2104095.849 1   1639554.544    25639770.860    25639772.804    25639771.199
         6.500           3.000
 -11513157.091 4  -8971287.704 4  23439581.563    23439582.090    23439582.715
        27.400          24.600
  -7550986.083 2  -5883887.263 2  24939704.418    24939703.538    24939704.332
        15.100          12.600
 -25747918.388 7 -20063305.075 7  20752924.809    20752925.335    20752924.771
        44.900          42.200
    494450.939 2    385286.808 2  25128942.283    25128944.629    25128943.213
        16.100          17.800
 -14109331.705 5 -10994277.006 5  22510133.794    22510133.993    22510134.680
        35.200          31.600
 -28274664.282 7 -22032199.630 7  20034659.412    20034660.046    20034659.738
        45.500          43.100
  -4194732.498 3  -3268621.522 2  24833705.244    24833703.219    24833704.676
        21.100          17.000
  -4060973.500 3  -3164378.829 3  24569244.804    24569247.192    24569244.480
        19.900          19.900
 -23190180.639 7 -18070260.897 6  21294110.442    21294110.860    21294111.343
        42.600          41.200
 13 10  6  0 24  0.0000000  0 12G28G26G 6G15G21G 8G27G 7G 9G19G10G 5
 -17317926.819 6 -13494484.960 5  21943141.789    21943141.633    21943141.710
        37.100          33.400
 -28599626.044 7 -22285416.630 7  20006353.470    20006354.013    20006353.860
        44.400          42.800
   2153485.879 1   1678040.244 1  25649169.997    25649169.979    25649169.520
         6.500           6.500
 -11608820.783 4  -9045830.829 4  23421378.007    23421377.981    23421379.162
        29.500          25.300
  -7572722.795 2  -5900824.957 2  24935568.423    24935568.077    24935568.902
        17.000          12.600
 -25714638.129 7 -20037372.403 7  20759257.739    20759258.400    20759257.732
        45.000          42.000
    518322.814 2    403888.258 2  25133485.266    25133487.603    25133485.390
        15.100          16.100
 -14022706.416 5 -10926776.790 5  22526618.381    22526618.505    22526619.060
        34.400          31.100
 -28236145.192 7 -22002184.752 7  20041989.421    20041990.061    20041989.761
        45.400          43.200
  -4227535.419 3  -3294182.177 2  24827463.506    24827460.770    24827462.960
        18.600          16.100
  -3944112.094 3  -3073318.013 2  24591483.430    24591484.699    24591483.287
        19.900          16.100
 -23134740.177 7 -18027060.553 6  21304660.461    21304660.675    21304661.153
        42.000          40.900
 13 10  6  0 24 30.0000000  0 12G28G26G 6G15G21G 8G27G 7G 9G19G10G 5
 -17374456.740 6 -13538534.228 5  21932384.279    21932384.206    21932384.265
        36.800          33.100
 -28642188.290 7 -22318582.012 7  19998254.231    19998254.699    19998254.600
        44.400          42.700
   2203336.421 2   1716884.799 9  25658655.165    25658655.740    25658655.205
        12.600          -3.000
 -11704343.817 4  -9120264.341 4  23403200.759    23403200.575    23403201.567
        29.000          25.300
  -7593972.740 2  -5917383.353 1  24931524.758    24931524.096    24931524.397
        13.900          11.000
 -25680933.115 7 -20011108.760 7  20765671.716    20765672.209    20765671.676
        45.000          42.000
    542742.871 2    422916.886 2  25138132.491    25138134.130    25138132.450
        16.100          17.800
 -13935862.813 5 -10859106.457 5  22543143.959    22543144.219    22543144.759
        34.700          30.800
 -28197111.448 7 -21971768.846 7  20049417.300    20049417.835    20049417.495
        45.500          43.200
  -4259800.492 3  -3319323.751 3  24821323.293    24821321.392    24821322.982
        19.300          19.300
  -3827199.281 3  -2982217.111 2  24613731.037    24613732.632    24613730.396
        19.300          16.100
 -23078785.453 7 -17983459.487 6  21315308.465    21315308.595    21315309.028
        42.300          41.000
 13 10  6  0 25  0.0000000  0 12G28G26G 6G15G21G 8G27G 7G 9G19G10G 5
 -17430526.100 6 -13582224.621 5  21921714.660    21921714.582    21921714.700
        37.400          33.500
 -28684274.332 7 -22351376.326 7  19990245.791    19990245.984    19990245.972
        44.500          42.900
   2253645.916 1   1756087.092 9  25668228.347    25668230.963    25668224.593
        11.000          -3.000
 -11799724.969 4  -9194587.304 4  23385050.078    23385050.513    23385050.771
        27.600          25.900
  -7614735.032 1  -5933561.735 2  24927573.106    24927572.670    24927572.470
        11.000          16.100
 -25646804.358 7 -19984514.924 7  20772166.115    20772166.706    20772165.987
        44.800          42.000
    567710.290 2    442372.012 2  25142883.786    25142885.542    25142884.017
        17.800          15.100
 -13848802.567 5 -10791267.322 5  22559711.598    22559711.241    22559711.843
        34.100          31.500
 -28157564.872 7 -21940953.331 7  20056942.467    20056943.223    20056942.879
        45.400          43.000
  -4291526.287 3  -3344045.150 2  24815285.805    24815283.305    24815285.264
        19.300          17.000
  -3710237.363 3  -2891077.974 3  24635987.240    24635989.913    24635987.570
        19.300          18.600
 -23022318.072 7 -17939458.949 6  21326053.705    21326054.268    21326054.523
        42.400          41.100
 13 10  6  0 25 30.0000000  0 12G28G26G 6G15G21G 8G27G 7G 9G19G10G 5
 -17486133.069 6 -13625554.713 5  21911132.961    21911132.878    21911132.979
        37.300          33.600
 -28725882.933 7 -22383798.609 7  19982327.477    19982328.153    19982327.970
        44.300          42.800
   2304412.559 2   1795647.291 2  25677889.097    25677890.921    25677890.654
        16.100          12.600
 -11894962.497 4  -9268798.369 4  23366926.266    23366926.487    23366927.622
        28.400          24.900
  -7635009.012 2  -5949359.663 2  24923715.744    24923715.103    24923714.681
        12.600          15.100
 -25612253.328 7 -19957592.041 7  20778740.895    20778741.560    20778740.901
        44.900          42.100
    593224.226 2    462252.979 2  25147738.062    25147740.504    25147738.600
        15.100          15.100
 -13761527.549 5 -10723260.822 5  22576319.042    22576318.961    22576319.974
        34.500          30.800
 -28117506.800 7 -21909739.250 7  20064565.629    20064566.040    20064565.801
        45.500          43.100
  -4322711.438 3  -3368345.246 2  24809351.631    24809349.202    24809350.606
        19.300          16.100
  -3593228.561 3  -2799902.302 2  24658254.235    24658255.376    24658253.904
        21.100          17.000
 -22965339.690 7 -17895060.225 6  21336896.243    21336896.677    21336897.081
        42.300          40.700
 13 10  6  0 26  0.0000000  0 12G28G26G 6G15G21G 8G27G 7G 9G19G10G 5
 -17541276.378 6 -13668523.506 5  21900639.731    21900639.456    21900639.620
        37.300          33.600
 -28767012.858 7 -22415847.904 7  19974501.044    19974501.340    19974501.265
        44.500          43.000
   2355634.548 2   1835560.486 9  25687636.123    25687637.352    25687636.513
        12.600          -3.000
 -11990054.811 5  -9342896.245 4  23348832.073    23348831.739    23348832.954
        30.100          26.500
  -7654794.010 2  -5964776.497 1  24919950.408    24919949.953    24919950.391
        12.600          11.000
 -25577281.164 7 -19930341.001 6  20785395.971    20785396.522    20785395.970
        44.900          41.900
    619283.860 3    482559.179 2  25152697.203    25152699.489    25152697.221
        18.600          17.000
 -13674039.404 5 -10655088.241 5  22592967.647    22592967.382    22592968.282
        34.800          31.000
 -28076938.952 7 -21878127.937 7  20072285.296    20072285.827    20072285.639
        45.200          43.000
  -4353354.014 3  -3392222.615 2  24803521.041    24803518.196    24803519.461
        18.600          16.100
  -3476174.866 3  -2708691.640 2  24680529.088    24680530.165    24680528.275
        18.600          17.000
 -22907852.068 7 -17850264.686 6  21347836.060    21347836.214    21347836.660
        42.100          40.500
 13 10  6  0 26 30.0000000  0 12G28G26G 6G15G21G 8G27G 7G 9G19G10G 5
 -17595954.053 6 -13711129.478 5  21890234.874    21890234.541    21890234.725
        37.500          33.900
 -28807662.839 7 -22447523.206 7  19966765.322    19966765.987    19966765.840
        44.700          43.100
   2407309.836 1   1875826.889    25697469.678    25697470.457    25697470.725
         9.000           3.000
 -12085000.696 4  -9416880.033 4  23330762.897    23330763.642    23330764.786
        27.400          24.900
  -7674090.094 2  -5979812.422 2  24916278.375    24916277.029    24916279.046
        17.000          15.100
 -25541889.252 7 -19902762.886 6  20792130.938    20792131.379    20792130.807
        44.800          41.800
    645888.247 2    503289.867 2  25157759.062    25157762.368    25157760.178
        15.100          13.900
 -13586339.651 5 -10586750.781 5  22609655.502    22609656.066    22609656.821
        34.300          30.600
 -28035863.055 7 -21846120.742 7  20080101.849    20080102.328    20080102.096
        45.300          43.000
  -4383452.492 3  -3415675.971 3  24797792.608    24797790.739    24797791.976
        20.500          18.600
  -3359078.347 3  -2617447.624 3  24702810.886    24702813.007    24702810.475
        19.900          19.300
 -22849857.066 7 -17805073.792 6  21358872.022    21358872.391    21358872.795
        42.100          40.700
 13 10  6  0 27  0.0000000  0 12G28G26G 6G15G21G 8G27G 7G 9G19G10G 5
 -17650164.501 6 -13753371.369 5  21879918.791    21879918.843    21879918.757
        37.600          34.300
 -28847831.588 7 -22478823.529 7  19959121.703    19959122.081    19959121.972
        44.500          43.100
   2459437.136 2   1916445.526 1  25707389.325    25707390.161    25707390.821
        16.100           9.000
 -12179798.576 4  -9490748.535 4  23312723.520    23312724.644    23312725.003
        27.600          25.300
  -7692896.575 2  -5994466.810 2  24912700.843    24912698.925    24912700.569
        13.900          16.100
 -25506078.791 7 -19874858.630 6  20798945.490    20798945.861    20798945.434
        45.000          41.800
    673036.493 3    524444.346 2  25162926.527    25162928.319    25162927.030
        18.600          12.600
 -13498430.231 5 -10518249.944 5  22626384.453    22626385.020    22626385.537
        34.100          30.800
 -27994280.572 7 -21813718.805 7  20088014.613    20088015.302    20088015.031
        45.400          42.800
  -4413005.589 2  -3438704.352 2  24792168.312    24792167.656    24792168.934
        17.800          17.800
  -3241941.446 3  -2526172.132 3  24725101.432    24725103.868    24725101.395
        18.600          19.300
 -22791355.486 6 -17759488.160 6  21370004.659    21370004.903    21370005.279
        41.900          40.800
 13 10  6  0 27 30.0000000  0 12G28G26G 6G15G21G 8G27G 7G 9G19G10G 5
 -17703906.023 6 -13795247.857 5  21869692.237    21869692.227    21869692.271
        37.700          33.800
 -28887517.949 7 -22509747.966 7  19951569.607    19951570.036    19951569.879
        44.500          43.200
   2512014.190 1   1957414.557 1  25717393.785    25717395.472    25717394.518
         9.000           9.000
 -12274447.173 4  -9564500.684 4  23294713.877    23294713.366    23294714.886
        29.500          25.600
  -7711213.099 2  -6008739.402 2  24909214.483    24909213.059    24909214.389
        12.600          13.900
 -25469850.948 7 -19846629.139 6  20805839.529    20805839.840    20805839.328
        44.800          41.800
    700727.682 2    546021.902 2  25168196.389    25168197.947    25168196.618
        13.900          15.100
 -13410313.099 5 -10449587.249 5  22643152.982    22643153.162    22643153.585
        34.300          30.800
 -27952192.965 7 -21780923.269 7  20096024.066    20096024.178    20096024.146
        45.300          42.800
  -4442011.440 3  -3461306.317 2  24786649.519    24786647.350    24786649.261
        18.600          17.800
  -3124766.299 3  -2434866.813 2  24747399.759    24747402.005    24747399.302
        21.100          17.000
 -22732349.462 7 -17713509.459 6  21381233.124    21381233.432    21381233.793
        42.000          40.500
 13 10  6  0 28  0.0000000  0 12G28G26G 6G15G21G 8G27G 7G 9G19G10G 5
 -17757177.192 6 -13836757.850 5  21859555.403    21859554.630    21859555.277
        38.100          33.900
 -28926720.669 7 -22540295.540 7  19944109.568    19944109.980    19944109.793
        44.600          43.100
   2565039.439 2   1998732.931 9  25727483.497    25727486.539    25727484.770
        13.900          -3.000
 -12368945.025 4  -9638135.320 4  23276731.469    23276730.797    23276732.171
        29.500          25.300
  -7729039.128 2  -6022629.837 1  24905822.223    24905820.606    24905822.692
        12.600           9.000
 -25433207.247 7 -19818075.610 6  20812812.308    20812812.907    20812812.290
        44.800          41.600
    728960.846 2    568021.747 2  25173568.806    25173570.181    25173568.625
        17.000          16.100
 -13321990.119 5 -10380764.160 5  22659960.799    22659960.306    22659961.031
        33.900          30.600
 -27909601.965 7 -21747735.471 7  20104128.524    20104128.982    20104128.796
        45.100          42.700
  -4470468.569 2  -3483480.722 2  24781234.139    24781232.094    24781232.890
        16.100          17.800
  -3007554.965 2  -2343533.316 3  24769704.282    24769706.572    24769704.075
        16.100          18.600
 -22672841.106 7 -17667139.329 6  21392557.244    21392557.350    21392557.819
        42.000          40.400
 13 10  6  0 28 30.0000000  0 12G28G26G 6G15G21G 8G27G 7G 9G19G10G 5
 -17809976.113 6 -13877899.855 5  21849507.880    21849507.401    21849507.757
        37.900          33.800
 -28965438.532 7 -22570465.305 7  19936741.377    19936742.241    19936741.980
        44.400          43.300
   2618511.098 1   2040399.144 1  25737659.681    25737661.496    25737660.376
        11.000           9.000
 -12463290.302 4  -9711651.135 4  23258777.858    23258778.083    23258778.283
        28.800          26.800
  -7746374.236 3  -6036137.723 2  24902522.510    24902522.596    24902523.546
        18.600          13.900
 -25396149.256 7 -19789199.252 6  20819864.329    20819864.688    20819864.180
        44.800          41.500
    757735.004 2    590443.176 3  25179043.608    25179045.722    25179043.662
        13.900          19.300
 -13233462.637 5 -10311781.701 4  22676806.572    22676806.411    22676807.418
        34.100          29.900
 -27866509.471 7 -21714156.904 7  20112328.811    20112329.302    20112328.981
        45.100          42.800
  -4498375.678 3  -3505226.504 3  24775923.518    24775922.265    24775922.920
        19.300          20.500
  -2890309.637 3  -2252173.351 2  24792015.273    24792017.544    24792015.043
        18.600          15.100
 -22612831.772 6 -17620378.825 6  21403976.811    21403976.719    21403977.372
        41.900          40.400
 13 10  6  0 29  0.0000000  0 12G28G26G 6G15G21G 8G27G 7G 9G19G10G 5
 -17862301.025 6 -13918672.491 5  21839550.995    21839550.545    21839550.680
        37.600          34.600
 -29003670.410 7 -22600256.372 7  19929466.304    19929466.976    19929466.692
        44.600          43.400
   2672426.988 2   2082411.449 2  25747920.220    25747922.016    25747919.644
        13.900          12.600
 -12557481.732 5  -9785047.057 4  23240854.023    23240853.487    23240854.658
        30.200          25.600
  -7763218.146 2  -6049262.847 2  24899318.666    24899317.332    24899318.408
        16.100          15.100
 -25358678.051 7 -19760000.908 6  20826994.557    20826995.156    20826994.673
        44.600          41.100
    787049.157 1    613285.379 2  25184622.164    25184624.132    25184622.471
        11.000          17.000
 -13144732.723 5 -10242641.512 5  22693691.995    22693691.259    22693692.135
        34.300          30.200
 -27822916.915 7 -21680188.684 7  20120624.085    20120624.655    20120624.379
        45.200          42.600
  -4525731.250 3  -3526542.584 3  24770717.500    24770716.539    24770717.407
        19.300          19.900
  -2773032.459 3  -2160788.519 2  24814332.283    24814334.174    24814332.537
        19.300          15.100
 -22552323.055 7 -17573229.194 6  21415491.096    21415491.369    21415491.734
        42.000          40.300
 13 10  6  0 29 30.0000000  0 12G28G26G 6G15G21G 8G27G 7G 9G19G10G 5
 -17914150.691 6 -13959074.809 5  21829683.941    21829683.840    21829683.877
        37.700          34.900
 -29041414.988 7 -22629667.736 7  19922283.901    19922284.316    19922284.191
        44.700          43.300
   2726785.463 1   2124768.634 1  25758264.002    25758265.346    25758265.093
         9.000           9.000
 -12651517.723 5  -9858321.844 4  23222959.563    23222959.570    23222960.164
        30.100          25.900
  -7779570.482 2  -6062004.931 2  24896207.070    24896205.255    24896206.078
        15.100          16.100
 -25320794.641 7 -19730481.370 6  20834203.729    20834204.171    20834203.760
        44.800          41.300
    816902.377 2    636547.575 2  25190302.564    25190305.052    25190303.121
        15.100          16.100
 -13055801.932 5 -10173344.803 5  22710614.267    22710614.177    22710614.809
        33.100          30.600
 -27778825.821 7 -21645831.987 7  20129014.301    20129014.976    20129014.620
        45.100          42.500
  -4552533.647 2  -3547427.570 2  24765618.128    24765615.891    24765617.075
        17.000          16.100
  -2655725.846 3  -2069380.779 2  24836653.631    24836657.299    24836654.358
        18.600          17.800
 -22491316.814 6 -17525691.881 6  21427100.247    21427100.422    21427100.752
        41.900          40.200
 13 10  6  0 30  0.0000000  0 12G28G26G 6G15G21G 8G27G 7G 9G19G10G 5
 -17965523.592 6 -13999105.625 5  21819908.214    21819907.778    21819908.129
        38.100          34.800
 -29078671.144 7 -22658698.498 7  19915193.836    19915194.760    19915194.577
        44.600          43.400
   2781584.550 2   2167469.122 2  25768692.104    25768694.231    25768693.213
        15.100          12.600
 -12745397.267 4  -9931474.737 4  23205094.575    23205094.195    23205095.181
        29.500          25.600
  -7795430.797 2  -6074363.596 2  24893188.139    24893187.672    24893189.051
        16.100          15.100
 -25282500.691 7 -19700641.924 6  20841490.899    20841491.219    20841490.777
        44.600          41.100
    847293.496 2    660228.976 3  25196086.585    25196088.877    25196086.821
        16.100          19.300
 -12966672.038 5 -10103892.946 4  22727575.033    22727574.673    22727575.855
        34.300          29.900
 -27734238.025 7 -21611088.248 7  20137499.442    20137499.761    20137499.515
        45.200          42.600
  -4578781.567 3  -3567880.495 2  24760622.922    24760620.592    24760622.219
        20.500          17.800
  -2538391.839 2  -1977951.736 2  24858982.133    24858985.194    24858982.441
        17.000          17.000
 -22429814.799 6 -17477768.249 6  21438803.641    21438803.759    21438804.175
        41.800          40.200
 13 10  6  0 30 30.0000000  0 12G28G26G 6G15G21G 8G27G 7G 9G19G10G 5
 -18016418.007 6 -14038763.596 5  21810222.950    21810222.713    21810222.972
        38.100          34.100
 -29115437.665 7 -22687347.737 7  19908198.132    19908198.301    19908198.179
        44.800          43.500
   2836822.536 2   2210511.634 1  25779203.596    25779205.369    25779203.817
        15.100           6.500
 -12839118.416 4 -10004504.206 4  23187259.539    23187260.024    23187260.555
        29.700          25.600
  -7810799.112 1  -6086338.915 2  24890262.772    24890263.260    24890263.752
        11.000          16.100
 -25243797.404 7 -19670483.517 6  20848855.574    20848856.252    20848855.658
        44.500          41.300
    878221.509 2    684328.687 3  25201971.921    25201974.231    25201971.878
        16.100          19.900
 -12877344.889 5 -10034287.378 5  22744572.711    22744573.220    22744574.157
        33.500          30.100
 -27689155.355 7 -21575958.896 7  20146078.089    20146078.597    20146078.403
        45.200          42.400
  -4604473.646 3  -3587900.296 3  24755734.177    24755732.748    24755733.271
        18.600          18.600
  -2421032.568 3  -1886502.945 2  24881316.377    24881317.479    24881315.926
        19.900          15.100
 -22367818.960 6 -17429459.825 6  21450601.092    21450601.323    21450601.824
        41.900          39.900
 13 10  6  0 31  0.0000000  0 12G28G26G 6G15G21G 8G27G 7G 9G19G10G 5
 -18066832.500 6 -14078047.597 5  21800629.724    21800629.138    21800629.511
        37.900          34.100
 -29151713.406 7 -22715614.544 7  19901294.175    19901295.280    19901295.086
        44.800          43.600
   2892497.539 1   2253894.715    25789799.347    25789800.771    25789798.279
         9.000           3.000
 -12932679.725 5 -10077409.114 4  23169456.937    23169455.581    23169457.009
        31.000          26.500
  -7825675.087 2  -6097930.582 2  24887433.323    24887432.559    24887433.159
        16.100          13.900
 -25204686.170 7 -19640007.229 6  20856298.571    20856298.864    20856298.428
        44.700          41.200
    909685.332 2    708845.926 2  25207958.186    25207960.893    25207959.182
        13.900          17.000
 -12787821.918 5  -9964529.227 4  22761609.135    22761609.015    22761609.915
        33.500          28.600
 -27643579.277 7 -21540445.072 7  20154750.641    20154751.347    20154751.124
        45.100          42.200
  -4629608.354 2  -3607485.752 3  24750949.830    24750949.689    24750949.985
        17.000          18.600
  -2303650.184 2  -1795036.141 3  24903653.072    24903655.001    24903652.972
        15.100          20.500
 -22305331.099 6 -17380768.006 6  21462491.884    21462492.265    21462492.600
        41.600          40.000
 13 10  6  0 31 30.0000000  0 12G28G26G 6G15G21G 8G27G 7G 9G19G10G 5
 -18116765.582 6 -14116956.478 5  21791127.554    21791127.377    21791127.713
        38.400          35.100
 -29187497.180 7 -22743498.004 7  19894485.586    19894485.852    19894485.726
        44.800          43.600
   2948607.444 2   2297616.682 1  25800475.474    25800476.730    25800474.925
        16.100           9.000
 -13026079.721 4 -10150188.313 4  23151682.493    23151682.452    23151683.282
        29.900          26.500
  -7840058.293 2  -6109138.265 2  24884696.109    24884694.952    24884695.925
        13.900          17.000
 -25165168.334 7 -19609214.111 6  20863818.209    20863818.839    20863818.367
        44.600          41.200
    941683.844 2    733779.841 2  25214048.759    25214050.528    25214048.839
        17.000          17.800
 -12698105.150 5  -9894620.067 4  22778681.945    22778681.537    22778682.364
        33.500          29.900
 -27597511.416 7 -21504548.030 7  20163517.205    20163517.808    20163517.604
        45.000          42.200
  -4654184.591 3  -3626636.067 2  24746273.782    24746271.414    24746274.033
        18.600          17.000
  -2186247.157 2  -1703553.301 2  24925993.094    24925995.730    24925993.614
        17.800          17.800
 -22242352.999 6 -17331694.180 6  21474476.319    21474476.722    21474477.169
        41.600          39.800
 13 10  6  0 32  0.0000000  0 12G28G26G 6G15G21G 8G27G 7G 9G19G10G 5
 -18166215.719 6 -14155489.038 5  21781717.609    21781717.438    21781717.528
        38.100          35.500
 -29222787.832 7 -22770997.215 7  19887769.774    19887770.246    19887770.160
        44.900          43.600
   3005150.738 1   2341676.353 2  25811235.472    25811236.087    25811235.179
         9.000          13.900
 -13119316.920 5 -10222840.689 4  23133939.834    23133940.041    23133940.514
        30.200          26.800
  -7853948.371 2  -6119961.694 2  24882052.607    24882051.461    24882052.668
        15.100          12.600
 -25125245.053 7 -19578105.059 6  20871415.474    20871416.013    20871415.533
        44.600          41.000
    974215.884 2    759129.439 2  25220239.325    25220241.726    25220239.937
        16.100          17.800
 -12608196.212 5  -9824561.167 4  22795790.973    22795790.744    22795791.290
        33.500          29.000
 -27550953.653 7 -21468269.256 7  20172376.819    20172377.536    20172377.227
        44.900          42.000
  -4678200.952 3  -3645350.087 3  24741704.637    24741701.781    24741703.843
        19.900          18.600
  -2068825.401 3  -1612055.843 2  24948338.089    24948339.479    24948337.945
        18.600          16.100
 -22178886.212 6 -17282239.564 6  21486553.626    21486554.174    21486554.488
        41.800          39.900
 13 10  6  0 32 30.0000000  0 12G28G26G 6G15G21G 8G27G 7G 9G19G10G 5
 -18215181.514 6 -14193644.186 5  21772399.728    21772399.436    21772399.616
        37.800          34.900
 -29257584.255 7 -22798111.305 7  19881148.020    19881148.706    19881148.602
        45.000          43.700
   3062125.020 2   2386071.848    25822077.702    25822079.037    25822078.579
        16.100           3.000
 -13212389.734 5 -10295364.959 4  23116228.803    23116228.985    23116229.780
        30.600          26.800
  -7867345.118 2  -6130400.689 2  24879503.449    24879502.253    24879503.566
        17.000          12.600
 -25084917.816 7 -19546681.234 6  20879089.473    20879090.198    20879089.457
        44.400          41.000
   1007280.318 2    784893.868 3  25226530.877    25226533.347    25226531.300
        12.600          18.600
 -12518096.665 5  -9754353.734 4  22812936.646    22812935.805    22812936.858
        33.600          29.200
 -27503907.810 7 -21431610.156 6  20181329.862    20181329.999    20181329.976
        45.100          41.900
  -4701656.058 3  -3663626.748 2  24737240.129    24737238.840    24737241.171
        19.300          17.000
  -1951387.106 2  -1520545.496 2  24970686.835    24970687.594    24970685.999
        16.100          17.000
 -22114932.804 6 -17232405.760 6  21498723.564    21498723.949    21498724.358
        41.600          39.700
 13 10  6  0 33  0.0000000  0 12G28G26G 6G15G21G 8G27G 7G 9G19G10G 5
 -18263661.440 6 -14231420.739 5  21763174.245    21763173.938    21763174.211
        38.500          34.900
 -29291885.238 7 -22824839.345 7  19874621.222    19874621.461    19874621.332
        44.900          43.800
   3119528.361 1   2430801.753 1  25833000.770    25833002.311    25833001.220
         9.000           6.500
 -13305296.654 5 -10367759.948 4  23098548.702    23098549.554    23098549.984
        30.600          27.400
  -7880248.086 2  -6140454.975 2  24877047.889    24877047.292    24877046.627
        16.100          13.900
 -25044188.027 7 -19514943.735 6  20886840.143    20886840.791    20886840.109
        44.300          41.200
   1040876.065 2    811072.328 2  25232923.954    25232926.245    25232924.064
        12.600          17.800
 -12427808.513 5  -9683999.335 4  22830117.197    22830117.283    22830118.036
        32.800          29.500
 -27456375.564 7 -21394572.040 7  20190374.765    20190375.198    20190374.968
        45.000          42.000
  -4724548.642 3  -3681465.110 3  24732883.714    24732882.513    24732883.712
        18.600          18.600
  -1833934.648 2  -1429024.106 2  24993037.130    24993038.137    24993036.257
        16.100          16.100
 -22050494.443 6 -17182194.065 6  21510985.840    21510986.264    21510986.606
        41.600          39.400
 13 10  6  0 33 30.0000000  0 12G28G26G 6G15G21G 8G27G 7G 9G19G10G 5
 -18311654.107 6 -14268817.608 5  21754041.378    21754041.215    21754041.480
        38.200          35.100
 -29325689.811 7 -22851180.571 7  19868188.271    19868188.665    19868188.581
        45.000          43.700
   3177359.230 2   2475864.674 1  25844006.467    25844007.432    25844005.356
        12.600          11.000
 -13398036.360 4 -10440024.659 4  23080901.404    23080901.427    23080901.954
        29.900          26.500
  -7892657.829 2  -6150124.888 2  24874686.574    24874686.187    24874686.568
        17.000          12.600
 -25003057.028 7 -19482893.605 6  20894667.059    20894667.699    20894667.117
        44.400          41.000
   1075001.924 2    837663.918 2  25239418.617    25239420.008    25239418.598
        17.800          15.100
 -12337333.212 5  -9613499.107 4  22847334.352    22847334.423    22847335.011
        33.500          29.200
 -27408358.533 7 -21357156.178 6  20199512.003    20199512.346    20199512.339
        45.100          41.800
  -4746877.556 3  -3698864.264 2  24728634.566    24728633.592    24728635.211
        18.600          17.000
  -1716469.781 2  -1337493.048 2  25015389.869    25015391.049    25015389.356
        16.100          16.100
 -21985573.372 6 -17131606.243 6  21523340.122    21523340.467    21523340.669
        41.600          39.500
 13 10  6  0 34  0.0000000  0 12G28G26G 6G15G21G 8G27G 7G 9G19G10G 5
 -18359157.796 6 -14305833.463 5  21745001.647    21745001.639    21745001.744
        38.400          34.800
 -29358996.752 7 -22877134.029 7  19861849.969    19861850.585    19861850.492
        45.000          43.700
   3235615.810 2   2521258.265 2  25855091.947    25855093.522    25855092.287
        17.800          15.100
 -13490607.192 5 -10512157.774 4  23063285.977    23063285.716    23063286.677
        31.300          27.600
  -7904573.748 2  -6159409.983 2  24872418.786    24872418.752    24872419.212
        13.900          16.100
 -24961526.108 7 -19450531.847 6  20902570.364    20902570.855    20902570.249
        44.300          41.000
   1109656.752 3    864667.714 2  25246013.021    25246014.527    25246013.502
        19.300          17.000
 -12246672.482 5  -9542854.389 4  22864586.366    22864586.900    22864587.260
        33.000          29.500
 -27359858.544 7 -21319363.976 6  20208741.312    20208741.629    20208741.586
        45.100          41.900
  -4768641.698 3  -3715823.349 3  24724494.493    24724492.243    24724493.633
        19.900          19.900
  -1598994.527 2  -1245953.904 2  25037744.690    25037745.617    25037744.792
        17.000          15.100
 -21920171.241 6 -17080643.565 6  21535785.723    21535785.977    21535786.455
        41.600          39.300
 13 10  6  0 34 30.0000000  0 11G28G26G15G21G 8G27G 7G 9G19G10G 5
 -18406171.607 6 -14342467.583 5  21736055.285    21736055.181    21736055.201
        38.100          35.500
 -29391804.938 7 -22902698.849 7  19855607.234    19855607.397    19855607.282
        45.000          43.900
 -13583007.801 5 -10584158.240 4  23045703.059    23045702.605    23045703.618
        30.100          26.800
  -7915995.564 2  -6168310.123 2  24870245.684    24870244.716    24870245.361
        16.100          17.000
 -24919596.523 7 -19417859.446 6  20910549.257    20910549.824    20910549.183
        44.300          41.100
   1144839.164 2    892082.576 2  25252707.689    25252709.844    25252707.189
        13.900          13.900
 -12155828.039 5  -9472066.518 4  22881873.366    22881873.819    22881874.329
        33.100          29.500
 -27310877.366 7 -21281196.823 6  20218062.099    20218062.506    20218062.364
        44.900          41.800
  -4789839.488 3  -3732341.142 3  24720460.086    24720458.197    24720459.499
        21.100          19.300
  -1481511.379 2  -1154408.627 2  25060100.296    25060102.395    25060099.435
        17.000          16.100
 -21854289.911 6 -17029307.487 6  21548322.451    21548322.698    21548323.137
        41.500          39.300
 13 10  6  0 35  0.0000000  0 11G28G26G15G21G 8G27G 7G 9G19G10G 5
 -18452693.917 6 -14378718.715 5  21727202.172    21727202.210    21727202.241
        38.400          35.600
 -29424113.319 7 -22927874.214 7  19849458.567    19849459.277    19849459.123
        45.100          43.800
 -13675236.186 5 -10656024.527 4  23028152.050    23028152.088    23028152.612
        30.600          27.600
  -7926923.288 2  -6176825.214 2  24868166.449    24868165.519    24868165.557
        13.900          16.100
 -24877269.618 7 -19384877.445 6  20918603.699    20918604.252    20918603.724
        44.500          40.700
   1180547.979 2    919907.635 3  25259503.038    25259505.238    25259503.379
        13.900          19.300
 -12064801.640 5  -9401136.862 4  22899195.032    22899195.294    22899195.933
        32.400          29.000
 -27261416.749 7 -21242656.086 6  20227474.194    20227474.552    20227474.423
        44.900          41.600
  -4810469.938 3  -3748416.810 3  24716532.348    24716532.559    24716532.957
        18.600          19.900
  -1364022.369 2  -1062858.769 2  25082457.748    25082460.152    25082457.325
        13.900          15.100
 -21787931.317 6 -16977599.514 6  21560949.935    21560950.230    21560950.731
        41.400          39.000
 13 10  6  0 35 30.0000000  0 11G28G26G15G21G 8G27G 7G 9G19G10G 5
 -18498723.232 6 -14414585.697 5  21718443.295    21718443.219    21718443.261
        38.400          35.600
 -29455920.748 7 -22952659.221 7  19843405.949    19843406.514    19843406.356
        45.100          44.000
 -13767291.322 5 -10727755.798 4  23010634.261    23010634.791    23010635.375
        31.800          28.400
  -7937356.778 2  -6184955.232 2  24866180.900    24866179.379    24866179.769
        13.900          13.900
 -24834546.880 7 -19351586.998 6  20926733.490    20926734.078    20926733.582
        44.300          40.900
   1216781.918 2    948141.821 2  25266397.947    25266399.997    25266398.315
        17.000          17.800
 -11973595.055 5  -9330066.800 4  22916551.303    22916551.153    22916552.143
        32.800          28.800
 -27211478.455 7 -21203743.128 6  20236977.113    20236977.474    20236977.322
        44.900          41.600
  -4830531.777 3  -3764049.396 2  24712716.206    24712714.601    24712715.842
        21.100          17.800
  -1246529.572 2   -971305.949 2  25104816.093    25104818.252    25104816.087
        13.900          17.800
 -21721097.648 6 -16925521.356 6  21573668.065    21573668.457    21573668.826
        41.300          39.100
 13 10  6  0 36  0.0000000  0 12G28G26G 3G15G21G 8G27G 7G 9G19G10G 5
 -18544258.202 6 -14450067.480 5  21709778.177    21709777.972    21709778.162
        38.400          35.400
 -29487226.202 7 -22977053.082 7  19837448.764    19837449.365    19837449.087
        45.100          44.000
     91285.280 2     71131.515 2  24649191.995    24649193.705    24649192.802
        15.100          12.600
 -13859171.322 5 -10799350.602 4  22993150.203    22993149.975    22993151.120
        31.000          27.400
  -7947295.582 2  -6192699.728 2  24864289.490    24864289.323    24864289.884
        12.600          16.100
 -24791429.925 7 -19317989.372 6  20934938.659    20934939.089    20934938.512
        44.400          40.800
   1253539.677 2    976784.257 2  25273392.507    25273394.582    25273393.597
        16.100          15.100
 -11882209.799 5  -9258857.514 4  22933941.289    22933941.501    22933942.334
        33.000          29.500
 -27161064.283 7 -21164459.356 6  20246570.284    20246570.967    20246570.738
        44.800          41.600
  -4850024.067 3  -3779238.172 3  24709007.097    24709005.112    24709007.314
        20.500          18.600
  -1129034.978 1   -879751.742 2  25127174.357    25127176.452    25127174.416
        11.000          17.800
 -21653790.673 6 -16873074.388 6  21586476.207    21586476.751    21586476.983
        41.500          38.900
 13 10  6  0 36 30.0000000  0 12G28G26G 3G15G21G 8G27G 7G 9G19G10G 5
 -18589297.679 6 -14485163.162 5  21701207.627    21701207.003    21701207.666
        38.900          35.500
 -29518028.626 7 -23001054.973 7  19831587.155    19831587.899    19831587.686
        45.100          44.100
    134972.907 2    105173.833 2  24657505.941    24657506.719    24657506.340
        17.000          12.600
 -13950874.740 5 -10870807.814 4  22975699.848    22975700.129    22975700.441
        31.300          28.400
  -7956740.060 2  -6200059.051 2  24862492.429    24862491.386    24862491.874
        17.000          16.100
 -24747919.686 7 -19284085.289 6  20943218.162    20943218.806    20943218.269
        44.300          40.800
   1290819.983 2   1005833.804 2  25280487.366    25280488.884    25280488.246
        17.000          13.900
 -11790647.508 5  -9187510.282 4  22951366.050    22951365.525    22951366.181
        33.000          29.200
 -27110176.043 7 -21124806.180 6  20256254.212    20256254.639    20256254.397
        44.700          41.600
  -4868945.445 3  -3793982.133 2  24705407.081    24705404.568    24705406.731
        20.500          17.000
  -1011541.031 2   -788198.053 2  25149533.543    25149535.347    25149533.288
        13.900          16.100
 -21586012.097 6 -16820259.941 6  21599373.847    21599374.293    21599374.705
        41.300          38.700
 13 10  6  0 37  0.0000000  0 12G28G26G 3G15G21G 8G27G 7G 9G19G10G 5
 -18633840.132 6 -14519871.560 5  21692731.144    21692731.100    21692731.353
        38.500          35.800
 -29548326.892 7 -23024664.006 7  19825821.756    19825822.309    19825822.056
        44.900          44.100
    179231.574 2    139661.068 2  24665927.989    24665928.312    24665928.659
        15.100          16.100
 -14042400.077 5 -10942126.270 4  22958282.868    22958283.068    22958284.133
        32.000          27.400
  -7965690.179 2  -6207033.162 1  24860789.557    24860788.187    24860789.471
        12.600          11.000
 -24704017.805 7 -19249876.025 6  20951572.635    20951573.033    20951572.560
        44.400          40.700
   1328621.493 2   1035289.484 2  25287679.576    25287682.734    25287680.482
        15.100          13.900
 -11698910.022 5  -9116026.547 4  22968822.366    22968822.342    22968822.889
        31.600          29.200
 -27058815.393 7 -21084784.894 6  20266027.685    20266028.409    20266027.992
        44.700          41.400
  -4887294.954 3  -3808280.474 3  24701914.894    24701913.092    24701914.381
        19.900          19.300
   -894050.009 2   -696646.620 2  25171891.822    25171892.946    25171891.368
        15.100          15.100
 -21517764.321 6 -16767079.875 6  21612361.110    21612361.624    21612361.873
        41.100          38.700
 13 10  6  0 37 30.0000000  0 12G28G26G 3G15G21G 8G27G 7G 9G19G10G 5
 -18677884.421 6 -14554191.772 6  21684350.230    21684349.969    21684350.114
        38.300          36.100
 -29578120.008 7 -23047879.421 7  19820152.350    19820152.796    19820152.609
        44.900          44.100
    224059.637 2    174592.026 1  24674458.222    24674459.126    24674457.828
        13.900          11.000
 -14133745.734 5 -11013304.677 4  22940900.120    22940900.678    22940901.450
        31.000          27.600
  -7974145.752 2  -6213621.927 2  24859180.479    24859180.129    24859179.650
        17.000          16.100
 -24659725.592 7 -19215362.611 6  20960000.758    20960001.527    20960000.776
        44.000          40.500
   1366942.879 2   1065150.292 2  25294972.772    25294974.893    25294972.722
        13.900          17.000
 -11606999.016 5  -9044407.588 4  22986312.350    22986312.275    22986313.460
        32.100          28.400
 -27006984.257 7 -21044396.999 6  20275891.142    20275891.470    20275891.299
        44.600          41.500
  -4905071.560 3  -3822132.369 2  24698531.763    24698530.148    24698531.105
        20.500          17.800
   -776564.024 1   -605099.119 2  25194248.178    25194249.529    25194248.144
        11.000          16.100
 -21449049.199 6 -16713535.650 6  21625437.376    21625437.693    21625438.100
        41.400          38.900
 13 10  6  0 38  0.0000000  0 12G28G26G 3G15G21G 8G27G 7G 9G19G10G 5
 -18721429.028 6 -14588122.613 6  21676063.905    21676063.579    21676063.715
        38.500          36.300
 -29607406.953 7 -23070700.418 7  19814579.092    19814579.684    19814579.408
        45.100          44.100
    269455.183 2    209965.151 1  24683097.195    24683096.769    24683097.109
        12.600           9.000
 -14224910.240 5 -11084341.963 4  22923551.743    22923552.607    22923553.163
        30.600          28.100
  -7982106.837 2  -6219825.350 2  24857664.765    24857664.164    24857664.274
        13.900          15.100
 -24615044.388 7 -19180546.088 6  20968503.456    20968503.939    20968503.427
        44.100          40.300
   1405782.734 2   1095415.081 2  25302364.140    25302365.482    25302364.591
        17.000          17.000
 -11514915.998 5  -8972654.590 4  23003835.192    23003835.137    23003836.196
        32.400          28.800
 -26954684.471 7 -21003643.921 6  20285843.507    20285843.750    20285843.621
        44.700          41.300
  -4922273.974 2  -3835536.808 3  24695258.453    24695256.947    24695257.563
        17.800          19.300
   -659085.051 2   -513557.097 2  25216602.200    25216605.139    25216603.115
        13.900          15.100
 -21379868.635 6 -16659628.741 6  21638601.931    21638602.537    21638602.734
        41.400          39.400
 13 10  6  0 38 30.0000000  0 12G28G26G 3G15G21G 8G27G 7G 9G19G10G 5
 -18764472.797 6 -14621663.201 5  21667872.745    21667872.484    21667872.760
        38.800          35.900
 -29636186.656 7 -23093126.167 7  19809102.509    19809103.154    19809102.835
        45.100          44.200
    315416.743 1    245779.372 2  24691843.651    24691844.461    24691842.897
         9.000          13.900
 -14315891.940 5 -11155236.811 4  22906238.953    22906239.507    22906240.055
        32.000          28.100
  -7989572.992 2  -6225643.120 2  24856243.782    24856243.584    24856243.462
        15.100          17.000
 -24569975.880 7 -19145427.774 6  20977079.698    20977080.235    20977079.747
        44.100          40.200
   1445139.719 2   1126082.833 2  25309853.836    25309855.383    25309854.310
        15.100          15.100
 -11422662.456 5  -8900768.716 4  23021390.596    23021390.566    23021391.029
        31.600          28.800
 -26901917.692 7 -20962526.950 6  20295884.538    20295885.070    20295884.709
        44.600          41.400
  -4938901.676 3  -3848493.444 3  24692093.007    24692093.247    24692092.670
        19.900          19.900
   -541614.872 2   -422021.928 2  25238956.219    25238958.571    25238956.459
        16.100          16.100
 -21310224.485 6 -16605360.606 6  21651854.913    21651855.104    21651855.415
        41.000          38.500
 13 10  6  0 39  0.0000000  0 11G28G26G15G21G 8G27G 7G 9G19G10G 5
 -18807014.684 6 -14654812.716 6  21659777.181    21659777.013    21659777.328
        38.900          36.100
 -29664458.124 7 -23115155.877 7  19803722.652    19803723.327    19803723.080
        45.200          44.200
 -14406689.274 5 -11225987.966 4  22888961.636    22888961.567    22888962.179
        32.600          29.200
  -7996544.723 2  -6231075.660 2  24854917.592    24854917.671    24854916.954
        16.100          16.100
 -24524521.493 7 -19110008.773 6  20985729.478    20985730.132    20985729.484
        44.100          40.500
   1485012.448 1   1157152.475 2  25317440.372    25317442.739    25317440.868
        11.000          12.600
 -11330240.172 5  -8828751.384 4  23038977.733    23038978.117    23038978.315
        31.600          28.600
 -26848685.832 7 -20921047.580 6  20306014.131    20306014.714    20306014.373
        44.500          41.200
  -4954953.274 3  -3861001.171 3  24689040.402    24689037.674    24689040.210
        20.500          19.900
   -424155.835 2   -330495.399 2  25261308.533    25261310.606    25261308.783
        17.000          15.100
 -21240119.345 6 -16550733.248 6  21665195.356    21665195.711    21665196.094
        41.200          38.200
 13 10  6  0 39 30.0000000  0 11G28G26G15G21G 8G27G 7G 9G19G10G 5
 -18849053.370 6 -14687570.122 6  21651777.597    21651777.341    21651777.615
        38.900          36.100
 -29692220.356 7 -23136788.785 7  19798439.640    19798440.327    19798440.062
        45.100          44.400
 -14497300.437 5 -11296594.057 4  22871718.552    22871718.446    22871719.293
        31.600          28.400
  -8003021.762 2  -6236122.700 2  24853683.795    24853684.576    24853684.690
        12.600          13.900
 -24478682.396 7 -19074289.996 6  20994452.171    20994452.936    20994452.183
        44.000          40.500
   1525399.402 2   1188622.832 1  25325126.103    25325128.268    25325126.631
        13.900          11.000
 -11237651.072 5  -8756604.044 4  23056597.899    23056596.967    23056597.890
        32.300          28.100
 -26794990.663 7 -20879207.192 6  20316232.044    20316232.519    20316232.172
        44.600          41.200
  -4970427.894 3  -3873059.313 2  24686095.797    24686092.144    24686094.806
        18.600          17.000
   -306710.308 2   -238979.451 2  25283658.090    25283659.380    25283657.569
        12.600          15.100
 -21169554.688 6 -16495747.823 6  21678623.181    21678623.818    21678624.099
        40.900          38.100
 13 10  6  0 40  0.0000000  0 11G28G26G15G21G 8G27G 7G 9G19G10G 5
 -18890587.621 6 -14719934.457 6  21643873.550    21643873.573    21643873.672
        38.600          36.300
 -29719472.282 7 -23158024.054 7  19793253.668    19793254.400    19793254.163
        45.200          44.400
 -14587723.923 5 -11367053.930 4  22854511.168    22854511.749    22854512.292
        32.300          29.000
  -8009004.798 2  -6240784.798 2  24852546.229    24852545.868    24852545.734
        17.000          15.100
 -24432460.015 7 -19038272.559 6  21003248.097    21003248.898    21003248.094
        44.100          40.300
   1566299.141 2   1220492.731 2  25332908.578    25332910.923    25332908.660
        12.600          17.000
 -11144896.599 5  -8684327.848 4  23074247.666    23074247.569    23074248.176
        31.300          28.600
 -26740833.999 7 -20837007.194 6  20326537.563    20326538.122    20326537.943
        44.400          41.100
  -4985324.243 3  -3884666.885 2  24683261.863    24683257.534    24683260.564
        18.600          17.800
   -189280.284 2   -147475.571 2  25306004.479    25306005.842    25306003.867
        15.100          12.600
 -21098532.773 6 -16440406.097 6  21692138.381    21692138.903    21692139.061
        41.000          38.500
 13 10  6  0 40 30.0000000  0 11G28G26G15G21G 8G27G 7G 9G19G10G 5
 -18931616.147 6 -14751904.716 6  21636066.421    21636066.261    21636066.349
        38.600          36.200
 -29746212.964 7 -23178860.946 7  19788165.415    19788165.773    19788165.593
        45.200          44.300
 -14677958.523 5 -11437366.607 4  22837340.181    22837340.229    22837341.382
        32.600          28.600
  -8014493.423 2  -6245061.665 2  24851501.450    24851501.914    24851501.749
        16.100          16.100
 -24385855.621 7 -19001957.447 6  21012116.700    21012117.381    21012116.643
        43.800          40.300
   1607710.306 1   1252761.159 2  25340788.887    25340790.865    25340790.104
        11.000          12.600
 -11051978.167 5  -8611923.893 4  23091929.081    23091929.405    23091930.085
        31.800          27.900
 -26686217.576 7 -20794448.942 6  20336931.004    20336931.281    20336931.162
        44.400          41.000
  -4999641.891 3  -3895823.494 3  24680535.434    24680534.348    24680534.708
        20.500          19.300
    -71867.970 3    -55985.457 1  25328346.886    25328348.366    25328346.864
        18.600          11.000
 -21027055.739 6 -16384709.734 6  21705740.148    21705740.520    21705740.752
        41.100          38.500
 13 10  6  0 41  0.0000000  0 11G28G26G15G21G 8G27G 7G 9G19G10G 5
 -18972137.812 6 -14783480.028 6  21628355.487    21628355.236    21628355.470
        39.000          36.500
 -29772441.381 7 -23199298.677 7  19783174.270    19783174.700    19783174.556
        45.300          44.400
 -14768002.621 5 -11507530.836 4  22820205.906    22820205.438    22820206.506
        32.800          28.600
  -8019487.555 2  -6248953.192 2  24850550.670    24850551.625    24850551.293
        15.100          15.100
 -24338870.977 7 -18965346.035 6  21021057.229    21021058.219    21021057.337
        43.800          40.300
   1649631.360 1   1285426.920 2  25348766.492    25348768.841    25348766.643
        11.000          16.100
 -10958897.801 5  -8539393.746 4  23109642.161    23109642.164    23109642.791
        31.800          28.400
 -26631143.505 7 -20751534.081 6  20347411.183    20347411.696    20347411.428
        44.400          41.100
  -5013379.928 2  -3906528.462 3  24677919.915    24677920.839    24677920.111
        16.100          19.900
     45524.797 2     35489.400 2  25350686.327    25350687.764    25350686.356
        16.100          12.600
 -20955125.747 6 -16328660.414 6  21719428.052    21719428.266    21719428.586
        40.700          38.000
 13 10  6  0 41 30.0000000  0 11G28G26G15G21G 8G27G 7G 9G19G10G 5
 -19012151.651 6 -14814659.626 6  21620740.874    21620740.744    21620740.882
        38.800          36.500
 -29798156.682 7 -23219336.575 7  19778280.636    19778281.266    19778281.040
        45.300          44.500
 -14857854.322 5 -11577545.144 4  22803107.448    22803107.608    22803108.005
        32.400          28.800
  -8023987.326 2  -6252459.481 2  24849694.199    24849693.937    24849694.213
        13.900          16.100
 -24291507.331 7 -18928439.301 6  21030070.354    21030071.181    21030070.485
        43.800          40.000
   1692060.761 2   1318488.774 2  25356840.468    25356843.082    25356841.337
        17.000          16.100
 -10865656.820 5  -8466738.461 4  23127385.240    23127385.381    23127385.972
        31.100          28.100
 -26575613.558 7 -20708263.995 6  20357978.194    20357978.614    20357978.404
        44.300          41.000
  -5026537.365 2  -3916780.991 3  24675416.681    24675416.390    24675416.479
        17.000          19.900
    162895.605 2    126947.159 2  25373022.099    25373022.960    25373021.219
        12.600          13.900
 -20882744.525 6 -16272259.487 6  21733201.558    21733202.130    21733202.200
        40.800          37.900
 13 10  6  0 42  0.0000000  0 11G28G26G15G21G 8G27G 7G 9G19G10G 5
 -19051656.313 6 -14845442.466 6  21613223.236    21613223.264    21613223.461
        39.000          36.500
 -29823357.760 7 -23238973.779 7  19773484.738    19773485.684    19773485.364
        45.200          44.500
 -14947512.173 5 -11647408.401 4  22786045.898    22786046.090    22786046.997
        33.100          29.000
  -8027993.297 2  -6255581.039 2  24848932.753    24848932.359    24848932.103
        17.000          12.600
 -24243766.083 7 -18891238.330 6  21039155.328    21039156.019    21039155.307
        43.700          39.900
   1734996.962 2   1351945.521 3  25365010.828    25365013.420    25365010.958
        13.900          18.600
 -10772257.067 5  -8393959.456 4  23145158.639    23145158.513    23145159.279
        31.500          27.400
 -26519629.620 7 -20664640.150 6  20368631.511    20368632.036    20368631.723
        44.100          40.800
  -5039113.444 3  -3926580.539 3  24673024.902    24673024.176    24673024.142
        21.600          22.100
    280242.565 2    218386.321 2  25395352.482    25395353.525    25395351.922
        15.100          15.100
 -20809914.388 6 -16215508.753 6  21747060.815    21747061.186    21747061.513
        41.200          37.800
 13 10  6  0 42 30.0000000  0 11G28G26G15G21G 8G27G 7G 9G19G10G 5
 -19090650.598 6 -14875827.608 6  21605802.993    21605802.839    21605803.084
        39.100          36.400
 -29848043.799 7 -23258209.654 7  19768787.451    19768788.040    19768787.819
        45.300          44.600
 -15036974.342 5 -11717119.186 4  22769021.994    22769022.167    22769022.682
        32.700          28.800
  -8031505.361 2  -6258317.742 2  24848263.734    24848264.261    24848264.373
        12.600          15.100
 -24195648.865 7 -18853744.396 6  21048311.748    21048312.353    21048311.758
        43.600          40.000
   1778438.436 2   1385796.008 3  25373277.358    25373280.055    25373278.150
        16.100          18.600
 -10678699.959 5  -8321057.826 4  23162962.316    23162962.026    23162962.671
        31.300          28.100
 -26463193.425 7 -20620663.895 6  20379370.947    20379371.539    20379371.148
        44.200          40.900
  -5051107.146 3  -3935926.264 3  24670742.928    24670741.667    24670742.329
        20.500          21.100
    397563.717 2    309805.388 2  25417677.068    25417679.169    25417676.975
        12.600          12.600
 -20736637.493 6 -16158409.896 6  21761004.652    21761005.407    21761005.605
        40.700          37.900
 13 10  6  0 43  0.0000000  0 11G28G26G15G21G 8G27G 7G 9G19G10G 5
 -19129133.691 6 -14905814.423 6  21598480.084    21598479.790    21598480.046
        39.100          36.500
 -29872213.805 7 -23277043.422 7  19764188.183    19764188.633    19764188.464
        45.300          44.700
 -15126239.411 5 -11786676.385 4  22752035.129    22752035.583    22752035.988
        33.000          29.200
  -8034523.732 2  -6260669.702 2  24847689.849    24847689.285    24847689.317
        12.600          15.100
 -24147156.789 7 -18815958.362 6  21057539.462    21057540.163    21057539.501
        43.700          39.800
   1822383.687 2   1420039.016 2  25381639.462    25381642.517    25381640.972
        16.100          16.100
 -10584987.163 5  -8248034.880 4  23180795.328    23180794.702    23180795.635
        30.100          26.800
 -26406306.851 7 -20576336.699 6  20390196.254    20390196.623    20390196.377
        44.200          40.600
  -5062517.823 3  -3944817.688 3  24668572.816    24668569.243    24668571.952
        23.000          19.300
    514857.051 1    401202.735 1  25439996.759    25439999.053    25439997.106
         6.500           9.000
 -20662915.956 6 -16100964.566 6  21775033.591    21775034.043    21775034.288
        40.300          37.700
 13 10  6  0 43 30.0000000  0 11G28G26G15G21G 8G27G 7G 9G19G10G 5
 -19167104.397 6 -14935401.971 6  21591254.767    21591254.380    21591254.633
        39.100          36.800
 -29895866.942 7 -23295474.443 7  19759687.065    19759687.622    19759687.381
        45.300          44.600
 -15215305.979 5 -11856078.900 4  22735086.732    22735086.635    22735087.582
        33.500          29.700
  -8037048.599 2  -6262637.095 1  24847209.255    24847208.015    24847208.961
        13.900          11.000
 -24098291.654 7 -18777881.633 6  21066838.238    21066838.894    21066838.347
        43.600          39.700
   1866831.105 2   1454673.329 2  25390098.213    25390101.040    25390098.987
        16.100          15.100
 -10491120.212 5  -8174891.828 4  23198657.198    23198657.138    23198658.044
        30.600          27.900
 -26348971.791 7 -20531660.033 6  20401106.829    20401107.077    20401106.948
        44.200          40.600
  -5073344.643 4  -3953254.202 3  24666513.552    24666508.727    24666512.094
        24.200          18.600
    632120.222 1    492576.641 2  25462310.909    25462314.170    25462310.199
         9.000          12.600
 -20588751.910 6 -16043174.425 6  21789146.529    21789147.338    21789147.223
        40.300          38.100
 13 10  6  0 44  0.0000000  0 11G28G26G15G21G 8G27G 7G 9G19G10G 5
 -19204561.655 6 -14964589.429 6  21584126.545    21584126.258    21584126.496
        39.200          37.000
 -29919002.184 7 -23313501.903 7  19755284.482    19755285.192    19755284.849
        45.300          44.700
 -15304172.012 5 -11925325.145 4  22718175.695    22718175.856    22718176.690
        33.100          29.000
  -8039080.141 1  -6264220.128 2  24846823.018    24846821.437    24846822.208
        11.000          12.600
 -24049054.529 7 -18739515.041 6  21076207.850    21076208.457    21076207.809
        43.600          39.800
   1911779.115 2   1489697.707 2  25398651.893    25398653.992    25398652.168
        17.000          15.100
 -10397101.076 5  -8101630.177 4  23216548.256    23216548.656    23216549.474
        30.800          27.600
 -26291190.038 7 -20486635.291 6  20412102.375    20412102.660    20412102.382
        43.900          40.500
  -5083586.705 3  -3961235.043 3  24664562.981    24664560.209    24664562.480
        21.100          19.300
    749351.206 2    583925.448 2  25484618.488    25484622.214    25484619.671
        13.900          12.600
 -20514147.473 6 -15985041.127 6  21803343.765    21803343.780    21803344.312
        40.900          37.600
 13 10  6  0 44 30.0000000  0 12G28G26G18G15G21G 8G27G 7G 9G19G10G 5
 -19241504.239 6 -14993375.852 6  21577096.508    21577096.367    21577096.571
        39.200          36.500
 -29941618.649 7 -23331125.125 7  19750980.774    19750981.439    19750981.089
        45.200          44.800
   -173330.842 2   -135062.829    25909601.748    25909601.707    25909601.799
        12.600           3.000
 -15392836.472 5 -11994414.340 4  22701303.419    22701303.886    22701304.047
        32.800          29.500
  -8040618.719 2  -6265419.044 2  24846528.999    24846528.506    24846530.205
        16.100          12.600
 -23999446.903 7 -18700859.752 6  21085647.952    21085648.529    21085647.814
        43.400          39.700
   1957226.157 2   1525110.943 2  25407300.741    25407302.647    25407300.481
        13.900          15.100
 -10302930.977 5  -8028250.897 4  23234468.545    23234468.441    23234469.255
        30.400          26.800
 -26232963.793 7 -20441264.194 6  20423182.037    20423182.721    20423182.420
        44.000          40.500
  -5093243.770 3  -3968760.056 2  24662725.274    24662721.315    24662724.347
        22.100          17.000
    866547.787 2    675247.419 1  25506920.791    25506924.121    25506922.125
        13.900          11.000
 -20439104.959 6 -15926566.457 6  21817623.280    21817623.999    21817624.171
        40.200          37.100
 13 10  6  0 45  0.0000000  0 12G28G26G18G15G21G 8G27G 7G 9G19G10G 5
 -19277931.353 6 -15021760.605 6  21570164.544    21570164.486    21570164.606
        39.100          36.700
 -29963715.497 7 -23348343.448 7  19746775.735    19746776.466    19746776.237
        45.500          44.700
   -273172.873 1   -212861.774    25890602.580    25890602.199    25890602.518
         9.000           3.000
 -15481297.160 5 -12063344.743 4  22684469.525    22684470.326    22684470.817
        33.100          29.700
  -8041664.521 2  -6266233.931 2  24846332.522    24846329.281    24846332.281
        17.000          13.900
 -23949470.321 7 -18661916.964 6  21095157.700    21095158.788    21095157.896
        43.400          39.600
   2003170.531 2   1560911.690 2  25416042.761    25416045.636    25416042.807
        13.900          17.000
 -10208611.320 5  -7954755.071 4  23252416.930    23252417.077    23252417.644
        30.800          26.800
 -26174294.769 7 -20395548.074 6  20434346.327    20434347.163    20434346.756
        44.000          40.700
  -5102314.708 2  -3975828.400 2  24660995.758    24660994.034    24660995.390
        16.100          17.000
    983708.033 2    766541.092 2  25529216.540    25529219.007    25529216.672
        13.900          13.900
 -20363626.520 6 -15867752.118 6  21831986.503    21831987.118    21831987.302
        40.400          37.100
 13 10  6  0 45 30.0000000  0 12G28G26G18G15G21G 8G27G 7G 9G19G10G 5
 -19313842.034 6 -15049742.947 6  21563331.178    21563330.929    21563331.145
        39.500          37.100
 -29985291.825 7 -23365156.171 7  19742669.886    19742670.633    19742670.359
        45.400          44.700
   -372898.336     -290569.866 2  25871626.725    25871626.235    25871626.288
         3.000          13.900
 -15569552.690 5 -12132115.274 4  22667675.009    22667676.090    22667676.289
        33.500          29.500
  -8042217.609 2  -6266664.897 2  24846227.626    24846224.589    24846227.439
        16.100          16.100
 -23899126.321 7 -18622687.874 6  21104738.128    21104738.803    21104738.139
        43.200          39.600
   2049610.577 2   1597098.692 2  25424880.869    25424882.915    25424881.144
        17.800          13.900
 -10114143.992 5  -7881144.193 4  23270393.632    23270393.856    23270394.005
        30.100          28.400
 -26115184.739 7 -20349488.318 6  20445594.439    20445595.391    20445594.875
        43.700          40.200
  -5110799.048 2  -3982439.541 2  24659381.193    24659379.698    24659380.701
        17.800          16.100
   1100829.818 1    857804.784 2  25551504.640    25551506.432    25551504.191
         9.000          17.000
 -20287714.743 6 -15808600.099 6  21846431.881    21846432.556    21846432.924
        40.300          37.200
 13 10  6  0 46  0.0000000  0 11G28G26G18G15G21G 8G 7G 9G19G10G 5
 -19349235.068 6 -15077321.921 6  21556596.059    21556596.043    21556596.145
        39.400          37.400
 -30006346.769 7 -23381562.624 7  19738663.555    19738664.050    19738663.766
        45.400          45.000
   -472504.670 2   -368185.152 1  25852671.012    25852671.534    25852671.057
        13.900           6.500
 -15657601.323 5 -12200724.601 5  22650920.376    22650920.633    22650921.188
        33.600          30.200
  -8042278.527 2  -6266712.375 2  24846215.270    24846213.946    24846215.292
        17.800          15.100
 -23848416.151 7 -18583173.461 6  21114387.724    21114388.673    21114387.959
        43.400          39.400
 -10019530.398 5  -7807419.348 4  23288397.734    23288397.900    23288398.598
        30.200          26.800
 -26055635.616 7 -20303086.403 6  20456926.508    20456927.184    20456926.862
        43.700          40.200
  -5118696.026 2  -3988593.019 2  24657878.425    24657878.098    24657879.575
        15.100          17.000
   1217911.099 2    949036.888 2  25573784.726    25573786.078    25573783.828
        12.600          16.100
 -20211371.006 6 -15749111.496 6  21860959.733    21860960.523    21860960.667
        40.200          37.400
 13 10  6  0 46 30.0000000  0 11G28G26G18G15G21G 8G 7G 9G19G10G 5
 -19384109.957 6 -15104497.141 6  21549959.408    21549959.479    21549959.476
        39.100          37.400
 -30026879.444 7 -23397562.115 7  19734756.256    19734756.776    19734756.593
        45.500          44.800
   -571989.777 2   -445705.940 1  25833739.883    25833740.195    25833738.639
        15.100           6.500
 -15745441.703 5 -12269171.645 5  22634205.295    22634205.408    22634205.799
        33.800          30.600
  -8041846.662 2  -6266375.849 2  24846297.206    24846296.466    24846296.949
        13.900          16.100
 -23797341.417 7 -18543374.967 6  21124107.150    21124107.921    21124107.186
        43.200          39.500
  -9924772.341 5  -7733581.919 4  23306430.097    23306429.634    23306430.634
        30.600          26.200
 -25995649.169 7 -20256343.724 6  20468341.612    20468342.244    20468341.984
        43.600          40.200
  -5126005.091 3  -3994288.413 3  24656489.422    24656488.067    24656489.433
        19.300          19.900
   1334949.749 1   1040235.790 1  25596056.149    25596057.522    25596055.729
         9.000           9.000
 -20134597.796 6 -15689288.245 6  21875569.025    21875569.948    21875570.125
        40.100          37.600
 13 10  6  0 47  0.0000000  0 11G28G26G18G15G21G 8G 7G 9G19G10G 5
 -19418464.987 6 -15131267.281 6  21543421.976    21543421.608    21543422.123
        39.300          36.800
 -30046889.030 7 -23413154.001 7  19730948.462    19730949.039    19730948.889
        45.600          44.800
   -671352.009 2   -523131.039    25814832.269    25814831.744    25814831.865
        16.100           3.000
 -15833071.874 5 -12337454.886 4  22617529.586    22617529.713    22617530.443
        33.800          29.700
  -8040923.906 2  -6265656.827 2  24846472.613    24846471.461    24846472.117
        12.600          13.900
 -23745903.431 7 -18503293.422 6  21133895.506    21133896.277    21133895.496
        43.100          39.300
  -9829871.317 5  -7659633.078 4  23324489.209    23324488.723    23324489.952
        30.400          27.100
 -25935227.320 7 -20209261.772 6  20479839.674    20479840.159    20479839.768
        43.700          40.300
  -5132725.654 3  -3999525.176 3  24655211.525    24655209.418    24655211.491
        22.100          19.900
   1451943.935 2   1131400.083 2  25618319.649    25618321.114    25618319.454
        13.900          12.600
 -20057397.431 6 -15629132.142 6  21890260.002    21890260.632    21890260.911
        40.200          37.100
 13 10  6  0 47 30.0000000  0 11G28G26G18G15G21G 8G 7G 9G19G10G 5
 -19452299.541 6 -15157631.864 6  21536983.570    21536983.108    21536983.485
        39.300          37.000
 -30066374.737 7 -23428337.668 7  19727240.437    19727241.000    19727240.866
        45.500          44.900
   -770588.818 2   -600458.420 2  25795948.875    25795947.506    25795948.532
        15.100          12.600
 -15920490.330 5 -12405573.158 4  22600894.321    22600894.698    22600895.095
        33.900          29.900
  -8039510.111 2  -6264555.180 2  24846741.215    24846740.835    24846741.085
        13.900          16.100
 -23694103.834 7 -18462930.108 6  21143752.370    21143753.251    21143752.597
        43.200          39.300
  -9734828.769 4  -7585573.977 4  23342574.556    23342574.755    23342575.502
        29.000          27.400
 -25874372.073 7 -20161842.100 6  20491419.964    20491420.442    20491420.154
        43.500          39.800
  -5138857.198 3  -4004303.019 3  24654045.371    24654043.092    24654045.039
        20.500          21.100
   1568891.469 2   1222528.041 1  25640573.552    25640575.947    25640572.618
        17.000           9.000
 -19979772.191 6 -15568644.958 6  21905031.741    21905032.112    21905032.486
        40.100          36.700
 13 10  6  0 48  0.0000000  0 11G28G26G18G15G21G 8G 7G 9G19G10G 5
 -19485612.906 6 -15183590.317 6  21530644.246    21530643.980    21530644.172
        39.600          37.200
 -30085335.689 7 -23443112.440 7  19723632.357    19723632.892    19723632.736
        45.400          44.900
   -869697.969 1   -677686.311 1  25777088.047    25777087.194    25777088.088
        11.000           6.500
 -16007695.504 5 -12473525.235 5  22584299.933    22584299.772    22584300.462
        33.800          30.400
  -8037605.267 2  -6263070.882 2  24847104.171    24847103.434    24847103.169
        16.100          17.800
 -23641944.039 7 -18422286.115 6  21153678.562    21153678.882    21153678.407
        43.000          39.000
  -9639646.230 4  -7511405.784 4  23360686.811    23360687.793    23360688.003
        28.800          27.100
 -25813085.421 7 -20114086.271 6  20503082.711    20503083.097    20503082.817
        43.600          40.200
  -5144399.011 3  -4008621.349 3  24652991.027    24652988.711    24652990.243
        21.100          21.600
   1685790.181 2   1313617.919 2  25662818.342    25662820.200    25662817.798
        16.100          12.600
 -19901724.623 6 -15507828.693 6  21919883.774    21919884.173    21919884.587
        40.000          36.900
 13 10  6  0 48 30.0000000  0 11G28G26G18G15G21G 8G 7G 9G19G10G 5
 -19518403.921 6 -15209141.740 6  21524404.168    21524404.111    21524404.275
        39.800          37.700
 -30103771.002 7 -23457477.626 7  19720124.139    19720124.824    19720124.567
        45.700          44.900
   -968677.457 1   -754813.119 1  25758252.010    25758251.661    25758252.704
         9.000          11.000
 -16094685.667 5 -12541309.770 5  22567746.211    22567746.323    22567747.016
        34.500          30.100
  -8035209.932 2  -6261204.364 2  24847560.502    24847559.235    24847560.019
        17.000          15.100
 -23589425.185 7 -18381362.336 6  21163672.203    21163673.025    21163672.401
        43.100          39.100
  -9544325.404 4  -7437129.839 4  23378825.954    23378826.801    23378827.318
        29.700          27.100
 -25751369.279 7 -20065995.769 6  20514826.380    20514827.344    20514826.780
        43.200          39.900
  -5149350.784 3  -4012479.845 3  24652048.100    24652047.254    24652047.706
        23.000          22.100
   1802637.858 1   1404668.026 1  25685053.390    25685055.618    25685053.627
         6.500          11.000
 -19823256.253 6 -15446684.530 6  21934815.690    21934816.602    21934816.609
        40.000          37.200
 13 10  6  0 49  0.0000000  0 11G28G26G18G15G21G 8G 7G 9G19G10G 5
 -19550671.998 6 -15234285.682 6  21518263.805    21518263.525    21518263.795
        39.700          37.200
 -30121679.999 7 -23471432.687 7  19716716.317    19716716.785    19716716.654
        45.500          44.800
  -1067525.233 1   -831837.343 1  25739442.554    25739443.023    25739441.273
         6.500           6.500
 -16181459.136 5 -12608925.457 5  22551234.134    22551233.561    22551234.546
        34.300          30.400
  -8032324.413 2  -6258955.944 2  24848108.929    24848108.556    24848108.447
        15.100          13.900
 -23536549.003 7 -18340160.115 6  21173734.190    21173735.108    21173734.267
        43.000          39.000
  -9448867.756 4  -7362747.270 4  23396991.493    23396991.618    23396992.069
        29.000          26.500
 -25689225.442 7 -20017572.009 6  20526652.078    20526652.814    20526652.356
        43.500          39.700
  -5153711.688 3  -4015877.977 3  24651218.341    24651217.166    24651218.153
        22.100          22.600
   1919432.998 2   1495677.223 1  25707278.674    25707281.669    25707279.301
        13.900          11.000
 -19744369.772 6 -15385214.565 6  21949827.209    21949827.937    21949828.070
        39.900          36.900
 13 10  6  0 49 30.0000000  0 11G28G26G18G15G21G 8G 7G 9G19G10G 5
 -19582416.578 6 -15259021.708 6  21512222.945    21512222.687    21512222.895
        39.300          37.100
 -30139061.895 7 -23484977.027 7  19713408.977    19713409.130    19713409.044
        45.500          44.800
  -1166238.768 1   -908756.982 1  25720657.444    25720657.884    25720658.534
        11.000           6.500
 -16268014.270 5 -12676371.012 5  22534762.823    22534762.873    22534763.497
        34.400          30.400
  -8028949.214 2  -6256325.934 2  24848751.592    24848749.775    24848751.264
        12.600          13.900
 -23483317.056 7 -18298680.681 6  21183863.965    21183864.693    21183864.014
        42.700          38.900
  -9353274.624 4  -7288259.132 4  23415182.073    23415182.723    23415182.974
        29.000          27.400
 -25626655.894 7 -19968816.521 6  20538558.838    20538559.370    20538558.969
        43.300          39.700
  -5157481.470 3  -4018815.457 3  24650500.075    24650499.322    24650499.616
        21.600          22.600
   2036173.556 1   1586643.847 2  25729493.963    25729496.725    25729494.585
         9.000          15.100
 -19665067.620 6 -15323420.706 6  21964918.218    21964918.805    21964918.959
        40.000          36.900
 13 10  6  0 50  0.0000000  0 11G28G26G18G15G21G 8G 7G 9G19G10G 5
 -19613636.153 6 -15283348.635 6  21506282.226    21506281.925    21506282.211
        39.700          37.700
 -30155915.875 7 -23498110.002 7  19710201.412    19710201.892    19710201.804
        45.600          45.000
  -1264816.046 2   -985570.410 1  25701899.648    25701898.603    25701898.942
        12.600           9.000
 -16354349.450 5 -12743645.166 5  22518333.675    22518333.528    22518334.479
        34.600          30.600
  -8025084.807 2  -6253314.713 2  24849486.958    24849485.477    24849486.543
        13.900          16.100
 -23429730.828 7 -18256925.183 6  21194060.996    21194061.735    21194061.158
        42.700          38.600
  -9257547.907 4  -7213666.904 4  23433398.525    23433398.755    23433399.184
        28.800          26.500
 -25563662.602 7 -19919730.847 6  20550545.996    20550546.598    20550546.330
        43.400          39.800
  -5160659.712 3  -4021291.971 3  24649893.792    24649892.756    24649892.836
        19.900          19.900
   2152857.241 2   1677566.206 2  25751698.346    25751700.740    25751698.860
        15.100          12.600
 -19585352.023 6 -15261304.679 6  21980087.115    21980088.112    21980088.161
        39.600          36.500
 13 10  6  0 50 30.0000000  0 11G28G26G18G15G21G 8G 7G 9G19G10G 5
 -19644330.062 6 -15307265.958 6  21500441.169    21500441.050    21500441.144
        39.700          37.700
 -30172241.179 7 -23510831.019 7  19707094.845    19707095.315    19707095.179
        45.600          45.000
  -1363254.451 1  -1062275.655 2  25683166.559    25683167.816    25683165.527
         9.000          12.600
 -16440462.945 5 -12810746.588 5  22501946.516    22501947.091    22501947.633
        34.500          30.400
  -8020731.644 2  -6249922.632 2  24850316.384    24850314.718    24850315.724
        12.600          15.100
 -23375791.528 7 -18214894.560 6  21204325.490    21204326.190    21204325.550
        42.800          38.800
  -9161688.920 4  -7138971.621 4  23451639.673    23451639.940    23451640.494
        28.800          26.200
 -25500247.311 7 -19870316.335 6  20562613.515    20562613.892    20562613.818
        43.200          39.100
  -5163245.922 2  -4023307.175 3  24649401.318    24649400.892    24649400.528
        17.000          18.600
   2269482.284 2   1768442.828 2  25773891.479    25773893.178    25773891.411
        15.100          16.100
 -19505225.121 6 -15198868.149 6  21995334.946    21995335.597    21995336.012
        39.700          36.700
 13 10  6  0 51  0.0000000  0 11G28G26G18G15G21G 8G 7G 9G19G10G 5
 -19674497.623 6 -15330773.138 6  21494700.594    21494700.163    21494700.484
        39.800          37.600
 -30188037.040 7 -23523139.491 7  19704089.032    19704089.487    19704089.274
        45.600          45.100
  -1461552.329 1  -1138871.409 2  25664461.566    25664460.846    25664461.900
         9.000          12.600
 -16526353.038 5 -12877673.934 5  22485602.433    22485602.563    22485603.188
        34.900          30.800
  -8015889.808 2  -6246149.755 1  24851237.170    24851235.146    24851237.085
        17.800          11.000
 -23321500.653 7 -18172589.989 6  21214656.662    21214657.263    21214656.756
        42.500          38.600
  -9065699.126 4  -7064174.390 4  23469906.701    23469906.069    23469906.802
        29.500          26.200
 -25436412.107 7 -19820574.616 6  20574760.839    20574761.447    20574761.095
        43.000          39.400
  -5165239.996 3  -4024860.986 2  24649021.877    24649020.512    24649022.431
        18.600          13.900
   2386046.480 2   1859272.062 2  25796073.183    25796075.219    25796072.645
        15.100          13.900
 -19424689.158 6 -15136112.878 6  22010660.559    22010661.274    22010661.484
        39.800          36.700
 13 10  6  0 51 30.0000000  0 11G28G26G18G15G21G 8G 7G 9G19G10G 5
 -19704138.021 6 -15353869.539 6  21489060.235    21489059.844    21489060.261
        39.800          37.600
 -30203302.772 7 -23535034.870 7  19701183.618    19701184.500    19701184.263
        45.600          45.100
  -1559707.393 1  -1215355.833    25645782.719    25645782.762    25645782.843
         9.000           3.000
 -16612018.302 5 -12944426.078 5  22469301.407    22469301.033    22469301.726
        34.700          30.400
  -8010560.103 2  -6241996.749 2  24852250.871    24852249.674    24852251.300
        17.000          16.100
 -23266859.755 7 -18130012.668 6  21225054.895    21225055.074    21225054.726
        42.600          38.400
  -8969580.273 4  -6989276.602 4  23488197.423    23488196.630    23488197.772
        28.800          25.300
 -25372158.991 7 -19770507.257 6  20586987.848    20586988.526    20586988.118
        43.200          39.200
  -5166641.472 3  -4025953.035 3  24648757.473    24648754.109    24648756.066
        20.500          18.600
   2502548.067 2   1950052.495 1  25818242.591    25818244.420    25818242.417
        13.900           6.500
 -19343746.585 6 -15073040.772 6  22026063.313    22026064.301    22026064.162
        39.300          36.600
 13 10  6  0 52  0.0000000  0 11G28G26G18G15G21G 8G 7G 9G19G10G 5
 -19733250.569 6 -15376554.629 6  21483520.363    21483520.075    21483520.353
        40.000          37.700
 -30218037.629 7 -23546516.579 7  19698380.211    19698380.550    19698380.333
        45.600          45.000
  -1657717.504 9  -1291727.322 1  25627130.700    25627131.603    25627131.459
        -3.000           9.000
 -16697456.875 5 -13011001.587 5  22453042.028    22453042.527    22453043.166
        34.600          30.400
  -8004743.741 1  -6237464.532 2  24853357.624    24853356.637    24853357.123
        11.000          15.100
 -23211870.472 7 -18087163.881 6  21235518.972    21235519.283    21235518.806
        42.400          38.400
  -8873333.632 4  -6914279.229 4  23506512.320    23506511.918    23506512.906
        27.900          24.900
 -25307489.850 7 -19720115.720 6  20599294.128    20599294.559    20599294.317
        43.200          38.900
  -5167449.694 3  -4026582.801 2  24648604.054    24648600.650    24648603.374
        21.600          17.800
   2618984.745 2   2040782.365 1  25840399.572    25840401.564    25840400.038
        17.800           9.000
 -19262399.821 6 -15009653.704 6  22041543.549    22041543.872    22041544.132
        39.400          36.300
 13 10  6  0 52 30.0000000  0 12G28G26G18G15G21G 8G24G 7G 9G19G10G 5
 -19761834.566 6 -15398827.866 6  21478080.928    21478080.526    21478080.916
        39.900          37.700
 -30232240.911 7 -23557584.073 7  19695677.317    19695677.715    19695677.620
        45.600          45.100
  -1755580.184 2  -1367983.980 2  25608509.791    25608508.777    25608509.562
        12.600          13.900
 -16782667.012 5 -13077399.091 5  22436827.077    22436827.910    22436828.348
        35.200          31.100
  -7998440.706 2  -6232553.083 1  24854556.033    24854556.652    24854556.425
        17.000          11.000
 -23156534.204 7 -18044044.710 6  21246048.927    21246049.321    21246048.861
        42.500          38.300
   -205428.728 9   -160074.088 1  25493447.241    25493451.991    25493450.427
        -3.000          11.000
  -8776960.810 4  -6839183.535 4  23524850.961    23524851.104    23524851.860
        27.900          24.900
 -25242406.555 7 -19669401.464 6  20611678.873    20611679.583    20611679.328
        43.000          38.900
  -5167664.423 3  -4026750.114 2  24648562.533    24648559.885    24648562.022
        21.100          16.100
   2735354.966 2   2131460.460 1  25862544.072    25862546.716    25862543.736
        12.600          11.000
 -19180651.238 6 -14945953.533 6  22057099.875    22057100.031    22057100.547
        39.700          36.500
 13 10  6  0 53  0.0000000  0 12G28G26G18G15G21G 8G24G 7G 9G19G10G 5
 -19789889.213 6 -15420688.617 6  21472742.197    21472741.916    21472742.175
        39.700          37.700
 -30245911.811 7 -23568236.728 7  19693075.683    19693076.242    19693076.109
        45.600          45.100
  -1853293.283 1  -1444124.025    25589914.666    25589915.396    25589916.002
         9.000           3.000
 -16867647.362 5 -13143617.543 5  22420656.822    22420656.373    22420657.244
        35.500          31.100
  -7991651.601 2  -6227262.861 2  24855848.640    24855848.036    24855848.733
        17.800          13.900
 -23100852.354 7 -18000656.260 6  21256644.684    21256645.289    21256644.571
        42.200          38.300
   -311615.065 1   -242816.690 1  25473240.901    25473245.493    25473240.472
         6.500           9.000
  -8680463.128 4  -6763990.565 4  23543214.648    23543214.410    23543215.051
        27.600          25.900
 -25176911.065 7 -19618366.021 6  20624142.418    20624143.016    20624142.606
        42.900          38.700
  -5167285.644 3  -4026454.982 3  24648634.826    24648632.476    24648634.679
        20.500          21.100
   2851656.217 1   2222084.814 1  25884675.636    25884677.203    25884674.661
         6.500           6.500
 -19098503.146 6 -14881942.061 6  22072732.022    22072732.639    22072732.676
        39.100          36.600
 13 10  6  0 53 30.0000000  0 12G28G26G18G15G21G 8G24G 7G 9G19G10G 5
 -19817413.876 6 -15442136.402 6  21467504.439    21467504.124    21467504.533
        39.800          37.700
 -30259049.767 7 -23578474.101 7  19690575.522    19690576.263    19690576.063
        45.600          45.100
  -1950854.451 2  -1520145.682 1  25571349.758    25571348.966    25571349.962
        13.900           6.500
 -16952396.053 5 -13209655.468 5  22404529.208    22404529.236    22404529.909
        35.300          30.800
  -7984376.873 2  -6221594.269 2  24857233.905    24857231.845    24857233.407
        16.100          17.800
 -23044826.484 7 -17956999.741 6  21267306.089    21267306.499    21267306.074
        42.500          37.900
   -417752.713 1   -325521.321 1  25453043.648    25453046.916    25453044.935
         9.000           6.500
  -8583842.266 4  -6688701.585 4  23561600.457    23561600.911    23561601.018
        27.100          26.200
 -25111005.581 7 -19567011.104 6  20636683.904    20636684.396    20636684.011
        43.000          38.800
  -5166313.043 3  -4025697.109 2  24648819.223    24648817.335    24648819.552
        21.600          17.800
   2967887.873 1   2312655.157 1  25906793.219    25906794.035    25906792.768
         9.000          11.000
 -19015957.747 6 -14817621.013 5  22088439.593    22088440.261    22088440.431
        39.100          35.800
 13 10  6  0 54  0.0000000  0 12G28G26G18G15G21G 8G24G 7G 9G19G10G 5
 -19844407.700 6 -15463170.547 6  21462367.791    21462367.442    21462367.745
        40.000          37.700
 -30271654.097 7 -23588295.656 7  19688177.173    19688177.846    19688177.589
        45.800          45.300
  -2048261.474 2  -1596047.272 1  25552814.223    25552813.471    25552815.296
        12.600          11.000
 -17036911.423 5 -13275511.606 5  22388446.690    22388446.436    22388447.140
        35.500          31.300
  -7976617.233 3  -6215547.794 1  24858710.783    24858708.806    24858711.253
        19.300          11.000
 -22988457.937 7 -17913076.196 6  21278032.346    21278033.124    21278032.477
        42.200          38.100
   -523840.780     -408187.348 2  25432855.634    25432859.915    25432857.088
         3.000          12.600
  -8487099.639 4  -6613317.749 4  23580010.107    23580010.446    23580010.804
        27.900          25.900
 -25044691.896 7 -19515338.105 6  20649302.570    20649303.343    20649303.037
        42.900          38.600
  -5164746.202 3  -4024476.169 2  24649117.326    24649115.432    24649117.213
        20.500          17.000
   3084046.058     2403168.029 9  25928897.312    25928898.257    25928897.400
                        -3.000
 -18933017.557 6 -14752992.309 5  22104222.777    22104223.088    22104223.631
        39.300          35.600
 13 10  6  0 54 30.0000000  0 12G28G26G18G15G21G 8G24G 7G 9G19G10G 5
 -19870870.257 6 -15483790.707 6  21457332.307    21457331.738    21457332.284
        40.000          38.000
 -30283724.121 7 -23597700.874 7  19685880.472    19685880.966    19685880.830
        45.800          45.300
  -2145512.279 2  -1671827.121 1  25534308.396    25534307.540    25534307.677
        16.100           9.000
 -17121191.438 5 -13341184.338 5  22372408.428    22372408.375    22372409.285
        35.600          31.600
  -7968373.202 2  -6209123.857 2  24860278.427    24860277.489    24860278.937
        17.000          17.000
 -22931748.339 7 -17868886.905 6  21288823.964    21288824.786    21288824.016
        42.000          38.200
   -629878.035 2   -490813.782 1  25412677.523    25412680.385    25412677.872
        12.600           9.000
  -8390236.762 4  -6537840.195 4  23598443.033    23598442.575    23598443.249
        27.900          25.600
 -24977971.901 7 -19463348.498 6  20661999.263    20661999.791    20661999.409
        42.600          38.900
  -5162584.941 3  -4022792.074 2  24649528.244    24649527.201    24649528.285
        19.900          17.000
   3200129.674 1   2493622.767 1  25950987.100    25950989.603    25950987.766
         6.500           6.500
 -18849685.149 6 -14688057.994 5  22120080.544    22120081.127    22120081.216
        39.300          35.800
 13 10  6  0 55  0.0000000  0 12G28G26G18G15G21G 8G24G 7G 9G19G10G 5
 -19896800.518 6 -15503996.099 6  21452397.927    21452397.146    21452397.890
        40.300          37.800
 -30295259.151 7 -23606689.213 7  19683685.371    19683685.896    19683685.660
        45.800          45.200
  -2242604.712 2  -1747483.537 2  25515832.076    25515831.573    25515832.172
        16.100          12.600
 -17205234.602 5 -13406672.511 5  22356415.553    22356415.653    22356416.210
        35.100          31.100
  -7959645.352 2  -6202322.968 2  24861938.765    24861938.331    24861938.390
        12.600          15.100
 -22874699.349 7 -17824433.146 6  21299679.815    21299680.823    21299680.121
        42.000          37.700
   -735862.723 1   -573399.232 2  25392508.958    25392513.439    25392510.608
         6.500          15.100
  -8293255.049 4  -6462270.051 4  23616897.361    23616897.632    23616898.044
        27.600          24.600
 -24910847.566 7 -19411043.827 6  20674772.488    20674773.076    20674772.798
        42.600          38.600
  -5159829.114 3  -4020644.688 2  24650053.565    24650051.120    24650052.817
        20.500          17.800
   3316136.794 1   2584017.984    25973062.517    25973062.856    25973061.880
         6.500           3.000
 -18765962.515 6 -14622819.603 5  22136012.189    22136012.978    22136013.062
        38.800          35.600
 13 10  6  0 55 30.0000000  0 12G28G26G18G15G21G 8G24G 7G 9G19G10G 5
 -19922198.478 6 -15523786.708 6  21447564.722    21447564.254    21447564.697
        40.200          38.100
 -30306258.603 7 -23615260.220 7  19681592.207    19681592.667    19681592.489
        45.800          45.300
  -2339536.363 2  -1823014.667    25497386.617    25497386.663    25497386.801
        15.100           3.000
 -17289039.359 5 -13471974.924 5  22340467.647    22340468.084    22340468.641
        35.800          32.300
  -7950434.651 2  -6195145.810 2  24863692.183    24863691.560    24863692.425
        13.900          12.600
 -22817312.225 6 -17779715.908 6  21310600.416    21310601.325    21310600.475
        41.800          38.000
   -841794.615 1   -655943.558 1  25372350.633    25372354.930    25372352.296
         9.000           9.000
  -8196156.023 4  -6386608.484 4  23635374.526    23635374.718    23635375.367
        26.500          24.200
 -24843320.758 7 -19358425.540 6  20687622.447    20687623.001    20687622.812
        42.600          38.400
  -5156478.709 3  -4018033.978 3  24650691.495    24650689.828    24650690.850
        20.500          22.600
   3432065.944 1   2674352.335 9  25995122.793    25995123.359    25995122.082
         6.500          -3.000
 -18681852.433 6 -14557279.317 5  22152017.870    22152018.668    22152018.718
        39.000          35.800
 13 10  6  0 56  0.0000000  0 11G28G26G18G15G21G 8G24G 7G 9G19G 5
 -19947063.204 6 -15543161.807 6  21442833.158    21442832.879    21442833.083
        40.300          38.400
 -30316721.849 7 -23623413.399 7  19679600.996    19679601.554    19679601.433
        45.700          45.300
  -2436304.908 1  -1898418.723 1  25478973.333    25478971.252    25478973.054
         6.500           9.000
 -17372603.994 5 -13537090.220 5  22324566.137    22324566.208    22324567.153
        35.900          31.500
  -7940741.653 2  -6187592.800 2  24865536.916    24865535.619    24865537.027
        17.800          12.600
 -22759588.427 7 -17734736.329 6  21321585.142    21321585.799    21321585.070
        42.000          38.100
   -947672.494 1   -738445.782 2  25352202.927    25352207.513    25352204.205
        11.000          13.900
  -8098941.022 4  -6310856.553 4  23653874.424    23653874.646    23653874.742
        25.600          25.600
 -24775393.552 7 -19305495.248 6  20700548.634    20700549.379    20700548.802
        42.300          38.500
  -5152533.476 3  -4014959.778 3  24651442.089    24651439.913    24651440.900
        21.600          20.500
 -18597356.980 6 -14491438.737 5  22168096.921    22168097.578    22168097.708
        38.800          35.800
 13 10  6  0 56 30.0000000  0 11G28G26G18G15G21G 8G24G 7G 9G19G 5
 -19971394.030 6 -15562120.881 6  21438203.199    21438202.636    21438203.101
        40.300          38.100
 -30326648.187 7 -23631148.208 7  19677712.195    19677712.652    19677712.549
        45.700          45.300
  -2532908.102 1  -1973693.914 2  25460589.176    25460589.111    25460589.485
         9.000          13.900
 -17455927.124 6 -13602017.322 5  22308710.218    22308710.384    22308711.306
        36.000          31.600
  -7930566.859 2  -6179664.388 2  24867473.078    24867472.182    24867473.024
        17.000          16.100
 -22701529.418 6 -17689495.541 6  21332633.310    21332633.805    21332633.214
        41.700          37.600
  -1053495.878 1   -820905.564 2  25332065.835    25332069.354    25332067.310
        11.000          15.100
  -8001611.706 4  -6235015.548 4  23672395.894    23672395.451    23672396.069
        26.800          24.900
 -24707067.780 7 -19252254.397 6  20713550.521    20713551.372    20713550.727
        42.400          38.400
  -5147993.392 3  -4011422.021 3  24652306.293    24652303.262    24652305.068
        21.100          20.500
 -18512478.615 6 -14425299.780 5  22184248.711    22184249.596    22184249.603
        38.700          35.800
 13 10  6  0 57  0.0000000  0 11G28G26G18G15G21G 8G24G 7G 9G19G 5
 -19995190.568 6 -15580663.631 6  21433674.544    21433674.519    21433674.594
        40.200          38.300
 -30336037.133 7 -23638464.272 7  19675925.501    19675926.045    19675925.882
        45.700          45.400
  -2629343.376 1  -2048838.251 1  25442239.049    25442237.409    25442238.557
         9.000           6.500
 -17539006.581 6 -13666754.567 5  22292900.664    22292901.009    22292901.722
        36.400          32.300
  -7919911.034 2  -6171361.124 2  24869499.825    24869499.528    24869500.220
        15.100          15.100
 -22643136.889 7 -17643994.877 6  21343745.243    21343745.557    21343745.202
        42.000          37.700
  -1159263.248     -903321.696 2  25311938.730    25311942.168    25311940.240
         3.000          12.600
  -7904169.370 4  -6159086.471 3  23690938.115    23690937.975    23690938.969
        27.100          23.400
 -24638345.589 7 -19198704.646 6  20726627.934    20726628.712    20726628.179
        42.400          38.100
  -5142858.166 3  -4007420.523 3  24653283.728    24653280.822    24653282.979
        21.100          18.600
 -18427219.988 6 -14358864.517 5  22200472.947    22200473.718    22200473.781
        38.400          35.400
 13 10  6  0 57 30.0000000  0 11G28G26G18G15G21G 8G24G 7G 9G19G 5
 -20018452.326 6 -15598789.662 6  21429247.802    21429247.804    21429248.002
        40.100          38.200
 -30344888.024 7 -23645361.072 7  19674241.318    19674241.735    19674241.635
        45.600          45.400
  -2725608.876 1  -2123850.353 1  25423920.332    25423919.275    25423920.338
         9.000           6.500
 -17621840.512 6 -13731300.486 5  22277137.780    22277138.094    22277138.804
        36.200          31.500
  -7908775.030 2  -6162683.763 2  24871618.248    24871619.243    24871618.228
        15.100          16.100
 -22584412.172 6 -17598235.353 6  21354919.806    21354920.726    21354920.035
        41.800          37.600
  -1264973.089 1   -985692.997 2  25291823.613    25291826.387    25291823.773
         6.500          17.000
  -7806615.573 4  -6083070.561 4  23709501.747    23709501.438    23709502.752
        26.500          25.300
 -24569228.841 7 -19144847.435 6  20739780.698    20739781.040    20739780.764
        42.600          38.000
  -5137127.755 3  -4002955.268 2  24654373.313    24654371.614    24654372.684
        21.600          17.800
 -18341583.279 6 -14292134.645 5  22216769.310    22216769.644    22216770.026
        39.100          35.300
 13 10  6  0 58  0.0000000  0 12G28G26G18G15G21G 8G24G 7G 9G19G27G 5
 -20041178.593 6 -15616498.432 6  21424923.494    21424923.026    21424923.448
        40.100          38.100
 -30353200.358 7 -23651838.217 7  19672659.466    19672659.968    19672659.858
        45.700          45.400
  -2821702.678 1  -2198728.610 1  25405633.342    25405633.415    25405634.190
        11.000          11.000
 -17704427.394 6 -13795653.894 5  22261422.076    22261422.324    22261423.063
        36.400          32.000
  -7897159.766 2  -6153632.904 2  24873831.076    24873829.107    24873830.454
        16.100          16.100
 -22525356.587 6 -17552218.021 6  21366157.630    21366158.607    21366157.807
        41.600          37.200
  -1370624.756 2  -1068018.937 3  25271718.163    25271722.732    25271718.690
        13.900          18.600
  -7708951.606 4  -6006968.792 4  23728086.395    23728086.894    23728087.525
        26.200          25.300
 -24499719.587 7 -19090684.381 6  20753007.582    20753008.293    20753007.968
        42.300          38.100
  -5130802.343 3  -3998026.367 3  24655577.136    24655575.033    24655576.103
        20.500          21.100
     89131.090 1     69452.671 2  25675486.290    25675489.873    25675486.191
         9.000          13.900
 -18255571.284 6 -14225112.337 5  22233136.479    22233137.253    22233137.462
        38.600          35.600
 13 10  6  0 58 30.0000000  0 12G28G26G18G15G21G 8G24G 7G 9G19G27G 5
 -20063368.831 6 -15633789.518 6  21420700.663    21420700.337    21420700.596
        40.100          38.400
 -30360973.533 7 -23657895.241 7  19671180.309    19671180.809    19671180.644
        45.600          45.400
  -2917622.091 2  -2273470.986 2  25387380.371    25387380.061    25387380.974
        13.900          12.600
 -17786765.594 6 -13859813.528 5  22245753.703    22245753.807    22245754.638
        36.200          31.800
  -7885065.857 3  -6144209.074 2  24876132.485    24876130.638    24876132.624
        19.300          15.100
 -22465971.789 6 -17505944.151 6  21377458.259    21377459.119    21377458.281
        41.400          37.500
  -1476217.373 2  -1150298.929 3  25251625.161    25251628.667    25251625.182
        12.600          19.300
  -7611179.013 4  -5930782.390 4  23746692.357    23746692.646    23746693.043
        26.800          25.300
 -24429819.804 7 -19036217.026 6  20766309.448    20766309.793    20766309.443
        42.100          37.900
  -5123881.804 3  -3992633.747 3  24656892.552    24656891.925    24656892.709
        19.900          19.300
    147827.315 1    115189.949 1  25686656.224    25686659.753    25686656.710
         6.500           6.500
 -18169186.421 6 -14157799.498 5  22249575.410    22249576.038    22249576.030
        38.600          35.500
 13 10  6  0 59  0.0000000  0 12G28G26G18G15G21G 8G24G 7G 9G19G27G 5
 -20085022.871 6 -15650662.781 6  21416580.434    21416579.666    21416580.257
        40.300          38.400
 -30368207.040 7 -23663531.742 7  19669803.755    19669804.300    19669804.097
        45.600          45.400
  -3013364.613 2  -2348075.540 1  25369161.301    25369160.147    25369160.357
        15.100           9.000
 -17868853.427 6 -13923778.082 5  22230132.847    22230133.023    22230133.832
        36.400          32.300
  -7872494.092 2  -6134412.896 2  24878524.315    24878523.254    24878523.550
        16.100          13.900
 -22406259.358 6 -17459414.987 6  21388821.409    21388822.108    21388821.257
        41.400          37.500
  -1581749.859 1  -1232531.980 2  25231542.078    25231546.458    25231542.366
         6.500          12.600
  -7513299.166 4  -5854512.399 4  23765318.628    23765318.546    23765319.431
        26.200          25.300
 -24359531.505 7 -18981446.934 6  20779684.764    20779685.237    20779684.882
        42.100          37.900
  -5116366.392 2  -3986777.570 3  24658323.779    24658321.924    24658322.870
        17.000          19.900
    206968.762 2    161274.142 2  25697910.386    25697913.235    25697909.972
        15.100          12.600
 -18082430.609 6 -14090197.593 5  22266084.355    22266084.879    22266085.080
        38.100          35.200
 13 10  6  0 59 30.0000000  0 12G28G26G18G15G21G 8G24G 7G 9G19G27G 5
 -20106140.043 6 -15667117.708 6  21412561.562    21412561.235    21412561.649
        40.500          38.600
 -30374900.356 7 -23668747.316 7  19668530.132    19668530.630    19668530.418
        45.700          45.400
  -3108928.133 2  -2422540.572 1  25350977.523    25350976.386    25350977.209
        13.900          11.000
 -17950689.099 6 -13987546.143 5  22214560.205    22214560.395    22214561.196
        36.600          32.600
  -7859445.375 2  -6124245.081 2  24881006.102    24881006.781    24881006.246
        17.000          15.100
 -22346220.620 6 -17412631.553 6  21400246.305    21400246.919    21400246.332
        41.400          36.800
  -1687220.946 2  -1314717.227 2  25211471.997    25211475.048    25211472.158
        12.600          15.100
  -7415313.445 4  -5778159.895 4  23783963.865    23783964.063    23783964.784
        26.200          24.200
 -24288856.519 6 -18926375.517 6  20793133.620    20793134.283    20793133.857
        41.900          37.700
  -5108255.944 3  -3980457.739 3  24659866.083    24659865.374    24659866.597
        19.300          18.600
    266553.144 2    207703.499 2  25709248.479    25709252.334    25709248.964
        12.600          13.900
 -17995307.047 6 -14022309.136 5  22282663.423    22282664.166    22282663.996
        37.800          35.300
 13 10  6  1  0  0.0000000  0 12G28G26G18G15G21G 8G24G 7G 9G19G27G 5
 -20126720.023 6 -15683154.039 6  21408645.351    21408645.121    21408645.385
        40.300          38.600
 -30381052.844 7 -23673541.466 7  19667359.400    19667359.870    19667359.617
        45.700          45.600
  -3204310.198 1  -2496864.248 1  25332826.065    25332824.859    25332825.907
        11.000           6.500
 -18032270.943 6 -14051116.398 5  22199035.383    22199035.814    22199036.470
        36.300          32.400
  -7845920.468 2  -6113706.206 2  24883578.647    24883580.154    24883578.559
        16.100          13.900
 -22285857.105 6 -17365595.048 6  21411732.600    21411733.696    21411732.944
        41.100          37.100
  -1792629.646 2  -1396853.902 1  25191414.322    25191416.504    25191414.398
        12.600          11.000
  -7317223.404 4  -5701726.127 4  23802629.562    23802630.259    23802630.510
        24.900          24.200
 -24217796.507 7 -18871004.082 6  20806655.805    20806656.418    20806656.142
        42.100          37.700
  -5099550.626 3  -3973674.371 3  24661523.945    24661521.503    24661523.214
        22.100          18.600
    326578.825 2    254476.661 2  25720672.043    25720674.390    25720671.209
        12.600          13.900
 -17907817.569 6 -13954135.547 5  22299312.330    22299312.679    22299312.978
        38.400          34.500
 13 10  6  1  0 30.0000000  0 12G28G26G18G15G21G 8G24G 7G 9G19G27G 5
 -20146762.363 6 -15698771.436 6  21404831.630    21404831.003    21404831.484
        40.300          38.500
 -30386664.175 7 -23677913.933 7  19666291.780    19666292.056    19666291.877
        45.900          45.600
  -3299508.836 2  -2571045.012 1  25314709.762    25314709.592    25314710.154
        13.900          11.000
 -18113597.097 6 -14114487.432 5  22183559.861    22183560.136    22183560.574
        36.800          32.600
  -7831920.071 2  -6102796.817 2  24886245.523    24886243.828    24886244.774
        15.100          15.100
 -22225170.518 6 -17318306.807 6  21423281.405    21423282.223    21423281.360
        41.000          36.800
  -1897974.630 1  -1478940.896 2  25171367.741    25171371.074    25171367.201
         6.500          17.800
  -7219030.350 4  -5625212.081 3  23821315.667    23821315.670    23821316.142
        24.600          23.800
 -24146353.783 6 -18815334.439 6  20820250.655    20820251.522    20820251.129
        41.700          37.200
  -5090250.284 3  -3966427.342 2  24663293.299    24663290.691    24663293.164
        19.300          17.800
    387043.515 1    301591.997 2  25732177.556    25732180.557    25732178.849
        11.000          17.000
 -17819965.255 6 -13885679.215 5  22316029.894    22316030.184    22316030.552
        37.800          34.700
 13 10  6  1  1  0.0000000  0 12G28G26G18G15G21G 8G24G 7G 9G19G27G 5
 -20166266.508 6 -15713969.465 6  21401119.656    21401119.522    21401119.897
        40.400          38.400
 -30391733.764 7 -23681864.262 7  19665326.817    19665327.300    19665327.140
        45.700          45.500
  -3394521.609 1  -2645080.938 2  25296630.034    25296628.194    25296629.442
         9.000          12.600
 -18194665.990 6 -14177657.994 5  22168133.501    22168132.950    22168133.967
        37.100          32.700
  -7817444.619 2  -6091517.240 2  24889001.244    24888997.384    24889000.719
        17.000          15.100
 -22164162.107 6 -17270767.786 6  21434890.935    21434891.659    21434890.992
        41.200          36.700
  -2003255.476 2  -1560977.877 2  25151333.271    25151336.644    25151334.349
        17.000          15.100
  -7120735.715 4  -5548618.872 4  23840020.708    23840020.885    23840021.125
        26.500          24.200
 -24074530.388 6 -18759368.163 6  20833918.569    20833919.196    20833918.842
        41.800          37.400
  -5080355.083 3  -3958716.797 2  24665177.089    24665174.248    24665176.386
        19.900          17.800
    447945.060 3    349047.689 2  25743767.077    25743769.702    25743767.800
        19.300          17.800
 -17731752.418 6 -13816941.970 5  22332816.054    22332816.974    22332817.043
        37.700          34.800
 13 10  6  1  1 30.0000000  0 12G28G26G18G15G21G 8G24G 7G 9G19G27G 5
 -20185232.202 6 -15728747.917 6  21397510.755    21397510.693    21397510.727
        40.200          38.600
 -30396261.122 7 -23685392.074 7  19664465.005    19664465.818    19664465.514
        45.800          45.600
  -3489346.302 1  -2718970.270 2  25278587.315    25278584.169    25278585.606
        11.000          13.900
 -18275475.902 6 -14240626.754 5  22152755.116    22152755.389    22152756.328
        36.800          32.600
  -7802495.731 2  -6079868.726 2  24891844.555    24891843.381    24891844.389
        13.900          17.000
 -22102833.427 6 -17222979.208 6  21446561.448    21446562.081    21446561.407
        40.900          37.000
  -2108470.456 2  -1642963.548 3  25131310.681    25131314.813    25131311.636
        13.900          18.600
  -7022340.800 4  -5471947.537 4  23858744.798    23858744.595    23858745.116
        25.600          25.300
 -24002328.302 6 -18703106.793 6  20847657.957    20847658.831    20847658.469
        41.900          37.200
  -5069865.296 3  -3950542.936 2  24667171.473    24667170.374    24667171.845
        19.300          17.800
    509281.145 1    396842.023    25755439.492    25755441.379    25755439.063
         9.000           3.000
 -17643181.270 6 -13747925.523 5  22349670.713    22349671.664    22349671.500
        37.900          34.900
 13 10  6  1  2  0.0000000  0 12G28G26G18G15G21G 8G24G 7G 9G19G27G 5
 -20203659.000 6 -15743106.447 6  21394004.406    21394004.041    21394004.218
        40.300          38.600
 -30400245.731 7 -23688496.966 7  19663707.011    19663707.661    19663707.373
        45.900          45.800
  -3583980.716 2  -2792711.340 1  25260577.944    25260575.485    25260577.749
        15.100          11.000
 -18356024.730 6 -14303392.081 5  22137427.357    22137427.535    22137428.191
        37.000          32.700
  -7787074.349    -6067852.101 2  24894776.982    24894778.581    24894777.314
         3.000          17.000
 -22041185.650 6 -17174941.982 6  21458292.871    21458293.328    21458292.754
        41.200          36.700
  -2213618.739 2  -1724897.302 2  25111301.939    25111306.016    25111302.308
        15.100          16.100
  -6923847.149 4  -5395199.246 4  23877487.470    23877487.420    23877487.998
        24.900          24.600
 -23929749.331 6 -18646551.758 6  20861469.568    20861470.235    20861469.722
        41.800          37.200
  -5058781.230 3  -3941906.002 3  24669280.918    24669280.011    24669281.126
        18.600          18.600
    571050.195 1    444973.793 1  25767192.298    25767196.080    25767196.177
        11.000          11.000
 -17554254.368 6 -13678631.862 5  22366592.816    22366593.755    22366593.942
        37.900          34.800
 13 10  6  1  2 30.0000000  0 12G28G26G18G15G21G 8G24G 7G 9G19G27G 5
 -20221546.624 6 -15757044.852 6  21390600.465    21390600.019    21390600.429
        40.300          38.700
 -30403687.242 7 -23691178.666 7  19663051.951    19663052.813    19663052.480
        45.700          45.800
  -3678422.291 2  -2866302.175 2  25242606.555    25242604.374    25242605.960
        15.100          13.900
 -18436311.158 6 -14365952.931 5  22122150.044    22122149.552    22122150.322
        37.200          33.200
  -7771181.308 1  -6055467.950 2  24897802.960    24897802.368    24897803.258
        11.000          13.900
 -21979220.599 6 -17126657.530 6  21470084.294    21470084.949    21470084.230
        41.000          36.500
  -2318699.582 2  -1806778.477 2  25091304.850    25091309.357    25091305.918
        12.600          13.900
  -6825256.109 4  -5318375.081 3  23896249.468    23896248.617    23896249.499
        24.600          23.400
 -23856795.501 6 -18589704.621 6  20875352.309    20875352.796    20875352.462
        41.600          37.100
  -5047102.956 3  -3932806.035 3  24671503.733    24671502.727    24671504.514
        20.500          18.600
    633250.220 3    493441.376 3  25779029.143    25779032.199    25779030.099
        19.300          19.300
 -17464974.193 6 -13609062.928 5  22383582.439    22383583.065    22383583.259
        37.400          34.100
 13 10  6  1  3  0.0000000  0 12G28G26G18G15G21G 8G24G 7G 9G19G27G 5
 -20238894.933 6 -15770563.012 6  21387298.992    21387298.772    21387298.990
        40.300          38.800
 -30406585.222 7 -23693436.833 7  19662500.792    19662501.249    19662501.060
        45.700          45.600
  -3772668.569 2  -2939740.828 2  25224671.199    25224669.846    25224670.527
        15.100          12.600
 -18516333.211 6 -14428307.784 5  22106921.674    22106921.911    22106922.404
        36.700          33.000
  -7754817.671 3  -6042717.052 2  24900917.792    24900915.554    24900917.994
        18.600          13.900
 -21916939.850 6 -17078127.081 6  21481936.069    21481936.255    21481935.949
        41.100          36.000
  -2423711.640 2  -1888606.019 2  25071322.292    25071326.149    25071323.497
        12.600          17.000
  -6726569.177 3  -5241476.193 4  23915028.572    23915028.426    23915028.875
        23.800          24.600
 -23783468.827 6 -18532566.961 6  20889305.737    20889306.346    20889305.884
        41.300          36.900
  -5034830.801 2  -3923243.320 3  24673839.134    24673837.343    24673838.640
        17.800          19.900
    695878.235 2    542242.384 2  25790946.236    25790949.901    25790947.297
        17.000          13.900
 -17375343.482 6 -13539220.837 5  22400638.662    22400639.481    22400639.414
        37.500          34.500
 13 10  6  1  3 30.0000000  0 12G28G26G18G15G21G 8G24G 7G 9G19G27G 5
 -20255703.589 6 -15783660.649 6  21384100.444    21384100.302    21384100.562
        40.400          38.800
 -30408939.239 7 -23695271.130 7  19662052.739    19662053.276    19662053.119
        45.800          45.700
  -3866717.602 1  -3013025.752 1  25206773.255    25206772.592    25206773.040
        11.000           6.500
 -18596089.288 6 -14490455.380 5  22091744.537    22091744.996    22091745.372
        37.300          33.500
  -7737984.444 2  -6029600.230 2  24904120.878    24904118.267    24904120.878
        17.000          12.600
 -21854344.789 6 -17029351.713 6  21493847.218    21493847.801    21493847.448
        41.000          36.100
  -2528654.155 1  -1970379.384 2  25051351.757    25051356.005    25051352.922
         9.000          17.000
  -6627787.374 4  -5164503.369 4  23933825.619    23933826.112    23933825.826
        24.200          25.300
 -23709771.347 6 -18475140.362 6  20903329.573    20903330.649    20903330.007
        41.200          37.000
  -5021964.854 3  -3913217.904 3  24676287.548    24676286.010    24676287.485
        19.300          19.300
    758932.512 1    591375.617 9  25802945.719    25802949.757    25802946.769
         9.000          -3.000
 -17285364.647 6 -13469107.484 5  22417761.106    22417761.798    22417762.055
        38.000          34.000
 13 10  6  1  4  0.0000000  0 12G28G26G18G15G21G 8G24G 7G 9G19G27G 5
 -20271972.121 6 -15796337.417 6  21381004.993    21381004.413    21381005.009
        40.900          38.600
 -30410748.790 7 -23696681.174 7  19661708.403    19661708.960    19661708.793
        46.000          45.800
  -3960566.958 2  -3086155.105 1  25188914.176    25188913.419    25188914.833
        16.100          11.000
 -18675577.629 6 -14552394.343 5  22076618.646    22076618.461    22076619.390
        37.300          33.100
  -7720682.285 2  -6016118.019 2  24907409.951    24907410.747    24907411.456
        16.100          16.100
 -21791436.926 6 -16980332.608 6  21505818.667    21505819.011    21505818.435
        40.700          36.700
  -2633525.673 2  -2052097.445 2  25031396.236    25031399.164    25031397.414
        13.900          15.100
  -6528912.276 4  -5087457.885 3  23952640.657    23952641.526    23952641.559
        24.900          23.400
 -23635704.896 6 -18417426.256 6  20917424.371    20917425.033    20917424.494
        41.200          36.900
  -5008505.571 2  -3902730.163 3  24678848.555    24678847.613    24678847.484
        17.000          19.900
    822411.067 2    640839.368 1  25815025.316    25815028.660    25815025.410
        16.100           9.000
 -17195040.684 6 -13398725.201 5  22434948.989    22434949.809    22434949.927
        37.200          34.100
 13 10  6  1  4 30.0000000  0 12G28G26G18G15G21G 8G24G 7G 9G19G27G 5
 -20287700.417 6 -15808593.219 6  21378011.744    21378011.284    21378011.632
        40.200          38.800
 -30412013.615 7 -23697666.759 7  19661467.850    19661468.170    19661468.105
        45.900          45.600
  -4054214.708 2  -3159127.393 2  25171093.998    25171093.690    25171093.914
        15.100          13.900
 -18754796.421 6 -14614123.271 5  22061543.314    22061543.823    22061544.402
        37.200          33.200
  -7702912.041 1  -6002271.085 2  24910793.335    24910794.387    24910793.154
        11.000          17.800
 -21728217.700 6 -16931070.880 5  21517848.273    21517849.009    21517848.571
        40.700          35.900
  -2738325.234 2  -2133759.427 3  25011452.877    25011457.001    25011454.274
        12.600          18.600
  -6429945.268 3  -5010340.769 3  23971474.239    23971474.564    23971474.388
        23.400          23.800
 -23561271.571 6 -18359426.269 6  20931588.501    20931589.092    20931588.701
        41.200          36.700
  -4994453.240 3  -3891780.289 3  24681523.416    24681522.076    24681522.717
        19.300          21.100
    886311.484 1    690632.839 1  25827184.933    25827189.675    25827185.621
        11.000           9.000
 -17104373.198 6 -13328075.236 5  22452202.639    22452203.512    22452203.383
        37.300          34.700
 13 10  6  1  5  0.0000000  0 11G28G26G18G15G21G 8G24G 7G 9G19G 5
 -20302888.133 6 -15820427.799 6  21375121.658    21375121.416    21375121.598
        40.600          39.200
 -30412733.265 7 -23698227.524 7  19661330.672    19661331.263    19661331.048
        45.700          45.600
  -4147658.272 2  -3231940.540 2  25153313.379    25153312.234    25153312.365
        17.000          15.100
 -18833743.910 6 -14675640.799 5  22046520.690    22046520.504    22046521.359
        37.400          33.900
  -7684675.263 2  -5988060.672 2  24914265.184    24914264.469    24914264.598
        15.100          15.100
 -21664688.562 6 -16881567.663 6  21529937.741    21529938.228    21529937.565
        40.600          36.000
  -2843051.805 2  -2215364.544 3  24991523.768    24991528.344    24991526.176
        15.100          19.900
  -6330887.702 4  -4933153.067 3  23990323.709    23990324.182    23990324.379
        24.600          22.600
 -23486473.407 6 -18301141.990 6  20945821.875    20945822.745    20945822.407
        41.200          36.500
  -4979808.009 3  -3880368.435 3  24684311.172    24684309.364    24684310.058
        18.600          21.100
 -17013365.469 6 -13257160.153 5  22469520.896    22469521.552    22469521.545
        37.200          33.900
 13 10  6  1  5 30.0000000  0 11G28G26G18G15G21G 8G24G 7G 9G19G 5
 -20317535.019 6 -15831840.949 6  21372334.564    21372334.185    21372334.471
        40.700          39.200
 -30412907.371 7 -23698363.194 7  19661297.589    19661298.151    19661297.929
        45.700          45.700
  -4240894.364 2  -3304591.996 2  25135569.829    25135569.499    25135570.084
        17.800          12.600
 -18912418.456 6 -14736945.641 5  22031549.377    22031549.147    22031550.062
        37.200          33.600
  -7665972.871 2  -5973487.350 2  24917823.052    24917823.041    24917823.300
        17.000          12.600
 -21600850.961 6 -16831824.084 6  21542085.078    21542086.280    21542085.436
        40.500          36.100
  -2947704.694 1  -2296912.193 2  24971608.646    24971613.861    24971609.942
        11.000          15.100
  -6231740.781 4  -4855895.749 3  24009191.048    24009191.279    24009191.614
        24.600          23.000
 -23411312.210 6 -18242574.828 6  20960124.729    20960125.376    20960124.941
        40.800          36.500
  -4964570.293 3  -3868494.909 3  24687210.184    24687208.248    24687209.757
        21.100          20.500
 -16922019.914 6 -13185981.819 5  22486903.644    22486904.115    22486904.201
        37.400          33.600
 13 10  6  1  6  0.0000000  0 11G28G26G18G15G21G 8G24G 7G 9G19G 5
 -20331640.827 6 -15842832.472 6  21369650.014    21369649.575    21369650.090
        40.500          38.700
 -30412535.564 7 -23698073.478 7  19661368.343    19661368.891    19661368.692
        46.000          45.800
  -4333922.099 2  -3377081.130 2  25117867.939    25117866.685    25117868.390
        17.000          12.600
 -18990818.272 6 -14798036.411 5  22016630.227    22016630.178    22016631.141
        37.700          33.400
  -7646805.514 2  -5958551.724 1  24921470.312    24921469.272    24921471.350
        13.900          11.000
 -21536706.501 6 -16781841.397 6  21554291.757    21554292.467    21554291.857
        40.900          36.000
  -3052282.410 2  -2378401.296 2  24951709.331    24951712.726    24951710.165
        13.900          17.000
  -6132505.993 3  -4778569.977 3  24028074.791    24028075.380    24028075.342
        23.400          23.400
 -23335789.957 6 -18183726.328 6  20974496.058    20974496.731    20974496.420
        41.000          36.300
  -4948740.449 3  -3856159.936 3  24690222.118    24690220.816    24690221.723
        18.600          20.500
 -16830339.102 6 -13114542.243 5  22504349.741    22504350.231    22504350.380
        37.600          33.200
 13 10  6  1  6 30.0000000  0 11G28G26G18G15G21G 8G24G 7G 9G19G 5
 -20345205.687 6 -15853402.488 6  21367068.734    21367068.241    21367068.762
        40.500          38.600
 -30411617.538 7 -23697358.140 7  19661543.072    19661543.634    19661543.395
        45.800          45.800
  -4426738.748 2  -3449405.788 1  25100204.369    25100204.500    25100205.264
        16.100          11.000
 -19068941.312 6 -14858911.509 5  22001763.996    22001764.033    22001764.851
        38.100          33.400
  -7627174.264 2  -5943254.672 2  24925206.300    24925205.400    24925206.078
        16.100          15.100
 -21472256.958 6 -16731620.977 5  21566556.196    21566556.836    21566556.102
        40.400          35.900
  -3156783.996 2  -2459831.063 2  24931822.286    24931826.455    24931823.865
        12.600          17.000
  -6033184.843 3  -4701176.893 3  24046974.870    24046974.557    24046975.068
        21.600          20.500
 -23259908.720 6 -18124598.099 6  20988936.084    20988936.569    20988936.272
        41.100          36.300
  -4932318.989 2  -3843363.993 3  24693346.167    24693345.898    24693345.328
        17.000          20.500
 -16738325.576 6 -13042843.412 5  22521859.694    22521859.934    22521860.100
        37.300          33.200
 13 10  6  1  7  0.0000000  0 11G28G26G18G15G21G 8G24G 7G 9G19G 5
 -20358229.066 6 -15863550.566 6  21364590.822    21364590.213    21364590.631
        40.800          39.000
 -30410152.908 7 -23696216.873 7  19661821.822    19661822.263    19661822.133
        45.900          45.800
  -4519342.114 2  -3521564.245 1  25082582.346    25082582.231    25082582.883
        16.100          11.000
 -19146785.982 6 -14919569.702 5  21986950.918    21986950.638    21986951.412
        38.000          34.000
  -7607080.199 2  -5927596.962 2  24929030.416    24929030.326    24929030.206
        17.000          13.900
 -21407503.564 6 -16681163.797 6  21578878.178    21578879.000    21578878.201
        40.200          36.000
  -3261208.136 2  -2541200.496 3  24911951.878    24911955.203    24911952.952
        13.900          18.600
  -5933778.444 3  -4623717.367 3  24065891.141    24065891.292    24065891.417
        22.100          22.600
 -23183670.608 6 -18065191.787 6  21003443.661    21003444.318    21003443.900
        40.900          36.000
  -4915306.363 3  -3830107.370 3  24696584.065    24696582.875    24696583.478
        19.300          20.500
 -16645982.090 6 -12970887.469 5  22539431.880    22539432.780    22539432.216
        36.900          33.900
 13 10  6  1  7 30.0000000  0 11G28G26G18G15G21G 8G24G 7G 9G19G 5
 -20370711.112 6 -15873276.819 6  21362215.505    21362214.990    21362215.407
        40.800          39.000
 -30408141.469 7 -23694649.519 7  19662204.815    19662205.127    19662205.027
        45.900          45.800
  -4611729.335 2  -3593554.233 1  25065002.627    25065001.922    25065002.481
        16.100          11.000
 -19224350.710 6 -14980009.755 5  21972190.737    21972190.557    21972191.315
        38.100          34.400
  -7586524.729 2  -5911579.728 2  24932941.781    24932942.076    24932941.805
        13.900          16.100
 -21342447.726 6 -16630470.940 5  21591257.734    21591258.561    21591257.955
        39.800          35.100
  -3365554.498 2  -2622509.304 2  24892094.926    24892099.170    24892096.634
        12.600          17.000
  -5834288.190 3  -4546192.520 3  24084824.516    24084823.862    24084824.521
        22.600          21.600
 -23107077.509 6 -18005508.859 5  21018018.803    21018019.299    21018019.036
        41.000          35.900
  -4897702.927 3  -3816390.375 3  24699934.983    24699932.299    24699934.976
        23.400          18.600
 -16553310.994 6 -12898676.246 5  22557066.800    22557066.883    22557067.218
        36.500          33.100
 13 10  6  1  8  0.0000000  0 11G28G26G18G15G21G 8G24G 7G 9G19G 5
 -20382651.813 6 -15882581.254 6  21359943.171    21359942.536    21359943.176
        40.800          38.700
 -30405582.799 7 -23692655.754 7  19662691.514    19662692.129    19662691.862
        45.700          45.900
  -4703898.395 2  -3665374.273 1  25047464.168    25047462.927    25047463.096
        15.100          11.000
 -19301633.703 6 -15040230.263 5  21957484.174    21957484.244    21957484.828
        38.200          34.000
  -7565508.923 2  -5895203.766 2  24936941.289    24936940.759    24936940.162
        13.900          16.100
 -21277091.190 6 -16579543.778 5  21603695.128    21603695.498    21603695.035
        40.200          35.100
  -3469821.281 2  -2703756.093 2  24872252.335    24872256.902    24872254.169
        12.600          15.100
  -5734715.406 3  -4468603.360 3  24103771.793    24103772.149    24103772.871
        23.800          23.400
 -23030131.393 6 -17945550.852 5  21032660.745    21032661.974    21032661.228
        40.600          35.900
  -4879509.302 3  -3802213.526 3  24703397.423    24703394.791    24703395.844
        21.100          19.300
 -16460314.602 6 -12826211.539 5  22574763.063    22574763.751    22574763.740
        36.600          33.500
 13 10  6  1  8 30.0000000  0 11G28G26G18G15G21G 8G24G 7G 9G19G 5
 -20394050.713 6 -15891463.500 6  21357773.968    21357773.390    21357773.945
        40.600          39.000
 -30402476.759 7 -23690235.471 7  19663282.608    19663283.140    19663282.921
        46.000          45.800
  -4795846.967 3  -3737022.492 1  25029966.806    25029965.853    25029966.143
        18.600           9.000
 -19378633.054 6 -15100229.756 5  21942831.608    21942831.721    21942832.370
        38.100          34.000
  -7544034.321 1  -5878470.292 2  24941027.010    24941024.964    24941027.955
        11.000          13.900
 -21211435.058 6 -16528383.163 5  21616188.670    21616189.591    21616188.951
        40.000          35.200
  -3574007.829 1  -2784940.369 2  24852426.767    24852430.933    24852428.332
         6.500          17.800
  -5635061.464 3  -4390950.953 3  24122735.110    24122735.729    24122735.594
        22.100          22.600
 -22952834.074 6 -17885319.191 6  21047370.261    21047371.078    21047370.533
        40.600          36.000
  -4860725.922 3  -3787577.131 3  24706970.350    24706969.336    24706969.993
        20.500          18.600
 -16366995.934 6 -12753495.711 5  22592520.901    22592521.864    22592521.948
        36.500          33.400
 13 10  6  1  9  0.0000000  0 11G28G26G18G15G21G 8G24G 7G 9G19G 5
 -20404907.870 6 -15899923.615 6  21355707.580    21355707.488    21355707.704
        40.700          39.100
 -30398822.883 7 -23687388.300 7  19663977.916    19663978.372    19663978.193
        46.000          45.800
  -4887572.798 2  -3808497.156 2  25012509.640    25012510.681    25012511.238
        13.900          12.600
 -19455347.269 6 -15160007.070 5  21928232.899    21928233.657    21928234.141
        38.300          34.400
  -7522101.305 2  -5861379.640 1  24945200.229    24945200.106    24945201.043
        15.100          11.000
 -21145480.815 6 -16476990.253 5  21628739.727    21628740.241    21628739.642
        39.900          35.400
  -3678113.064 2  -2866061.292 2  24832616.311    24832621.317    24832616.939
        17.000          17.000
  -5535327.573 3  -4313236.271 3  24141713.980    24141714.303    24141714.730
        19.900          22.600
 -22875187.750 6 -17824815.561 5  21062146.101    21062146.576    21062146.209
        40.500          35.900
  -4841353.304 2  -3772481.603 2  24710657.047    24710655.544    24710656.994
        17.800          17.000
 -16273357.505 6 -12680530.714 5  22610339.757    22610340.556    22610340.523
        36.500          32.700
 13 10  6  1  9 30.0000000  0 11G28G26G18G15G21G 8G24G 7G 9G19G 5
 -20415223.177 6 -15907961.506 6  21353744.890    21353744.542    21353744.924
        40.800          39.100
 -30394621.122 7 -23684114.201 7  19664777.602    19664777.852    19664777.785
        45.900          45.600
  -4979073.600 2  -3879796.445 2  24995098.548    24995098.243    24995099.159
        17.000          13.900
 -19531774.314 6 -15219560.616 5  21913689.498    21913689.954    21913690.506
        38.300          34.600
  -7499711.571 2  -5843933.091 1  24949461.394    24949461.021    24949461.122
        13.900          11.000
 -21079230.272 6 -16425366.458 5  21641346.476    21641347.215    21641346.562
        39.900          35.300
  -3782135.740 2  -2947117.876 3  24812821.929    24812825.853    24812822.827
        16.100          18.600
  -5435514.894 3  -4235460.174 3  24160708.111    24160707.959    24160708.413
        20.500          22.600
 -22797194.248 6 -17764041.407 5  21076987.388    21076988.340    21076987.669
        40.200          35.500
  -4821392.083 3  -3756927.416 2  24714455.464    24714453.178    24714454.631
        19.300          17.000
 -16179401.901 6 -12607318.579 5  22628218.835    22628219.915    22628219.608
        36.400          33.200
 13 10  6  1 10  0.0000000  0 11G28G26G18G15G21G 8G24G 7G 9G19G 5
 -20424996.749 6 -15915577.273 6  21351885.186    21351884.598    21351885.061
        40.700          39.100
 -30389871.147 7 -23680412.921 7  19665681.172    19665681.774    19665681.686
        45.800          45.800
  -5070346.769 2  -3950918.357 2  24977731.243    24977729.639    24977731.246
        17.000          12.600
 -19607912.390 6 -15278888.986 5  21899201.152    21899201.436    21899201.912
        38.500          34.100
  -7476866.212 3  -5826131.518 2  24953809.760    24953808.643    24953809.628
        18.600          17.000
 -21012684.698 6 -16373512.775 5  21654009.670    21654010.676    21654009.747
        39.600          34.900
  -3886074.974 2  -3028109.428 2  24793043.808    24793047.093    24793043.941
        12.600          16.100
  -5335624.913 3  -4157623.895 3  24179716.577    24179716.348    24179717.122
        19.900          19.900
 -22718855.419 6 -17702998.170 5  21091894.911    21091895.562    21091895.083
        40.200          35.300
  -4800842.630 3  -3740914.833 2  24718364.380    24718363.102    24718364.354
        18.600          16.100
 -16085131.551 6 -12533861.175 5  22646158.375    22646158.676    22646159.035
        36.500          32.700
 13 10  6  1 10 30.0000000  0 11G28G26G18G15G21G 8G24G 7G 9G19G 5
 -20434228.475 6 -15922770.814 6  21350128.497    21350127.774    21350128.289
        40.700          39.100
 -30384572.739 7 -23676284.294 7  19666689.504    19666690.145    19666689.968
        46.100          46.000
  -5161389.795 2  -4021860.946 2  24960405.837    24960404.931    24960404.470
        17.000          13.900
 -19683759.860 6 -15337990.917 5  21884767.834    21884768.010    21884768.700
        38.300          34.400
  -7453566.226 2  -5807975.680 2  24958243.653    24958242.309    24958243.656
        13.900          13.900
 -20945845.428 6 -16321430.234 5  21666728.770    21666729.667    21666728.914
        39.900          34.800
  -3989929.605 2  -3109035.101 2  24773280.582    24773284.094    24773281.284
        16.100          17.000
  -5235659.037 3  -4079728.422 3  24198739.974    24198739.316    24198740.047
        23.400          21.100
 -22640173.443 6 -17641687.551 5  21106867.708    21106868.245    21106867.864
        40.200          35.400
  -4779705.558 2  -3724444.375 2  24722388.620    24722385.514    24722387.283
        17.000          17.800
 -15990549.271 5 -12460160.703 5  22664156.806    22664157.034    22664157.264
        35.800          32.700
 13 10  6  1 11  0.0000000  0 11G28G26G18G15G21G 8G24G 7G 9G19G 5
 -20442918.469 6 -15929542.232 6  21348474.839    21348474.154    21348474.592
        40.700          39.200
 -30378725.667 7 -23671728.137 7  19667802.205    19667802.748    19667802.604
        45.900          45.900
  -5252201.228 2  -4092623.098 2  24943124.067    24943124.059    24943123.188
        17.000          12.600
 -19759314.813 6 -15396864.906 5  21870390.346    21870390.211    21870391.196
        38.900          34.700
  -7429812.864 1  -5789466.602 2  24962763.378    24962761.870    24962763.178
        11.000          13.900
 -20878714.216 6 -16269120.205 5  21679503.656    21679504.334    21679503.595
        39.400          34.900
  -4093698.945 2  -3189894.282 3  24753532.992    24753537.052    24753533.993
        13.900          19.900
  -5135618.334 3  -4001774.628 3  24217775.919    24217776.413    24217776.564
        22.600          19.900
 -22561150.229 6 -17580111.025 5  21121905.186    21121906.037    21121905.323
        40.000          35.400
  -4757981.780 3  -3707516.726 3  24726522.091    24726520.174    24726521.574
        18.600          19.300
 -15895657.645 5 -12386219.194 5  22682214.097    22682214.862    22682214.553
        35.800          33.400
 13 10  6  1 11 30.0000000  0 11G28G26G18G15G21G 8G24G 7G 9G19G 5
 -20451066.963 6 -15935891.692 6  21346923.740    21346923.714    21346923.814
        40.700          39.300
 -30372329.721 7 -23666744.288 7  19669019.178    19669019.911    19669019.655
        46.000          45.900
  -5342778.372 2  -4163202.649 2  24925888.994    24925888.047    24925888.090
        17.000          13.900
 -19834575.495 6 -15455509.592 5  21856068.461    21856068.453    21856069.531
        38.600          34.600
  -7405608.077 1  -5770605.718 2  24967369.692    24967368.021    24967369.509
        11.000          13.900
 -20811292.743 6 -16216584.003 5  21692333.657    21692334.338    21692333.474
        39.200          34.900
  -4197381.542 1  -3270685.871 3  24733803.092    24733807.172    24733804.322
        11.000          20.500
  -5035504.080 3  -3923763.556 3  24236826.256    24236827.560    24236827.650
        23.000          23.000
 -22481787.655 6 -17518270.074 5  21137007.452    21137008.267    21137007.700
        40.200          35.800
  -4735671.622 3  -3690132.171 3  24730768.146    24730766.278    24730767.137
        19.300          21.100
 -15800459.549 6 -12312038.881 5  22700329.899    22700330.211    22700330.380
        36.400          32.800
 13 10  6  1 12  0.0000000  0 11G28G26G18G15G21G 8G24G 7G 9G19G 5
 -20458673.576 6 -15941818.910 6  21345476.648    21345476.241    21345476.567
        40.700          39.200
 -30365384.820 7 -23661332.686 7  19670340.683    19670341.535    19670341.270
        46.000          45.900
  -5433118.573 3  -4233597.594 2  24908696.933    24908696.879    24908696.597
        18.600          16.100
 -19909540.280 6 -15513923.706 5  21841803.377    21841803.330    21841804.133
        38.800          34.600
  -7380952.298 2  -5751393.452 2  24972062.261    24972060.646    24972061.486
        17.800          13.900
 -20743582.198 6 -16163822.555 5  21705218.251    21705219.167    21705218.337
        39.500          34.800
  -4300976.569 2  -3351409.249 3  24714090.149    24714093.661    24714090.649
        12.600          19.300
  -4935317.594 3  -3845696.190 3  24255891.269    24255892.459    24255892.537
        20.500          21.600
 -22402088.042 6 -17456166.489 5  21152173.802    21152174.507    21152173.920
        39.600          35.200
  -4712775.956 3  -3672291.398 3  24735124.397    24735123.230    24735123.519
        19.900          19.900
 -15704957.158 6 -12237621.436 5  22718503.121    22718503.593    22718503.600
        36.000          31.800
 13 10  6  1 12 30.0000000  0 11G28G26G18G15G21G 8G24G 7G 9G19G 5
 -20465738.422 6 -15947323.977 6  21344131.992    21344131.772    21344132.011
        40.700          39.300
 -30357890.678 7 -23655493.098 7  19671766.827    19671767.587    19671767.353
        45.900          46.000
  -5523219.676 2  -4303806.221 2  24891551.269    24891551.145    24891551.613
        17.000          12.600
 -19984207.348 6 -15572105.834 5  21827594.711    21827594.612    21827595.501
        39.000          35.100
  -7355847.316 2  -5731831.126 2  24976838.365    24976837.686    24976837.790
        13.900          15.100
 -20675584.100 6 -16110837.023 5  21718158.284    21718158.602    21718158.210
        39.500          34.400
  -4404482.710 2  -3432063.332 3  24694394.062    24694397.292    24694393.373
        17.000          19.900
  -4835060.236 3  -3767573.610 3  24274970.802    24274971.411    24274970.991
        19.900          23.400
 -22322053.050 6 -17393801.579 5  21167403.933    21167404.553    21167404.197
        40.100          34.900
  -4689295.478 2  -3653994.912 3  24739590.588    24739590.910    24739591.545
        17.800          18.600
 -15609153.337 5 -12162969.116 5  22736733.836    22736734.651    22736734.434
        35.800          32.100
 13 10  6  1 13  0.0000000  0 11G28G26G18G15G21G 8G24G 7G 9G19G 5
 -20472261.608 6 -15952406.969 6  21342890.701    21342890.537    21342890.732
        40.700          39.200
 -30349847.232 7 -23649225.484 7  19673297.487    19673298.148    19673298.025
        45.900          45.900
  -5613079.124 2  -4373826.557 2  24874451.412    24874451.627    24874451.526
        15.100          12.600
 -20058574.846 6 -15630054.530 5  21813442.979    21813443.053    21813443.786
        39.100          34.900
  -7330294.257 2  -5711919.664 2  24981700.397    24981700.128    24981700.758
        15.100          15.100
 -20607300.026 6 -16057628.661 5  21731152.199    21731152.707    21731152.138
        39.200          34.400
  -4507899.441 2  -3512647.736 3  24674713.287    24674717.743    24674714.385
        15.100          21.100
  -4734733.313 3  -3689396.821 3  24294063.079    24294062.853    24294062.934
        22.100          22.100
 -22241684.717 6 -17331176.908 5  21182697.599    21182698.253    21182697.912
        39.700          34.900
  -4665231.140 3  -3635243.480 3  24744171.638    24744169.805    24744171.723
        20.500          19.300
 -15513050.493 5 -12088083.802 5  22755021.419    22755022.456    22755022.325
        35.900          32.300
 13 10  6  1 13 30.0000000  0 11G28G26G18G15G21G 8G24G 7G 9G19G 5
 -20478243.321 6 -15957068.036 6  21341752.835    21341752.212    21341752.785
        41.100          39.100
 -30341254.256 7 -23642529.663 7  19674932.648    19674933.361    19674933.120
        45.900          45.800
  -5702694.921 2  -4443657.014 2  24857397.908    24857397.475    24857398.106
        16.100          16.100
 -20132641.024 6 -15687768.433 5  21799348.585    21799348.793    21799349.381
        39.100          35.300
  -7304294.449 2  -5691660.069 1  24986648.443    24986647.954    24986648.815
        15.100          11.000
 -20538731.344 6 -16004198.531 5  21744199.980    21744201.003    21744200.150
        38.900          34.500
  -4611225.213 2  -3593161.289 2  24655051.952    24655055.345    24655052.307
        12.600          17.800
  -4634338.187 3  -3611166.875 3  24313166.483    24313167.361    24313167.562
        22.100          23.400
 -22160985.044 6 -17268294.059 5  21198054.491    21198055.164    21198054.611
        39.400          35.200
  -4640583.396 3  -3616037.479 2  24748862.238    24748860.254    24748861.256
        19.900          17.800
 -15416651.523 5 -12012967.735 5  22773365.891    22773366.698    22773366.500
        35.500          33.100
 13 10  6  1 14  0.0000000  0 11G28G26G18G15G21G 8G24G 7G 9G19G 5
 -20483683.762 6 -15961307.339 6  21340717.229    21340716.777    21340717.254
        40.900          39.300
 -30332111.680 7 -23635405.582 7  19676672.513    19676673.193    19676672.915
        45.900          46.000
  -5792064.640 2  -4513295.746 2  24840391.904    24840391.803    24840391.563
        15.100          12.600
 -20206404.293 6 -15745246.307 5  21785311.805    21785312.154    21785312.753
        39.100          35.300
  -7277849.295 2  -5671053.440 2  24991681.608    24991680.617    24991682.160
        16.100          16.100
 -20469879.510 6 -15950547.754 5  21757302.026    21757303.065    21757302.329
        39.100          33.800
  -4714458.916 2  -3673603.092 3  24635407.069    24635410.021    24635408.283
        17.800          19.900
  -4533875.572 3  -3532884.351 3  24332284.189    24332285.023    24332284.624
        19.900          21.100
 -22079955.856 6 -17205154.445 5  21213473.667    21213474.169    21213473.913
        39.600          34.600
  -4615353.052 3  -3596377.455 2  24753663.718    24753661.404    24753663.022
        19.900          16.100
 -15319959.241 5 -11937623.114 5  22791765.504    22791766.401    22791766.163
        34.800          32.700
 13 10  6  1 14 30.0000000  0 11G28G26G18G15G21G 8G24G 7G 9G19G 5
 -20488583.069 6 -15965124.972 6  21339784.999    21339784.519    21339784.890
        40.600          39.400
 -30322419.398 7 -23627853.157 7  19678516.795    19678517.594    19678517.303
        45.800          45.800
  -5881186.168 2  -4582741.046 2  24823431.729    24823431.679    24823431.973
        17.000          15.100
 -20279862.715 6 -15802486.630 5  21771333.757    21771333.489    21771334.147
        39.400          35.600
  -7250960.044 2  -5650100.793 2  24996797.033    24996797.337    24996796.729
        16.100          12.600
 -20400746.018 6 -15896677.514 5  21770457.909    21770458.731    21770457.844
        38.400          34.300
  -4817599.638 2  -3753972.456 3  24615779.717    24615783.416    24615780.394
        15.100          20.500
  -4433347.018 3  -3454550.439 3  24351413.704    24351414.353    24351414.842
        19.300          20.500
 -21998599.257 6 -17141759.692 5  21228955.277    21228955.868    21228955.524
        39.300          34.300
  -4589540.738 3  -3576263.944 2  24758576.071    24758572.801    24758575.524
        20.500          17.800
 -15222976.158 5 -11862051.900 5  22810221.054    22810221.660    22810221.732
        35.800          31.500
 13 10  6  1 15  0.0000000  0 11G28G26G18G15G21G 8G24G 7G 9G19G 5
 -20492941.264 6 -15968520.960 6  21338955.898    21338955.229    21338955.639
        40.900          39.500
 -30312177.327 7 -23619872.327 7  19680465.719    19680466.547    19680466.326
        46.100          45.900
  -5970056.883 2  -4651990.928 2  24806520.546    24806520.187    24806521.243
        17.000          15.100
 -20353014.464 6 -15859487.984 5  21757413.182    21757413.174    21757413.875
        39.400          35.700
  -7223628.119 2  -5628803.221 2  25001998.881    25001998.481    25001998.549
        13.900          13.900
 -20331332.346 6 -15842588.948 5  21783667.211    21783667.609    21783667.293
        39.000          34.100
  -4920646.921 2  -3834268.987 3  24596170.483    24596173.970    24596171.549
        12.600          20.500
  -4332754.119 3  -3376166.387 3  24370556.750    24370556.406    24370557.571
        19.900          19.300
 -21916917.245 6 -17078111.384 5  21244499.130    21244499.600    21244499.353
        39.500          34.700
  -4563147.710 3  -3555697.964 3  24763597.856    24763595.519    24763597.243
        21.100          19.300
 -15125704.891 5 -11786256.111 5  22828731.280    22828731.680    22828731.729
        35.600          32.000
 13 10  6  1 15 30.0000000  0 11G28G26G18G15G21G 8G24G 7G 9G19G 5
 -20496758.468 6 -15971495.397 6  21338228.995    21338228.666    21338229.047
        40.700          39.200
 -30301385.362 7 -23611463.008 7  19682519.413    19682520.135    19682519.968
        46.000          45.800
  -6058674.710 2  -4721043.787 2  24789657.855    24789656.948    24789657.722
        17.800          15.100
 -20425857.569 6 -15916248.843 5  21743551.482    21743551.571    21743552.226
        39.500          35.700
  -7195854.723 3  -5607161.589 2  25007284.738    25007283.173    25007284.167
        18.600          15.100
 -20261640.131 6 -15788283.335 5  21796929.356    21796929.571    21796929.093
        38.600          33.900
  -5023599.151 2  -3914491.466 3  24576578.501    24576582.828    24576579.124
        15.100          21.100
  -4232097.635 2  -3297732.740 3  24389710.596    24389711.279    24389711.427
        17.800          20.500
 -21834911.640 6 -17014210.923 5  21260104.149    21260104.582    21260104.432
        39.300          34.300
  -4536174.666 3  -3534679.992 3  24768730.552    24768729.210    24768729.810
        19.300          19.300
 -15028147.860 5 -11710237.659 5  22847295.804    22847296.387    22847296.320
        35.600          31.800
 13 10  6  1 16  0.0000000  0 11G28G26G18G15G21G 8G24G 7G 9G19G 5
 -20500035.109 6 -15974048.620 6  21337605.289    21337605.137    21337605.444
        40.700          39.200
 -30290043.494 7 -23602625.193 7  19684677.804    19684678.447    19684678.262
        45.900          45.900
  -6147037.078 2  -4789897.525 2  24772842.765    24772842.569    24772842.477
        17.800          16.100
 -20498390.631 6 -15972768.110 5  21729748.927    21729748.791    21729749.700
        39.500          35.700
  -7167641.160 2  -5585176.999 2  25012653.065    25012652.602    25012651.693
        12.600          12.600
 -20191670.665 6 -15733761.680 5  21810243.482    21810244.338    21810243.707
        38.100          33.400
  -5126455.182 2  -3994638.983 3  24557006.280    24557010.417    24557007.709
        16.100          21.600
  -4131378.975 3  -3219250.712 3  24408876.092    24408877.670    24408877.203
        19.300          22.100
 -21752584.433 6 -16950059.864 5  21275770.494    21275770.925    21275770.643
        39.100          34.500
  -4508622.269 3  -3513210.623 3  24773974.065    24773972.166    24773973.022
        19.300          20.500
 -14930307.979 5 -11633998.812 5  22865913.713    22865914.639    22865914.503
        34.900          32.000
 13 10  6  1 16 30.0000000  0 11G28G26G18G15G21G 8G24G 7G 9G19G 5
 -20502771.079 6 -15976180.529 6  21337085.020    21337084.783    21337084.966
        40.800          39.700
 -30278151.536 7 -23593358.737 7  19686940.817    19686941.456    19686941.188
        45.900          45.800
  -6235141.732 2  -4858550.498 2  24756076.116    24756076.072    24756077.009
        13.900          15.100
 -20570612.068 6 -16029044.543 5  21716005.803    21716005.541    21716006.321
        39.500          35.700
  -7138989.315 2  -5562850.908 2  25018104.830    25018104.769    25018105.202
        13.900          13.900
 -20121425.284 6 -15679025.036 5  21823611.195    21823611.776    21823610.933
        38.400          33.600
  -5229213.969 2  -4074710.723 3  24537452.519    24537456.576    24537453.170
        17.800          22.600
  -4030599.362 3  -3140721.189 3  24428054.657    24428054.773    24428055.119
        18.600          20.500
 -21669937.545 6 -16885659.699 5  21291496.913    21291498.089    21291497.619
        38.600          33.800
  -4480491.728 3  -3491290.719 3  24779327.550    24779325.200    24779326.862
        20.500          19.900
 -14832188.275 5 -11557541.920 5  22884586.031    22884586.196    22884586.444
        35.200          31.300
 13 10  6  1 17  0.0000000  0 11G28G26G18G15G21G 8G24G 7G 9G19G 5
 -20504966.578 6 -15977891.299 6  21336667.342    21336666.904    21336667.389
        40.700          39.700
 -30265709.582 7 -23583663.711 7  19689308.604    19689309.014    19689308.866
        45.900          45.800
  -6322986.416 2  -4927000.878 2  24739359.904    24739359.855    24739360.505
        15.100          12.600
 -20642519.407 6 -16085076.241 5  21702321.648    21702322.010    21702322.824
        39.500          35.700
  -7109900.467 2  -5540184.304 2  25023640.580    25023640.243    25023641.422
        13.900          15.100
 -20050905.653 6 -15624074.683 5  21837030.923    21837031.163    21837030.588
        38.400          33.900
  -5331874.722 2  -4154706.091 3  24517916.147    24517919.669    24517917.703
        12.600          19.900
  -3929760.103 2  -3062145.176 3  24447243.458    24447244.262    24447244.118
        17.800          21.100
 -21586973.093 6 -16821012.088 5  21307285.564    21307285.665    21307285.472
        38.900          34.300
  -4451783.868 3  -3468920.955 3  24784791.255    24784787.931    24784790.135
        21.600          20.500
 -14733790.680 5 -11480868.482 5  22903309.815    22903310.757    22903310.513
        34.500          31.000
 13 10  6  1 17 30.0000000  0 11G28G26G18G15G21G 8G24G 7G 9G19G 5
 -20506622.307 6 -15979181.466 6  21336351.847    21336351.594    21336351.947
        40.900          39.200
 -30252717.551 7 -23573540.054 7  19691780.686    19691781.366    19691781.135
        46.100          45.900
  -6410568.593 2  -4995246.711 2  24722693.031    24722693.930    24722694.171
        15.100          13.900
 -20714111.265 6 -16140862.098 6  21688698.519    21688698.595    21688699.346
        39.500          36.000
  -7080376.056 3  -5517178.254 2  25029259.219    25029258.678    25029259.487
        19.300          15.100
 -19980113.426 6 -15568911.913 5  21850501.633    21850502.466    21850501.777
        38.300          33.400
  -5434436.266 2  -4234624.150 3  24498399.700    24498403.252    24498400.406
        16.100          21.100
  -3828862.085 3  -2983523.365 3  24466443.437    24466444.754    24466444.149
        21.100          20.500
 -21503693.093 6 -16756118.595 5  21323133.178    21323133.419    21323133.165
        38.700          33.800
  -4422499.386 3  -3446101.865 2  24790363.124    24790359.854    24790362.182
        20.500          16.100
 -14635117.945 5 -11403980.649 5  22922086.404    22922087.784    22922087.230
        34.300          31.800
 13 10  6  1 18  0.0000000  0 11G28G26G18G15G21G 8G24G 7G 9G19G 5
 -20507738.241 6 -15980051.019 6  21336139.980    21336139.288    21336139.867
        40.700          39.100
 -30239175.533 7 -23562987.837 7  19694357.844    19694358.413    19694358.177
        46.000          45.900
  -6497886.208 3  -5063286.404 2  24706078.041    24706077.158    24706078.505
        18.600          12.600
 -20785385.816 6 -16196400.699 6  21675135.274    21675135.520    21675136.209
        40.000          36.300
  -7050417.251 1  -5493833.747 2  25034959.018    25034958.738    25034958.963
        11.000          12.600
 -19909050.023 6 -15513537.841 5  21864025.065    21864025.354    21864024.833
        38.400          33.400
  -5536897.742 2  -4314464.222 3  24478901.076    24478905.670    24478902.590
        15.100          23.000
  -3727906.891 3  -2904856.992 3  24485655.413    24485655.517    24485655.566
        19.900          18.600
 -21420099.346 6 -16690980.622 5  21339040.228    21339040.686    21339040.544
        38.900          33.400
  -4392639.399 2  -3422834.337 2  24796044.906    24796041.694    24796043.916
        17.800          17.800
 -14536173.246 5 -11326880.915 5  22940914.957    22940916.129    22940915.946
        34.900          31.600
 13 10  6  1 18 30.0000000  0 11G28G26G18G15G21G 8G24G 7G 9G19G 5
 -20508314.926 6 -15980500.384 6  21336029.951    21336029.750    21336029.972
        41.000          39.400
 -30225083.453 7 -23552007.000 7  19697039.411    19697039.982    19697039.710
        45.900          45.900
  -6584936.882 2  -5131118.065 1  24689513.361    24689511.946    24689512.924
        17.800           9.000
 -20856341.256 6 -16251690.651 6  21661633.166    21661633.201    21661633.831
        39.800          36.300
  -7020026.295 2  -5470152.464 2  25040741.820    25040741.623    25040742.088
        13.900          13.900
 -19837716.667 6 -15457953.419 5  21877599.129    21877599.654    21877598.896
        37.900          33.200
  -5639258.266 2  -4394225.644 3  24459423.533    24459426.857    24459424.314
        17.800          21.600
  -3626895.580 3  -2826146.911 3  24504876.715    24504876.973    24504877.692
        18.600          19.900
 -21336193.641 6 -16625599.563 5  21355006.885    21355007.580    21355007.247
        38.600          33.900
  -4362204.929 2  -3399119.171 3  24801834.371    24801834.622    24801834.521
        17.800          21.100
 -14436959.013 5 -11249571.136 5  22959795.232    22959795.814    22959795.987
        34.800          31.500
 13 10  6  1 19  0.0000000  0 11G28G26G18G15G21G 8G24G 7G 9G19G 5
 -20508352.595 6 -15980529.722 6  21336022.422    21336022.452    21336022.678
        40.700          39.300
 -30210441.338 7 -23540597.563 7  19699825.766    19699826.324    19699826.054
        45.900          45.800
  -6671718.065 3  -5198739.748 2  24672999.973    24672998.223    24672999.918
        18.600          13.900
 -20926975.770 6 -16306730.521 6  21648191.597    21648191.706    21648192.504
        39.600          36.300
  -6989204.204 2  -5446135.276 2  25046607.309    25046607.529    25046608.104
        12.600          13.900
 -19766114.748 6 -15402159.728 5  21891224.712    21891224.993    21891224.380
        37.500          33.000
  -5741516.170 2  -4473907.081 3  24439963.841    24439967.206    24439964.793
        15.100          20.500
  -3525829.454 3  -2747394.142 2  24524108.662    24524109.157    24524110.172
        18.600          17.000
 -21251977.997 6 -16559976.990 5  21371032.955    21371033.283    21371032.928
        38.600          33.400
  -4331197.045 3  -3374957.176 3  24807735.585    24807735.233    24807735.107
        21.100          18.600
 -14337478.529 5 -11172053.897 5  22978725.658    22978726.240    22978726.411
        34.100          31.100
 13 10  6  1 19 30.0000000  0 11G28G26G18G15G21G 8G24G 7G 9G19G 5
 -20507851.463 6 -15980139.222 6  21336118.141    21336117.612    21336118.262
        41.100          39.500
 -30195249.241 7 -23528759.571 7  19702716.773    19702717.282    19702717.030
        46.000          46.100
  -6758227.528 3  -5266149.726 1  24656537.902    24656535.596    24656537.202
        19.300          11.000
 -20997287.579 6 -16361518.942 6  21634811.508    21634811.834    21634812.497
        40.000          36.300
  -6957952.167 2  -5421783.031 2  25052554.630    25052555.246    25052554.964
        12.600          13.900
 -19694245.747 6 -15346157.925 5  21904900.762    21904901.074    21904900.633
        37.600          32.400
  -5843670.489 2  -4553507.813 3  24420524.625    24420528.135    24420525.404
        13.900          21.100
  -3424709.522 3  -2668599.405 3  24543351.498    24543351.828    24543352.294
        18.600          21.100
 -21167454.376 6 -16494114.432 5  21387116.768    21387117.502    21387117.157
        38.400          33.400
  -4299616.825 3  -3350349.212 3  24813746.097    24813744.779    24813745.714
        19.300          19.900
 -14237733.405 5 -11094330.440 5  22997706.575    22997707.099    22997707.420
        34.000          30.800
 13 10  6  1 20  0.0000000  0 11G28G26G18G15G21G 8G24G 7G 9G19G 5
 -20506812.015 6 -15979329.266 6  21336316.081    21336315.471    21336315.956
        41.100          39.200
 -30179507.227 7 -23516493.073 7  19705712.379    19705712.909    19705712.698
        46.000          45.900
  -6844463.004 2  -5333346.191 2  24640127.097    24640126.225    24640127.103
        17.800          17.000
 -21067275.079 6 -16416054.656 6  21621493.760    21621493.646    21621494.354
        39.800          36.600
  -6926272.083 1  -5397097.291 2  25058584.213    25058582.421    25058583.975
        11.000          15.100
 -19622111.391 6 -15289949.339 5  21918627.095    21918627.782    21918627.146
        37.400          32.800
  -5945720.718 2  -4633027.455 3  24401105.823    24401109.111    24401106.418
        16.100          22.100
  -3323537.055 2  -2589763.720 3  24562605.525    24562604.532    24562605.839
        17.800          20.500
 -21082624.946 6 -16428013.577 5  21403259.873    21403260.032    21403259.936
        38.300          33.100
  -4267465.144 3  -3325295.979 3  24819864.092    24819862.099    24819863.676
        21.100          19.300
 -14137726.986 5 -11016403.377 5  23016736.594    23016737.774    23016737.834
        33.800          30.400
 13 10  6  1 20 30.0000000  0 11G28G26G18G15G21G 8G24G 7G 9G19G 5
 -20505234.674 6 -15978100.158 6  21336616.003    21336615.832    21336616.011
        40.700          39.300
 -30163215.349 7 -23503798.107 7  19708812.560    19708813.112    19708812.855
        46.100          45.800
  -6930422.407 2  -5400327.510 2  24623769.502    24623768.656    24623769.628
        17.000          17.800
 -21136936.312 6 -16470336.132 6  21608237.759    21608237.627    21608238.293
        40.200          36.500
  -6894165.695 2  -5372079.356 2  25064693.853    25064693.269    25064694.036
        15.100          13.900
 -19549713.094 6 -15233535.094 5  21932403.971    21932404.995    21932404.188
        37.700          32.800
  -6047665.607 2  -4712464.984 3  24381705.576    24381708.911    24381706.796
        17.800          20.500
  -3222313.184 2  -2510888.023 2  24581866.913    24581867.029    24581868.157
        13.900          17.800
 -20997491.500 6 -16361675.836 5  21419459.741    21419460.400    21419459.919
        38.000          33.500
  -4234743.237 3  -3299798.364 3  24826090.365    24826089.520    24826091.233
        19.900          18.600
 -14037461.792 5 -10938274.677 4  23035817.067    23035817.667    23035817.736
        34.400          29.900
 13 10  6  1 21  0.0000000  0 11G28G26G18G15G21G 8G24G 7G 9G19G 5
 -20503119.482 6 -15976451.950 6  21337018.641    21337018.302    21337018.577
        40.900          39.600
 -30146373.690 7 -23490674.742 7  19712017.021    19712017.953    19712017.659
        46.000          45.700
  -7016103.148 3  -5467091.720 2  24607465.094    24607464.055    24607464.702
        18.600          12.600
 -21206269.367 6 -16524361.886 6  21595044.467    21595044.016    21595044.694
        40.300          36.500
  -6861634.681 1  -5346730.527 2  25070884.193    25070883.323    25070883.216
        11.000          12.600
 -19477052.171 6 -15176916.202 5  21946230.610    21946231.735    21946231.046
        37.200          32.600
  -6149504.129 3  -4791819.626 3  24362325.664    24362330.062    24362327.327
        18.600          23.000
  -3121039.172 2  -2431973.269 3  24601137.488    24601139.099    24601138.617
        15.100          21.600
 -20912056.014 6 -16295102.742 5  21435717.344    21435718.247    21435717.655
        37.700          33.200
  -4201452.181 3  -3273857.277 2  24832426.358    24832423.808    24832425.645
        18.600          17.800
 -13936940.379 5 -10859946.317 5  23054945.669    23054946.353    23054946.543
        34.400          30.400
 13 10  6  1 21 30.0000000  0 11G28G26G18G15G21G 8G24G 7G 9G19G 5
 -20500467.115 6 -15974385.171 6  21337523.384    21337522.900    21337523.335
        41.200          39.400
 -30128982.353 7 -23477123.061 7  19715326.573    19715327.483    19715327.160
        46.000          45.900
  -7101502.466 2  -5533636.638 2  24591214.517    24591213.145    24591214.115
        17.800          15.100
 -21275272.629 6 -16578130.658 6  21581913.304    21581913.246    21581913.880
        40.200          36.600
  -6828680.279 2  -5321051.777 2  25077155.992    25077154.266    25077155.311
        13.900          12.600
 -19404130.060 6 -15120093.786 5  21960107.941    21960108.435    21960107.770
        37.200          32.800
  -6251235.083 2  -4871090.457 3  24342967.822    24342970.990    24342968.507
        15.100          19.900
  -3019716.037 2  -2353020.240 3  24620417.719    24620420.406    24620420.512
        17.800          19.900
 -20826320.393 6 -16228295.776 5  21452032.574    21452033.262    21452032.826
        37.900          33.200
  -4167593.278 3  -3247473.743 2  24838869.266    24838867.138    24838868.870
        20.500          17.000
 -13836165.768 5 -10781420.663 5  23074122.486    23074122.957    23074123.249
        33.500          30.600
 13 10  6  1 22  0.0000000  0 11G28G26G18G15G21G 8G24G 7G 9G19G 5
 -20497277.907 6 -15971900.067 6  21338130.296    21338129.826    21338130.263
        41.100          39.400
 -30111041.458 7 -23463143.148 7  19718740.670    19718741.611    19718741.251
        46.000          45.900
  -7186618.784 3  -5599961.035 2  24575017.308    24575016.457    24575017.592
        19.900          17.800
 -21343944.397 6 -16631641.123 6  21568845.566    21568845.294    21568846.091
        40.500          36.900
  -6795304.007 1  -5295044.272 2  25083504.315    25083505.996    25083504.747
        11.000          12.600
 -19330948.209 6 -15063068.977 5  21974033.928    21974034.583    21974033.889
        37.200          32.400
  -6352857.326 2  -4950276.583 3  24323629.478    24323632.262    24323630.343
        17.000          22.100
  -2918345.082 2  -2274029.939 3  24639709.597    24639710.645    24639710.065
        17.800          20.500
 -20740286.448 6 -16161256.346 5  21468404.222    21468404.993    21468404.551
        37.800          32.800
  -4133167.206 3  -3220648.214 3  24845421.259    24845418.723    24845419.291
        18.600          18.600
 -13735140.767 5 -10702699.904 5  23093346.588    23093347.496    23093347.487
        33.400          30.800
 13 10  6  1 22 30.0000000  0 11G28G26G18G15G21G 8G24G 7G 9G19G 5
 -20493552.229 6 -15968996.936 6  21338839.267    21338838.947    21338839.154
        40.900          39.500
 -30092551.131 7 -23448735.106 7  19722259.199    19722260.157    19722259.793
        46.000          45.800
  -7271449.842 3  -5666063.155 2  24558873.829    24558873.786    24558874.077
        19.900          15.100
 -21412282.685 6 -16684891.731 6  21555840.952    21555840.978    21555841.686
        40.300          36.900
  -6761507.620 2  -5268709.472 1  25089938.031    25089936.784    25089938.150
        12.600          11.000
 -19257507.938 6 -15005842.804 5  21988008.927    21988009.682    21988008.817
        36.800          32.100
  -6454370.338 2  -5029377.612 3  24304312.465    24304315.773    24304312.810
        17.000          21.600
  -2816927.291 2  -2195003.141 2  24659009.435    24659009.239    24659010.046
        17.800          15.100
 -20653956.153 6 -16093985.996 5  21484832.296    21484833.049    21484832.673
        37.900          32.700
  -4098175.332 2  -3193381.825 2  24852079.729    24852076.842    24852078.839
        17.000          17.000
 -13633867.552 5 -10623785.744 5  23112618.662    23112619.166    23112619.223
        33.800          31.000
 13 10  6  1 23  0.0000000  0 11G28G26G18G15G21G 8G24G 7G 9G19G 5
 -20489290.881 6 -15965676.398 6  21339649.971    21339649.751    21339649.943
        40.900          39.600
 -30073511.540 7 -23433899.068 7  19725882.562    19725883.254    19725882.945
        46.000          45.800
  -7355992.832 3  -5731940.816 2  24542785.064    24542785.880    24542785.376
        19.300          15.100
 -21480285.912 6 -16737881.265 6  21542900.148    21542900.329    21542901.066
        40.500          37.200
  -6727292.305 2  -5242048.196 1  25096449.780    25096447.910    25096449.453
        13.900          11.000
 -19183810.762 6 -14948416.451 5  22002033.180    22002034.024    22002033.357
        37.500          32.700
  -6555772.657 3  -5108392.366 3  24285015.765    24285019.554    24285016.845
        18.600          23.800
  -2715464.021 3  -2115940.870 2  24678316.558    24678317.039    24678317.394
        18.600          17.800
 -20567331.623 6 -16026486.368 5  21501316.594    21501317.311    21501316.925
        37.400          32.700
  -4062619.036 3  -3165675.630 3  24858845.944    24858843.183    24858845.105
        19.300          20.500
 -13532349.378 5 -10544680.687 5  23131936.995    23131937.241    23131937.612
        34.300          30.600
 13 10  6  1 23 30.0000000  0 11G28G26G18G15G21G 8G24G 7G 9G19G 5
 -20484494.183 6 -15961938.700 6  21340562.945    21340562.414    21340563.004
        41.100          39.400
 -30053922.784 7 -23418635.109 7  19729610.261    19729610.914    19729610.491
        45.900          45.800
  -7440245.673 3  -5797592.366 2  24526753.714    24526752.049    24526753.997
        21.100          16.100
 -21547952.299 6 -16790608.321 6  21530023.894    21530023.833    21530024.577
        40.300          37.300
  -6692660.425 2  -5215062.331 1  25103039.606    25103038.435    25103039.414
        17.000          11.000
 -19109858.298 6 -14890791.162 5  22016105.992    22016106.428    22016106.169
        37.400          32.400
  -6657063.564 2  -5187320.280 3  24265741.906    24265745.501    24265742.293
        17.000          23.800
  -2613956.572 2  -2036844.171 3  24697632.935    24697633.876    24697633.387
        16.100          19.300
 -20480414.663 6 -15958758.876 5  21517856.415    21517857.260    21517856.619
        37.700          32.600
  -4026499.589 3  -3137530.602 2  24865719.388    24865716.159    24865717.814
        19.900          17.000
 -13430588.278 5 -10465386.339 4  23151301.419    23151301.967    23151301.982
        33.100          29.700
 13 10  6  1 24  0.0000000  0 11G28G26G18G15G21G 8G24G 7G 9G19G 5
 -20479162.456 6 -15957784.109 6  21341577.701    21341577.089    21341577.559
        41.000          39.400
 -30033785.118 7 -23402943.427 7  19733442.387    19733442.898    19733442.636
        46.000          45.800
  -7524205.663 3  -5863015.736 2  24510777.247    24510775.573    24510776.533
        19.900          16.100
 -21615279.989 6 -16843071.454 6  21517211.676    21517211.873    21517212.413
        40.500          37.100
  -6657613.397 1  -5187752.940 2  25109707.999    25109707.857    25109708.191
        11.000          15.100
 -19035652.001 6 -14832968.074 5  22030226.770    22030227.326    22030226.852
        37.000          31.100
  -6758241.609 2  -5266160.265 3  24246487.415    24246490.994    24246488.623
        16.100          21.600
  -2512405.941 3  -1957713.822 2  24716957.327    24716957.520    24716958.156
        18.600          17.000
 -20393207.215 6 -15890805.024 5  21534451.352    21534452.201    21534451.499
        37.200          32.400
  -3989818.082 3  -3108947.608 3  24872698.419    24872696.603    24872698.081
        18.600          18.600
 -13328587.792 5 -10385905.466 4  23170711.668    23170712.135    23170712.010
        32.800          29.900
 13 10  6  1 24 30.0000000  0 11G28G26G18G15G21G 8G24G 7G 9G19G 5
 -20473296.288 6 -15953213.060 6  21342693.629    21342693.464    21342693.615
        41.000          39.500
 -30013098.646 7 -23386824.103 7  19737378.826    19737379.335    19737379.150
        46.000          45.700
  -7607870.898 3  -5928209.420 1  24494855.121    24494853.615    24494854.659
        19.300          11.000
 -21682267.142 6 -16895269.234 6  21504464.598    21504464.565    21504465.263
        40.600          37.200
  -6622152.722 1  -5160121.270 2  25116454.846    25116455.330    25116455.688
         9.000          12.600
 -18961193.023 6 -14774948.100 5  22044395.561    22044396.433    22044395.843
        37.000          32.100
  -6859306.268 2  -5344911.906 3  24227254.786    24227258.571    24227255.472
        13.900          23.000
  -2410812.984 2  -1878550.553 1  24736289.868    24736290.707    24736290.040
        16.100          11.000
 -20305711.197 6 -15822626.318 5  21551101.108    21551102.360    21551101.280
        37.200          32.700
  -3952575.807 3  -3079927.672 3  24879786.493    24879784.274    24879785.764
        21.100          19.900
 -13226350.132 5 -10306239.763 4  23190166.873    23190167.268    23190167.463
        33.200          29.700
 13 10  6  1 25  0.0000000  0 11G28G26G18G15G21G 8G24G 7G 9G19G 5
 -20466896.526 6 -15948226.226 6  21343911.932    21343911.318    21343911.743
        41.100          39.700
 -29991863.735 7 -23370277.429 7  19741419.617    19741420.324    19741419.975
        46.100          45.600
  -7691238.991 3  -5993171.579 2  24478991.369    24478990.598    24478991.157
        22.100          17.000
 -21748912.069 6 -16947200.344 6  21491782.737    21491782.513    21491783.295
        40.600          37.600
  -6586280.195 2  -5132168.627 2  25123283.086    25123281.005    25123283.146
        13.900          13.900
 -18886482.783 6 -14716732.338 5  22058612.871    22058613.577    22058612.858
        36.900          32.000
  -6960256.354 3  -5423574.265 3  24208045.253    24208048.237    24208045.793
        19.300          22.100
  -2309179.068 2  -1799355.360 2  24755629.608    24755630.683    24755630.530
        16.100          16.100
 -20217928.504 6 -15754224.228 5  21567805.726    21567806.403    21567805.852
        37.300          32.600
  -3914773.972 3  -3050471.671 2  24886979.371    24886977.670    24886978.664
        19.300          17.800
 -13123878.106 5 -10226391.449 4  23209665.813    23209666.954    23209666.739
        32.700          29.000
 13 10  6  1 25 30.0000000  0 11G28G26G18G15G21G 8G24G 7G 9G19G 5
 -20459963.495 6 -15942823.860 6  21345231.108    21345230.600    21345230.979
        41.100          39.500
 -29970080.398 7 -23353303.408 7  19745564.938    19745565.522    19745565.312
        46.100          45.800
  -7774308.152 3  -6057900.780 2  24463183.953    24463182.845    24463183.488
        20.500          17.800
 -21815212.865 6 -16998863.307 6  21479165.655    21479165.952    21479166.517
        40.700          37.900
  -6549997.408 1  -5103896.329 2  25130187.041    25130186.470    25130186.883
         6.500          12.600
 -18811523.189 6 -14658322.268 5  22072877.232    22072877.840    22072877.227
        36.500          31.600
  -7061090.637 2  -5502146.396 3  24188856.027    24188859.832    24188857.320
        16.100          22.100
  -2207505.342 2  -1720129.102 3  24774978.220    24774979.522    24774979.362
        17.000          19.300
 -20129861.159 6 -15685600.327 5  21584564.422    21584565.004    21584564.671
        37.100          32.400
  -3876414.111 3  -3020580.883 2  24894278.336    24894276.895    24894278.609
        18.600          17.800
 -13021174.610 5 -10146362.780 4  23229210.192    23229211.086    23229210.663
        32.300          29.900
 13 10  6  1 26  0.0000000  0 11G28G26G18G15G21G 8G24G 7G 9G19G 5
 -20452497.799 6 -15937006.429 6  21346651.515    21346651.292    21346651.553
        41.000          39.700
 -29947749.003 7 -23335902.332 7  19749814.378    19749815.135    19749814.770
        46.000          45.700
  -7857075.220 3  -6122394.591 2  24447433.212    24447432.800    24447432.816
        19.300          17.800
 -21881167.847 6 -17050256.805 6  21466614.663    21466615.239    21466615.684
        40.700          37.700
  -6513306.442 2  -5075305.988 2  25137167.705    25137168.127    25137167.605
        12.600          12.600
 -18736315.460 6 -14599718.850 5  22087188.835    22087189.281    22087188.736
        36.500          31.800
  -7161808.097 3  -5580627.471 3  24169690.357    24169694.543    24169691.724
        19.300          23.800
  -2105792.877 3  -1640872.660 2  24794334.388    24794333.934    24794334.912
        21.100          17.800
 -20041510.986 6 -15616756.045 5  21601376.921    21601377.641    21601377.129
        37.200          32.300
  -3837497.552 3  -2990256.266 3  24901684.662    24901682.405    24901683.991
        20.500          19.900
 -12918242.579 5 -10066156.013 5  23248797.869    23248798.512    23248798.361
        32.300          30.400
 13 10  6  1 26 30.0000000  0 11G28G26G18G15G21G 8G24G 7G 9G19G 5
 -20444500.141 6 -15930774.483 6  21348173.552    21348173.041    21348173.518
        41.100          39.300
 -29924869.731 7 -23318074.337 7  19754168.168    19754168.996    19754168.579
        46.100          45.800
  -7939538.432 3  -6186651.637 2  24431740.251    24431740.187    24431740.547
        21.600          16.100
 -21946775.165 6 -17101379.387 6  21454129.882    21454130.441    21454131.045
        40.600          37.700
  -6476208.658 1  -5046398.659 1  25144228.323    25144228.230    25144228.206
         9.000           9.000
 -18660860.798 6 -14540923.011 5  22101547.357    22101548.097    22101547.455
        36.700          32.300
  -7262407.633 2  -5659016.664 3  24150547.898    24150551.361    24150549.020
        17.800          23.000
  -2004042.694 2  -1561586.877 2  24813696.730    24813697.073    24813697.166
        17.000          17.000
 -19952879.909 6 -15547692.874 5  21618242.689    21618243.551    21618242.984
        37.100          32.300
  -3798025.247 3  -2959498.660 2  24909195.482    24909194.032    24909195.243
        19.900          17.800
 -12815084.121 5  -9985772.820 4  23268427.264    23268428.883    23268428.372
        31.800          29.700
 13 10  6  1 27  0.0000000  0 11G28G26G18G15G21G 8G24G 7G 9G19G 5
 -20435970.777 6 -15924128.219 6  21349796.659    21349795.953    21349796.564
        40.900          39.300
 -29901442.916 7 -23299819.684 7  19758626.221    19758626.901    19758626.577
        46.000          45.700
  -8021694.996 3  -6250669.719 3  24416107.342    24416106.550    24416107.180
        19.900          18.600
 -22012033.428 6 -17152229.989 6  21441711.984    21441712.000    21441712.949
        40.700          37.800
  -6438706.126 2  -5017175.884 1  25151365.217    25151363.942    25151365.134
        12.600           9.000
 -18585160.720 6 -14481935.940 5  22115951.911    22115953.409    22115952.303
        36.100          31.500
  -7362888.388 3  -5737313.312 3  24131427.165    24131430.384    24131427.726
        19.900          23.400
  -1902256.007 2  -1482272.656 3  24833064.938    24833067.173    24833066.435
        17.000          21.600
 -19863969.572 6 -15478412.106 5  21635161.780    21635162.645    21635162.028
        36.500          32.000
  -3757998.987 2  -2928309.359 2  24916812.730    24916810.089    24916812.284
        17.000          15.100
 -12711701.644 5  -9905215.068 4  23288100.852    23288101.800    23288101.766
        33.200          29.700
 13 10  6  1 27 30.0000000  0 11G28G26G18G15G21G 8G24G 7G 9G19G 5
 -20426910.801 6 -15917068.493 6  21351520.589    21351520.157    21351520.722
        41.100          39.300
 -29877468.725 7 -23281138.502 7  19763188.318    19763188.947    19763188.696
        46.000          45.600
  -8103543.041 3  -6314447.429 2  24400531.931    24400531.040    24400531.717
        22.600          15.100
 -22076940.334 6 -17202806.803 6  21429360.567    21429360.646    21429361.580
        41.100          38.200
  -6400800.309 2  -4987638.855 1  25158577.972    25158577.274    25158578.269
        13.900           9.000
 -18509216.690 6 -14422758.780 5  22130403.831    22130404.915    22130404.181
        36.200          31.100
  -7463249.166 2  -5815516.473 3  24112328.376    24112332.301    24112329.238
        17.800          23.000
  -1800434.038 2  -1402930.898 3  24852441.283    24852441.921    24852441.576
        15.100          19.900
 -19774781.968 6 -15408915.283 5  21652133.667    21652134.462    21652133.874
        36.700          31.600
  -3717419.854 3  -2896689.247 2  24924534.276    24924532.623    24924534.335
        19.300          17.000
 -12608098.374 5  -9824485.262 4  23307815.550    23307817.014    23307816.627
        32.100          29.000
 13 10  6  1 28  0.0000000  0 11G28G26G18G15G21G 8G24G 7G 9G19G 5
 -20417320.546 6 -15909595.564 6  21353345.546    21353345.162    21353345.548
        41.100          39.300
 -29852947.610 7 -23262031.148 7  19767854.563    19767855.211    19767854.772
        45.800          45.600
  -8185080.210 3  -6377982.866 2  24385015.434    24385014.980    24385016.171
        22.100          13.900
 -22141494.154 6 -17253108.481 6  21417077.050    21417076.635    21417077.248
        41.000          38.100
  -6362493.156 1  -4957789.093 2  25165867.509    25165867.181    25165866.509
         9.000          12.600
 -18433030.164 6 -14363392.661 5  22144902.214    22144902.783    22144902.278
        36.000          32.100
  -7563489.063 3  -5893625.419 3  24093253.129    24093256.895    24093253.252
        18.600          22.100
  -1698577.604 2  -1323562.367 2  24871822.819    24871824.500    24871825.084
        13.900          13.900
 -19685318.935 6 -15339203.829 5  21669157.903    21669158.723    21669158.229
        36.500          31.100
  -3676289.554 3  -2864639.647 3  24932362.314    24932359.554    24932361.068
        21.100          19.300
 -12504277.165 5  -9743585.640 4  23327572.861    23327573.136    23327573.162
        31.500          29.700
 13 10  6  1 28 30.0000000  0 11G28G26G18G15G21G 8G24G 7G 9G19G 5
 -20407200.730 6 -15901709.988 6  21355271.170    21355270.922    21355271.228
        40.900          39.300
 -29827879.781 7 -23242497.786 7  19772624.719    19772625.488    19772625.083
        46.000          45.600
  -8266304.139 3  -6441274.235 2  24369559.728    24369557.963    24369559.730
        23.000          13.900
 -22205693.444 6 -17303133.905 6  21404859.826    21404859.957    21404860.630
        41.000          38.100
  -6323786.504 2  -4927628.090 2  25173233.130    25173231.246    25173232.001
        13.900          13.900
 -18356602.550 5 -14303838.684 5  22159445.643    22159446.474    22159445.663
        35.900          31.000
  -7663607.180 3  -5971639.495 3  24074202.255    24074204.634    24074203.120
        19.300          22.600
  -1596687.900 2  -1244167.853 3  24891212.097    24891213.888    24891212.693
        15.100          18.600
 -19595582.493 6 -15269279.348 5  21686234.409    21686235.043    21686234.554
        36.400          31.600
  -3634609.245 3  -2832161.509 2  24940293.148    24940291.004    24940292.747
        20.500          17.000
 -12400241.026 5  -9662518.526 4  23347370.459    23347370.368    23347370.812
        31.800          28.800
 13 10  6  1 29  0.0000000  0 11G28G26G18G15G21G 8G24G 7G 9G19G 5
 -20396552.227 6 -15893412.449 6  21357297.467    21357297.214    21357297.545
        40.900          39.200
 -29802265.567 7 -23222538.666 7  19777498.706    19777499.754    19777499.419
        46.000          45.800
  -8347212.536 3  -6504319.730 3  24354163.712    24354162.054    24354163.170
        19.300          18.600
 -22269536.183 6 -17352881.492 6  21392710.990    21392710.989    21392711.777
        41.300          38.400
  -6284681.827 1  -4897156.902 2  25180674.076    25180673.400    25180675.232
         9.000          13.900
 -18279935.163 5 -14244097.872 5  22174035.104    22174036.116    22174035.092
        35.600          31.500
  -7763601.988 3  -6049557.493 3  24055174.056    24055176.666    24055174.258
        21.100          23.400
  -1494765.887 3  -1164748.122 2  24910607.542    24910609.460    24910607.909
        18.600          13.900
 -19505574.716 6 -15199143.419 5  21703362.708    21703362.684    21703362.770
        37.100          30.800
  -3592380.672 3  -2799256.108 2  24948329.543    24948326.102    24948328.389
        19.900          15.100
 -12295992.567 5  -9581285.976 4  23367207.768    23367208.650    23367208.457
        31.500          28.600
 13 10  6  1 29 30.0000000  0 11G28G26G18G15G21G 8G24G 7G 9G19G 5
 -20385375.790 6 -15884703.533 6  21359424.536    21359423.939    21359424.487
        40.900          39.100
 -29776105.255 7 -23202154.014 7  19782477.006    19782477.906    19782477.563
        46.000          45.600
  -8427803.309 3  -6567117.723 2  24338828.182    24338825.643    24338827.828
        22.600          16.100
 -22333020.877 6 -17402350.084 6  21380630.403    21380630.292    21380630.946
        41.000          38.300
  -6245181.723 1  -4866377.592 2  25188190.446    25188191.052    25188191.141
         9.000          13.900
 -18203029.396 5 -14184171.310 5  22188669.633    22188670.731    22188669.689
        35.800          30.600
  -7863473.046 3  -6127379.054 3  24036168.722    24036172.234    24036169.699
        19.900          23.800
  -1392812.950 2  -1085304.388 2  24930009.765    24930010.390    24930010.172
        13.900          17.000
 -19415297.383 6 -15128797.452 5  21720541.607    21720541.966    21720541.862
        36.200          31.000
  -3549605.236 3  -2765924.589 3  24956469.914    24956467.544    24956468.331
        21.100          19.300
 -12191533.826 5  -9499889.572 4  23387085.633    23387087.009    23387086.495
        32.300          29.500
 13 10  6  1 30  0.0000000  0 12G28G26G18G15G21G 8G24G 7G 9G19G17G 5
 -20373671.953 6 -15875583.660 6  21361651.774    21361651.155    21361651.679
        41.100          39.100
 -29749399.301 7 -23181344.191 7  19787559.136    19787559.759    19787559.561
        45.900          45.600
  -8508073.983 3  -6629666.291 2  24323551.840    24323550.977    24323552.217
        19.900          15.100
 -22396145.581 6 -17451538.172 6  21368617.831    21368618.059    21368618.766
        41.300          38.600
  -6205287.625 2  -4835291.263 1  25195781.495    25195781.955    25195782.072
        12.600           9.000
 -18125886.993 6 -14124060.354 5  22203349.219    22203350.428    22203349.550
        36.000          31.000
  -7963219.436 3  -6205103.479 4  24017187.032    24017191.245    24017188.564
        19.900          24.600
  -1290829.675 2  -1005836.948 3  24949416.831    24949417.305    24949417.649
        15.100          20.500
 -19324752.344 6 -15058242.889 5  21737771.749    21737772.174    21737771.899
        36.200          31.000
  -3506284.128 2  -2732167.892 3  24964712.904    24964711.019    24964712.005
        17.800          19.300
   -146154.123 1   -113886.535 1  25495940.970    25495944.832    25495942.950
         9.000          11.000
 -12086868.245 5  -9418331.989 4  23407002.562    23407003.718    23407003.536
        31.500          28.800
 13 10  6  1 30 30.0000000  0 12G28G26G18G15G21G 8G24G 7G 9G19G17G 5
 -20361441.313 6 -15866053.288 6  21363978.824    21363978.572    21363979.027
        41.100          39.300
 -29722148.101 7 -23160109.501 7  19792744.988    19792745.659    19792745.270
        46.000          45.600
  -8588022.216 3  -6691963.583 2  24308337.710    24308337.672    24308338.373
        20.500          16.100
 -22458908.455 6 -17500444.306 6  21356674.563    21356674.716    21356675.404
        41.400          38.800
  -6165001.179 1  -4803899.213 1  25203448.087    25203447.323    25203448.558
         9.000           6.500
 -18048508.970 5 -14063765.803 5  22218073.864    22218074.906    22218074.020
        35.700          31.100
  -8062839.440 3  -6282729.403 3  23998229.494    23998233.606    23998230.322
        20.500          23.400
  -1188817.736 2   -926347.135 2  24968829.787    24968829.206    24968830.456
        16.100          17.000
 -19233941.222 6 -14987480.984 5  21755052.947    21755053.051    21755052.790
        36.300          31.100
  -3462419.339 3  -2697987.535 3  24973060.533    24973057.480    24973058.862
        19.900          19.900
   -241474.238 2   -188161.904 1  25477803.883    25477803.734    25477803.819
        13.900          11.000
 -11981998.196 5  -9336615.087 4  23426958.844    23426959.936    23426959.528
        31.300          28.800
 13 10  6  1 31  0.0000000  0 12G28G26G18G15G21G 8G24G 7G 9G19G17G 5
 -20348684.864 6 -15856113.191 6  21366406.547    21366406.088    21366406.510
        40.900          39.500
 -29694351.902 7 -23138450.132 7  19798034.224    19798035.074    19798034.686
        45.900          45.700
  -8667645.931 3  -6754008.062 2  24293185.750    24293185.742    24293186.220
        22.100          15.100
 -22521307.776 6 -17549067.155 6  21344800.165    21344800.543    21344801.150
        41.500          38.800
  -6124323.836 2  -4772202.560 1  25211190.062    25211188.879    25211190.736
        16.100           6.500
 -17970896.757 5 -14003288.751 5  22232843.557    22232843.781    22232843.406
        35.800          30.100
  -8162332.450 3  -6360256.367 4  23979297.287    23979300.563    23979297.570
        19.300          24.200
  -1086777.800 2   -846835.559 2  24988246.022    24988246.608    24988247.652
        16.100          16.100
 -19142865.842 6 -14916513.172 5  21772383.626    21772384.335    21772383.651
        36.000          31.100
  -3418012.323 3  -2663384.666 2  24981509.959    24981507.518    24981509.364
        19.900          16.100
   -336793.364 1   -262436.597 1  25459664.287    25459665.633    25459664.609
         9.000           6.500
 -11876926.549 5  -9254741.096 4  23446953.507    23446954.185    23446954.099
        30.800          27.400
 13 10  6  1 31 30.0000000  0 12G28G26G18G15G21G 8G24G 7G 9G19G17G 5
 -20335403.289 6 -15845763.912 6  21368933.771    21368933.451    21368933.856
        41.000          39.200
 -29666011.198 7 -23116366.476 7  19803427.387    19803427.978    19803427.762
        46.000          45.500
  -8746942.908 3  -6815797.899 2  24278096.825    24278096.227    24278096.872
        23.000          16.100
 -22583341.764 6 -17597405.319 6  21332995.826    21332995.884    21332996.568
        41.400          38.800
  -6083258.039 1  -4740203.214 1  25219003.519    25219003.290    25219003.037
         9.000          11.000
 -17893052.016 5 -13942630.508 5  22247656.758    22247657.230    22247656.450
        35.300          30.400
  -8261697.202 3  -6437683.404 3  23960389.091    23960392.203    23960389.805
        21.600          23.800
   -984711.045 2   -767303.057 3  25007668.676    25007670.643    25007669.459
        15.100          20.500
 -19051528.316 5 -14845341.081 5  21789763.987    21789765.025    21789764.703
        35.900          30.600
  -3373064.297 2  -2628360.239 2  24990062.523    24990060.634    24990062.599
        17.800          16.100
   -432108.724 1   -336708.285 2  25441527.087    25441526.433    25441527.051
         9.000          13.900
 -11771656.118 5  -9172712.198 4  23466986.046    23466985.891    23466986.453
        30.600          27.400
 13 10  6  1 32  0.0000000  0 12G28G26G18G15G21G 8G24G 7G 9G19G17G 5
 -20321597.156 6 -15835005.883 6  21371561.014    21371560.639    21371561.009
        41.000          39.000
 -29637126.418 7 -23093858.863 7  19808923.912    19808924.696    19808924.411
        46.100          45.500
  -8825911.037 3  -6877331.484 3  24263069.400    24263068.809    24263069.995
        22.600          19.900
 -22645008.775 6 -17645457.542 6  21321261.023    21321261.134    21321261.723
        41.400          38.900
  -6041805.661 1  -4707902.690 1  25226891.535    25226891.610    25226891.041
         9.000          11.000
 -17814976.119 5 -13881792.152 5  22262513.659    22262514.906    22262513.789
        35.600          30.800
  -8360933.106 3  -6515010.065 3  23941505.602    23941508.038    23941505.929
        19.300          23.400
   -882618.504 2   -687750.477 2  25027095.835    25027097.917    25027097.258
        13.900          12.600
 -18959930.583 6 -14773966.238 5  21807195.039    21807195.733    21807195.328
        36.200          30.600
  -3327577.152 3  -2592915.691 3  24998719.953    24998717.276    24998718.903
        19.300          19.300
   -527417.961 2   -410975.219 2  25423390.390    25423390.804    25423390.849
        13.900          16.100
 -11666189.475 5  -9090530.405 4  23487055.989    23487056.164    23487056.186
        30.200          27.900
 13 10  6  1 32 30.0000000  0 12G28G26G18G15G21G 8G24G 7G 9G19G17G 5
 -20307267.950 6 -15823840.260 6  21374287.995    21374287.390    21374287.923
        41.000          39.100
 -29607697.974 7 -23070927.620 7  19814524.043    19814524.831    19814524.392
        46.100          45.600
  -8904547.374 3  -6938606.562 2  24248106.212    24248105.377    24248105.699
        22.100          17.800
 -22706307.087 6 -17693222.455 6  21309596.044    21309596.369    21309596.956
        41.400          39.000
  -5999968.854 2  -4675302.589 1  25234852.868    25234851.943    25234853.317
        13.900           9.000
 -17736670.306 5 -13820774.650 5  22277414.908    22277415.921    22277414.773
        35.200          30.400
  -8460038.917 3  -6592235.340 4  23922645.950    23922648.704    23922646.370
        19.900          24.600
   -780501.254 2   -608178.663 2  25046529.289    25046529.514    25046529.597
        17.000          16.100
 -18868074.665 5 -14702390.207 5  21824674.595    21824675.313    21824674.570
        35.600          31.000
  -3281552.493 2  -2557052.339 2  25007478.129    25007475.837    25007476.679
        17.000          17.800
   -622718.061 1   -485235.007 2  25405255.208    25405256.866    25405255.492
         6.500          13.900
 -11560529.225 5  -9008197.773 5  23507161.592    23507163.460    23507162.827
        30.400          30.200
 13 10  6  1 33  0.0000000  0 12G28G26G18G15G21G 8G24G 7G 9G19G17G 5
 -20292415.803 6 -15812267.162 6  21377114.217    21377113.705    21377114.211
        41.000          39.200
 -29577726.339 7 -23047573.110 7  19820227.567    19820228.258    19820227.913
        46.100          45.500
  -8982850.196 3  -6999621.719 2  24233205.052    24233204.033    24233205.597
        22.100          15.100
 -22767234.634 6 -17740698.468 6  21298002.570    21298002.273    21298002.906
        41.600          39.300
  -5957749.455 2  -4642404.351 1  25242887.407    25242887.135    25242887.866
        12.600           9.000
 -17658136.064 5 -13759579.143 5  22292359.494    22292360.234    22292359.513
        35.100          30.600
  -8559013.606 3  -6669358.455 4  23903811.672    23903814.875    23903812.323
        21.100          24.200
   -678360.168 2   -528588.247 3  25065966.326    25065966.272    25065966.962
        17.800          18.600
 -18775962.004 6 -14630614.128 5  21842203.055    21842203.806    21842203.222
        36.000          30.400
  -3234991.864 3  -2520771.344 3  25016338.143    25016335.311    25016336.891
        19.300          18.600
   -718006.320 2   -559485.597 2  25387122.609    25387123.593    25387123.104
        16.100          13.900
 -11454678.258 5  -8925716.528 4  23527304.625    23527306.055    23527305.584
        31.000          28.800
 13 10  6  1 33 30.0000000  0 12G28G26G18G15G21G 8G24G 7G 9G19G17G 5
 -20277041.811 6 -15800287.419 6  21380039.460    21380039.265    21380039.558
        40.700          39.100
 -29547211.948 7 -23023795.671 7  19826034.480    19826034.859    19826034.641
        46.000          45.400
  -9060817.283 3  -7060375.293 2  24218368.737    24218368.387    24218368.480
        23.000          16.100
 -22827790.017 6 -17787884.482 6  21286478.552    21286478.899    21286479.689
        41.600          39.300
  -5915149.048 2  -4609209.245 2  25250994.281    25250994.612    25250994.312
        15.100          12.600
 -17579374.659 5 -13698206.626 5  22307347.785    22307347.900    22307347.670
        35.600          30.100
  -8657856.347 3  -6746378.727 4  23885001.467    23885005.523    23885002.987
        19.300          24.200
   -576196.395 2   -448980.170 3  25085406.794    25085408.464    25085407.966
        15.100          21.100
 -18683594.705 6 -14558639.621 4  21859780.151    21859780.550    21859780.319
        36.000          29.900
  -3187896.791 3  -2484073.902 2  25025300.160    25025296.937    25025298.725
        19.300          16.100
   -813279.941 2   -633724.791 2  25368993.595    25368993.931    25368993.347
        12.600          15.100
 -11348640.055 4  -8843089.383 4  23547482.621    23547484.264    23547483.615
        29.700          28.800
 13 10  6  1 34  0.0000000  0 12G28G26G18G15G21G 8G24G 7G 9G19G17G 5
 -20261146.930 6 -15787901.796 6  21383064.388    21383063.909    21383064.381
        40.700          39.100
 -29516155.180 7 -22999595.604 7  19831944.119    19831944.783    19831944.520
        46.000          45.400
  -9138445.946 3  -7120865.161 2  24203595.316    24203595.954    24203596.147
        22.600          16.100
 -22887971.445 6 -17834779.093 6  21275027.073    21275026.698    21275027.411
        41.600          39.200
  -5872170.186 1  -4575719.246 1  25259172.469    25259171.780    25259171.290
         9.000           9.000
 -17500387.685 5 -13636658.340 4  22322378.790    22322378.785    22322378.327
        34.800          29.900
  -8756565.912 3  -6823295.232 4  23866218.306    23866221.546    23866219.179
        19.900          24.900
   -474011.047 2   -369355.253 3  25104851.338    25104853.395    25104852.815
        13.900          19.300
 -18590974.414 5 -14486467.987 4  21877404.893    21877405.544    21877405.286
        35.500          29.700
  -3140269.015 3  -2446961.317 2  25034364.387    25034360.441    25034362.731
        18.600          17.800
   -908535.892 1   -707950.152 1  25350865.564    25350867.737    25350866.118
         9.000          11.000
 -11242416.695 5  -8760317.952 4  23567697.043    23567697.398    23567697.346
        30.100          27.900
 13 10  6  1 34 30.0000000  0 12G28G26G18G15G21G 8G24G 7G 9G19G17G 5
 -20244731.939 6 -15775110.890 6  21386188.126    21386187.522    21386188.099
        41.100          39.100
 -29484556.620 7 -22974973.360 7  19837956.821    19837957.916    19837957.457
        46.100          45.500
  -9215734.282 4  -7181089.826 2  24188887.959    24188888.370    24188888.891
        24.200          17.800
 -22947777.168 6 -17881380.955 6  21263645.794    21263646.113    21263646.761
        41.700          39.300
  -5828814.172 9  -4541935.330 1  25267423.016    25267421.800    25267422.428
        -3.000          11.000
 -17421176.374 5 -13574935.245 5  22337452.128    22337452.276    22337451.806
        35.600          30.200
  -8855141.016 2  -6900106.993 4  23847460.008    23847463.122    23847460.809
        17.800          25.600
   -371805.034 2   -289714.225 1  25124301.396    25124301.484    25124302.131
        15.100          11.000
 -18498103.184 5 -14414100.806 5  21895077.785    21895078.285    21895077.941
        35.100          30.200
  -3092110.303 3  -2409435.046 2  25043527.417    25043525.046    25043526.480
        21.100          17.800
  -1003771.501 1   -782159.738 1  25332743.129    25332744.360    25332744.367
        11.000          11.000
 -11136010.453 4  -8677404.011 4  23587944.931    23587945.998    23587945.843
        29.900          26.200
 13 10  6  1 35  0.0000000  0 12G28G26G18G15G21G 8G24G 7G 9G19G17G 5
 -20227797.637 6 -15761915.323 6  21389410.471    21389410.079    21389410.588
        40.900          39.100
 -29452416.748 7 -22949929.315 7  19844073.069    19844073.788    19844073.536
        46.200          45.300
  -9292680.104 3  -7241047.615 3  24174246.742    24174245.469    24174246.619
        22.600          19.300
 -23007205.219 6 -17927688.534 6  21252336.994    21252337.313    21252337.866
        41.800          39.600
  -5785082.996 1  -4507859.065 9  25275745.229    25275743.565    25275745.982
         9.000          -3.000
 -17341741.887 5 -13513038.252 4  22352567.713    22352568.311    22352567.666
        34.800          29.700
  -8953580.976 3  -6976813.409 4  23828728.060    23828731.393    23828727.962
        18.600          25.900
   -269579.252 2   -210057.809 3  25143754.767    25143754.887    25143754.951
        16.100          18.600
 -18404982.733 5 -14341539.434 5  21912797.618    21912798.623    21912798.381
        35.700          30.100
  -3043422.335 2  -2371496.371 2  25052791.804    25052790.599    25052790.505
        17.000          16.100
  -1098984.089 1   -856351.384 1  25314624.886    25314624.903    25314625.332
         6.500           6.500
 -11029424.194 5  -8594349.808 4  23608227.958    23608228.868    23608228.627
        30.400          26.800
 13 10  6  1 35 30.0000000  0 12G28G26G18G15G21G 8G24G 7G 9G19G17G 5
 -20210345.184 6 -15748316.009 6  21392731.302    21392731.091    21392731.650
        41.000          38.900
 -29419736.142 7 -22924463.917 7  19850292.097    19850292.755    19850292.422
        46.200          45.300
  -9369281.150 3  -7300736.734 2  24159670.600    24159669.428    24159670.271
        22.600          16.100
 -23066254.032 6 -17973700.593 6  21241100.401    21241100.657    21241101.250
        41.600          39.700
  -5740978.769 1  -4473492.150 1  25284138.450    25284136.768    25284137.676
        11.000           6.500
 -17262085.877 5 -13450968.643 4  22367725.607    22367726.232    22367725.564
        34.900          29.900
  -9051884.568 3  -7053413.587 4  23810021.964    23810023.361    23810021.873
        22.100          24.200
   -167334.803 1   -130386.875 2  25163211.172    25163211.458    25163211.351
         6.500          13.900
 -18311614.822 5 -14268785.228 4  21930565.211    21930566.146    21930565.741
        35.600          29.900
  -2994206.824 3  -2333146.646 2  25062157.699    25062155.003    25062157.742
        21.100          16.100
  -1194171.060 2   -930523.052    25296511.700    25296509.989    25296512.140
        12.600           3.000
 -10922660.995 5  -8511157.717 4  23628544.204    23628545.126    23628545.095
        31.000          27.100
 13 10  6  1 36  0.0000000  0 12G28G26G18G15G21G 8G24G 7G 9G19G17G 5
 -20192375.344 6 -15734313.534 6  21396151.277    21396150.571    21396151.291
        41.100          39.000
 -29386515.286 7 -22898577.545 7  19856613.801    19856614.586    19856614.112
        46.000          45.500
  -9445535.156 3  -7360155.445 2  24145158.678    24145158.128    24145159.227
        22.600          17.800
 -23124921.927 6 -18019415.836 6  21229936.320    21229936.558    21229937.098
        41.800          39.700
  -5696503.556 1  -4438836.164 1  25292601.877    25292601.507    25292601.456
        11.000           9.000
 -17182209.631 5 -13388727.419 4  22382925.231    22382926.320    22382925.262
        34.700          29.700
  -9150051.202 3  -7129907.047 4  23791340.435    23791343.481    23791340.755
        21.600          25.300
    -65072.614 2    -50702.056 2  25182671.199    25182671.888    25182671.696
        15.100          17.000
 -18218001.558 5 -14195839.841 4  21948379.399    21948380.334    21948379.753
        35.400          29.700
  -2944465.372 3  -2294387.089 2  25071623.670    25071620.392    25071622.001
        21.600          15.100
  -1289329.212 1  -1004672.217 2  25278403.782    25278402.834    25278403.791
         9.000          12.600
 -10815723.767 4  -8427830.023 4  23648893.563    23648894.486    23648894.486
        29.200          27.400
 13 10  6  1 36 30.0000000  0 12G28G26G18G15G21G 8G24G 7G 9G19G17G 5
 -20173889.195 6 -15719908.742 6  21399669.073    21399668.502    21399669.020
        41.000          39.000
 -29352754.670 7 -22872270.580 7  19863038.211    19863038.909    19863038.650
        46.100          45.300
  -9521439.885 3  -7419301.965 3  24130714.418    24130714.751    24130715.116
        23.800          18.600
 -23183207.102 6 -18064832.850 6  21218845.161    21218845.194    21218845.872
        41.900          39.800
  -5651659.111 1  -4403892.450 1  25301134.245    25301133.154    25301134.152
        11.000          11.000
 -17102114.635 5 -13326315.745 5  22398167.239    22398167.830    22398166.872
        34.100          30.100
  -9248079.628 3  -7206292.818 4  23772686.469    23772689.324    23772686.789
        22.600          24.900
     37206.035 2     28995.568 3  25202133.441    25202135.333    25202134.191
        13.900          18.600
 -18124144.556 5 -14122704.525 5  21966239.627    21966240.784    21966239.925
        35.200          30.100
  -2894199.847 2  -2255219.127 2  25081186.546    25081186.071    25081186.870
        17.800          16.100
  -1384455.636    -1078796.714 2  25260301.566    25260301.768    25260301.062
         3.000          12.600
 -10708614.891 4  -8344368.580 4  23669275.262    23669276.854    23669276.488
        28.600          27.600
 13 10  6  1 37  0.0000000  0 12G28G26G18G15G21G 8G24G 7G 9G19G17G 5
 -20154887.741 6 -15705102.412 6  21403284.928    21403284.496    21403284.844
        41.100          39.300
 -29318455.020 7 -22845543.592 7  19869565.218    19869565.994    19869565.709
        46.200          45.300
  -9596993.022 3  -7478174.550 3  24116336.455    24116336.777    24116337.447
        23.000          19.900
 -23241107.789 6 -18109950.269 6  21207826.901    21207827.127    21207827.713
        41.900          40.100
  -5606447.457 1  -4368662.635 1  25309738.008    25309737.509    25309738.992
         9.000          11.000
 -17021802.171 5 -13263734.617 4  22413450.001    22413450.759    22413450.014
        34.500          29.500
  -9345968.475 3  -7282569.802 4  23754058.009    23754061.663    23754058.972
        21.100          25.600
    139500.494 2    108705.503 2  25221598.640    25221600.563    25221600.191
        13.900          13.900
 -18030045.664 5 -14049380.728 4  21984146.180    21984147.044    21984146.523
        34.800          29.700
  -2843411.965 3  -2215644.171 2  25090852.059    25090850.673    25090851.943
        18.600          17.000
  -1479547.537 2  -1152894.265 1  25242205.906    25242207.815    25242205.477
        12.600          11.000
 -10601337.122 4  -8260775.544 4  23689689.799    23689691.277    23689690.531
        28.400          27.100
 13 10  6  1 37 30.0000000  0 12G28G26G18G15G21G 8G24G 7G 9G19G17G 5
 -20135371.686 6 -15689895.092 6  21406998.619    21406998.269    21406998.674
        41.200          38.900
 -29283616.756 7 -22818396.901 7  19876194.736    19876195.530    19876195.165
        46.100          45.300
  -9672192.376 3  -7536771.456 2  24102027.540    24102026.525    24102027.628
        23.000          15.100
 -23298622.523 6 -18154766.943 6  21196882.028    21196882.455    21196882.950
        41.800          40.500
  -5560871.320 2  -4333148.794 1  25318411.571    25318410.356    25318409.647
        13.900          11.000
 -16941273.534 5 -13200985.038 4  22428774.293    22428774.916    22428774.185
        34.700          29.700
  -9443716.769 3  -7358737.298 4  23735457.656    23735460.907    23735458.570
        22.100          25.600
    241809.553 2    188426.826 2  25241066.594    25241068.637    25241068.317
        15.100          12.600
 -17935706.623 5 -13975869.804 5  22002098.485    22002099.343    22002098.861
        35.200          30.100
  -2792103.668 2  -2175663.670 2  25100616.012    25100614.953    25100615.936
        17.800          17.000
  -1574602.515 2  -1226963.099 2  25224116.384    25224118.238    25224117.497
        12.600          16.100
 -10493893.301 4  -8177053.101 4  23710136.053    23710137.240    23710136.913
        28.400          27.100
 13 10  6  1 38  0.0000000  0 12G28G26G18G15G21G 8G24G 7G 9G19G17G 5
 -20115342.072 6 -15674287.597 6  21410810.280    21410809.706    21410810.244
        41.100          39.000
 -29248240.513 7 -22790831.009 7  19882926.725    19882927.444    19882926.961
        46.100          45.300
  -9747036.149 4  -7595091.292 2  24087785.338    24087784.889    24087785.444
        24.600          17.800
 -23355749.075 6 -18199281.134 6  21186011.642    21186011.537    21186012.181
        41.900          40.200
  -5514932.310 1  -4297352.167 2  25327153.486    25327152.635    25327154.020
        11.000          13.900
 -16860530.231 5 -13138068.195 4  22444139.132    22444139.672    22444139.091
        34.300          29.500
  -9541323.645 3  -7434794.578 4  23716884.032    23716887.227    23716884.747
        21.600          26.500
    344132.607 2    268159.066 2  25260539.215    25260540.121    25260539.645
        16.100          17.800
 -17841129.422 5 -13902173.297 4  22020096.244    22020096.534    22020096.230
        34.900          29.000
  -2740276.628 2  -2135278.969 2  25110477.671    25110476.666    25110478.130
        17.800          16.100
  -1669617.561 1  -1301000.740    25206035.306    25206037.818    25206035.395
         6.500           3.000
 -10386286.554 4  -8093203.697 4  23730613.183    23730614.100    23730613.834
        29.500          27.900
 13 10  6  1 38 30.0000000  0 12G28G26G18G15G21G 8G24G 7G 9G19G17G 5
 -20094800.037 6 -15658280.815 6  21414719.247    21414718.665    21414719.224
        40.900          38.900
 -29212326.950 7 -22762846.423 7  19889760.535    19889761.535    19889761.046
        46.000          45.100
  -9821521.794 4  -7653132.041 3  24073611.780    24073610.463    24073611.283
        24.900          18.600
 -23412486.013 7 -18243491.735 6  21175214.865    21175215.043    21175215.508
        42.200          40.300
  -5468632.362 1  -4261274.286 1  25335962.966    25335962.185    25335963.120
         9.000           6.500
 -16779573.384 5 -13074984.953 4  22459544.153    22459545.277    22459544.275
        34.100          29.500
  -9638788.605 3  -7510741.283 4  23698336.688    23698339.612    23698337.381
        20.500          24.900
    446468.311      347901.147 2  25280013.089    25280014.871    25280014.628
         3.000          15.100
 -17746315.660 5 -13828292.462 4  22038138.001    22038139.009    22038138.355
        34.800          29.500
  -2687932.743 3  -2094491.555 2  25120438.606    25120437.342    25120438.316
        19.300          13.900
  -1764589.921 2  -1375005.188 2  25187963.963    25187965.648    25187965.705
        13.900          15.100
 -10278519.284 5  -8009229.220 4  23751120.552    23751121.390    23751121.116
        30.200          26.500
 13 10  6  1 39  0.0000000  0 12G28G26G18G15G21G 8G24G 7G 9G19G17G 5
 -20073746.671 6 -15641875.592 6  21418725.462    21418724.945    21418725.385
        40.700          38.600
 -29175876.698 7 -22734443.637 7  19896696.983    19896697.765    19896697.460
        46.200          45.200
  -9895646.990 4  -7710891.957 3  24059506.528    24059505.269    24059506.025
        24.900          19.300
 -23468831.623 7 -18287397.409 6  21164492.533    21164492.781    21164493.328
        42.100          40.300
  -5421973.540 1  -4224916.729 1  25344842.173    25344842.190    25344842.303
        11.000           9.000
 -16698404.478 5 -13011736.462 4  22474989.984    22474991.271    22474990.249
        34.000          29.000
  -9736110.272 3  -7586576.342 4  23679817.415    23679820.201    23679818.063
        23.400          25.600
    548815.840 2    427652.460 1  25299489.245    25299490.904    25299490.187
        13.900          11.000
 -17651267.318 5 -13754228.840 4  22056225.310    22056226.162    22056225.546
        34.400          29.000
  -2635074.000 2  -2053302.904 2  25130497.348    25130496.162    25130497.376
        13.900          16.100
  -1859516.555 2  -1448973.971 1  25169900.125    25169901.085    25169900.466
        16.100           9.000
 -10170594.000 4  -7925131.607 4  23771657.727    23771658.799    23771658.637
        29.500          27.400
 13 10  6  1 39 30.0000000  0 12G28G26G18G15G21G 8G24G 7G 9G19G17G 5
 -20052183.087 6 -15625072.792 6  21422828.929    21422828.372    21422828.820
        40.700          39.000
 -29138890.309 7 -22705623.082 7  19903735.400    19903735.996    19903735.681
        46.100          45.100
  -9969409.637 3  -7768369.315 3  24045470.014    24045467.700    24045469.779
        23.800          19.300
 -23524784.302 7 -18330996.892 6  21153845.112    21153845.241    21153845.868
        42.200          40.300
  -5374958.223 1  -4188281.427 2  25353788.736    25353788.105    25353789.485
         6.500          13.900
 -16617024.886 5 -12948323.814 4  22490476.610    22490477.367    22490476.527
        34.100          29.200
  -9833287.224 3  -7662298.617 4  23661324.774    23661328.058    23661325.417
        22.100          26.200
    651174.609 2    507412.553 2  25318967.732    25318969.219    25318968.192
        15.100          13.900
 -17555986.081 5 -13679983.739 4  22074356.633    22074357.832    22074357.215
        34.500          29.700
  -2581701.926 2  -2011714.304 3  25140654.836    25140652.732    25140653.590
        17.800          19.300
  -1954394.747 2  -1522905.018 1  25151845.307    25151845.822    25151846.134
        17.800          11.000
 -10062513.470 4  -7840913.028 4  23792225.090    23792225.800    23792225.868
        28.800          26.800
 13 10  6  1 40  0.0000000  0 12G28G26G18G15G21G 8G24G 7G 9G19G17G 5
 -20030110.020 6 -15607872.999 6  21427029.263    21427028.721    21427029.269
        40.800          38.800
 -29101368.552 7 -22676385.357 7  19910875.507    19910876.237    19910875.840
        46.000          45.200
 -10042807.757 3  -7825562.687 3  24031502.221    24031500.685    24031502.022
        23.800          19.300
 -23580342.477 7 -18374288.976 6  21143272.724    21143272.885    21143273.510
        42.300          40.500
  -5327588.239 9  -4151369.725 1  25362803.359    25362802.528    25362805.251
        -3.000           6.500
 -16535436.014 5 -12884748.075 4  22506002.959    22506003.039    22506002.643
        34.300          28.400
  -9930318.925 4  -7737907.704 4  23642860.307    23642863.628    23642860.803
        24.200          26.500
    753543.272      587180.292 2  25338447.759    25338450.239    25338448.083
         3.000          12.600
 -17460473.852 5 -13605558.639 4  22092531.989    22092533.145    22092532.467
        34.400          29.200
  -2527818.554 2  -1969727.245 2  25150908.273    25150906.060    25150907.671
        17.000          17.800
  -2049221.585 2  -1596796.065 2  25133800.838    25133801.364    25133801.469
        17.800          13.900
  -9954280.811 4  -7756575.893 4  23812821.072    23812821.693    23812821.901
        28.100          25.600
 13 10  6  1 40 30.0000000  0 12G28G26G18G15G21G 8G24G 7G 9G19G17G 5
 -20007528.848 6 -15590277.276 6  21431326.142    21431325.842    21431326.255
        41.000          38.900
 -29063311.994 7 -22646730.905 7  19918117.574    19918118.084    19918117.775
        46.100          44.900
 -10115839.087 4  -7882470.199 2  24017604.459    24017603.826    24017604.898
        25.300          17.800
 -23635504.077 7 -18417272.041 6  21132775.827    21132775.955    21132776.616
        42.300          40.600
  -5279865.900 2  -4114183.515 2  25371884.606    25371883.975    25371883.625
        13.900          15.100
 -16453639.284 5 -12821010.372 4  22521567.689    22521568.473    22521567.761
        33.500          29.000
 -10027203.986 3  -7813402.539 4  23624423.822    23624426.932    23624424.201
        23.000          25.900
    855921.020 2    666955.088 2  25357929.927    25357931.112    25357930.228
        16.100          13.900
 -17364732.424 5 -13530954.948 4  22110750.969    22110752.183    22110751.321
        34.100          28.800
  -2473425.977 3  -1927343.433 2  25161258.217    25161256.301    25161258.059
        19.300          16.100
  -2143994.149 2  -1670644.822 2  25115765.241    25115767.427    25115766.522
        15.100          17.000
  -9845898.313 4  -7672122.024 4  23833444.870    23833446.575    23833446.063
        26.200          26.200
 13 10  6  1 41  0.0000000  0 12G28G26G18G15G21G 8G24G 7G 9G19G17G 5
 -19984440.279 6 -15572286.183 6  21435719.729    21435719.567    21435719.789
        41.000          38.700
 -29024721.364 7 -22616660.292 7  19925460.929    19925461.845    19925461.337
        46.100          45.100
 -10188501.432 4  -7939090.236 2  24003776.996    24003776.096    24003777.030
        24.200          15.100
 -23690267.419 7 -18459944.777 6  21122354.736    21122354.956    21122355.430
        42.100          40.600
  -5231792.881 2  -4076724.057 1  25381032.657    25381032.403    25381033.649
        13.900           9.000
 -16371635.948 5 -12757111.690 4  22537172.197    22537173.381    22537172.332
        33.400          28.600
 -10123942.055 3  -7888782.840 4  23606015.283    23606018.221    23606016.270
        23.400          26.800
    958307.133 2    746736.538 2  25377412.920    25377415.156    25377415.009
        15.100          13.900
 -17268763.530 5 -13456174.009 4  22129013.644    22129014.381    22129013.689
        34.000          28.600
  -2418526.004 2  -1884564.246 2  25171705.831    25171703.882    25171705.430
        17.000          15.100
  -2238709.959 2  -1744449.341 2  25097742.468    25097743.168    25097742.529
        16.100          15.100
  -9737368.733 4  -7587553.538 4  23854097.825    23854098.860    23854098.906
        27.900          26.500
 13 10  6  1 41 30.0000000  0 12G28G26G18G15G21G 8G24G 7G 9G19G17G 5
 -19960845.748 6 -15553900.826 6  21440209.583    21440209.330    21440209.775
        41.100          38.700
 -28985597.315 7 -22586174.033 7  19932905.871    19932906.865    19932906.267
        46.000          45.000
 -10260792.599 4  -7995421.012 2  23990020.758    23990020.271    23990020.672
        24.200          17.800
 -23744630.940 7 -18502305.957 6  21112009.603    21112009.846    21112010.426
        42.300          40.700
  -5183371.712 2  -4038993.295 1  25390247.205    25390246.175    25390246.241
        12.600          11.000
 -16289427.209 5 -12693052.944 4  22552816.910    22552817.058    22552816.330
        33.200          28.400
 -10220531.515 3  -7964047.351 4  23587634.566    23587637.940    23587635.190
        23.400          26.500
   1060700.762 1    826523.724    25396898.298    25396899.427    25396897.429
         6.500           3.000
 -17172568.939 5 -13381217.200 4  22147319.081    22147319.632    22147319.099
        34.500          28.600
  -2363120.585 3  -1841391.209 2  25182249.278    25182247.282    25182248.082
        18.600          15.100
  -2333365.737 2  -1818207.084 2  25079729.281    25079730.632    25079730.433
        16.100          15.100
  -9628695.210 4  -7502872.878 4  23874777.227    23874778.483    23874778.238
        26.800          25.300
 13 10  6  1 42  0.0000000  0 12G28G26G18G15G21G 8G24G 7G 9G19G17G 5
 -19936746.246 6 -15535121.992 6  21444795.757    21444795.202    21444795.847
        40.700          38.900
 -28945940.572 7 -22555272.682 7  19940452.307    19940453.253    19940452.776
        46.000          44.900
 -10332710.180 4  -8051460.693 3  23976335.205    23976334.873    23976335.662
        24.200          20.500
 -23798593.077 7 -18544354.379 6  21101740.826    21101741.051    21101741.721
        42.100          40.700
  -5134604.172 1  -4000992.637 2  25399526.902    25399526.476    25399526.000
         6.500          12.600
 -16207014.236 5 -12628835.052 4  22568498.679    22568499.996    22568498.909
        33.100          29.000
 -10316971.548 4  -8039195.399 4  23569283.008    23569286.382    23569283.561
        24.900          26.800
   1163100.776 1    906316.065 1  25416385.182    25416385.184    25416386.032
        11.000          11.000
 -17076150.552 5 -13306086.010 4  22165666.516    22165667.766    22165666.814
        34.000          29.000
  -2307211.670 2  -1797825.802 2  25192888.383    25192886.148    25192887.460
        17.800          16.100
  -2427958.577 3  -1891915.772 2  25061729.052    25061730.084    25061729.968
        18.600          17.000
  -9519880.137 4  -7418081.935 4  23895485.153    23895485.504    23895485.376
        26.500          25.600
 13 10  6  1 42 30.0000000  0 12G28G26G18G15G21G 8G24G 7G 9G19G17G 5
 -19912142.791 6 -15515950.467 6  21449477.719    21449477.126    21449477.544
        41.000          38.400
 -28905751.844 7 -22523956.799 7  19948100.070    19948100.824    19948100.477
        45.900          44.900
 -10404252.202 4  -8107207.741 2  23962720.589    23962720.876    23962721.271
        24.200          17.800
 -23852151.943 7 -18586088.559 6  21091548.950    21091549.221    21091549.795
        42.100          40.700
  -5085492.709 2  -3962723.965 2  25408871.855    25408872.349    25408871.909
        12.600          12.600
 -16124398.673 5 -12564459.317 4  22584220.146    22584221.534    22584220.296
        33.900          29.700
 -10413260.890 3  -8114226.053 4  23550959.369    23550962.473    23550959.999
        23.800          26.200
   1265506.673 2    986112.864 1  25435870.879    25435872.823    25435872.702
        12.600          11.000
 -16979510.115 5 -13230781.801 4  22184056.612    22184057.664    22184056.636
        33.800          28.800
  -2250801.115 2  -1753869.531 2  25203622.751    25203620.835    25203622.226
        16.100          15.100
  -2522485.703 2  -1965573.265 2  25043742.010    25043741.984    25043742.276
        16.100          17.800
  -9410926.414 4  -7333182.943 4  23916219.001    23916218.987    23916219.117
        28.400          26.200
 13 10  6  1 43  0.0000000  0 12G28G26G18G15G21G 8G24G 7G 9G19G17G 5
 -19887036.650 6 -15496387.236 6  21454255.345    21454254.802    21454255.047
        40.900          38.700
 -28865031.904 7 -22492226.986 7  19955848.774    19955849.607    19955849.255
        46.100          44.900
 -10475417.030 4  -8162660.876 3  23949179.509    23949178.698    23949179.439
        25.600          19.300
 -23905305.906 7 -18627507.231 6  21081434.200    21081434.475    21081435.019
        42.400          41.100
  -5036039.656 1  -3924189.123 1  25418282.976    25418282.488    25418282.728
         6.500           6.500
 -16041581.791 5 -12499926.701 4  22599979.687    22599980.773    22599979.760
        33.800          28.600
 -10509398.806 4  -8189138.698 4  23532665.402    23532668.015    23532665.817
        24.600          25.600
   1367917.254 1   1065913.375 2  25455359.224    25455360.241    25455360.519
         9.000          13.900
 -16882649.293 5 -13155305.852 4  22202488.869    22202489.446    22202488.834
        33.900          28.100
  -2193890.934 3  -1709523.956 2  25214452.982    25214450.677    25214451.689
        18.600          12.600
  -2616944.690 2  -2039177.690 2  25025766.349    25025767.207    25025767.049
        17.000          16.100
  -9301836.742 4  -7248178.015 4  23936977.810    23936978.462    23936977.779
        27.900          26.200
 13 10  6  1 43 30.0000000  0 12G28G26G18G15G21G 8G24G 7G 9G19G17G 5
 -19861428.974 6 -15476433.200 6  21459128.027    21459127.744    21459128.108
        40.900          38.300
 -28823781.554 7 -22460083.862 7  19963698.600    19963699.268    19963698.962
        46.000          44.800
 -10546201.690 4  -8217817.743 2  23935709.186    23935708.516    23935709.557
        25.300          17.000
 -23958053.347 7 -18668609.130 6  21071396.579    21071396.919    21071397.502
        42.400          41.200
  -4986247.026 2  -3885389.713 1  25427758.754    25427757.444    25427758.818
        13.900           6.500
 -15958564.771 5 -12435238.126 4  22615777.521    22615778.361    22615777.416
        33.000          27.100
 -10605384.121 4  -8263932.428 4  23514399.665    23514402.785    23514400.398
        24.200          26.800
   1470332.330 1   1145716.304 2  25474848.208    25474851.035    25474848.988
         9.000          15.100
 -16785569.852 5 -13079659.553 4  22220962.162    22220962.960    22220962.313
        33.500          27.900
  -2136483.143 3  -1664790.647 1  25225376.710    25225374.093    25225376.092
        20.500           9.000
  -2711332.330 2  -2112726.472 3  25007805.221    25007806.182    25007805.217
        15.100          19.900
  -9192614.362 4  -7163069.683 4  23957761.487    23957762.572    23957762.180
        27.900          27.400
 13 10  6  1 44  0.0000000  0 12G28G26G18G15G21G 8G24G 7G 9G19G17G 5
 -19835321.143 6 -15456089.432 6  21464096.178    21464095.720    21464096.301
        40.900          38.400
 -28782001.515 7 -22427527.995 7  19971648.843    19971649.958    19971649.468
        46.000          44.800
 -10616604.385 4  -8272677.022 3  23922312.338    23922311.486    23922312.569
        25.300          19.300
 -24010392.549 7 -18709392.921 6  21061437.183    21061437.091    21061437.737
        42.500          41.300
  -4936116.861 1  -3846327.259 2  25437298.716    25437298.801    25437297.584
         9.000          12.600
 -15875349.111 5 -12370394.772 4  22631613.322    22631613.857    22631613.060
        33.200          28.400
 -10701215.926 3  -8338606.546 4  23496163.665    23496166.586    23496164.512
        22.600          25.900
   1572750.584 1   1225522.775 1  25494337.775    25494339.096    25494338.394
         9.000           6.500
 -16688273.631 5 -13003844.330 4  22239477.255    22239477.974    22239477.401
        33.800          28.600
  -2078579.869 3  -1619671.201 1  25236396.022    25236392.824    25236394.873
        18.600          11.000
  -2805645.738 2  -2186217.398 3  24989856.628    24989859.204    24989858.093
        13.900          18.600
  -9083260.848 4  -7077859.168 4  23978571.438    23978572.079    23978571.623
        27.400          26.800
 13 10  6  1 44 30.0000000  0 12G28G26G18G15G21G 8G24G 7G 9G19G17G 5
 -19808714.271 6 -15435356.798 6  21469159.249    21469159.036    21469159.425
        40.600          38.400
 -28739692.560 7 -22394559.991 7  19979700.212    19979701.064    19979700.633
        46.100          44.800
 -10686623.147 4  -8327237.078 2  23908987.638    23908987.783    23908987.905
        25.300          17.800
 -24062321.789 7 -18749857.264 6  21051555.160    21051555.148    21051555.817
        42.500          41.300
  -4885651.462 1  -3807003.603 1  25446899.847    25446901.831    25446901.421
         9.000           6.500
 -15791936.293 5 -12305397.776 4  22647486.690    22647486.633    22647486.342
        33.100          27.600
 -10796893.166 4  -8413160.219 4  23477957.026    23477959.773    23477957.604
        24.600          27.600
   1675171.295 2   1305331.151 3  25513827.884    25513828.733    25513828.573
        17.000          18.600
 -16590762.275 5 -12927861.482 4  22258033.037    22258033.855    22258033.396
        33.900          28.400
  -2020182.964 2  -1574167.103 2  25247507.795    25247506.452    25247507.256
        17.800          17.000
  -2899882.165 3  -2259648.349 3  24971925.244    24971926.438    24971925.773
        18.600          20.500
  -8973779.302 4  -6992548.891 4  23999404.669    23999405.246    23999405.027
        27.100          25.900
 13 10  6  1 45  0.0000000  0 12G28G26G18G15G21G 8G24G 7G 9G19G17G 5
 -19781609.289 6 -15414236.035 6  21474317.171    21474316.952    21474317.298
        40.900          38.600
 -28696855.502 7 -22361180.474 7  19987851.877    19987852.575    19987852.219
        46.000          44.700
 -10756255.617 4  -8381496.157 2  23895736.497    23895736.412    23895737.437
        25.300          17.000
 -24113839.429 7 -18790000.876 6  21041751.442    21041751.777    21041752.413
        42.600          41.400
  -4834853.120 2  -3767420.540 1  25456567.049    25456567.841    25456566.373
        12.600           6.500
 -15708327.323 5 -12240247.958 4  22663395.698    22663396.957    22663395.810
        32.300          27.600
 -10892414.920 3  -8487592.729 4  23459779.885    23459782.421    23459780.391
        23.000          27.100
   1777593.740 2   1385140.981 1  25533319.205    25533319.333    25533319.419
        17.000           6.500
 -16493037.535 5 -12851712.360 4  22276629.211    22276630.260    22276629.452
        33.100          28.400
  -1961294.651 3  -1528280.140 2  25258714.561    25258712.392    25258714.136
        18.600          13.900
  -2994038.452 2  -2333016.872 3  24954007.303    24954008.836    24954007.341
        16.100          19.900
  -8864172.677 4  -6907141.148 4  24020261.629    24020262.611    24020262.431
        25.300          25.900
 13 10  6  1 45 30.0000000  0 12G28G26G18G15G21G 8G24G 7G 9G19G17G 5
 -19754007.799 6 -15392728.373 6  21479569.606    21479569.106    21479569.669
        41.100          38.200
 -28653491.116 7 -22327390.055 7  19996103.617    19996104.534    19996104.174
        46.000          44.400
 -10825499.919 4  -8435452.755 3  23882560.219    23882560.643    23882560.542
        25.300          19.900
 -24164943.892 7 -18829822.536 6  21032026.607    21032026.893    21032027.594
        42.500          41.400
  -4783723.833 1  -3727579.515 1  25466297.003    25466298.672    25466297.943
         9.000           6.500
 -15624523.571 5 -12174946.356 4  22679343.167    22679344.402    22679343.179
        32.600          27.600
 -10987780.006 4  -8561903.165 4  23441632.411    23441634.888    23441632.667
        25.900          26.200
   1880017.229 2   1464951.492 1  25552809.502    25552809.566    25552809.300
        15.100          11.000
 -16395101.247 5 -12775398.391 4  22295266.077    22295266.483    22295266.216
        33.400          27.400
  -1901916.969 2  -1482011.833 2  25270013.991    25270011.776    25270013.136
        16.100          17.000
  -3088111.870 3  -2406320.804 2  24936105.810    24936106.682    24936107.417
        21.600          15.100
  -8754443.808 4  -6821638.155 4  24041142.469    24041143.751    24041143.181
        24.600          25.300
 13 10  6  1 46  0.0000000  0 12G28G26G18G15G21G 8G24G 7G 9G19G17G 5
 -19725910.812 6 -15370834.611 6  21484916.216    21484915.621    21484916.310
        40.800          38.100
 -28609600.237 7 -22293189.383 7  20004455.758    20004456.673    20004456.408
        46.100          44.500
 -10894353.806 4  -8489105.149 2  23869458.279    23869457.086    23869458.466
        26.200          16.100
 -24215633.465 7 -18869320.906 6  21022381.086    21022381.018    21022381.688
        42.500          41.600
  -4732265.878 2  -3687482.458 2  25476090.782    25476088.813    25476091.451
        12.600          13.900
 -15540526.387 5 -12109494.016 4  22695327.239    22695328.439    22695327.375
        32.800          27.900
 -11082987.462 4  -8636090.773 4  23423514.814    23423517.980    23423515.673
        25.600          28.100
   1982441.535 1   1544764.694 1  25572298.473    25572301.627    25572300.197
         9.000           9.000
 -16296955.184 5 -12698920.967 4  22313942.490    22313943.356    22313942.784
        32.400          27.400
  -1842052.086 2  -1435363.917 2  25281405.792    25281403.579    25281404.416
        17.000          15.100
  -3182099.469 3  -2479557.902 3  24918221.649    24918221.686    24918221.835
        20.500          19.900
  -8644595.279 4  -6736041.924 4  24062045.805    24062047.398    24062046.538
        25.300          25.300
 13 10  6  1 46 30.0000000  0 12G28G26G18G15G21G 8G24G 7G 9G19G17G 5
 -19697319.570 6 -15348555.722 6  21490357.334    21490356.648    21490357.194
        40.800          38.100
 -28565183.754 7 -22258579.140 7  20012908.196    20012908.940    20012908.577
        46.000          44.600
 -10962815.359 4  -8542451.837 3  23856429.979    23856429.897    23856430.401
        25.600          21.100
 -24265906.737 7 -18908494.880 6  21012814.295    21012814.405    21012814.982
        42.600          41.700
  -4680481.258 2  -3647130.844 1  25485944.477    25485944.009    25485943.322
        13.900           6.500
 -15456336.993 5 -12043891.918 4  22711348.147    22711349.243    22711348.171
        32.300          27.600
 -11178036.187 4  -8710154.687 4  23405426.975    23405430.630    23405428.043
        24.600          27.100
   2084866.743 1   1624575.613 1  25591788.308    25591793.323    25591789.401
         6.500           6.500
 -16198600.879 5 -12622281.278 4  22332659.819    22332659.731    22332659.513
        33.800          27.900
  -1781701.735 3  -1388337.684 2  25292889.774    25292886.420    25292888.963
        19.900          13.900
  -3275998.570 3  -2552726.022 2  24900351.943    24900353.386    24900352.575
        19.900          17.800
  -8534629.976 4  -6650354.687 4  24082972.116    24082972.987    24082972.342
        25.600          25.300
 13 10  6  1 47  0.0000000  0 11G28G26G18G15G21G 8G24G 9G19G17G 5
 -19668235.426 6 -15325892.748 6  21495891.622    21495891.220    21495891.689
        40.900          38.300
 -28520242.444 7 -22223559.946 7  20021460.306    20021461.092    20021460.593
        46.000          44.600
 -11030882.600 4  -8595491.245 2  23843478.255    23843477.408    23843477.851
        24.900          17.800
 -24315761.666 7 -18947342.876 6  21003327.524    21003327.231    21003327.975
        42.700          41.600
  -4628372.409 1  -3606526.601 1  25495859.907    25495859.037    25495860.493
        11.000           9.000
 -15371956.700 5 -11978141.064 4  22727405.801    22727406.371    22727405.433
        32.600          27.600
 -11272925.687 4  -8784094.536 4  23387370.127    23387373.424    23387371.237
        25.300          28.100
 -16100040.297 5 -12545480.835 4  22351415.139    22351415.364    22351415.012
        33.500          28.100
  -1720868.393 3  -1340935.067 2  25304465.008    25304463.542    25304465.281
        20.500          13.900
  -3369806.010 3  -2625822.718 3  24882501.522    24882502.844    24882501.755
        18.600          20.500
  -8424550.343 4  -6564578.360 3  24103919.052    24103920.156    24103919.896
        25.300          23.400
 13 10  6  1 47 30.0000000  0 11G28G26G18G15G21G 8G24G 9G19G17G 5
 -19638659.741 6 -15302846.756 6  21501519.533    21501519.267    21501519.703
        40.600          38.100
 -28474777.214 7 -22188132.506 7  20030111.787    20030112.727    20030112.301
        46.100          44.400
 -11098553.155 4  -8648221.549 3  23830600.025    23830599.096    23830600.118
        25.300          19.900
 -24365196.845 7 -18985863.798 6  20993919.601    20993919.988    20993920.722
        42.700          41.900
  -4575942.092    -3565671.818    25505837.323    25505836.805    25505836.885
         3.000           3.000
 -15287386.824 5 -11912242.471 4  22743498.874    22743499.269    22743498.747
        33.200          27.600
 -11367654.442 4  -8857909.141 4  23369344.375    23369347.210    23369345.064
        25.300          27.600
 -16001275.082 5 -12468520.951 4  22370208.853    22370209.737    22370208.802
        32.400          27.900
  -1659554.067 3  -1293157.687 2  25316133.957    25316131.203    25316133.613
        20.500          12.600
  -3463519.080 3  -2698845.852 3  24864668.097    24864669.747    24864668.645
        19.300          21.100
  -8314359.070 4  -6478715.046 3  24124888.264    24124889.007    24124888.490
        25.600          23.800
 13 10  6  1 48  0.0000000  0 11G28G26G18G15G21G 8G24G 9G19G17G 5
 -19608593.662 6 -15279418.641 6  21507241.439    21507240.713    21507241.197
        41.100          38.100
 -28428788.908 7 -22152297.470 7  20038863.160    20038863.978    20038863.432
        45.800          44.200
 -11165825.077 4  -8700641.256 3  23817799.636    23817798.121    23817799.426
        25.900          19.300
 -24414210.519 7 -19024056.270 7  20984592.801    20984593.000    20984593.571
        42.500          42.100
  -4523192.029 1  -3524567.938 9  25515876.504    25515873.676    25515876.162
        11.000          -3.000
 -15202628.780 5 -11846197.257 4  22759627.899    22759628.085    22759627.244
        32.300          26.200
 -11462221.383 4  -8931597.644 4  23351348.746    23351351.932    23351349.424
        25.600          27.900
 -15902306.778 5 -12391402.824 4  22389041.899    22389042.563    22389042.017
        32.800          26.800
  -1597761.031 2  -1245007.292 2  25327891.518    25327890.454    25327892.725
        17.000          13.900
  -3557135.077 3  -2771793.345 3  24846853.913    24846854.724    24846854.604
        21.600          21.100
  -8204058.948 4  -6392766.906 4  24145877.759    24145878.313    24145878.516
        25.300          24.900
 13 10  6  1 48 30.0000000  0 11G28G26G18G15G21G 8G24G 9G19G17G 5
 -19578038.690 6 -15255609.573 6  21513055.146    21513055.051    21513055.316
        40.700          38.200
 -28382278.493 7 -22116055.595 7  20047714.181    20047714.724    20047714.462
        46.100          44.500
 -11232696.277 4  -8752748.676 3  23805074.763    23805073.214    23805074.274
        25.600          19.300
 -24462801.541 7 -19061919.408 6  20975346.186    20975346.453    20975347.087
        42.700          41.900
  -4470124.281 1  -3483216.451 1  25525973.729    25525973.127    25525972.470
         6.500           9.000
 -15117683.822 5 -11780006.405 4  22775791.849    22775792.724    22775791.902
        31.800          26.800
 -11556625.569 4  -9005159.325 4  23333384.655    23333387.327    23333385.258
        25.600          28.400
 -15803137.116 5 -12314127.778 4  22407914.011    22407913.944    22407913.776
        32.800          27.100
  -1535491.365 3  -1196485.512 2  25339740.265    25339739.715    25339742.125
        19.300          15.100
  -3650650.796 3  -2844662.710 3  24829058.082    24829058.758    24829059.014
        20.500          21.100
  -8093652.737 4  -6306736.102 4  24166887.872    24166888.196    24166888.070
        24.600          24.600
