     2.10           OBSERVATION DATA    G (GPS)             RINEX VERSION / TYPE
teqc  2005Sep1                          20131011 00:15:17UTCPGM / RUN BY / DATE
OBSERVATION MODE: IGS-Net                                   COMMENT
WSRT Westerbork_Synth (WSRT)                                MARKER NAME
13506M005                                                   MARKER NUMBER
229                 AOA SNR-12 ACT       3.3.32.2N          REC # / TYPE / VERS
273                 AOAD/M_T        DUTD                    ANT # / TYPE
        0.3888        0.0000        0.0000                  ANTENNA: DELTA H/E/N
  3828735.6941  443305.1350  5064884.8236                   APPROX POSITION XYZ
  6.60450833  52.91461271  82.2809  LonLatAlt  RSW          COMMENT
Linux 2.4.20-8|Pentium IV|gcc|Linux|486/DX+                 COMMENT
HANS VAN DER MAREL  DUT/DEOS                                OBSERVER / AGENCY
     1     1                                                WAVELENGTH FACT L1/2
     7    L1    L2    C1    P2    P1    S1    S2            # / TYPES OF OBSERV
RUN BY HANS VAN DER MAREL                                   COMMENT
H.VANDERMAREL@TUDELFT.NL                                    COMMENT
    P1 =    P1  TurboRogue; =    Y1  Benchmark              COMMENT
    L1 = L1(CA)                                             COMMENT
    P2 =    P2  TurboRogue; =    Y2  Benchmark              COMMENT
    L2 = L2(P2) TurboRogue; = L2(Y2) Benchmark              COMMENT
 SNR is mapped to RINEX snr flag value [0-9]                COMMENT
  L1 & L2: min(max(int(snr_dBHz/6), 0), 9)                  COMMENT
  2013    10    10     0     0    0.0000000     GPS         TIME OF FIRST OBS
  2013    10    10    23    59   30.0000000     GPS         TIME OF LAST OBS
                                                            END OF HEADER
 13 10 10  0  0  0.0000000  0 12G10G 6G26G21G 9G19G28G15G 5G 7G 8G 3
  -5740837.636 3  -4473366.641 3  24254563.315    24254565.506    24254563.373
        21.600          23.000
     81108.134 2     63201.611 2  25512817.360    25512819.705    25512817.850
        13.900          13.900
 -27269914.038 7 -21249276.270 6  20140972.983    20140973.140    20140973.210
        43.800          41.900
  -4316417.442 1  -3363440.535 1  25005172.702    25005172.206    25005173.190
         6.500          11.000
 -29032906.345 7 -22623037.874 7  19938116.171    19938116.434    19938116.445
        45.700          44.000
  -3823824.613 2  -2979603.391 2  24934026.602    24934024.973    24934026.165
        16.100          17.000
 -16443929.363 6 -12813448.426 5  22118016.127    22118016.059    22118016.179
        37.200          31.800
 -10299321.614 4  -8025442.927 3  23684221.173    23684221.099    23684222.928
        25.300          22.600
 -23947573.615 7 -18660440.541 7  21152277.106    21152277.487    21152277.907
        42.800          42.700
 -16510153.734 6 -12865042.898 5  22280332.127    22280331.478    22280332.702
        36.300          32.600
 -26352959.978 7 -20534766.697 7  20671114.332    20671114.478    20671114.221
        45.500          43.100
    262846.825 2    204814.492 2  24407689.971    24407691.168    24407690.319
        17.800          16.100
 13 10 10  0  0 30.0000000  0 12G10G 6G26G21G 9G19G28G15G 5G 7G 8G 3
  -5624940.740 3  -4383057.393 3  24276618.215    24276620.082    24276617.845
        23.400          22.100
    123773.094 1     96446.982 1  25520936.040    25520938.033    25520934.883
         6.500          11.000
 -27319652.742 7 -21288033.648 7  20131507.733    20131508.133    20131508.089
        43.800          42.000
  -4344860.457 2  -3385603.930 2  24999760.314    24999760.219    24999760.627
        17.000          16.100
 -29002132.499 7 -22599058.267 7  19943972.361    19943972.562    19943972.477
        45.900          43.900
  -3864293.341 2  -3011137.455 3  24926327.896    24926324.644    24926327.023
        17.800          18.600
 -16507252.414 6 -12862791.048 5  22105966.290    22105965.930    22105966.196
        37.000          32.000
 -10396706.606 4  -8101327.365 4  23665690.032    23665690.665    23665691.383
        27.400          25.900
 -23899812.451 7 -18623224.069 7  21161365.801    21161366.245    21161366.587
        43.000          42.700
 -16426838.589 5 -12800122.009 5  22296185.812    22296185.677    22296186.868
        35.900          32.600
 -26325942.956 7 -20513714.484 7  20676255.342    20676255.592    20676255.311
        45.300          42.500
    282958.863 2    220486.158 2  24411517.812    24411517.846    24411517.672
        16.100          16.100
 13 10 10  0  1  0.0000000  0 12G10G 6G26G21G 9G19G28G15G 5G 7G 8G 3
  -5508961.169 3  -4292683.739 3  24298688.792    24298689.946    24298688.555
        22.600          22.600
    166921.841 1    130069.338 2  25529148.643    25529149.194    25529148.754
        11.000          12.600
 -27368935.700 7 -21326435.892 7  20122129.736    20122129.815    20122129.843
        44.000          42.000
  -4372825.025 1  -3407394.486 2  24994439.626    24994438.578    24994439.659
        11.000          13.900
 -28970822.526 7 -22574660.888 7  19949930.394    19949930.639    19949930.652
        45.800          43.800
  -3904250.725 2  -3042273.093 3  24918723.846    24918721.663    24918722.942
        17.800          19.900
 -16570142.908 6 -12911796.621 5  22093998.155    22093998.197    22093998.354
        36.700          31.800
 -10493969.495 4  -8177116.528 4  23647181.820    23647181.382    23647182.575
        25.900          24.600
 -23851515.656 7 -18585590.210 7  21170556.859    21170556.582    21170557.278
        42.800          42.400
 -16343279.216 6 -12735010.806 5  22312086.973    22312086.497    22312088.011
        36.200          32.700
 -26298483.935 7 -20492317.841 7  20681480.524    20681480.823    20681480.532
        45.300          42.400
    303685.923 2    236637.076 2  24415462.165    24415461.861    24415461.889
        13.900          15.100
 13 10 10  0  1 30.0000000  0 12G10G 6G26G21G 9G19G28G15G 5G 7G 8G 3
  -5392900.885 3  -4202247.150 2  24320773.870    24320775.044    24320773.598
        23.000          17.000
    210552.513 2    164067.149 2  25537450.601    25537452.553    25537450.662
        12.600          13.900
 -27417761.606 7 -21364482.036 7  20112838.447    20112838.567    20112838.619
        44.000          42.300
  -4400310.773 2  -3428811.931 2  24989209.586    24989207.299    24989209.568
        13.900          15.100
 -28938977.475 7 -22549846.566 7  19955990.280    19955990.621    19955990.516
        45.800          44.100
  -3943694.722 2  -3073008.628 2  24911216.673    24911215.251    24911216.475
        17.000          17.000
 -16632598.845 6 -12960463.562 5  22082113.515    22082113.234    22082113.679
        37.200          32.300
 -10591109.033 4  -8252809.644 4  23628696.579    23628697.245    23628696.997
        25.900          25.300
 -23802684.613 7 -18547540.055 7  21179848.684    21179848.947    21179849.273
        42.700          42.300
 -16259477.428 6 -12669710.714 5  22328034.074    22328033.776    22328034.825
        36.100          33.100
 -26270583.975 7 -20470577.605 7  20686789.618    20686789.989    20686789.669
        45.200          42.700
    325027.130 2    253266.578 2  24419522.268    24419522.506    24419522.471
        17.000          15.100
 13 10 10  0  2  0.0000000  0 12G10G 6G26G21G 9G19G28G15G 5G 7G 8G 3
  -5276762.379 3  -4111749.627 3  24342874.506    24342876.116    24342874.367
        22.600          20.500
    254664.250 2    198440.014 2  25545844.528    25545846.307    25545844.957
        12.600          12.600
 -27466128.990 7 -21402170.879 7  20103634.442    20103634.554    20103634.727
        44.000          42.300
  -4427317.305 2  -3449855.983 2  24984070.069    24984068.564    24984070.363
        16.100          13.900
 -28906598.784 7 -22524616.418 7  19962151.744    19962152.125    19962151.924
        45.700          44.000
  -3982623.645 2  -3103342.867 2  24903811.128    24903806.778    24903809.892
        17.000          17.800
 -16694617.997 6 -13008790.170 5  22070311.258    22070311.360    22070311.440
        37.100          32.700
 -10688123.823 4  -8328405.553 3  23610235.415    23610234.935    23610235.994
        26.200          23.400
 -23753320.646 7 -18509074.638 7  21189242.438    21189242.666    21189243.197
        43.000          42.300
 -16175435.032 6 -12604223.148 5  22344027.222    22344026.529    22344027.685
        36.000          32.700
 -26242244.297 7 -20448494.746 7  20692182.398    20692182.767    20692182.530
        45.400          42.700
    346981.822 2    270374.149 2  24423700.960    24423701.102    24423700.481
        16.100          17.000
 13 10 10  0  2 30.0000000  0 12G10G 6G26G21G 9G19G28G15G 5G 7G 8G 3
  -5160547.814 3  -4021192.850 2  24364989.522    24364990.476    24364988.763
        21.100          17.800
    299254.657 1    233185.768 1  25554330.599    25554331.412    25554330.147
         9.000          11.000
 -27514036.616 7 -21439501.502 7  20094517.718    20094518.010    20094518.135
        43.800          42.200
  -4453843.159 2  -3470525.466 2  24979022.132    24979020.863    24979021.337
        12.600          15.100
 -28873688.054 7 -22498971.695 7  19968414.266    19968414.737    19968414.580
        45.700          44.000
  -4021035.411 2  -3133274.115 2  24896500.633    24896497.921    24896499.451
        17.800          17.800
 -16756198.739 6 -13056775.144 5  22058593.121    22058592.999    22058593.243
        37.200          32.400
 -10785012.639 4  -8403903.341 4  23591798.170    23591798.179    23591798.830
        27.600          24.200
 -23703425.118 7 -18470195.017 7  21198737.050    21198737.332    21198737.825
        42.800          42.400
 -16091153.956 6 -12538549.609 5  22360064.859    22360064.504    22360065.745
        36.000          32.300
 -26213466.038 7 -20426070.125 7  20697659.037    20697659.163    20697658.946
        45.400          42.600
    369549.447 2    287959.232 2  24427995.784    24427995.622    24427995.342
        17.000          16.100
 13 10 10  0  3  0.0000000  0 12G10G 6G26G21G 9G19G28G15G 5G 7G 8G 3
  -5044259.490 3  -3930578.567 3  24387117.627    24387119.435    24387117.241
        19.900          18.600
    344322.691 2    268303.729 1  25562906.137    25562907.983    25562906.621
        12.600          11.000
 -27561483.102 7 -21476472.789 7  20085489.050    20085489.214    20085489.351
        44.000          42.300
  -4479888.301 2  -3490820.401 2  24974065.799    24974065.293    24974065.847
        16.100          16.100
 -28840246.762 7 -22472913.543 7  19974778.056    19974778.421    19974778.296
        45.800          43.800
  -4058928.293 3  -3162801.001 2  24889289.724    24889286.639    24889288.563
        22.100          17.800
 -16817339.088 6 -13104416.973 5  22046958.668    22046958.273    22046958.510
        37.300          32.300
 -10881774.006 4  -8479301.813 3  23573384.054    23573384.267    23573385.279
        25.600          23.800
 -23652999.424 7 -18430902.277 7  21208332.647    21208333.024    21208333.583
        42.700          42.100
 -16006635.987 6 -12472691.420 5  22376148.525    22376148.033    22376148.999
        36.000          32.800
 -26184250.494 7 -20403304.768 7  20703218.275    20703218.779    20703218.362
        45.400          42.500
    392729.442 3    306021.540 2  24432406.012    24432407.246    24432406.763
        18.600          17.000
 13 10 10  0  3 30.0000000  0 12G10G 6G26G21G 9G19G28G15G 5G 7G 8G 3
  -4927899.250 3  -3839908.275 3  24409259.791    24409262.301    24409260.007
        21.100          19.300
    389866.545 2    303792.315 1  25571572.732    25571575.337    25571574.528
        12.600          11.000
 -27608467.094 7 -21513083.688 7  20076548.336    20076548.497    20076548.551
        44.300          42.500
  -4505451.709 2  -3510739.945 2  24969200.694    24969200.636    24969200.620
        15.100          12.600
 -28806276.371 7 -22446443.106 7  19981242.435    19981242.795    19981242.729
        45.700          43.600
  -4096300.244 3  -3191922.002 3  24882177.751    24882175.443    24882177.648
        19.900          19.300
 -16878037.298 6 -13151714.260 5  22035407.913    22035407.952    22035407.980
        36.800          32.600
 -10978406.363 4  -8554599.814 4  23554996.253    23554996.281    23554997.171
        27.100          24.900
 -23602044.868 7 -18391197.445 7  21218029.218    21218029.453    21218030.031
        42.800          42.000
 -15921883.154 5 -12406650.263 5  22392276.303    22392275.797    22392276.908
        35.700          32.700
 -26154598.486 7 -20380199.313 7  20708860.871    20708861.351    20708861.009
        45.300          42.300
    416520.796 3    324560.212 3  24436934.020    24436934.709    24436934.548
        19.900          18.600
 13 10 10  0  4  0.0000000  0 12G10G 6G26G21G 9G19G28G15G 5G 7G 8G 3
  -4811469.235 3  -3749183.615 3  24431416.098    24431418.486    24431415.875
        19.900          19.900
    435884.604      339650.414 2  25580329.725    25580331.757    25580329.784
         3.000          12.600
 -27654987.187 7 -21549333.095 7  20067695.843    20067696.028    20067696.087
        44.200          42.400
  -4530532.553 2  -3530283.449 2  24964428.675    24964427.435    24964429.237
        12.600          15.100
 -28771778.292 7 -22419561.488 7  19987807.419    19987807.571    19987807.541
        45.800          43.700
  -4133149.466 3  -3220635.676 2  24875164.949    24875162.723    24875164.001
        19.300          17.000
 -16938291.639 6 -13198665.691 5  22023942.012    22023941.942    22023942.234
        37.800          32.300
 -11074908.377 4  -8629796.168 3  23536634.039    23536632.076    23536634.294
        28.800          23.800
 -23550562.996 7 -18351081.703 7  21227825.834    21227826.174    21227826.690
        42.900          42.000
 -15836897.171 5 -12340427.436 5  22408448.706    22408448.134    22408449.287
        35.600          32.100
 -26124511.630 7 -20356755.040 7  20714586.469    20714586.686    20714586.547
        45.200          42.200
    440922.813 2    343574.750 2  24441577.432    24441578.393    24441577.365
        15.100          16.100
 13 10 10  0  4 30.0000000  0 12G10G 6G26G21G 9G19G28G15G 5G 7G 8G 3
  -4694972.196 3  -3658406.725 3  24453585.444    24453587.235    24453585.113
        20.500          21.100
    482375.637 1    375877.182 2  25589176.806    25589178.777    25589177.750
        11.000          13.900
 -27701042.059 7 -21585219.969 7  20058931.446    20058931.913    20058932.073
        44.300          42.600
  -4555129.697 1  -3549450.070 2  24959747.080    24959746.499    24959748.217
        11.000          15.100
 -28736753.885 7 -22392269.747 7  19994472.066    19994472.437    19994472.389
        45.700          43.600
  -4169474.187 2  -3248940.614 3  24868251.803    24868251.240    24868251.956
        15.100          20.500
 -16998100.074 6 -13245269.665 5  22012560.672    22012560.776    22012560.767
        37.200          32.800
 -11171278.752 4  -8704889.947 4  23518294.250    23518294.133    23518294.833
        27.100          24.900
 -23498555.292 7 -18310556.239 6  21237722.412    21237722.987    21237723.374
        42.700          41.900
 -15751679.646 5 -12274024.185 5  22424665.032    22424664.494    22424665.631
        35.700          32.800
 -26093991.218 7 -20332972.908 7  20720394.364    20720394.594    20720394.381
        45.300          42.400
    465934.804 2    363064.630 2  24446336.403    24446337.753    24446336.774
        17.000          16.100
 13 10 10  0  5  0.0000000  0 12G10G 6G26G21G 9G19G28G15G 5G 7G 8G 3
  -4578410.213 3  -3567579.236 3  24475766.204    24475768.625    24475765.855
        21.100          21.600
    529337.991      412471.143 1  25598113.734    25598114.862    25598112.551
         3.000           6.500
 -27746630.468 7 -21620743.388 7  20050256.745    20050256.632    20050256.963
        44.100          42.700
  -4579243.422 2  -3568239.937 2  24955159.619    24955157.814    24955159.565
        15.100          12.600
 -28701204.796 7 -22364569.167 7  20001236.858    20001237.095    20001237.143
        45.800          43.500
  -4205272.432 3  -3276835.370 3  24861440.186    24861438.345    24861440.328
        18.600          18.600
 -17057460.585 6 -13291524.601 5  22001265.196    22001264.946    22001264.964
        37.500          33.100
 -11267516.006 4  -8779880.034 4  23499980.441    23499980.225    23499981.502
        26.500          24.600
 -23446023.246 7 -18269622.191 6  21247719.336    21247719.502    21247720.050
        42.800          41.800
 -15666232.672 5 -12207442.139 5  22440924.924    22440924.362    22440925.681
        35.800          32.300
 -26063038.087 7 -20308853.571 7  20726284.564    20726284.756    20726284.463
        45.200          42.200
    491555.697 2    383028.899 2  24451212.276    24451212.799    24451212.517
        15.100          15.100
 13 10 10  0  5 30.0000000  0 12G10G 6G26G21G 9G19G28G15G 5G 7G 8G 3
  -4461785.473 3  -3476702.821 3  24497959.797    24497961.009    24497959.064
        21.100          20.500
    576769.715 1    449430.934 1  25607140.277    25607141.495    25607140.670
        11.000           9.000
 -27791751.029 7 -21655902.255 7  20041670.296    20041670.435    20041670.715
        44.300          42.700
  -4602873.089 2  -3586652.663 2  24950662.938    24950661.443    24950662.937
        15.100          16.100
 -28665132.470 7 -22336460.887 7  20008101.105    20008101.507    20008101.559
        45.700          43.400
  -4240542.413 3  -3304318.449 3  24854729.286    24854727.478    24854728.698
        19.900          19.900
 -17116371.621 6 -13337429.287 5  21990054.552    21990054.732    21990054.578
        37.600          33.100
 -11363618.975 4  -8854765.429 4  23481693.433    23481692.494    23481693.835
        27.100          24.200
 -23392968.344 7 -18228280.717 6  21257815.403    21257815.445    21257816.091
        42.900          41.800
 -15580557.634 5 -12140682.390 5  22457228.029    22457228.058    22457228.941
        35.500          32.400
 -26031653.536 7 -20284398.071 7  20732256.811    20732257.072    20732256.697
        45.400          42.400
    517784.891 2    403467.175 2  24456202.774    24456205.178    24456203.770
        13.900          17.000
 13 10 10  0  6  0.0000000  0 12G10G 6G26G21G 9G19G28G15G 5G 7G 8G 3
  -4345100.167 3  -3385779.236 3  24520164.190    24520165.354    24520163.575
        21.100          20.500
    624669.146 2    486755.176 1  25616254.438    25616255.853    25616256.101
        12.600           6.500
 -27836402.368 7 -21690695.462 7  20033174.338    20033173.588    20033174.028
        44.400          42.800
  -4626017.674 2  -3604687.427 2  24946258.460    24946256.851    24946258.531
        17.800          13.900
 -28628538.327 7 -22307945.960 7  20015064.725    20015065.056    20015065.135
        45.600          43.300
  -4275282.362 3  -3331388.547 3  24848119.837    24848116.295    24848118.548
        18.600          19.900
 -17174831.325 6 -13382982.301 5  21978930.329    21978930.144    21978930.170
        37.700          33.100
 -11459585.891 4  -8929544.847 4  23463430.996    23463430.436    23463431.638
        26.800          24.600
 -23339391.929 7 -18186532.872 6  21268010.382    21268010.836    21268011.194
        42.700          41.900
 -15494656.560 5 -12073746.504 5  22473574.886    22473574.452    22473575.431
        35.100          31.000
 -25999838.823 7 -20259607.390 7  20738310.772    20738311.292    20738310.817
        45.200          42.200
    544621.833 3    424379.109 2  24461311.157    24461311.411    24461310.692
        19.300          13.900
 13 10 10  0  6 30.0000000  0 12G10G 6G26G21G 9G19G28G15G 5G 7G 8G 3
  -4228356.342 3  -3294810.039 3  24542379.089    24542381.253    24542378.718
        20.500          21.100
    673034.354      524441.243 1  25625457.494    25625460.285    25625457.911
         3.000           9.000
 -27880583.315 7 -21725122.147 7  20024766.409    20024766.260    20024766.578
        44.600          42.900
  -4648676.530 2  -3622343.699 2  24941946.687    24941944.644    24941946.422
        12.600          13.900
 -28591423.865 7 -22279025.593 7  20022127.649    20022127.816    20022127.862
        45.700          43.300
  -4309490.912 3  -3358044.539 2  24841608.589    24841606.107    24841608.057
        19.900          17.000
 -17232837.807 6 -13428182.145 5  21967891.953    21967891.534    21967891.957
        37.800          33.000
 -11555415.332 4  -9004217.173 4  23445194.864    23445194.819    23445195.896
        27.600          24.200
 -23285295.584 7 -18144379.891 6  21278304.794    21278304.780    21278305.549
        42.700          41.800
 -15408531.392 5 -12006635.998 5  22489963.438    22489963.453    22489964.282
        34.900          31.600
 -25967595.159 7 -20234482.459 7  20744446.605    20744447.055    20744446.557
        45.000          42.100
    572065.289 2    445763.578 3  24466533.098    24466532.904    24466533.047
        17.000          18.600
 13 10 10  0  7  0.0000000  0 12G10G 6G26G21G 9G19G28G15G 5G 7G 8G 3
  -4111556.287 3  -3203797.032 3  24564605.586    24564607.505    24564605.179
        19.900          19.900
    721864.104 1    562491.297 9  25634751.308    25634752.507    25634750.182
         9.000          -3.000
 -27924292.573 7 -21759181.288 7  20016447.979    20016448.650    20016448.830
        44.300          43.100
  -4670849.288 2  -3639621.149 2  24937726.217    24937725.368    24937727.261
        13.900          15.100
 -28553790.745 7 -22249701.087 7  20029288.683    20029289.267    20029289.111
        45.600          43.300
  -4343166.250 2  -3384285.078 3  24835199.828    24835198.773    24835200.489
        16.100          20.500
 -17290389.600 6 -13473027.687 5  21956940.165    21956939.865    21956940.019
        37.700          33.500
 -11651106.101 4  -9078781.406 4  23426986.254    23426985.707    23426987.320
        29.500          25.900
 -23230681.118 7 -18101823.177 6  21288697.414    21288697.679    21288698.240
        42.700          41.400
 -15322183.751 5 -11939352.133 5  22506394.812    22506394.884    22506395.742
        34.700          31.100
 -25934923.732 7 -20209024.199 7  20750663.855    20750664.168    20750663.743
        45.100          42.200
    600114.525 2    467620.050 2  24471869.257    24471871.520    24471869.619
        17.000          15.100
 13 10 10  0  7 30.0000000  0 12G10G 6G26G21G 9G19G28G15G 5G 7G 8G 3
  -3994702.228 3  -3112741.960 3  24586842.614    24586844.492    24586842.174
        19.300          18.600
    771156.488      600900.826 1  25644131.753    25644132.928    25644134.190
         3.000           6.500
 -27967528.750 7 -21792871.795 7  20008220.512    20008221.008    20008221.320
        44.600          42.900
  -4692535.392 2  -3656519.397 2  24933599.876    24933598.794    24933599.564
        16.100          16.100
 -28515640.574 7 -22219973.676 7  20036548.762    20036548.964    20036548.982
        45.600          43.400
  -4376306.518 3  -3410108.665 3  24828894.122    24828892.149    24828893.467
        18.600          19.300
 -17347484.702 6 -13517517.372 5  21946075.100    21946075.047    21946075.115
        37.900          33.600
 -11746656.428 4  -9153236.210 4  23408803.604    23408802.489    23408804.039
        27.600          25.300
 -23175549.894 7 -18058863.796 6  21299188.684    21299188.923    21299189.423
        42.700          41.900
 -15235615.506 5 -11871896.346 5  22522868.357    22522868.452    22522869.329
        34.800          31.800
 -25901825.728 7 -20183233.551 7  20756962.090    20756962.479    20756962.056
        45.100          42.300
    628768.315 2    489947.634 2  24477322.246    24477323.849    24477322.445
        15.100          17.000
 13 10 10  0  8  0.0000000  0 12G10G 6G26G21G 9G19G28G15G 5G 7G 8G 3
  -3877796.362 3  -3021646.494 2  24609089.233    24609090.688    24609089.038
        19.300          15.100
    820909.994 1    639671.513 1  25653598.411    25653596.580    25653598.208
        11.000           6.500
 -28010290.722 7 -21826192.804 7  20000083.438    20000083.697    20000084.047
        44.600          43.000
  -4713734.097 2  -3673037.865 2  24929566.710    24929565.591    24929565.648
        16.100          13.900
 -28476974.976 7 -22189844.638 7  20043906.587    20043906.791    20043906.810
        45.800          43.400
  -4408910.147 3  -3435514.066 3  24822690.068    24822687.599    24822689.490
        22.100          18.600
 -17404121.294 6 -13561649.776 5  21935297.636    21935297.425    21935297.429
        37.700          33.600
 -11842065.319 4  -9227580.893 4  23390647.574    23390647.609    23390648.257
        28.400          26.200
 -23119903.432 7 -18015502.927 6  21309777.800    21309777.892    21309778.422
        42.500          41.300
 -15148828.287 5 -11804269.943 5  22539383.717    22539383.506    22539384.410
        34.700          31.100
 -25868302.529 7 -20157111.578 7  20763341.285    20763341.735    20763341.330
        45.100          42.300
    658026.067 2    512745.877 2  24482891.482    24482890.972    24482890.303
        16.100          17.000
 13 10 10  0  8 30.0000000  0 12G10G 6G26G21G 9G19G28G15G 5G 7G 8G 3
  -3760840.816 3  -2930512.310 3  24631344.953    24631347.117    24631344.726
        19.900          21.100
    871123.086 1    678798.522 9  25663153.881    25663154.124    25663150.522
         6.500          -3.000
 -28052577.206 7 -21859143.330 7  19992037.152    19992036.915    19992037.198
        44.500          43.100
  -4734445.176 2  -3689176.354 2  24925624.896    24925624.132    24925625.173
        13.900          13.900
 -28437795.359 7 -22159315.072 7  20051361.989    20051362.344    20051362.391
        45.500          43.300
  -4440975.346 3  -3460499.900 3  24816588.568    24816586.121    24816587.642
        19.900          20.500
 -17460297.753 6 -13605423.627 5  21924607.278    21924607.425    21924607.282
        37.600          33.500
 -11937331.231 4  -9301814.087 4  23372519.413    23372518.288    23372519.852
        28.600          25.300
 -23063743.274 7 -17971741.766 6  21320465.026    21320464.887    21320465.545
        42.500          41.400
 -15061824.102 5 -11736474.471 5  22555940.385    22555939.627    22555940.817
        34.500          31.100
 -25834355.238 7 -20130659.154 7  20769801.323    20769801.626    20769801.268
        45.100          42.200
    687886.503 2    536013.726 2  24488574.021    24488572.416    24488573.586
        17.800          13.900
 13 10 10  0  9  0.0000000  0 12G10G 6G26G21G 9G19G28G15G 5G 7G 8G 3
  -3643838.159 3  -2839341.432 3  24653609.923    24653611.390    24653609.342
        19.300          19.900
    921793.489 1    718283.521    25672795.277    25672786.424    25672799.775
         9.000           3.000
 -28094386.897 7 -21891722.321 7  19984081.034    19984080.816    19984081.029
        44.600          43.100
  -4754668.118 2  -3704934.482 2  24921777.098    24921775.741    24921776.688
        15.100          16.100
 -28398103.493 7 -22128386.342 7  20058914.902    20058915.404    20058915.399
        45.600          43.100
  -4472500.491 3  -3485064.961 3  24810588.823    24810586.679    24810587.257
        19.900          19.900
 -17516012.439 6 -13648837.674 5  21914005.319    21914005.258    21914005.302
        37.900          33.900
 -12032452.684 4  -9375934.712 4  23354418.308    23354417.944    23354419.405
        29.500          25.900
 -23007071.180 7 -17927581.685 6  21331249.048    21331249.525    21331249.775
        42.600          41.700
 -14974604.796 5 -11668511.393 5  22572537.857    22572537.040    22572538.185
        34.800          31.800
 -25799985.392 7 -20103877.459 7  20776341.519    20776342.072    20776341.577
        45.000          42.000
    718348.640 2    559750.426 2  24494369.634    24494369.739    24494369.866
        15.100          13.900
 13 10 10  0  9 30.0000000  0 12G10G 6G26G21G 9G19G28G15G 5G 7G 8G 3
  -3526790.141 3  -2748135.187 2  24675883.300    24675884.771    24675882.906
        19.300          17.000
    972919.801      758122.478 1  25682526.399    25682524.554    25682527.062
         3.000           6.500
 -28135718.460 7 -21923928.760 7  19976215.914    19976215.658    19976215.884
        44.400          43.200
  -4774402.128 2  -3720311.634 2  24918021.412    24918020.479    24918021.389
        15.100          16.100
 -28357900.953 7 -22097059.694 7  20066565.580    20066565.812    20066565.839
        45.600          43.100
  -4503484.107 2  -3509208.038 2  24804692.730    24804690.477    24804692.213
        17.800          16.100
 -17571263.521 6 -13691890.465 5  21903491.599    21903491.340    21903491.470
        38.200          34.000
 -12127428.005 4  -9449941.457 4  23336344.885    23336344.229    23336345.439
        27.600          24.600
 -22949888.722 7 -17883023.931 6  21342130.435    21342130.642    21342131.169
        42.600          41.100
 -14887172.058 5 -11600381.992 5  22589175.487    22589174.894    22589176.159
        34.800          31.500
 -25765194.172 7 -20076767.419 7  20782962.388    20782962.578    20782962.376
        45.200          42.200
    749411.561 2    583955.249 2  24500281.541    24500281.292    24500280.840
        17.800          16.100
 13 10 10  0 10  0.0000000  0 12G10G 6G26G21G 9G19G28G15G 5G 7G 8G 3
  -3409698.952 3  -2656895.316 2  24698165.105    24698165.839    24698164.710
        19.900          17.800
   1024500.159 1    798315.261    25692341.310    25692342.328    25692343.141
         9.000           3.000
 -28176570.694 7 -21955761.668 7  19968441.899    19968441.709    19968442.063
        44.500          43.300
  -4793647.090 2  -3735307.701 2  24914358.815    24914357.672    24914359.272
        15.100          17.000
 -28317189.221 7 -22065336.270 7  20074312.548    20074312.926    20074312.982
        45.600          43.100
  -4533924.391 2  -3532927.726 3  24798900.454    24798898.182    24798899.415
        16.100          19.300
 -17626049.350 6 -13734580.724 5  21893066.265    21893065.808    21893066.078
        38.100          34.000
 -12222255.807 4  -9523833.237 4  23318299.395    23318299.857    23318300.252
        28.600          25.900
 -22892197.456 7 -17838069.692 6  21353108.817    21353108.841    21353109.553
        42.500          41.000
 -14799527.350 5 -11532087.420 5  22605853.407    22605853.006    22605854.045
        34.900          30.800
 -25729982.646 7 -20049329.866 6  20789662.895    20789663.076    20789662.850
        45.100          41.800
    781074.331 2    608627.507 3  24506306.841    24506306.617    24506307.075
        17.800          18.600
 13 10 10  0 10 30.0000000  0 12G10G 6G26G21G 9G19G28G15G 5G 7G 8G 3
  -3292566.942 2  -2565623.669 3  24720454.354    24720456.040    24720453.862
        16.100          18.600
   1076532.502      838860.449 1  25702242.266    25702245.987    25702241.171
         3.000           9.000
 -28216942.381 7 -21987220.135 7  19960759.288    19960759.201    19960759.573
        44.800          43.400
  -4812401.970 2  -3749921.897 2  24910790.639    24910789.170    24910790.706
        16.100          12.600
 -28275969.778 7 -22033217.231 7  20082156.724    20082156.759    20082156.773
        45.500          43.100
  -4563820.018 3  -3556223.005 3  24793211.031    24793209.399    24793209.735
        18.600          19.300
 -17680368.538 6 -13776907.364 5  21882729.613    21882729.388    21882729.517
        37.900          34.300
 -12316934.933 5  -9597609.158 4  23300283.798    23300282.580    23300284.351
        30.400          26.200
 -22833998.986 7 -17792720.231 6  21364183.852    21364183.933    21364184.375
        42.300          41.200
 -14711672.598 5 -11463629.178 5  22622571.596    22622571.450    22622572.366
        34.400          31.000
 -25694352.307 7 -20021565.960 6  20796443.182    20796443.347    20796443.086
        45.100          41.900
    813335.758 2    633766.224 2  24512445.561    24512446.209    24512445.740
        17.800          15.100
 13 10 10  0 11  0.0000000  0 11G10G26G21G 9G19G28G15G 5G 7G 8G 3
  -3175396.403 3  -2474321.938 2  24742751.968    24742753.050    24742751.599
        18.600          16.100
 -28256832.242 7 -22018303.178 7  19953168.380    19953168.418    19953168.736
        44.700          43.300
  -4830667.120 2  -3764154.495 2  24907315.181    24907312.323    24907315.024
        16.100          13.900
 -28234244.236 7 -22000703.830 7  20090096.673    20090096.970    20090096.868
        45.300          42.900
  -4593169.225 3  -3579092.496 3  24787626.535    24787624.369    24787626.042
        19.900          19.300
 -17734219.063 6 -13818868.819 5  21872482.121    21872482.028    21872482.097
        38.100          34.600
 -12411463.592 4  -9671267.816 4  23282294.640    23282294.448    23282295.438
        28.400          26.500
 -22775295.120 7 -17746976.967 6  21375354.459    21375354.888    21375355.289
        42.500          41.100
 -14623609.634 5 -11395008.680 5  22639329.412    22639329.433    22639330.119
        34.300          31.000
 -25658304.487 7 -19993476.750 6  20803303.112    20803303.005    20803302.948
        44.900          41.900
    846194.328 2    659370.234 2  24518697.850    24518698.375    24518698.216
        17.800          12.600
 13 10 10  0 11 30.0000000  0 11G10G26G21G 9G19G28G15G 5G 7G 8G 3
  -3058189.319 2  -2382991.758 3  24765055.221    24765057.513    24765054.699
        17.800          19.300
 -28296239.068 7 -22049009.820 7  19945669.273    19945669.582    19945669.786
        44.600          43.300
  -4848441.690 2  -3778004.785 2  24903932.284    24903930.930    24903932.566
        13.900          17.800
 -28192014.349 7 -21967797.422 7  20098132.745    20098132.979    20098133.036
        45.600          43.100
  -4621970.507 3  -3601535.045 3  24782145.267    24782143.478    24782145.006
        18.600          19.900
 -17787599.476 6 -13860463.971 5  21862324.328    21862323.897    21862324.302
        38.500          34.000
 -12505840.350 4  -9744808.177 4  23264335.687    23264335.050    23264336.231
        28.600          25.600
 -22716087.781 7 -17700841.374 6  21386621.316    21386621.534    21386622.089
        42.600          40.800
 -14535340.327 5 -11326227.434 5  22656126.671    22656126.552    22656127.267
        33.900          31.000
 -25621840.391 7 -19965063.169 7  20810241.654    20810241.942    20810241.673
        45.200          42.000
    879649.213 2    685438.866 2  24525065.039    24525064.965    24525064.410
        13.900          13.900
 13 10 10  0 12  0.0000000  0 11G10G26G21G 9G19G28G15G 5G 7G 8G 3
  -2940947.715 2  -2291634.725 3  24787365.515    24787367.895    24787365.362
        16.100          22.100
 -28335161.598 7 -22079339.100 7  19938262.319    19938262.943    19938263.115
        44.700          43.400
  -4865725.605 2  -3791472.772 2  24900643.649    24900642.224    24900643.233
        17.800          17.000
 -28149281.795 7 -21934499.321 7  20106264.436    20106264.722    20106264.695
        45.500          43.100
  -4650222.556 2  -3623549.607 3  24776769.100    24776767.069    24776768.900
        16.100          18.600
 -17840508.342 6 -13901691.692 5  21852256.083    21852255.571    21852255.950
        38.200          33.800
 -12600063.863 4  -9818229.115 4  23246405.682    23246404.685    23246406.201
        29.700          26.500
 -22656378.500 7 -17654314.653 6  21397983.622    21397983.685    21397984.409
        42.400          40.400
 -14446866.414 5 -11257286.735 5  22672962.575    22672962.463    22672963.523
        34.300          31.000
 -25584961.256 7 -19936326.183 6  20817259.680    20817259.834    20817259.563
        45.100          41.600
    913699.428 2    711971.454 2  24531543.110    24531544.332    24531543.692
        12.600          15.100
 13 10 10  0 12 30.0000000  0 11G10G26G21G 9G19G28G15G 5G 7G 8G 3
  -2823673.855 3  -2200252.509 3  24809682.149    24809684.407    24809681.268
        19.900          19.900
 -28373598.636 7 -22109290.057 7  19930948.351    19930948.644    19930948.892
        44.700          43.500
  -4882518.305 2  -3804557.988 1  24897447.542    24897447.184    24897447.754
        12.600          11.000
 -28106048.292 7 -21900810.884 7  20114491.652    20114491.855    20114491.722
        45.500          42.900
  -4677923.690 2  -3645134.895 3  24771498.360    24771496.093    24771497.217
        17.800          19.900
 -17892943.699 6 -13942550.422 5  21842277.938    21842277.707    21842277.920
        38.300          34.700
 -12694132.593 4  -9891529.431 4  23228504.659    23228504.622    23228505.393
        28.800          26.500
 -22596168.938 7 -17607398.108 6  21409441.356    21409441.365    21409441.970
        42.400          40.700
 -14358189.309 5 -11188187.691 5  22689837.186    22689836.926    22689838.164
        34.100          30.200
 -25547668.425 7 -19907266.832 6  20824356.025    20824356.335    20824356.017
        44.800          41.500
    948343.507 2    738966.765 2  24538136.834    24538137.708    24538136.273
        15.100          16.100
 13 10 10  0 13  0.0000000  0 11G10G26G21G 9G19G28G15G 5G 7G 8G 3
  -2706369.935 3  -2108846.863 2  24832002.631    24832006.235    24832003.055
        19.300          17.800
 -28411548.976 7 -22138861.762 7  19923727.060    19923726.915    19923727.229
        44.900          43.400
  -4898819.335 3  -3817260.080 2  24894346.407    24894344.778    24894345.553
        19.300          13.900
 -28062315.421 7 -21866733.325 7  20122813.427    20122813.923    20122813.796
        45.300          42.900
  -4705072.568 3  -3666289.892 3  24766331.331    24766329.681    24766331.328
        18.600          19.900
 -17944904.380 6 -13983039.289 5  21832390.383    21832390.216    21832390.193
        38.400          35.100
 -12788044.898 4  -9964707.871 4  23210633.308    23210633.016    23210634.197
        29.000          26.200
 -22535461.091 7 -17560093.294 6  21420993.394    21420993.762    21420994.144
        42.100          40.600
 -14269310.863 5 -11118931.766 5  22706749.612    22706750.066    22706750.869
        33.500          30.800
 -25509963.108 7 -19877886.060 6  20831531.020    20831531.395    20831531.164
        45.100          41.800
    983580.719 2    766424.305 3  24544842.388    24544842.775    24544842.252
        17.000          18.600
 13 10 10  0 13 30.0000000  0 12G10G27G26G21G 9G19G28G15G 5G 7G 8G 3
  -2589038.400 2  -2017419.748 2  24854330.712    24854333.647    24854330.697
        17.800          17.800
     58078.520 2     45255.590 3  25195283.874    25195285.956    25195283.956
        17.000          19.300
 -28449011.518 7 -22168053.371 7  19916597.716    19916598.093    19916598.353
        44.700          43.600
  -4914628.569 2  -3829578.950 2  24891337.201    24891336.767    24891337.229
        15.100          16.100
 -28018085.036 7 -21832268.072 7  20131230.261    20131230.674    20131230.608
        45.200          42.600
  -4731667.824 3  -3687013.515 2  24761271.573    24761268.356    24761270.849
        18.600          17.800
 -17996388.575 6 -14023156.866 5  21822593.089    21822592.953    21822593.041
        38.400          34.600
 -12881799.352 5 -10037763.258 4  23192793.132    23192792.571    23192793.869
        30.100          26.800
 -22474256.318 7 -17512401.270 6  21432640.454    21432640.500    21432641.099
        42.100          40.500
 -14180232.830 5 -11049520.344 5  22723701.066    22723700.715    22723701.764
        33.600          30.200
 -25471846.685 7 -19848184.936 6  20838784.655    20838784.649    20838784.448
        44.800          41.300
   1019409.263 2    794342.583 2  24551659.578    24551660.817    24551660.106
        17.000          16.100
 13 10 10  0 14  0.0000000  0 12G10G27G26G21G 9G19G28G15G 5G 7G 8G 3
  -2471681.314 2  -1925972.677 2  24876663.906    24876665.388    24876663.658
        17.800          15.100
     88907.555 2     69278.216 3  25201150.790    25201152.239    25201150.859
        13.900          19.300
 -28485985.037 7 -22196863.920 7  19909562.129    19909562.320    19909562.474
        44.800          43.600
  -4929945.569 2  -3841514.299 2  24888423.243    24888421.850    24888422.711
        17.000          13.900
 -27973358.552 7 -21797416.254 7  20139741.725    20139741.808    20139741.805
        45.400          42.700
  -4757707.870 3  -3707304.501 2  24756316.015    24756312.914    24756314.712
        18.600          17.000
 -18047394.558 6 -14062901.787 5  21812886.764    21812886.622    21812886.786
        38.400          34.500
 -12975394.542 4 -10110694.517 4  23174982.332    23174982.110    23174983.289
        29.700          26.500
 -22412556.370 7 -17464323.386 6  21444381.653    21444381.517    21444382.384
        42.500          40.500
 -14090957.126 5 -10979954.857 4  22740689.458    22740689.237    22740690.555
        34.000          29.900
 -25433320.370 7 -19818164.417 6  20846115.624    20846115.907    20846115.632
        44.800          41.600
   1055827.885 2    822720.660 2  24558590.575    24558591.123    24558590.995
        17.000          15.100
 13 10 10  0 14 30.0000000  0 12G10G27G26G21G 9G19G28G15G 5G 7G 8G 3
  -2354300.805 3  -1834507.337 2  24899000.754    24899002.587    24899000.453
        18.600          16.100
    120272.579 2     93718.447 3  25207118.449    25207121.115    25207118.327
        17.000          19.300
 -28522468.316 7 -22225292.468 7  19902619.582    19902619.771    19902619.996
        44.900          43.800
  -4944770.141 2  -3853065.897 2  24885602.509    24885600.472    24885601.646
        12.600          16.100
 -27928137.744 7 -21762179.256 7  20148346.633    20148346.972    20148346.954
        45.300          42.600
  -4783191.365 3  -3727161.785 3  24751466.354    24751464.853    24751465.634
        19.300          19.300
 -18097920.941 6 -14102272.984 5  21803271.826    21803271.883    21803271.888
        38.400          34.700
 -13068829.182 5 -10183500.670 4  23157202.009    23157201.812    23157202.916
        30.100          26.500
 -22350363.295 6 -17415861.257 6  21456216.541    21456216.616    21456217.173
        41.900          40.400
 -14001485.544 5 -10910236.753 5  22757715.673    22757715.588    22757716.545
        33.900          30.600
 -25394385.382 7 -19787825.461 6  20853525.166    20853525.017    20853524.908
        44.800          41.500
   1092835.739 2    851557.888 2  24565632.082    24565633.244    24565632.706
        17.000          17.000
 13 10 10  0 15  0.0000000  0 12G10G27G26G21G 9G19G28G15G 5G 7G 8G 3
  -2236898.799 2  -1743025.306 3  24921340.723    24921343.574    24921340.934
        12.600          19.300
    152172.516 2    118575.511 2  25213189.051    25213190.792    25213188.907
        15.100          16.100
 -28558460.300 7 -22253338.177 7  19895770.315    19895770.784    19895770.911
        44.900          43.800
  -4959101.680 2  -3864233.334 2  24882874.034    24882873.725    24882874.388
        17.000          17.800
 -27882424.300 7 -21726558.389 7  20157045.335    20157045.966    20157045.955
        45.300          42.300
  -4808117.226 2  -3746584.529 3  24746722.640    24746721.056    24746722.276
        17.800          18.600
 -18147966.216 6 -14141269.292 5  21793748.583    21793748.490    21793748.763
        38.600          35.200
 -13162101.618 5 -10256180.492 4  23139453.264    23139452.587    23139453.998
        30.600          26.500
 -22287678.872 7 -17367016.264 6  21468144.923    21468145.097    21468145.579
        42.000          40.400
 -13911819.487 5 -10840367.080 5  22774778.896    22774778.201    22774779.258
        33.800          30.100
 -25355043.536 7 -19757169.483 6  20861011.350    20861011.557    20861011.359
        44.900          41.400
   1130431.620 2    880853.297 2  24572786.060    24572788.754    24572786.310
        17.800          16.100
 13 10 10  0 15 30.0000000  0 12G10G27G26G21G 9G19G28G15G 5G 7G 8G 3
  -2119477.425 2  -1651528.176 2  24943685.099    24943688.338    24943685.224
        15.100          17.800
    184606.328 2    143848.624 3  25219361.097    25219363.314    25219361.739
        17.800          19.900
 -28593959.642 7 -22280999.990 7  19889015.569    19889015.434    19889015.699
        44.900          44.000
  -4972940.230 2  -3875016.646 2  24880240.739    24880239.656    24880241.101
        12.600          16.100
 -27836219.964 7 -21690555.005 7  20165838.349    20165838.370    20165838.362
        45.200          42.400
  -4832483.771 3  -3765571.469 2  24742085.783    24742083.593    24742085.776
        21.100          17.800
 -18197528.922 6 -14179889.571 5  21784317.279    21784317.113    21784317.196
        38.400          35.200
 -13255210.287 5 -10328732.677 4  23121735.195    23121734.551    23121735.929
        30.600          27.100
 -22224504.951 7 -17317789.843 6  21480166.634    21480166.633    21480167.302
        42.200          40.100
 -13821960.755 5 -10770347.291 5  22791878.564    22791877.916    22791878.849
        33.500          30.200
 -25315295.845 7 -19726197.252 6  20868574.915    20868575.269    20868575.017
        44.800          41.100
   1168614.004 2    910605.730 2  24580053.172    24580053.954    24580053.330
        17.800          15.100
 13 10 10  0 16  0.0000000  0 12G10G27G26G21G 9G19G28G15G 5G 7G 8G 3
  -2002038.997 2  -1560017.746 2  24966032.656    24966035.490    24966033.330
        16.100          17.000
    217572.723 3    169536.696 3  25225633.869    25225635.908    25225634.216
        19.300          18.600
 -28628965.365 7 -22308277.176 7  19882353.742    19882354.053    19882354.288
        45.000          43.900
  -4986285.528 2  -3885415.601 2  24877701.642    24877699.696    24877701.423
        17.000          15.100
 -27789526.555 7 -21654170.541 7  20174723.478    20174723.843    20174723.764
        45.200          42.400
  -4856289.678 3  -3784121.547 3  24737555.947    24737553.812    24737555.846
        18.600          19.300
 -18246607.515 6 -14218132.612 5  21774977.944    21774977.607    21774977.940
        38.700          35.100
 -13348153.763 4 -10401156.104 4  23104048.308    23104047.761    23104048.925
        29.200          26.800
 -22160843.383 7 -17268183.437 6  21492280.859    21492281.007    21492281.705
        42.300          40.200
 -13731911.158 5 -10700178.761 5  22809014.320    22809013.341    22809014.742
        33.600          30.600
 -25275143.708 7 -19694909.871 6  20876215.479    20876216.043    20876215.703
        44.900          41.300
   1207381.371 2    940813.985 2  24587429.953    24587431.939    24587429.937
        17.000          16.100
 13 10 10  0 16 30.0000000  0 12G10G27G26G21G 9G19G28G15G 5G 7G 8G 3
  -1884585.662 2  -1468495.699 2  24988383.704    24988386.313    24988383.762
        16.100          17.800
    251070.560 2    195638.917 3  25232007.790    25232011.038    25232008.734
        15.100          19.900
 -28663476.199 7 -22335168.734 7  19875786.509    19875786.942    19875787.023
        45.000          44.000
  -4999137.454 2  -3895430.081 2  24875256.375    24875254.880    24875255.858
        15.100          16.100
 -27742345.451 7 -21617406.048 7  20183702.093    20183702.074    20183702.141
        45.400          42.400
  -4879533.837 3  -3802233.890 3  24733133.175    24733131.227    24733132.893
        18.600          19.300
 -18295200.475 6 -14255997.222 5  21765730.909    21765730.694    21765730.941
        38.600          35.200
 -13440930.284 5 -10473449.439 4  23086393.259    23086393.250    23086394.043
        30.400          26.200
 -22096696.080 7 -17218198.535 6  21504487.516    21504488.026    21504488.416
        42.000          40.000
 -13641672.743 5 -10629863.111 4  22826185.885    22826185.243    22826186.668
        33.200          29.000
 -25234588.754 7 -19663308.616 6  20883933.048    20883933.493    20883932.992
        44.700          41.200
   1246732.440 2    971477.170 2  24594917.488    24594919.717    24594918.358
        13.900          15.100
 13 10 10  0 17  0.0000000  0 12G10G27G26G21G 9G19G28G15G 5G 7G 8G 3
  -1767119.775 2  -1376963.861 3  25010737.589    25010739.613    25010737.708
        15.100          18.600
    285098.694 2    222154.320 2  25238484.288    25238486.529    25238484.478
        17.800          17.000
 -28697491.039 7 -22361673.804 7  19869314.174    19869314.109    19869314.295
        45.200          44.000
  -5011495.665 2  -3905059.861 2  24872904.626    24872902.849    24872904.346
        15.100          13.900
 -27694678.414 7 -21580262.903 7  20192772.568    20192772.849    20192772.800
        45.200          42.200
  -4902214.728 3  -3819907.327 2  24728817.486    24728815.247    24728817.411
        21.100          17.800
 -18343306.607 6 -14293482.486 5  21756576.636    21756576.445    21756576.534
        38.500          35.500
 -13533538.595 5 -10545611.705 4  23068770.552    23068770.248    23068771.394
        31.000          27.900
 -22032064.543 6 -17167836.314 6  21516786.497    21516787.034    21516787.376
        41.700          39.800
 -13551246.708 5 -10559401.300 5  22843393.527    22843393.222    22843393.994
        33.100          30.400
 -25193631.742 7 -19631394.069 6  20891726.613    20891727.302    20891726.835
        44.800          41.200
   1286665.615 2   1002593.881 2  24602516.677    24602518.123    24602517.199
        16.100          15.100
 13 10 10  0 17 30.0000000  0 12G10G27G26G21G 9G19G28G15G 5G 7G 8G 3
  -1649643.355 2  -1285423.812 3  25033092.736    25033094.830    25033092.633
        13.900          18.600
    319655.903 2    249081.943 2  25245059.976    25245062.413    25245060.565
        13.900          13.900
 -28731008.924 7 -22387791.665 7  19862935.470    19862935.858    19862936.076
        45.100          44.000
  -5023359.959 2  -3914304.796 2  24870646.019    24870645.367    24870646.754
        17.000          13.900
 -27646527.288 7 -21542742.543 7  20201935.408    20201935.604    20201935.708
        45.300          42.200
  -4924331.363 3  -3837141.073 3  24724608.193    24724606.371    24724608.106
        21.100          20.500
 -18390924.466 6 -14330587.311 5  21747515.082    21747515.120    21747515.175
        38.800          35.200
 -13625976.834 5 -10617641.476 4  23051179.589    23051179.831    23051180.878
        30.200          27.900
 -21966951.067 7 -17117098.556 6  21529177.502    21529177.693    21529178.166
        42.000          39.800
 -13460634.883 5 -10488794.694 4  22860635.825    22860636.211    22860637.173
        33.100          29.700
 -25152274.498 7 -19599167.646 6  20899596.858    20899597.280    20899596.897
        44.600          41.300
   1327179.494 2   1034163.120 2  24610225.733    24610228.093    24610226.985
        15.100          16.100
 13 10 10  0 18  0.0000000  0 12G10G27G26G21G 9G19G28G15G 5G 7G 8G 3
  -1532158.527 1  -1193877.238 2  25055449.177    25055451.476    25055448.504
         6.500          17.800
    354741.022 2    276420.955 2  25251736.365    25251737.775    25251736.544
        16.100          16.100
 -28764028.614 7 -22413521.282 7  19856652.355    19856652.474    19856652.671
        45.000          44.000
  -5034730.174 2  -3923164.669 2  24868483.306    24868481.301    24868482.792
        13.900          15.100
 -27597893.937 7 -21504846.430 7  20211190.189    20211190.265    20211190.388
        45.200          42.300
  -4945882.481 3  -3853934.182 3  24720507.425    24720505.536    24720508.061
        20.500          19.900
 -18438052.426 6 -14367310.408 5  21738546.951    21738546.998    21738546.959
        38.900          35.500
 -13718243.753 5 -10689537.774 4  23033622.353    23033621.981    23033623.213
        31.000          27.900
 -21901357.206 7 -17065986.462 6  21541659.591    21541659.638    21541660.440
        42.100          39.500
 -13369839.045 5 -10418044.706 5  22877914.056    22877914.286    22877915.133
        32.600          30.400
 -25110518.290 7 -19566630.340 6  20907542.750    20907543.313    20907542.931
        44.700          41.000
   1368272.864 2   1066183.900 2  24618045.929    24618048.290    24618046.647
        17.800          17.000
 13 10 10  0 18 30.0000000  0 12G10G27G26G21G 9G19G28G15G 5G 7G 8G 3
  -1414667.374 2  -1102325.727 3  25077806.998    25077809.027    25077806.097
        13.900          18.600
    390352.827 1    304170.380 2  25258514.128    25258516.157    25258513.799
        11.000          13.900
 -28796549.012 7 -22438861.881 7  19850464.109    19850463.986    19850464.264
        45.400          44.300
  -5045606.148 2  -3931639.470 1  24866412.793    24866412.161    24866412.139
        13.900           9.000
 -27548780.144 7 -21466575.938 7  20220536.239    20220536.299    20220536.407
        45.200          42.000
  -4966866.758 3  -3870285.611 3  24716512.581    24716511.591    24716512.938
        20.500          21.600
 -18484689.293 6 -14403650.785 5  21729672.109    21729672.101    21729672.184
        38.500          35.800
 -13810337.970 5 -10761299.486 4  23016097.937    23016096.966    23016098.564
        31.500          27.900
 -21835285.016 6 -17014501.654 6  21554232.510    21554232.797    21554233.167
        41.400          39.500
 -13278860.817 5 -10347152.600 4  22895226.513    22895226.598    22895227.577
        32.800          29.500
 -25068364.534 7 -19533783.258 6  20915564.389    20915564.841    20915564.453
        44.600          41.100
   1409944.417 1   1098655.246 2  24625976.279    24625977.535    24625976.452
        11.000          15.100
 13 10 10  0 19  0.0000000  0 12G10G27G26G21G 9G19G28G15G 5G 7G 8G 3
  -1297172.184 2  -1010771.035 2  25100164.873    25100167.503    25100164.409
        17.000          17.800
    426490.022 2    332329.198 2  25265390.124    25265392.705    25265391.055
        17.000          15.100
 -28828568.969 7 -22463812.490 7  19844370.361    19844370.750    19844370.947
        45.100          44.100
  -5055988.154 2  -3939729.358 2  24864436.034    24864436.673    24864437.661
        17.000          15.100
 -27499187.664 7 -21427932.437 6  20229973.218    20229973.390    20229973.553
        45.100          41.900
  -4987283.070 3  -3886194.464 3  24712626.833    24712626.512    24712627.624
        19.300          19.900
 -18530833.383 6 -14439607.165 6  21720891.420    21720891.310    21720891.444
        38.700          36.000
 -13902257.932 5 -10832925.449 4  22998606.144    22998605.154    22998606.790
        31.500          27.900
 -21768736.480 6 -16962645.665 6  21566896.531    21566896.549    21566897.081
        41.600          39.700
 -13187701.792 5 -10276119.598 4  22912573.955    22912573.341    22912574.641
        32.700          29.200
 -25025814.262 7 -19500627.201 6  20923661.710    20923661.799    20923661.623
        44.600          40.800
   1452191.999 3   1131575.383 2  24634017.246    24634016.872    24634017.077
        18.600          13.900
 13 10 10  0 19 30.0000000  0 12G10G27G26G21G 9G19G28G15G 5G 7G 8G 3
  -1179674.814 2   -919214.685 2  25122524.013    25122526.381    25122523.272
        15.100          12.600
    463151.335 2    360896.443 2  25272366.030    25272368.745    25272367.070
        15.100          15.100
 -28860087.498 7 -22488372.392 7  19838372.935    19838373.077    19838373.156
        45.100          44.300
  -5065875.583 2  -3947433.834 2  24862556.879    24862555.544    24862556.378
        16.100          17.800
 -27449117.824 7 -21388916.978 6  20239501.422    20239501.355    20239501.444
        44.900          41.700
  -5007130.240 3  -3901659.852 2  24708853.582    24708849.573    24708852.265
        21.600          17.000
 -18576483.567 6 -14475178.671 5  21712204.416    21712204.278    21712204.184
        38.600          35.400
 -13994001.513 5 -10904413.993 4  22981147.333    22981147.726    22981148.147
        30.800          28.400
 -21701713.398 6 -16910419.898 6  21579650.737    21579650.916    21579651.341
        41.700          39.700
 -13096363.327 5 -10204946.778 4  22929954.654    22929954.513    22929955.596
        32.400          28.600
 -24982869.075 7 -19467163.396 6  20931833.637    20931834.084    20931833.817
        44.900          41.100
   1495014.440 2   1164943.474 2  24642165.005    24642166.046    24642165.513
        13.900          17.800
 13 10 10  0 20  0.0000000  0 12G10G27G26G21G 9G19G28G15G 5G 7G 8G 3
  -1062177.779 2   -827658.565 2  25144882.535    25144885.480    25144882.399
        17.000          17.800
    500335.271 2    389870.849 2  25279442.411    25279444.841    25279442.556
        15.100          15.100
 -28891103.444 7 -22512540.671 7  19832470.624    19832470.959    19832471.087
        45.200          44.300
  -5075268.711 2  -3954753.172 2  24860769.165    24860767.490    24860769.066
        16.100          13.900
 -27398572.812 7 -21349531.268 6  20249119.088    20249119.815    20249119.802
        45.000          41.600
  -5026407.188 3  -3916680.916 3  24705184.743    24705181.611    24705184.914
        21.100          19.300
 -18621638.280 6 -14510364.094 5  21703611.432    21703611.168    21703611.621
        39.300          35.400
 -14085567.860 5 -10975764.349 4  22963723.226    22963722.574    22963723.782
        32.000          28.100
 -21634217.734 6 -16857825.892 6  21592494.147    21592494.605    21592495.204
        41.700          39.300
 -13004847.784 5 -10133635.971 4  22947369.982    22947369.523    22947370.491
        32.700          29.700
 -24939530.580 7 -19433393.140 6  20940080.806    20940081.209    20940080.836
        44.600          41.000
   1538410.161 2   1198758.263 2  24650421.798    24650423.944    24650422.423
        17.800          15.100
 13 10 10  0 20 30.0000000  0 12G10G27G26G21G 9G19G28G15G 5G 7G 8G 3
   -944683.092 2   -736104.285 2  25167241.128    25167243.647    25167241.294
        12.600          17.000
    538040.778 1    419251.719 2  25286616.077    25286619.678    25286617.143
         9.000          16.100
 -28921615.814 7 -22536316.535 7  19826664.322    19826664.624    19826664.781
        45.100          44.400
  -5084167.193 2  -3961687.038 2  24859075.533    24859075.271    24859075.518
        17.800          16.100
 -27347554.465 7 -21309776.736 6  20258828.142    20258828.351    20258828.247
        44.800          41.800
  -5045112.598 3  -3931256.627 3  24701625.869    24701622.836    24701625.033
        21.600          19.300
 -18666296.470 6 -14545162.604 5  21695113.382    21695113.079    21695113.378
        39.000          35.900
 -14176955.148 5 -11046975.170 4  22946331.754    22946332.590    22946333.267
        31.000          28.400
 -21566251.623 6 -16804865.293 6  21605427.683    21605428.077    21605428.702
        41.500          38.900
 -12913156.629 5 -10062188.310 4  22964818.361    22964817.968    22964818.648
        32.600          29.200
 -24895800.051 7 -19399317.397 6  20948402.689    20948402.794    20948402.561
        44.900          41.100
   1582377.758 2   1233018.747 2  24658789.517    24658790.533    24658789.671
        17.800          16.100
 13 10 10  0 21  0.0000000  0 12G10G27G26G21G 9G19G28G15G 5G 7G 8G 3
   -827192.915 2   -644553.501 2  25189598.714    25189601.577    25189598.631
        12.600          16.100
    576266.520 2    449038.060 2  25293890.542    25293893.716    25293891.561
        16.100          17.800
 -28951623.547 7 -22559699.184 7  19820954.077    19820954.307    19820954.376
        45.100          44.400
  -5092571.033 2  -3968235.468 2  24857477.031    24857475.001    24857476.775
        12.600          15.100
 -27296064.393 7 -21269654.616 6  20268626.263    20268626.740    20268626.600
        45.100          41.600
  -5063245.881 2  -3945386.595 3  24698174.678    24698172.344    24698173.431
        17.800          18.600
 -18710456.895 6 -14579573.262 6  21686709.841    21686709.850    21686709.820
        38.700          36.300
 -14268161.901 5 -11118045.372 4  22928975.991    22928976.397    22928977.128
        31.600          28.800
 -21497816.977 6 -16751539.608 6  21618450.688    21618451.015    21618451.442
        41.700          39.100
 -12821291.420 5  -9990605.023 4  22982299.327    22982299.141    22982300.208
        32.400          29.000
 -24851678.707 7 -19364937.136 6  20956798.365    20956798.812    20956798.415
        44.500          40.800
   1626916.062 2   1267723.909 2  24667264.740    24667266.511    24667264.922
        17.000          17.000
 13 10 10  0 21 30.0000000  0 12G10G27G26G21G 9G19G28G15G 5G 7G 8G 3
   -709709.099 2   -553007.709 2  25211955.021    25211957.564    25211954.515
        16.100          17.000
    615011.142 2    479228.753 3  25301264.087    25301266.919    25301264.311
        13.900          18.600
 -28981125.649 7 -22582687.832 7  19815340.227    19815340.210    19815340.287
        45.200          44.500
  -5100480.651 2  -3974398.800 2  24855970.689    24855970.238    24855971.490
        16.100          17.800
 -27244104.416 7 -21229166.335 6  20278514.152    20278514.307    20278514.280
        44.800          41.400
  -5080805.539 2  -3959069.499 3  24694831.707    24694830.774    24694831.230
        17.800          19.300
 -18754118.072 6 -14613594.900 6  21678401.618    21678401.247    21678401.480
        39.200          36.200
 -14359186.813 5 -11188973.900 4  22911655.162    22911654.807    22911655.946
        32.100          28.400
 -21428915.658 6 -16697850.284 6  21631562.302    21631562.422    21631563.011
        41.500          39.300
 -12729253.840 5  -9918887.428 4  22999814.047    22999812.871    22999814.635
        32.400          27.600
 -24807167.784 7 -19330253.324 6  20965268.564    20965268.915    20965268.530
        44.400          40.600
   1672022.824 2   1302872.041 1  24675849.388    24675849.637    24675848.985
        12.600          11.000
 13 10 10  0 22  0.0000000  0 12G10G27G26G21G 9G19G28G15G 5G 7G 8G 3
   -592234.090 2   -461468.755 2  25234310.480    25234312.849    25234309.969
        17.800          12.600
    654272.966 2    509822.394 3  25308736.133    25308738.576    25308736.509
        16.100          18.600
 -29010121.021 7 -22605281.642 7  19809822.377    19809822.616    19809822.707
        45.300          44.500
  -5107895.580 2  -3980176.655 2  24854559.496    24854559.683    24854559.561
        15.100          17.000
 -27191676.473 7 -21188313.407 6  20288490.693    20288491.009    20288491.078
        45.100          41.600
  -5097790.752 3  -3972304.789 3  24691600.477    24691598.381    24691599.804
        20.500          20.500
 -18797278.814 6 -14647226.614 6  21670188.122    21670187.890    21670188.110
        38.900          36.300
 -14450027.668 5 -11259758.985 4  22894368.765    22894368.711    22894369.542
        32.100          28.400
 -21359549.964 6 -16643799.107 6  21644762.179    21644762.431    21644762.945
        41.500          39.300
 -12637045.627 5  -9847036.888 4  23017360.828    23017359.786    23017361.088
        32.800          29.000
 -24762268.850 7 -19295267.156 6  20973812.735    20973812.866    20973812.627
        44.300          40.400
   1717696.452 2   1338461.791 1  24684540.585    24684540.854    24684540.044
        13.900          11.000
 13 10 10  0 22 30.0000000  0 11G10G26G21G 9G19G28G15G 5G 7G 8G 3
   -474769.865 3   -369938.182 3  25256664.090    25256665.121    25256663.363
        18.600          18.600
 -29038608.653 7 -22627479.819 7  19804401.416    19804401.698    19804401.827
        45.100          44.400
  -5114816.019 2  -3985569.211 2  24853243.272    24853242.188    24853243.463
        12.600          13.900
 -27138782.240 7 -21147097.147 6  20298556.406    20298556.455    20298556.434
        44.800          41.500
  -5114200.342 3  -3985091.533 3  24688477.212    24688475.937    24688477.938
        19.300          19.900
 -18839937.698 6 -14680467.277 6  21662070.596    21662070.193    21662070.510
        39.500          36.500
 -14540682.866 5 -11330399.368 4  22877117.534    22877117.142    22877118.049
        32.300          28.400
 -21289721.851 6 -16589387.603 6  21658049.856    21658050.023    21658050.572
        41.000          38.900
 -12544668.392 5  -9775054.665 4  23034938.970    23034938.863    23034939.432
        31.300          29.500
 -24716983.465 7 -19259979.849 6  20982430.207    20982430.486    20982430.120
        44.300          40.700
   1763935.453 2   1374492.190 2  24693339.530    24693339.967    24693339.218
        15.100          12.600
 13 10 10  0 23  0.0000000  0 11G10G26G21G 9G19G28G15G 5G 7G 8G 3
   -357318.452 2   -278417.600 2  25279014.256    25279015.504    25279013.409
        12.600          13.900
 -29066587.512 7 -22649281.545 7  19799077.265    19799077.512    19799077.676
        45.200          44.300
  -5121241.910 2  -3990576.400 2  24852019.296    24852019.859    24852019.710
        15.100          13.900
 -27085423.489 7 -21105518.908 6  20308709.742    20308710.285    20308710.255
        44.800          41.300
  -5130033.438 3  -3997429.035 3  24685465.919    24685462.744    24685465.912
        22.600          19.900
 -18882093.543 6 -14713315.957 6  21654048.189    21654048.118    21654048.254
        39.300          36.200
 -14631151.253 5 -11400894.215 4  22859901.547    22859901.689    22859902.444
        32.300          29.000
 -21219433.193 6 -16534617.232 6  21671425.473    21671425.616    21671426.223
        41.400          38.600
 -12452123.578 5  -9702941.835 4  23052549.617    23052549.604    23052550.409
        32.300          28.600
 -24671312.853 7 -19224392.376 6  20991120.868    20991121.514    20991120.910
        44.300          40.600
   1810738.087 2   1410961.789 2  24702246.012    24702246.567    24702245.665
        15.100          13.900
 13 10 10  0 23 30.0000000  0 11G10G26G21G 9G19G28G15G 5G 7G 8G 3
   -239881.956 1   -186908.669 2  25301361.361    25301363.273    25301360.893
        11.000          12.600
 -29094056.591 7 -22670686.042 7  19793850.218    19793850.330    19793850.450
        45.200          44.600
  -5127173.258 2  -3995198.202 2  24850890.435    24850891.033    24850891.051
        17.000          15.100
 -27031602.112 7 -21063580.190 6  20318952.183    20318952.112    20318952.064
        44.800          41.300
  -5145288.928 3  -4009316.499 3  24682562.573    24682558.921    24682562.913
        19.300          18.600
 -18923745.496 6 -14745771.971 6  21646121.881    21646121.918    21646122.082
        39.300          36.200
 -14721431.192 5 -11471242.202 4  22842722.245    22842721.519    22842723.251
        32.800          28.600
 -21148685.987 6 -16479489.545 6  21684888.372    21684888.514    21684888.934
        41.200          38.900
 -12359412.994 5  -9630699.834 4  23070192.119    23070191.579    23070192.525
        31.600          28.600
 -24625258.703 7 -19188506.046 6  20999884.707    20999885.258    20999884.788
        44.200          40.300
   1858102.221 3   1447868.806 2  24711257.923    24711259.491    24711258.542
        18.600          15.100
 13 10 10  0 24  0.0000000  0 11G10G26G21G 9G19G28G15G 5G 7G 8G 3
   -122462.511 2    -95413.011 2  25323705.546    25323707.386    25323705.479
        17.000          16.100
 -29121014.882 7 -22691692.514 7  19788720.132    19788720.330    19788720.413
        45.300          44.600
  -5132610.291 2  -3999434.851 3  24849857.363    24849855.845    24849857.547
        13.900          18.600
 -26977319.996 7 -21021282.447 6  20329281.350    20329281.734    20329281.814
        44.800          41.100
  -5159966.180 3  -4020753.364 3  24679769.438    24679766.965    24679768.502
        19.300          21.100
 -18964892.113 6 -14777834.227 6  21638292.222    21638291.972    21638292.209
        39.300          36.500
 -14811521.293 5 -11541442.300 4  22825578.090    22825578.135    22825579.597
        32.000          29.200
 -21077482.412 6 -16424006.255 6  21698437.739    21698438.018    21698438.369
        40.900          38.900
 -12266538.533 5  -9558330.146 4  23087865.066    23087865.242    23087865.982
        31.500          28.600
 -24578822.252 7 -19152321.797 6  21008721.402    21008721.869    21008721.364
        44.300          40.600
   1906026.761 2   1485212.552 2  24720377.700    24720379.285    24720378.703
        15.100          13.900
 13 10 10  0 24 30.0000000  0 11G10G26G21G 9G19G28G15G 5G 7G 8G 3
     -5062.480 2     -3932.480 2  25346046.801    25346047.659    25346046.135
        13.900          16.100
 -29147461.518 7 -22712300.312 7  19783687.438    19783687.757    19783687.875
        45.400          44.800
  -5137553.231 2  -4003286.508 2  24848915.799    24848914.882    24848916.160
        12.600          16.100
 -26922578.866 7 -20978627.026 6  20339698.445    20339698.611    20339698.702
        44.800          41.200
  -5174064.037 2  -4031738.755 3  24677085.409    24677085.052    24677085.088
        17.000          21.600
 -19005532.076 6 -14809501.675 6  21630558.952    21630558.525    21630558.886
        39.500          36.700
 -14901419.552 5 -11611492.895 4  22808471.538    22808471.186    22808472.203
        32.000          29.500
 -21005824.517 6 -16368168.946 6  21712073.872    21712074.001    21712074.667
        41.300          38.700
 -12173501.367 5  -9485833.649 4  23105569.554    23105569.608    23105570.462
        31.000          29.000
 -24532004.823 7 -19115840.702 6  21017630.117    21017630.933    21017630.279
        44.000          40.300
   1954510.047 2   1522991.806 2  24729604.823    24729605.280    24729604.483
        15.100          16.100
 13 10 10  0 25  0.0000000  0 11G10G26G21G 9G19G28G15G 5G 7G 8G 3
    112316.171 2     87531.395 2  25368384.089    25368384.054    25368383.151
        13.900          15.100
 -29173395.403 7 -22732508.548 7  19778752.248    19778752.738    19778752.785
        45.400          44.700
  -5142001.769 1  -4006752.874 2  24848068.657    24848068.446    24848068.602
        11.000          17.800
 -26867380.617 7 -20935615.396 6  20350202.381    20350202.597    20350202.596
        44.800          41.400
  -5187581.475 2  -4042271.762 3  24674512.276    24674513.058    24674512.758
        17.000          22.600
 -19045664.342 6 -14840773.548 6  21622921.358    21622921.612    21622921.675
        39.200          36.900
 -14991124.617 5 -11681392.934 4  22791401.092    22791400.870    22791402.175
        32.700          28.800
 -20933714.537 6 -16311979.357 6  21725795.731    21725796.163    21725796.667
        40.900          38.400
 -12080303.162 5  -9413211.677 4  23123304.635    23123304.626    23123305.363
        31.000          29.000
 -24484807.970 7 -19079063.943 6  21026611.680    21026612.135    21026611.600
        44.100          40.400
   2003549.863 2   1561204.641 2  24738936.134    24738937.331    24738936.529
        13.900          15.100
 13 10 10  0 25 30.0000000  0 11G10G26G21G 9G19G28G15G 5G 7G 8G 3
    229671.171 2    178976.849 2  25390715.802    25390716.314    25390715.006
        15.100          16.100
 -29198815.613 7 -22752316.517 7  19773915.192    19773915.399    19773915.408
        45.500          44.700
  -5145956.162 2  -4009834.203 2  24847316.452    24847316.155    24847316.745
        15.100          17.800
 -26811727.241 7 -20892249.133 6  20360792.725    20360793.028    20360793.024
        44.700          41.100
  -5200517.815 3  -4052351.951 3  24672052.418    24672051.251    24672052.096
        19.300          22.100
 -19085287.891 6 -14871648.984 6  21615381.566    21615381.345    21615381.594
        39.500          36.600
 -15080634.953 5 -11751141.254 4  22774367.416    22774367.750    22774368.774
        32.400          29.200
 -20861154.338 6 -16255438.960 6  21739603.697    21739603.913    21739604.341
        41.100          38.400
 -11986945.791 5  -9340465.682 4  23141070.443    23141069.786    23141070.650
        31.100          28.400
 -24437232.967 7 -19041992.518 6  21035664.693    21035665.263    21035664.855
        44.100          40.200
   2053145.097 2   1599850.318 2  24748373.615    24748374.685    24748374.137
        15.100          13.900
 13 10 10  0 26  0.0000000  0 11G10G26G21G 9G19G28G15G 5G 7G 8G 3
    347000.723 2    270402.462 2  25413042.570    25413043.225    25413042.131
        15.100          17.000
 -29223721.279 7 -22771723.565 7  19769175.744    19769175.980    19769176.135
        45.100          44.700
  -5149416.886 2  -4012530.899 2  24846657.992    24846657.955    24846657.039
        13.900          17.000
 -26755620.526 7 -20848529.611 6  20371469.679    20371469.850    20371469.718
        44.500          40.900
  -5212872.286 3  -4061978.831 3  24669701.361    24669700.203    24669701.440
        22.100          22.100
 -19124401.484 6 -14902127.053 6  21607938.790    21607938.073    21607938.653
        39.700          36.300
 -15169948.675 5 -11820736.328 4  22757372.128    22757371.613    22757372.899
        33.100          29.000
 -20788146.061 6 -16198549.395 6  21753496.706    21753496.855    21753497.489
        41.100          38.100
 -11893430.691 5  -9267596.781 4  23158865.823    23158865.121    23158866.184
        31.100          28.400
 -24389281.239 7 -19004627.522 6  21044789.703    21044790.237    21044789.686
        43.800          40.000
   2103293.494 2   1638926.990 2  24757916.157    24757917.862    24757916.518
        15.100          15.100
 13 10 10  0 26 30.0000000  0 11G10G26G21G 9G19G28G15G 5G 7G 8G 3
    464302.680 1    361806.559 2  25435363.940    25435365.173    25435363.675
        11.000          13.900
 -29248111.260 7 -22790728.724 7  19764534.497    19764534.697    19764534.881
        45.400          44.800
  -5152384.002 2  -4014842.950 2  24846093.103    24846092.565    24846093.166
        13.900          13.900
 -26699062.408 7 -20804458.347 6  20382232.177    20382232.452    20382232.475
        44.700          40.900
  -5224644.025 3  -4071151.568 3  24667463.193    24667459.788    24667462.502
        22.600          21.600
 -19163003.998 6 -14932206.919 6  21600592.860    21600592.406    21600592.797
        39.800          37.000
 -15259064.476 5 -11890177.200 4  22740414.000    22740413.459    22740414.803
        33.000          29.000
 -20714691.804 6 -16141312.326 6  21767474.742    21767474.893    21767475.330
        40.900          38.400
 -11799759.684 5  -9194606.400 4  23176691.014    23176690.174    23176691.143
        31.100          27.400
 -24340954.299 7 -18966970.173 6  21053985.720    21053986.492    21053986.002
        43.800          40.100
   2153993.221 3   1678433.280 1  24767565.141    24767565.850    24767564.223
        18.600          11.000
 13 10 10  0 27  0.0000000  0 11G10G26G21G 9G19G28G15G 5G 7G 8G 3
    581574.870      453187.487 2  25457679.970    25457681.199    25457678.643
         3.000          12.600
 -29271984.765 7 -22809331.471 7  19759991.614    19759991.831    19759991.880
        45.300          45.000
  -5154857.647 2  -4016770.457 2  24845621.973    24845621.813    24845622.206
        12.600          12.600
 -26642054.528 7 -20760036.648 6  20393080.520    20393080.635    20393080.612
        44.300          40.700
  -5235832.408 3  -4079869.815 3  24665334.555    24665329.926    24665333.268
        22.600          21.100
 -19201094.275 6 -14961887.618 6  21593344.748    21593344.096    21593344.501
        39.500          37.300
 -15347980.480 5 -11959462.410 4  22723493.523    22723493.429    22723494.163
        32.700          29.700
 -20640794.050 6 -16083729.661 6  21781537.112    21781537.046    21781537.520
        40.700          38.100
 -11705934.194 5  -9121495.635 4  23194544.756    23194544.409    23194545.612
        31.100          27.400
 -24292253.507 7 -18929021.502 6  21063253.742    21063254.011    21063253.632
        43.900          40.100
   2205242.186 2   1718367.448 1  24777317.444    24777317.758    24777317.602
        17.000          11.000
 13 10 10  0 27 30.0000000  0 11G10G26G21G 9G19G28G15G 5G 7G 8G 3
    698815.222      544543.572 1  25479989.132    25479991.722    25479988.820
         3.000          11.000
 -29295340.962 7 -22827531.161 7  19755546.901    19755547.407    19755547.394
        45.300          45.000
  -5156837.943 2  -4018313.600 2  24845245.595    24845243.669    24845244.648
        12.600          12.600
 -26584598.494 7 -20715265.697 6  20404014.383    20404014.245    20404014.172
        44.300          40.800
  -5246436.549 3  -4088132.849 3  24663316.206    24663312.503    24663315.928
        23.400          21.600
 -19238671.257 6 -14991168.354 6  21586193.928    21586193.282    21586193.825
        39.700          37.100
 -15436695.258 5 -12028590.782 4  22706611.628    22706611.650    22706612.384
        33.600          29.700
 -20566454.640 6 -16025802.865 6  21795683.246    21795683.691    21795684.042
        40.800          38.500
 -11611956.049 5  -9048265.926 4  23212428.581    23212427.897    23212429.286
        31.300          28.400
 -24243180.115 7 -18890782.487 6  21072592.025    21072592.467    21072592.016
        43.900          40.200
   2257038.829 2   1758728.461 2  24787174.433    24787174.275    24787173.681
        16.100          16.100
 13 10 10  0 28  0.0000000  0 12G10G18G26G21G 9G19G28G15G 5G 7G 8G 3
    816021.844 2    635873.402 2  25502292.135    25502295.534    25502292.120
        12.600          13.900
   -193352.809 1   -150663.728 1  25909350.897    25909348.726    25909350.500
         9.000           9.000
 -29318178.737 7 -22845326.840 7  19751201.212    19751201.517    19751201.473
        45.400          44.800
  -5158325.355 2  -4019472.648 2  24844964.176    24844961.368    24844964.210
        15.100          12.600
 -26526696.364 7 -20670147.141 6  20415032.172    20415032.649    20415032.551
        44.200          40.700
  -5256455.799 3  -4095940.107 3  24661409.701    24661405.207    24661408.257
        22.100          19.900
 -19275733.935 6 -15020048.311 6  21579140.947    21579140.498    21579140.943
        39.700          36.800
 -15525207.257 5 -12097561.157 5  22689768.074    22689768.690    22689769.288
        33.800          30.100
 -20491675.703 6 -15967533.571 6  21809913.081    21809913.366    21809914.000
        40.700          37.700
 -11517826.549 5  -8974918.256 4  23230340.979    23230340.446    23230341.390
        31.600          27.600
 -24193735.644 7 -18852254.325 6  21082001.016    21082001.349    21082000.925
        43.800          40.000
   2309381.626 2   1799515.148 1  24797134.238    24797134.553    24797134.032
        15.100          11.000
 13 10 10  0 28 30.0000000  0 12G10G18G26G21G 9G19G28G15G 5G 7G 8G 3
    933192.608 1    727175.259 2  25524589.695    25524592.771    25524590.445
        11.000          15.100
   -293195.531 1   -228463.071 1  25890351.633    25890348.583    25890348.858
        11.000           9.000
 -29340497.238 7 -22862717.871 7  19746954.068    19746954.448    19746954.412
        45.400          45.000
  -5159319.942 2  -4020247.617 2  24844775.502    24844771.825    24844775.302
        16.100          13.900
 -26468350.277 7 -20624682.655 6  20426135.187    20426135.566    20426135.403
        44.300          40.700
  -5265889.143 3  -4103290.809 3  24659612.932    24659608.999    24659612.025
        20.500          18.600
 -19312281.404 6 -15048526.842 6  21572186.104    21572185.713    21572186.042
        39.600          36.800
 -15613514.781 5 -12166372.215 5  22672964.236    22672964.184    22672965.097
        34.000          30.100
 -20416459.622 6 -15908923.644 6  21824225.957    21824226.346    21824226.936
        40.400          37.500
 -11423547.138 5  -8901453.790 4  23248281.586    23248281.262    23248282.075
        30.800          27.900
 -24143921.875 7 -18813438.417 6  21091479.961    21091480.649    21091480.121
        43.800          39.800
   2362267.894 3   1840725.139 1  24807198.172    24807198.526    24807197.704
        18.600          11.000
 13 10 10  0 29  0.0000000  0 12G10G18G26G21G 9G19G28G15G 5G 7G 8G 3
   1050325.216 2    818447.387 2  25546879.575    25546881.976    25546879.573
        12.600          17.000
   -392921.940 2   -306171.953 2  25871373.535    25871371.796    25871372.883
        12.600          13.900
 -29362295.671 7 -22879703.666 7  19742805.668    19742806.293    19742806.316
        45.400          44.700
  -5159821.952 2  -4020638.761 2  24844679.092    24844676.811    24844679.091
        13.900          16.100
 -26409562.031 7 -20578873.630 6  20437322.271    20437322.639    20437322.343
        44.200          40.600
  -5274736.327 2  -4110184.809 2  24657925.952    24657926.687    24657926.124
        15.100          17.000
 -19348312.546 6 -15076602.985 6  21565329.690    21565329.081    21565329.511
        39.700          37.000
 -15701616.126 5 -12235022.594 5  22656198.972    22656198.786    22656199.825
        34.000          30.200
 -20340808.419 6 -15849974.668 6  21838622.175    21838622.540    21838623.013
        40.700          38.000
 -11329119.636 5  -8827873.946 4  23266250.158    23266250.645    23266250.800
        30.200          27.900
 -24093740.122 7 -18774335.744 6  21101029.315    21101029.882    21101029.292
        43.700          39.800
   2415696.009 2   1882357.362 2  24817364.698    24817366.671    24817365.023
        15.100          13.900
 13 10 10  0 29 30.0000000  0 11G10G18G26G21G 9G19G28G15G 5G 7G 8
   1167417.813 2    909688.337 2  25569162.258    25569163.640    25569162.733
        12.600          17.000
   -492529.562 1   -383788.291 2  25852418.770    25852417.713    25852417.629
         9.000          12.600
 -29383573.202 7 -22896283.568 7  19738757.149    19738757.297    19738757.377
        45.500          45.000
  -5159831.875 2  -4020646.458 2  24844676.973    24844675.161    24844677.731
        15.100          16.100
 -26350333.544 7 -20532721.552 6  20448592.845    20448593.328    20448593.108
        44.000          40.500
  -5282996.336 2  -4116621.175 3  24656356.021    24656354.483    24656356.557
        17.800          19.300
 -19383826.301 6 -15104276.003 6  21558571.502    21558571.338    21558571.556
        39.800          37.200
 -15789509.823 5 -12303511.170 5  22639473.815    22639473.383    22639474.249
        34.300          30.800
 -20264724.568 6 -15790688.560 6  21853100.343    21853100.815    21853101.234
        40.500          37.900
 -11234545.711 5  -8754180.046 4  23284246.783    23284247.026    23284247.793
        30.400          27.400
 -24043191.728 7 -18734947.359 6  21110648.411    21110648.786    21110648.510
        43.700          39.500
 13 10 10  0 30  0.0000000  0 11G10G18G26G21G 9G19G28G15G 5G 7G 8
   1284468.255 2   1000896.449 2  25591436.623    25591438.098    25591436.535
        13.900          15.100
   -592016.273 2   -461310.400 1  25833487.087    25833485.771    25833486.709
        15.100           9.000
 -29404328.868 7 -22912456.828 7  19734807.303    19734807.606    19734807.733
        45.500          44.900
  -5159349.835 2  -4020270.838 2  24844769.593    24844767.658    24844768.847
        17.000          13.900
 -26290666.672 7 -20486227.882 6  20459947.088    20459947.495    20459947.409
        44.100          40.300
  -5290668.607 3  -4122599.592 3  24654898.935    24654895.931    24654897.990
        19.300          19.900
 -19418821.638 6 -15131545.052 6  21551912.076    21551911.842    21551911.942
        39.800          37.500
 -15877194.049 5 -12371836.555 4  22622787.783    22622787.264    22622788.506
        33.400          29.700
 -20188210.044 6 -15731066.865 6  21867660.726    21867661.017    21867661.637
        40.400          37.800
 -11139826.708 5  -8680373.072 4  23302272.046    23302271.253    23302272.575
        30.100          27.400
 -23992278.181 7 -18695274.462 6  21120336.871    21120337.284    21120336.935
        43.600          39.600
 13 10 10  0 30 30.0000000  0 11G10G18G26G21G 9G19G28G15G 5G 7G 8
   1401474.567 1   1092070.175 2  25613702.262    25613703.752    25613701.982
         9.000          13.900
   -691379.919 1   -538736.614 2  25814578.688    25814576.708    25814577.883
         9.000          12.600
 -29424561.897 7 -22928222.825 7  19730957.308    19730957.386    19730957.544
        45.700          45.100
  -5158376.103 2  -4019512.087 2  24844954.241    24844952.918    24844953.974
        13.900          17.800
 -26230563.353 7 -20439394.139 6  20471384.523    20471384.846    20471384.780
        44.000          40.300
  -5297752.594 3  -4128119.654 3  24653550.948    24653548.366    24653550.096
        22.100          21.100
 -19453297.887 6 -15158409.602 6  21545351.530    21545350.933    21545351.481
        40.100          37.600
 -15964667.205 5 -12439997.470 4  22606142.171    22606142.054    22606142.790
        33.400          29.900
 -20111267.042 6 -15671111.288 6  21882302.361    21882302.912    21882303.241
        40.500          37.700
 -11044964.447 5  -8606454.449 4  23320323.931    23320322.946    23320324.479
        30.400          27.900
 -23941001.201 7 -18655318.372 6  21130094.780    21130095.128    21130094.661
        43.600          39.800
 13 10 10  0 31  0.0000000  0 11G10G18G26G21G 9G19G28G15G 5G 7G 8
   1518434.752 2   1183207.986 2  25635959.112    25635960.265    25635958.920
        13.900          15.100
   -790618.371 1   -616065.275 1  25795693.826    25795692.273    25795692.801
        11.000           9.000
 -29444271.351 7 -22943580.821 7  19727206.786    19727206.747    19727206.988
        45.600          45.100
  -5156911.104 2  -4018370.534 2  24845232.460    24845231.706    24845232.371
        17.000          16.100
 -26170025.278 7 -20392221.615 6  20482904.614    20482904.790    20482904.703
        43.900          40.200
  -5304247.635 4  -4133180.760 3  24652317.010    24652312.821    24652315.706
        25.900          21.600
 -19487254.044 6 -15184868.921 6  21538889.899    21538889.107    21538889.740
        39.900          37.000
 -16051927.779 5 -12507992.737 5  22589536.902    22589536.624    22589537.870
        34.000          30.100
 -20033897.934 6 -15610823.688 6  21897025.615    21897025.672    21897026.285
        40.300          37.200
 -10949960.391 5  -8532425.351 4  23338401.979    23338401.801    23338403.013
        30.400          26.200
 -23889362.079 7 -18615080.086 6  21139921.422    21139921.612    21139921.330
        43.400          39.500
 13 10 10  0 31 30.0000000  0 11G10G18G26G21G 9G19G28G15G 5G 7G 8
   1635346.565 2   1274308.107 2  25658206.395    25658207.983    25658205.423
        16.100          13.900
   -889729.190 1   -693294.436 2  25776832.757    25776832.298    25776832.119
         6.500          13.900
 -29463456.485 7 -22958530.258 7  19723555.886    19723555.954    19723556.102
        45.500          45.000
  -5154955.425 2  -4016846.662 2  24845605.837    24845604.150    24845604.716
        16.100          16.100
 -26109054.354 7 -20344711.794 6  20494506.878    20494507.212    20494507.105
        43.900          40.500
  -5310153.170 3  -4137782.432 3  24651191.298    24651189.109    24651190.824
        21.600          23.400
 -19520689.133 6 -15210922.220 6  21532527.340    21532526.783    21532527.295
        39.900          37.600
 -16138974.126 5 -12575821.066 5  22572972.702    22572972.573    22572973.518
        34.300          30.800
 -19956104.691 6 -15550205.583 6  21911828.940    21911829.111    21911829.741
        40.500          37.000
 -10854815.877 4  -8458286.802 4  23356507.075    23356507.359    23356508.085
        29.500          26.500
 -23837362.022 7 -18574560.562 6  21149816.709    21149816.840    21149816.643
        43.400          39.500
 13 10 10  0 32  0.0000000  0 11G10G18G26G21G 9G19G28G15G 5G 7G 8
   1752208.053 2   1365369.013 2  25680443.933    25680446.877    25680443.536
        17.000          16.100
   -988710.372 2   -770422.719 1  25757996.093    25757997.563    25757996.987
        13.900          11.000
 -29482116.498 7 -22973070.547 7  19720004.704    19720005.100    19720005.228
        45.400          45.000
  -5152509.321 2  -4014940.579 2  24846071.720    24846069.971    24846071.138
        15.100          17.800
 -26047652.773 7 -20296866.405 6  20506191.235    20506191.662    20506191.632
        44.100          40.000
  -5315468.750 3  -4141924.451 3  24650179.200    24650177.598    24650178.476
        22.100          23.400
 -19553602.161 6 -15236568.714 6  21526263.910    21526263.928    21526263.994
        39.800          37.700
 -16225804.563 5 -12643481.133 5  22556449.187    22556448.831    22556450.183
        34.300          30.400
 -19877889.915 6 -15489259.015 6  21926713.072    21926713.037    21926713.689
        40.600          37.300
 -10759532.634 4  -8384040.157 4  23374638.999    23374639.435    23374640.085
        29.700          27.100
 -23785002.515 7 -18533760.931 6  21159780.432    21159780.516    21159780.310
        43.500          39.300
 13 10 10  0 32 30.0000000  0 11G10G18G26G21G 9G19G28G15G 5G 7G 8
   1869017.303 1   1456389.191 2  25702671.795    25702674.319    25702670.848
         9.000          15.100
  -1087559.816 1   -847448.221 1  25739186.241    25739187.398    25739187.022
        11.000          11.000
 -29500250.518 7 -22987200.984 7  19716553.863    19716554.328    19716554.458
        45.500          45.200
  -5149573.207 2  -4012652.676 2  24846628.263    24846627.962    24846628.360
        17.800          16.100
 -25985822.261 7 -20248686.767 6  20517956.694    20517957.643    20517957.233
        43.600          40.100
  -5320193.840 3  -4145606.318 3  24649279.982    24649278.599    24649279.439
        23.000          22.600
 -19585992.469 6 -15261807.876 6  21520100.526    21520099.904    21520100.429
        39.800          37.600
 -16312417.053 5 -12710971.388 5  22539968.314    22539967.696    22539968.491
        34.000          31.300
 -19799255.717 6 -15427985.622 6  21941676.329    21941676.812    21941677.031
        40.000          37.400
 -10664112.082 5  -8309686.496 4  23392796.876    23392797.357    23392798.108
        30.200          27.100
 -23732285.288 7 -18492682.588 6  21169811.738    21169812.418    21169811.958
        43.400          39.300
 13 10 10  0 33  0.0000000  0 11G10G18G26G21G 9G19G28G15G 5G 7G 8
   1985772.369 1   1547367.132 2  25724889.725    25724891.540    25724888.537
        11.000          16.100
  -1186275.134 1   -924369.241    25720402.194    25720402.266    25720402.317
        11.000           3.000
 -29517857.808 7 -23000920.958 7  19713203.522    19713203.774    19713203.921
        45.600          45.300
  -5146147.478 2  -4009983.315 2  24847280.827    24847279.388    24847280.012
        15.100          15.100
 -25923564.676 7 -20200174.354 6  20529804.343    20529804.787    20529804.696
        43.800          39.900
  -5324328.048 3  -4148827.793 3  24648491.864    24648491.441    24648490.878
        19.300          22.600
 -19617859.305 6 -15286639.150 6  21514036.035    21514035.787    21514036.018
        39.700          37.600
 -16398810.556 5 -12778291.012 5  22523527.828    22523526.876    22523528.415
        34.800          30.600
 -19720204.195 6 -15366387.054 6  21956719.417    21956719.625    21956720.210
        40.400          37.100
 -10568556.023 4  -8235227.248 4  23410981.267    23410981.119    23410981.678
        29.900          27.400
 -23679211.575 7 -18451326.440 6  21179911.448    21179912.022    21179911.463
        43.200          39.200
 13 10 10  0 33 30.0000000  0 11G10G18G26G21G 9G19G28G15G 5G 7G 8
   2102471.013 2   1638301.133 2  25747096.493    25747098.740    25747095.525
        12.600          13.900
  -1284854.532 1  -1001184.312 1  25701643.588    25701642.651    25701643.278
        11.000           9.000
 -29534937.537 7 -23014229.815 7  19709953.445    19709953.571    19709953.712
        45.500          45.000
  -5142232.642 2  -4006932.803 3  24848026.605    24848024.677    24848026.315
        15.100          19.300
 -25860882.145 7 -20151330.825 6  20541732.432    20541732.796    20541732.697
        43.600          39.600
  -5327870.958 2  -4151588.475 3  24647817.490    24647816.778    24647816.300
        15.100          20.500
 -19649201.154 6 -15311061.343 6  21508072.304    21508071.674    21508072.168
        40.000          37.700
 -16484983.106 5 -12845438.467 5  22507129.314    22507129.202    22507130.172
        34.400          31.000
 -19640737.926 6 -15304465.294 6  21971841.815    21971841.695    21971842.185
        40.400          37.200
 -10472865.867 4  -8160663.481 4  23429190.905    23429190.308    23429191.274
        29.200          27.400
 -23625782.872 7 -18409693.673 6  21190078.633    21190078.979    21190078.600
        43.100          39.100
 13 10 10  0 34  0.0000000  0 11G10G18G26G21G 9G19G28G15G 5G 7G 8
   2219111.147 1   1729189.544 2  25769292.695    25769294.835    25769292.244
        11.000          16.100
  -1383295.321 1  -1077891.339 2  25682909.997    25682908.969    25682910.089
         6.500          12.600
 -29551488.995 7 -23027127.045 7  19706803.807    19706803.869    19706804.101
        45.700          45.100
  -5137828.812 2  -4003501.234 2  24848863.721    24848861.939    24848863.542
        15.100          15.100
 -25797776.628 7 -20102157.700 6  20553741.050    20553741.331    20553741.333
        43.600          39.700
  -5330822.006 3  -4153888.003 3  24647255.118    24647254.040    24647254.929
        18.600          20.500
 -19680017.815 6 -15335074.287 6  21502207.883    21502207.444    21502207.786
        40.200          37.700
 -16570933.098 5 -12912412.502 5  22490773.941    22490773.322    22490774.407
        35.300          31.100
 -19560859.360 6 -15242222.273 6  21987041.719    21987042.064    21987042.407
        39.900          36.800
 -10377043.003 4  -8085996.325 4  23447424.931    23447424.864    23447425.703
        28.800          27.600
 -23572000.761 7 -18367785.538 6  21200312.713    21200313.410    21200313.084
        43.200          39.000
 13 10 10  0 34 30.0000000  0 11G10G18G26G21G 9G19G28G15G 5G 7G 8
   2335690.871 2   1820030.898 2  25791476.290    25791478.130    25791476.351
        13.900          12.600
  -1481595.456 1  -1154488.824 2  25664204.373    25664203.009    25664204.498
        11.000          12.600
 -29567511.400 7 -23039612.043 7  19703754.608    19703754.976    19703755.060
        45.800          45.400
  -5132936.916 2  -3999689.369 3  24849794.595    24849793.746    24849794.732
        17.000          18.600
 -25734249.956 7 -20052656.380 6  20565829.780    20565829.920    20565830.030
        43.600          39.500
  -5333180.612 3  -4155725.907 2  24646807.274    24646805.279    24646806.895
        19.300          17.000
 -19710308.150 6 -15358677.122 6  21496443.653    21496443.270    21496443.566
        40.000          37.700
 -16656658.618 5 -12979211.597 5  22474460.422    22474460.331    22474461.378
        35.100          30.800
 -19480570.353 6 -15179659.414 6  22002320.351    22002320.200    22002321.069
        40.200          36.500
 -10281088.808 4  -8011226.808 4  23465684.553    23465684.073    23465685.077
        29.900          27.600
 -23517866.790 7 -18325603.219 6  21210614.115    21210614.740    21210614.305
        42.900          38.600
 13 10 10  0 35  0.0000000  0 11G10G18G26G21G 9G19G28G15G 5G 7G 8
   2452208.445 2   1910823.790 2  25813649.594    25813651.211    25813649.178
        13.900          15.100
  -1579752.831 1  -1230974.985 1  25645526.434    25645524.946    25645526.199
        11.000          11.000
 -29583003.977 7 -23051684.175 7  19700806.459    19700806.845    19700806.880
        45.600          45.300
  -5127557.172 2  -3995497.342 2  24850819.985    24850816.888    24850819.232
        15.100          15.100
 -25670303.953 7 -20002828.340 6  20577998.290    20577998.546    20577998.492
        43.300          39.500
  -5334946.427 2  -4157101.943 3  24646470.239    24646468.770    24646471.458
        17.000          18.600
 -19740071.459 6 -15381869.294 6  21490779.933    21490779.547    21490780.083
        40.000          37.900
 -16742158.190 5 -13045834.613 5  22458190.204    22458190.362    22458191.338
        34.900          31.000
 -19399873.501 6 -15116778.756 6  22017676.707    22017676.581    22017677.150
        40.300          36.700
 -10185005.093 4  -7936356.336 4  23483969.084    23483967.661    23483969.375
        29.700          26.200
 -23463382.325 7 -18283147.789 6  21220982.712    21220982.720    21220982.597
        43.200          38.800
 13 10 10  0 35 30.0000000  0 11G10G18G26G21G 9G19G28G15G 5G 7G 8
   2568661.521 1   2001566.456 2  25835809.369    25835812.086    25835808.877
         6.500          15.100
  -1677765.124 2  -1307348.140 2  25626874.686    25626873.335    25626875.072
        12.600          12.600
 -29597966.056 7 -23063342.933 7  19697959.325    19697959.681    19697959.704
        45.600          45.300
  -5121690.221 2  -3990925.655 2  24851936.373    24851933.752    24851935.438
        16.100          16.100
 -25605940.410 7 -19952674.932 6  20590246.090    20590246.670    20590246.470
        43.400          39.500
  -5336119.261 3  -4158015.824 3  24646249.711    24646246.171    24646249.825
        22.600          19.900
 -19769307.103 6 -15404650.305 6  21485216.330    21485216.202    21485216.493
        39.900          37.700
 -16827430.313 5 -13112280.394 5  22441963.812    22441963.902    22441964.754
        35.400          31.600
 -19318770.954 6 -15053581.977 6  22033109.235    22033110.151    22033110.329
        39.700          36.800
 -10088793.391 4  -7861386.142 4  23502277.072    23502276.435    23502277.544
        29.700          26.200
 -23408548.774 7 -18240420.350 6  21231417.179    21231417.286    21231417.062
        42.700          38.800
 13 10 10  0 36  0.0000000  0 11G10G18G26G21G 9G19G28G15G 5G 7G 8
   2685048.669 2   2092257.721 1  25857957.318    25857959.760    25857956.732
        15.100          11.000
  -1775630.193 2  -1383606.532 1  25608251.455    25608250.280    25608251.937
        17.000          11.000
 -29612396.898 7 -23074587.724 7  19695213.500    19695213.516    19695213.676
        45.600          45.400
  -5115336.369 1  -3985974.578 2  24853144.686    24853142.936    24853143.969
        11.000          17.000
 -25541161.450 7 -19902197.815 6  20602573.275    20602573.539    20602573.570
        43.300          39.500
  -5336698.836 3  -4158467.450 3  24646140.368    24646135.404    24646139.397
        23.400          19.900
 -19798014.396 6 -15427019.613 6  21479753.786    21479753.258    21479753.792
        40.000          37.700
 -16912473.191 5 -13178547.563 5  22425781.183    22425780.523    22425781.633
        35.400          31.600
 -19237265.265 6 -14990071.068 6  22048619.897    22048619.891    22048620.480
        40.100          36.500
  -9992455.259 4  -7786317.464 4  23520609.166    23520608.897    23520609.998
        27.600          25.900
 -23353367.567 7 -18197422.009 6  21241917.594    21241917.980    21241917.556
        42.500          38.800
 13 10 10  0 36 30.0000000  0 12G10G18G26G21G 9G19G28G15G 5G 7G 8G24
   2801367.372 1   2182895.646 1  25880091.610    25880094.204    25880091.908
         6.500           9.000
  -1873346.293 1  -1459748.946 2  25589657.430    25589655.451    25589655.839
         6.500          15.100
 -29626295.806 7 -23085418.048 7  19692568.302    19692568.585    19692568.787
        45.900          45.500
  -5108496.849 2  -3980645.113 2  24854445.509    24854444.035    24854445.610
        15.100          17.000
 -25475969.287 7 -19851398.716 6  20614979.076    20614979.250    20614979.333
        43.400          39.300
  -5336684.784 3  -4158456.495 3  24646141.803    24646138.949    24646141.211
        23.000          19.900
 -19826192.519 6 -15448976.599 6  21474391.678    21474391.067    21474391.615
        40.200          37.700
 -16997285.057 5 -13244634.728 5  22409641.491    22409641.505    22409642.273
        35.200          32.300
 -19155358.517 6 -14926247.625 6  22064206.288    22064206.115    22064206.929
        40.200          36.500
  -9895991.733 4  -7711151.074 4  23538965.501    23538965.656    23538966.273
        27.900          26.200
 -23297840.183 7 -18154153.909 6  21252484.186    21252484.453    21252484.068
        42.500          38.600
   -205341.470 1   -160005.729 1  25474244.780    25474248.934    25474245.326
         6.500          11.000
 13 10 10  0 37  0.0000000  0 12G10G18G26G21G 9G19G28G15G 5G 7G 8G24
   2917615.649 2   2273478.731    25902212.966    25902214.809    25902212.119
        13.900           3.000
  -1970910.567 1  -1535773.014 2  25571091.485    25571089.688    25571091.363
        11.000          15.100
 -29639662.030 7 -23095833.272 7  19690024.900    19690025.130    19690025.303
        45.800          45.500
  -5101172.070 2  -3974937.504 2  24855840.570    24855837.777    24855840.179
        17.000          13.900
 -25410365.663 7 -19800279.016 6  20627463.097    20627463.304    20627463.228
        43.100          39.200
  -5336076.838 3  -4157982.760 3  24646257.537    24646255.417    24646256.674
        22.600          20.500
 -19853840.837 6 -15470520.749 6  21469130.631    21469129.774    21469130.554
        40.400          38.000
 -17081864.122 5 -13310540.478 5  22393546.507    22393546.559    22393547.179
        35.200          31.800
 -19073053.260 6 -14862113.666 6  22079868.260    22079868.679    22079868.840
        39.500          36.900
  -9799404.881 4  -7635888.583 4  23557345.631    23557345.577    23557346.054
        28.400          27.100
 -23241968.230 7 -18110617.332 6  21263116.143    21263116.393    21263116.011
        42.500          38.400
   -311480.906 1   -242711.827 2  25454047.236    25454051.147    25454047.066
        11.000          13.900
 13 10 10  0 37 30.0000000  0 12G10G18G26G21G 9G19G28G15G 5G 7G 8G24
   3033791.976 1   2364005.730 2  25924320.707    25924322.764    25924318.633
         6.500          12.600
  -2068320.702 1  -1611676.954 2  25552553.423    25552552.397    25552554.895
        11.000          12.600
 -29652494.961 7 -23105832.944 7  19687582.789    19687583.214    19687583.230
        45.800          45.600
  -5093362.274 2  -3968851.930 2  24857327.571    24857324.027    24857326.739
        17.000          12.600
 -25344352.321 7 -19748840.061 6  20640024.769    20640025.182    20640024.970
        43.100          39.100
  -5334874.837 3  -4157046.191 3  24646486.309    24646484.200    24646485.146
        22.600          20.500
 -19880958.497 6 -15491651.403 6  21463969.945    21463969.766    21463970.048
        40.500          38.500
 -17166208.920 5 -13376263.672 5  22377496.758    22377496.076    22377497.129
        35.400          31.100
 -18990352.126 6 -14797671.240 6  22095605.992    22095606.009    22095606.398
        39.500          36.500
  -9702695.949 4  -7560530.980 4  23575749.140    23575748.680    23575749.736
        28.600          27.400
 -23185753.222 7 -18066813.449 6  21273813.486    21273813.647    21273813.479
        42.600          38.100
   -417570.530 1   -325379.038 1  25433858.338    25433864.026    25433859.897
        11.000           9.000
 13 10 10  0 38  0.0000000  0 12G10G18G26G21G 9G19G28G15G 5G 7G 8G24
   3149893.924 1   2454474.836 1  25946413.732    25946415.193    25946412.607
         9.000           6.500
  -2165574.474 1  -1687459.060 1  25534046.395    25534046.467    25534047.161
         9.000           6.500
 -29664793.916 7 -23115416.564 7  19685242.416    19685242.814    19685242.870
        45.800          45.400
  -5085068.320 2  -3962389.134 2  24858903.781    24858902.928    24858904.086
        13.900          17.000
 -25277931.196 7 -19697083.342 6  20652664.328    20652664.462    20652664.502
        43.100          39.000
  -5333078.525 3  -4155646.514 3  24646828.033    24646826.002    24646827.865
        23.000          21.600
 -19907545.108 6 -15512368.253 6  21458910.721    21458910.490    21458910.828
        40.300          38.400
 -17250317.901 5 -13441803.119 5  22361490.807    22361490.671    22361491.610
        35.300          31.500
 -18907256.934 6 -14732921.743 5  22111418.244    22111418.278    22111419.092
        39.900          35.900
  -9605866.323 4  -7485079.316 4  23594174.899    23594174.559    23594175.629
        27.600          25.600
 -23129196.420 7 -18022743.210 6  21284575.524    21284576.150    21284575.762
        42.300          38.200
   -523609.274 1   -408006.560 2  25413680.706    25413683.328    25413681.530
         6.500          12.600
 13 10 10  0 38 30.0000000  0 12G10G18G26G21G 9G19G28G15G 5G 7G 8G24
   3265920.068 1   2544884.756 9  25968492.649    25968495.361    25968492.239
        11.000          -3.000
  -2262669.932 1  -1763117.852 1  25515571.795    25515569.554    25515570.498
        11.000          11.000
 -29676558.182 7 -23124583.537 7  19683003.876    19683004.102    19683004.155
        45.800          45.500
  -5076290.713 2  -3955549.423 2  24860573.535    24860573.216    24860574.407
        17.000          17.000
 -25211104.485 7 -19645010.582 6  20665380.722    20665381.257    20665381.142
        42.800          38.900
  -5330687.986 3  -4153783.785 3  24647281.691    24647280.728    24647281.363
        19.300          20.500
 -19933599.821 6 -15532670.632 6  21453952.912    21453952.104    21453952.913
        40.700          38.400
 -17334189.347 5 -13507157.472 5  22345530.757    22345530.477    22345531.481
        35.800          32.400
 -18823770.330 6 -14667867.252 6  22127305.031    22127305.612    22127305.907
        39.300          36.300
  -9508917.638 4  -7409534.880 4  23612623.339    23612623.496    23612624.015
        26.800          25.900
 -23072299.576 7 -17978407.996 6  21295402.673    21295403.405    21295402.894
        42.500          38.100
   -629596.293 1   -490593.852 2  25393512.238    25393515.757    25393512.192
        11.000          17.000
 13 10 10  0 39  0.0000000  0 11G18G26G21G 9G19G28G15G 5G 7G 8G24
  -2359604.339 1  -1838651.123 2  25497124.633    25497123.540    25497124.611
         9.000          12.600
 -29687787.235 7 -23133333.437 7  19680867.128    19680867.199    19680867.406
        45.700          45.500
  -5067030.140 2  -3948333.421 2  24862336.497    24862334.702    24862335.838
        17.000          17.000
 -25143874.055 7 -19592623.238 6  20678174.569    20678174.829    20678174.734
        42.800          38.800
  -5327702.494 3  -4151457.439 3  24647849.249    24647849.154    24647850.001
        19.900          22.100
 -19959121.909 6 -15552557.976 6  21449096.415    21449095.557    21449096.177
        40.500          38.100
 -17417821.202 5 -13572325.118 5  22329616.447    22329615.649    22329617.119
        35.600          32.000
 -18739894.495 6 -14602509.468 6  22143265.930    22143266.718    22143266.855
        39.400          36.500
  -9411851.126 4  -7333898.623 4  23631094.761    23631094.236    23631095.397
        27.900          25.600
 -23015064.134 7 -17933808.941 6  21306294.762    21306294.971    21306294.583
        42.500          38.200
   -735530.503 2   -573139.973 2  25373352.969    25373357.056    25373353.677
        15.100          13.900
 13 10 10  0 39 30.0000000  0 12G10G18G26G21G 9G19G28G15G 5G 7G 8G24
   3497737.877     2725521.138 9  26012605.331    26012609.905    26012604.708
         3.000          -3.000
  -2456376.273 2  -1914057.835 2  25478709.205    25478708.521    25478709.020
        12.600          15.100
 -29698480.293 7 -23141665.673 7  19678832.107    19678832.292    19678832.576
        45.700          45.400
  -5057287.224 2  -3940741.514 2  24864190.472    24864188.961    24864190.533
        17.000          15.100
 -25076241.857 7 -19539922.830 6  20691044.674    20691044.791    20691044.853
        42.800          38.900
  -5324121.982 3  -4148667.420 3  24648531.008    24648530.594    24648531.314
        21.600          22.600
 -19984111.008 6 -15572030.013 6  21444340.772    21444340.471    21444340.805
        40.500          38.500
 -17501211.895 6 -13637304.832 5  22313747.043    22313746.926    22313748.257
        36.300          32.100
 -18655632.511 6 -14536850.789 6  22159300.354    22159301.081    22159301.505
        39.500          36.300
  -9314668.211 4  -7258171.674 4  23649588.264    23649587.597    23649588.588
        27.100          25.900
 -22957491.568 7 -17888947.216 6  21317250.326    21317250.730    21317250.332
        42.200          38.100
   -841410.945 2   -655644.174 2  25353203.936    25353208.679    25353205.186
        13.900          17.000
 13 10 10  0 40  0.0000000  0 11G18G26G21G 9G19G28G15G 5G 7G 8G24
  -2552983.107    -1989335.799 2  25460325.822    25460324.993    25460325.290
         3.000          12.600
 -29708636.851 7 -23149579.889 7  19676899.717    19676899.584    19676899.887
        45.600          45.500
  -5047063.055 2  -3932774.619 2  24866135.741    24866134.451    24866136.050
        17.800          15.100
 -25008210.011 7 -19486911.004 6  20703990.429    20703990.991    20703990.702
        42.700          38.800
  -5319946.556 3  -4145413.887 3  24649326.627    24649324.887    24649325.624
        22.100          23.000
 -20008566.373 6 -15591086.149 6  21439687.089    21439686.756    21439687.153
        40.400          38.400
 -17584359.869 6 -13702095.440 5  22297924.545    22297924.370    22297925.548
        36.100          32.300
 -18570986.283 6 -14470892.696 6  22175408.274    22175408.763    22175409.211
        39.500          36.200
  -9217370.589 4  -7182355.349 4  23668103.231    23668102.584    23668103.570
        27.400          25.600
 -22899582.997 7 -17843823.656 6  21328270.324    21328270.261    21328270.108
        42.300          37.700
   -947236.104 1   -738105.234 2  25333066.712    25333069.979    25333067.460
        11.000          16.100
 13 10 10  0 40 30.0000000  0 11G18G26G21G 9G19G28G15G 5G 7G 8G24
  -2649422.067 1  -2064483.082 2  25441974.510    25441972.302    25441973.348
         9.000          12.600
 -29718256.296 7 -23157075.611 7  19675068.975    19675069.150    19675069.355
        45.600          45.500
  -5036357.936 2  -3924432.981 2  24868173.019    24868171.876    24868172.472
        17.000          15.100
 -24939780.240 7 -19433589.112 6  20717012.572    20717012.880    20717012.643
        42.700          38.600
  -5315175.817 3  -4141696.434 3  24650233.623    24650232.206    24650233.837
        20.500          21.600
 -20032487.534 6 -15609726.003 6  21435135.103    21435134.806    21435135.138
        40.600          38.700
 -17667263.481 6 -13766695.652 5  22282148.384    22282148.446    22282149.366
        36.300          32.700
 -18485958.037 6 -14404636.928 6  22191588.742    22191589.035    22191589.454
        39.000          36.000
  -9119959.876 4  -7106450.888 4  23686639.969    23686639.344    23686640.487
        27.600          25.900
 -22841340.190 7 -17798439.654 6  21339353.272    21339353.547    21339353.219
        42.300          37.800
  -1053005.000 1   -820522.591 2  25312940.015    25312942.472    25312940.780
         9.000          17.000
 13 10 10  0 41  0.0000000  0 11G18G26G21G 9G19G28G15G 5G 7G 8G24
  -2745691.523 2  -2139498.233 2  25423655.616    25423652.772    25423654.354
        12.600          12.600
 -29727337.994 7 -23164152.261 7  19673340.555    19673340.941    19673341.123
        45.900          45.700
  -5025172.634 2  -3915717.149 2  24870301.091    24870300.778    24870300.997
        15.100          16.100
 -24870954.646 7 -19379958.794 6  20730109.485    20730109.797    20730109.732
        42.800          38.500
  -5309810.029 3  -4137515.344 3  24651256.426    24651253.593    24651255.795
        23.400          20.500
 -20055874.114 6 -15627949.297 6  21430684.758    21430684.363    21430684.713
        40.500          38.500
 -17749920.876 6 -13831103.998 5  22266418.913    22266419.126    22266420.146
        36.200          32.300
 -18400550.634 6 -14338085.720 5  22207841.525    22207841.371    22207841.913
        39.200          35.300
  -9022437.359 4  -7030459.347 4  23705197.620    23705196.879    23705198.145
        25.600          25.900
 -22782764.613 7 -17752796.361 6  21350500.072    21350500.269    21350499.862
        42.200          37.800
  -1158716.896 1   -902895.454 2  25292822.793    25292826.615    25292824.552
         9.000          13.900
 13 10 10  0 41 30.0000000  0 11G18G26G21G 9G19G28G15G 5G 7G 8G24
  -2841788.970 2  -2214379.337 2  25405368.985    25405367.138    25405368.676
        12.600          15.100
 -29735881.394 7 -23170809.469 7  19671715.306    19671715.235    19671715.454
        45.600          45.500
  -5013508.149 2  -3906627.916 2  24872521.999    24872520.225    24872522.087
        12.600          13.900
 -24801735.227 7 -19326021.606 6  20743281.481    20743281.698    20743281.708
        42.600          38.400
  -5303849.109 3  -4132870.493 3  24652390.492    24652388.717    24652389.765
        20.500          22.100
 -20078725.349 6 -15645755.438 6  21426336.226    21426335.878    21426336.283
        40.500          38.600
 -17832330.106 6 -13895318.964 5  22250737.245    22250737.388    22250738.227
        36.400          32.800
 -18314766.737 6 -14271241.124 5  22224165.899    22224165.650    22224166.332
        39.500          35.600
  -8924804.281 4  -6954381.644 4  23723776.795    23723776.386    23723777.281
        26.800          25.600
 -22723857.804 7 -17706894.954 6  21361709.254    21361709.820    21361709.375
        42.000          37.900
  -1264370.672 2   -985222.992 3  25272718.184    25272721.728    25272719.778
        15.100          19.900
 13 10 10  0 42  0.0000000  0 11G18G26G21G 9G19G28G15G 5G 7G 8G24
  -2937711.467 1  -2289124.100 2  25387114.496    25387113.845    25387113.947
        11.000          13.900
 -29743885.895 7 -23177046.740 7  19670191.635    19670192.026    19670192.206
        45.900          45.600
  -5001365.275 2  -3897165.947 2  24874833.065    24874830.906    24874833.389
        17.800          17.000
 -24732123.856 7 -19271778.965 6  20756528.194    20756528.430    20756528.331
        42.400          38.100
  -5297292.807 3  -4127761.701 3  24653637.781    24653635.592    24653636.341
        21.100          21.600
 -20101040.688 6 -15663143.992 6  21422089.694    21422089.300    21422089.756
        40.700          38.600
 -17914489.752 6 -13959339.495 5  22235103.290    22235102.727    22235103.871
        36.700          32.800
 -18228608.055 6 -14204104.504 5  22240560.775    22240561.187    22240561.399
        38.600          35.400
  -8827062.094 4  -6878218.917 4  23742376.085    23742376.316    23742376.798
        26.500          25.900
 -22664621.292 7 -17660736.632 6  21372981.612    21372982.079    21372981.674
        42.100          37.600
  -1369965.423 1  -1067504.620 2  25252624.349    25252627.981    25252624.646
        11.000          17.800
 13 10 10  0 42 30.0000000  0 12G 3G18G26G21G 9G19G28G15G 5G 7G 8G24
    142922.444 1    111368.368 1  25129429.301    25129431.156    25129429.998
        11.000           9.000
  -3033457.724 2  -2363731.419 1  25368894.140    25368894.032    25368893.511
        13.900           9.000
 -29751350.924 7 -23182863.649 7  19668770.968    19668771.473    19668771.614
        45.700          45.600
  -4988744.358 2  -3887331.436 2  24877235.060    24877233.221    24877234.778
        17.800          17.800
 -24662122.536 7 -19217232.465 6  20769848.921    20769849.087    20769849.014
        42.500          37.900
  -5290141.292 3  -4122189.118 3  24654998.101    24654996.823    24654997.226
        21.100          18.600
 -20122819.716 6 -15680114.624 6  21417945.419    21417944.730    21417945.392
        40.600          38.400
 -17996397.982 6 -14023164.098 5  22219516.937    22219516.384    22219517.409
        36.900          33.500
 -18142077.294 6 -14136677.947 5  22257027.663    22257027.380    22257027.931
        39.100          35.900
  -8729212.380 4  -6801972.379 4  23760996.774    23760996.126    23760997.262
        27.100          25.300
 -22605056.389 6 -17614322.436 6  21384316.386    21384317.019    21384316.379
        41.700          37.800
  -1475499.857 1  -1149739.194 2  25232541.342    25232545.893    25232543.069
        11.000          16.100
 13 10 10  0 43  0.0000000  0 12G 3G18G26G21G 9G19G28G15G 5G 7G 8G24
    210672.653 2    164160.734 1  25142322.863    25142322.643    25142322.105
        13.900           9.000
  -3129025.433 1  -2438199.713 2  25350709.082    25350707.290    25350708.654
         9.000          12.600
 -29758276.057 7 -23188259.863 7  19667453.327    19667453.700    19667453.743
        45.700          45.600
  -4975646.649 2  -3877125.446 2  24879725.216    24879726.001    24879725.787
        15.100          13.900
 -24591733.210 7 -19162383.653 6  20783243.365    20783243.826    20783243.728
        42.200          38.000
  -5282394.835 2  -4116152.933 3  24656472.154    24656470.588    24656471.470
        17.800          22.100
 -20144061.940 6 -15696666.977 6  21413903.157    21413902.470    21413903.178
        40.700          38.800
 -18078053.069 6 -14086791.443 5  22203978.106    22203977.804    22203978.734
        36.700          32.800
 -18055177.053 6 -14068963.483 5  22273563.454    22273563.925    22273564.374
        38.800          35.500
  -8631256.541 4  -6725643.154 4  23779636.608    23779636.447    23779637.539
        26.500          25.600
 -22545164.657 6 -17567653.557 6  21395713.620    21395713.925    21395713.515
        41.800          37.400
  -1580972.869 2  -1231925.942 3  25212470.147    25212474.276    25212471.412
        13.900          18.600
 13 10 10  0 43 30.0000000  0 12G 3G18G26G21G 9G19G28G15G 5G 7G 8G24
    278901.659      217326.091 1  25155305.892    25155306.821    25155305.635
                        11.000
  -3224411.615 2  -2512526.577 2  25332558.084    25332555.374    25332557.407
        13.900          17.000
 -29764660.658 7 -23193234.878 7  19666238.509    19666238.786    19666238.821
        45.700          45.700
  -4962072.837 1  -3866548.455 2  24882307.834    24882308.708    24882306.639
         6.500          12.600
 -24520957.902 7 -19107234.075 6  20796711.691    20796711.983    20796711.881
        42.300          37.900
  -5274053.095 3  -4109652.923 3  24658059.294    24658057.869    24658059.293
        19.900          20.500
 -20164767.045 6 -15712800.796 6  21409963.028    21409962.654    21409963.030
        40.600          38.800
 -18159453.343 6 -14150220.249 5  22188488.235    22188487.897    22188488.881
        36.700          32.800
 -17967909.774 6 -14000963.024 5  22290170.097    22290170.367    22290170.734
        38.300          35.600
  -8533195.946 4  -6649232.292 3  23798296.933    23798296.979    23798297.787
        25.600          23.800
 -22484947.588 6 -17520731.165 6  21407172.347    21407172.746    21407172.372
        41.500          37.100
  -1686383.893 2  -1314064.395 2  25192411.701    25192414.491    25192412.370
        12.600          17.000
 13 10 10  0 44  0.0000000  0 12G 3G18G26G21G 9G19G28G15G 5G 7G 8G24
    347607.245 1    270862.975 1  25168379.244    25168383.375    25168379.979
        11.000           6.500
  -3319614.607 2  -2586710.644 2  25314440.078    25314439.460    25314439.801
        12.600          15.100
 -29770504.378 7 -23197788.466 7  19665126.808    19665126.797    19665126.958
        45.800          45.700
  -4948023.623 2  -3855601.048 3  24884983.447    24884980.857    24884983.405
        16.100          18.600
 -24449798.415 7 -19051785.132 6  20810252.632    20810253.142    20810253.070
        42.100          37.900
  -5265116.469 3  -4102689.420 3  24659759.804    24659758.065    24659759.846
        20.500          18.600
 -20184934.679 6 -15728515.811 6  21406125.524    21406124.643    21406125.402
        40.800          38.600
 -18240597.055 6 -14213449.106 5  22173046.887    22173046.254    22173047.758
        36.600          32.800
 -17880277.992 6 -13932678.537 5  22306845.922    22306846.039    22306846.683
        38.900          34.900
  -8435032.161 4  -6572741.054 4  23816976.988    23816976.381    23816977.654
        24.900          24.200
 -22424406.732 6 -17473556.485 6  21418692.913    21418693.429    21418692.772
        41.500          37.300
  -1791731.037 1  -1396153.041 3  25172364.609    25172367.579    25172366.540
         6.500          19.300
 13 10 10  0 44 30.0000000  0 12G 3G18G26G21G 9G19G28G15G 5G 7G 8G24
    416786.296 1    324768.398 9  25181544.826    25181544.762    25181543.208
         6.500          -3.000
  -3414631.755 1  -2660749.951 2  25296359.990    25296357.837    25296358.805
        11.000          12.600
 -29775806.513 7 -23201920.010 7  19664117.892    19664117.741    19664118.028
        45.900          45.700
  -4933500.198 3  -3844284.064 2  24887748.830    24887743.807    24887748.684
        18.600          13.900
 -24378256.735 7 -18996038.359 6  20823866.558    20823867.137    20823866.904
        42.200          37.800
  -5255584.693 3  -4095262.056 3  24661574.213    24661571.639    24661573.956
        21.100          19.900
 -20204564.345 6 -15743811.641 6  21402389.746    21402389.160    21402389.823
        40.700          38.600
 -18321482.586 6 -14276476.804 5  22157654.685    22157654.635    22157655.527
        36.800          33.000
 -17792284.054 6 -13864111.836 5  22323590.705    22323590.560    22323591.377
        38.800          34.500
  -8336766.350 4  -6496170.325 4  23835676.658    23835676.222    23835677.285
        25.600          24.900
 -22363543.409 6 -17426130.533 6  21430274.958    21430275.559    21430274.892
        41.600          37.400
  -1897014.019 2  -1478191.648 3  25152330.487    25152333.096    25152330.906
        13.900          18.600
 13 10 10  0 45  0.0000000  0 12G 3G18G26G21G 9G19G28G15G 5G 7G 8G24
    486436.991 2    379041.802 1  25194799.052    25194799.851    25194800.615
        13.900           6.500
  -3509461.032 2  -2734642.849 2  25278315.089    25278313.008    25278315.190
        12.600          12.600
 -29780566.658 7 -23205629.215 7  19663211.905    19663212.010    19663212.096
        45.900          45.600
  -4918503.158 2  -3832598.051 2  24890601.523    24890599.135    24890601.654
        17.800          17.000
 -24306335.006 7 -18939995.453 6  20837553.235    20837553.410    20837553.464
        42.300          37.700
  -5245458.107 3  -4087371.298 3  24663501.621    24663498.736    24663500.685
        21.100          18.600
 -20223655.593 6 -15758687.922 6  21398756.694    21398756.445    21398756.807
        40.500          38.900
 -18402108.130 6 -14339301.906 5  22142313.005    22142311.727    22142313.078
        37.100          33.000
 -17703930.631 6 -13795265.020 5  22340403.879    22340404.021    22340404.356
        38.400          35.300
  -8238400.007 4  -6419521.237 4  23854395.078    23854394.919    23854395.539
        24.200          25.300
 -22302359.480 6 -17378454.763 6  21441917.699    21441918.403    21441917.778
        41.400          37.000
  -2002231.071 2  -1560178.863 2  25132307.690    25132311.521    25132308.469
        15.100          17.000
 13 10 10  0 45 30.0000000  0 12G 3G18G26G21G 9G19G28G15G 5G 7G 8G24
    556556.400 1    433683.583 1  25208142.371    25208137.562    25208143.231
         6.500           9.000
  -3604100.072 2  -2808387.546 2  25260304.866    25260304.364    25260304.478
        12.600          13.900
 -29784784.373 7 -23208915.759 7  19662408.889    19662409.555    19662409.503
        45.800          46.000
  -4903033.553 1  -3820543.875 2  24893542.521    24893543.574    24893541.690
         6.500          17.000
 -24234034.990 7 -18883657.770 6  20851311.599    20851311.598    20851311.562
        42.000          37.400
  -5234736.882 3  -4079017.100 3  24665540.910    24665539.180    24665539.958
        19.900          19.900
 -20242207.977 6 -15773144.303 6  21395226.412    21395225.996    21395226.370
        40.800          38.900
 -18482472.113 6 -14401923.183 5  22127020.324    22127019.454    22127020.380
        37.100          33.200
 -17615220.144 6 -13726139.984 5  22357284.758    22357285.419    22357285.414
        38.300          35.500
  -8139934.356 4  -6342794.730 4  23873132.871    23873131.901    23873133.063
        24.900          24.200
 -22240856.114 6 -17330530.063 6  21453621.860    21453621.955    21453621.651
        41.400          37.200
  -2107381.785 2  -1642114.394 2  25112298.545    25112301.446    25112299.230
        13.900          17.000
 13 10 10  0 46  0.0000000  0 12G 3G18G26G21G 9G19G28G15G 5G 7G 8G24
    627142.886 1    488686.506    25221575.952    25221576.649    25221577.289
        11.000           3.000
  -3698546.494 2  -2881982.166 2  25242333.060    25242330.618    25242332.730
        12.600          13.900
 -29788459.247 7 -23211779.329 7  19661709.855    19661710.237    19661710.180
        45.700          45.800
  -4887092.391 2  -3808122.235 2  24896577.908    24896577.039    24896577.489
        17.800          17.000
 -24161358.929 6 -18827027.075 6  20865141.120    20865141.547    20865141.299
        41.600          37.900
  -5223421.335 3  -4070199.812 3  24667694.723    24667692.906    24667694.165
        21.600          19.900
 -20260221.063 6 -15787180.450 6  21391799.013    21391798.106    21391798.790
        40.700          38.900
 -18562572.435 6 -14464338.979 5  22111777.197    22111776.622    22111777.674
        37.200          33.000
 -17526155.036 6 -13656738.622 5  22374233.265    22374233.578    22374234.106
        38.400          35.300
  -8041370.986 4  -6265992.123 3  23891889.015    23891887.958    23891889.190
        25.300          23.800
 -22179035.105 6 -17282357.842 6  21465385.872    21465386.260    21465385.807
        41.400          36.700
  -2212464.918 2  -1723997.345 2  25092301.641    25092305.191    25092302.417
        12.600          17.800
 13 10 10  0 46 30.0000000  0 12G 3G18G26G21G 9G19G28G15G 5G 7G 8G24
    698193.697 2    544051.057 9  25235095.202    25235098.441    25235097.491
        13.900          -3.000
  -3792797.834 2  -2955424.710 2  25224396.626    25224395.296    25224396.835
        16.100          12.600
 -29791590.726 7 -23214219.460 7  19661113.850    19661114.318    19661114.310
        45.900          45.800
  -4870680.674 3  -3795333.892 2  24899701.989    24899698.290    24899701.633
        19.300          15.100
 -24088308.808 6 -18770104.899 6  20879041.932    20879042.445    20879042.195
        41.900          37.200
  -5211511.375 3  -4060919.309 3  24669961.443    24669959.192    24669960.716
        19.900          19.900
 -20277695.063 6 -15800796.535 6  21388473.536    21388472.889    21388473.377
        40.600          39.000
 -18642407.349 6 -14526547.974 5  22096585.086    22096584.734    22096585.625
        37.200          33.800
 -17436737.802 6 -13587062.858 5  22391248.922    22391248.837    22391249.484
        38.100          34.100
  -7942711.462 4  -6189114.579 4  23910662.555    23910662.843    23910663.517
        26.500          24.900
 -22116897.625 6 -17233939.025 6  21477210.377    21477210.407    21477210.268
        41.300          36.700
  -2317478.967 2  -1805826.410 3  25072317.618    25072322.130    25072317.857
        12.600          18.600
 13 10 10  0 47  0.0000000  0 12G 3G18G26G21G 9G19G28G15G 5G 7G 8G24
    769707.321      599774.477 1  25248705.558    25248703.827    25248704.331
         3.000          11.000
  -3886852.107 2  -3028713.784 2  25206497.622    25206496.707    25206498.243
        17.000          13.900
 -29794178.344 7 -23216235.761 7  19660621.733    19660621.779    19660622.016
        45.900          45.800
  -4853798.985 2  -3782179.304 2  24902914.305    24902910.682    24902914.488
        17.800          15.100
 -24014886.501 6 -18712892.706 6  20893013.533    20893014.290    20893013.865
        41.600          37.600
  -5199007.540 3  -4051176.100 3  24672341.348    24672338.912    24672339.930
        20.500          19.900
 -20294629.328 6 -15813992.041 6  21385250.655    21385250.480    21385250.840
        40.700          39.300
 -18721975.588 6 -14588549.178 5  22081443.599    22081442.974    22081444.306
        36.900          33.800
 -17346971.266 6 -13517114.927 5  22408330.905    22408331.287    22408331.495
        38.100          34.800
  -7843957.011 4  -6112163.110 4  23929455.262    23929454.803    23929455.691
        25.600          24.900
 -22054445.187 6 -17185274.796 6  21489094.587    21489094.549    21489094.655
        41.400          36.500
  -2422423.702 1  -1887601.466 3  25052346.963    25052351.580    25052347.570
        11.000          19.300
 13 10 10  0 47 30.0000000  0 11G18G26G21G 9G19G28G15G 5G 7G 8G24
  -3980706.675 2  -3101847.179 2  25188637.491    25188636.465    25188638.318
        16.100          15.100
 -29796221.850 7 -23217828.130 7  19660232.706    19660233.016    19660233.199
        45.800          45.800
  -4836448.548 2  -3768659.460 2  24906213.884    24906212.436    24906214.943
        17.000          13.900
 -23941093.847 6 -18655391.939 6  20907056.001    20907056.492    20907056.241
        41.500          37.200
  -5185910.114 3  -4040970.366 3  24674833.136    24674831.587    24674832.205
        19.300          20.500
 -20311023.585 6 -15826766.769 6  21382131.398    21382130.689    21382131.395
        41.000          39.100
 -18801275.028 6 -14650340.946 5  22066353.432    22066353.016    22066354.032
        37.700          34.000
 -17256857.634 6 -13446896.524 5  22425478.824    22425479.253    22425479.590
        38.100          34.400
  -7745108.644 4  -6035138.409 4  23948265.578    23948265.082    23948265.582
        24.200          24.200
 -21991679.381 6 -17136366.386 6  21501038.535    21501038.693    21501038.466
        40.900          36.800
  -2527297.410 2  -1969321.205 2  25032390.757    25032393.733    25032392.016
        12.600          17.800
 13 10 10  0 48  0.0000000  0 11G18G26G21G 9G19G28G15G 5G 7G 8G24
  -4074359.342 2  -3174823.285 2  25170818.291    25170815.697    25170816.964
        13.900          13.900
 -29797720.763 7 -23218996.147 7  19659947.572    19659947.732    19659947.887
        46.000          45.800
  -4818630.498 1  -3754775.287 2  24909604.549    24909605.741    24909605.810
        11.000          16.100
 -23866932.741 6 -18597604.062 6  20921168.341    20921168.881    20921168.650
        41.400          37.100
  -5172219.052 3  -4030302.074 3  24677438.228    24677436.549    24677437.315
        19.300          19.900
 -20326877.698 6 -15839120.602 6  21379114.448    21379113.559    21379114.318
        41.000          38.900
 -18880304.066 6 -14711922.002 5  22051314.884    22051314.125    22051315.418
        37.700          33.800
 -17166399.904 6 -13376409.992 5  22442692.185    22442692.805    22442693.231
        37.700          34.700
  -7646168.072 3  -5958041.873 4  23967093.465    23967093.429    23967093.542
        22.600          24.600
 -21928601.539 6 -17087214.822 6  21513041.818    21513042.236    21513041.849
        41.100          36.700
  -2632099.541 2  -2050985.191 2  25012447.711    25012450.711    25012447.993
        13.900          17.000
 13 10 10  0 48 30.0000000  0 11G18G26G21G 9G19G28G15G 5G 7G 8G24
  -4167807.916 2  -3247640.335 2  25153035.115    25153033.124    25153034.773
        16.100          12.600
 -29798674.653 7 -23219739.462 7  19659765.947    19659766.190    19659766.316
        45.800          45.800
  -4800345.826 2  -3740527.541 2  24913085.388    24913084.097    24913084.562
        17.000          16.100
 -23792405.189 6 -18539530.658 6  20935350.495    20935351.062    20935350.677
        41.300          36.900
  -5157934.940 3  -4019171.741 3  24680156.450    24680155.049    24680155.702
        20.500          21.100
 -20342191.325 6 -15851053.279 6  21376200.067    21376199.600    21376200.039
        40.900          38.900
 -18959060.944 6 -14773291.007 5  22036327.946    22036327.241    22036328.437
        38.000          34.300
 -17075600.217 6 -13305657.005 5  22459970.633    22459971.246    22459971.700
        37.700          34.500
  -7547136.793 3  -5880874.721 3  23985938.387    23985938.000    23985938.963
        21.600          23.400
 -21865213.473 6 -17037821.508 6  21525104.117    21525104.408    21525104.047
        40.900          36.400
  -2736828.620 2  -2132592.285 2  24992517.562    24992521.618    24992519.680
        13.900          17.800
 13 10 10  0 49  0.0000000  0 11G18G26G21G 9G19G28G15G 5G 7G 8G24
  -4261050.374 1  -3320296.761 2  25135290.506    25135290.006    25135290.071
        11.000          13.900
 -29799083.111 7 -23220057.729 7  19659688.231    19659688.494    19659688.615
        46.000          46.000
  -4781595.319 1  -3725916.735 2  24916651.983    24916651.202    24916652.109
        11.000          15.100
 -23717513.198 6 -18481173.292 6  20949601.898    20949602.314    20949602.307
        41.400          36.800
  -5143057.896 3  -4007579.242 3  24682988.538    24682986.687    24682987.566
        21.600          22.100
 -20356963.922 6 -15862564.381 6  21373388.682    21373388.718    21373388.977
        41.000          39.500
 -19037543.928 6 -14834446.592 5  22021392.837    22021392.542    22021393.771
        37.800          34.000
 -16984461.049 6 -13234639.489 5  22477314.082    22477314.799    22477314.948
        37.900          34.600
  -7448015.962 4  -5803637.776 3  24004800.029    24004800.122    24004801.117
        24.900          23.400
 -21801516.453 6 -16988187.455 6  21537225.428    21537225.550    21537225.165
        40.900          36.500
  -2841483.759 2  -2214141.701 2  24972601.998    24972607.159    24972604.115
        15.100          17.800
 13 10 10  0 49 30.0000000  0 11G18G26G21G 9G19G28G15G 5G 7G 8G24
  -4354083.855 1  -3392790.366 2  25117586.633    25117585.598    25117586.675
        11.000          12.600
 -29798945.811 7 -23219950.727 7  19659714.758    19659714.638    19659714.851
        46.100          46.000
  -4762380.321 2  -3710943.986 2  24920309.380    24920306.843    24920308.897
        16.100          13.900
 -23642258.934 6 -18422533.635 6  20963922.268    20963922.734    20963922.679
        41.300          36.300
  -5127588.445 3  -3995525.115 3  24685932.446    24685930.238    24685931.832
        21.100          22.100
 -20371195.887 6 -15873654.211 6  21370680.620    21370680.151    21370680.741
        41.100          39.200
 -19115751.156 6 -14895387.298 5  22006510.300    22006510.258    22006511.484
        38.100          34.300
 -16892985.223 6 -13163359.643 5  22494721.634    22494721.899    22494722.195
        37.700          33.900
  -7348807.057 4  -5726332.196 3  24023679.192    24023679.387    24023680.042
        24.200          23.800
 -21737512.200 6 -16938314.013 6  21549404.619    21549405.214    21549404.702
        41.100          36.400
  -2946063.631 2  -2295632.477 2  24952701.433    24952705.760    24952702.160
        12.600          17.800
 13 10 10  0 50  0.0000000  0 11G18G26G21G 9G19G28G15G 5G 7G 8G24
  -4446906.167 2  -3465119.440 2  25099922.465    25099922.265    25099922.820
        15.100          13.900
 -29798262.476 7 -23219418.238 7  19659844.544    19659844.746    19659844.868
        46.300          46.200
  -4742701.764 2  -3695610.034 2  24924055.077    24924052.499    24924055.051
        12.600          13.900
 -23566644.273 6 -18363613.142 6  20978311.618    20978311.879    20978311.905
        41.300          36.500
  -5111527.128 3  -3983009.840 3  24688987.710    24688986.763    24688987.982
        21.600          21.100
 -20384886.760 6 -15884322.413 6  21368075.207    21368074.693    21368075.293
        40.900          39.100
 -19193681.112 6 -14956111.960 5  21991680.650    21991680.658    21991681.939
        38.300          34.300
 -16801174.993 6 -13091819.218 5  22512192.451    22512192.458    22512193.397
        37.500          33.600
  -7249511.088 3  -5648958.777 3  24042574.618    24042574.260    24042574.934
        23.000          23.800
 -21673202.124 6 -16888202.271 6  21561642.662    21561642.862    21561642.631
        40.700          36.100
  -3050567.890 2  -2377064.323 3  24932814.628    24932818.476    24932815.956
        12.600          18.600
 13 10 10  0 50 30.0000000  0 11G18G26G21G 9G19G28G15G 5G 7G 8G24
  -4539515.206 2  -3537282.289 2  25082299.265    25082300.324    25082300.040
        16.100          13.900
 -29797032.761 7 -23218460.010 7  19660078.605    19660078.636    19660078.796
        45.900          45.700
  -4722560.653 2  -3679915.672 2  24927886.809    24927886.660    24927887.187
        16.100          17.800
 -23490671.189 6 -18304413.348 6  20992769.018    20992769.196    20992769.138
        41.200          36.800
  -5094874.118 3  -3970033.525 3  24692156.283    24692155.771    24692155.659
        21.600          22.100
 -20398036.299 6 -15894568.794 6  21365572.989    21365572.573    21365573.148
        41.200          39.300
 -19271331.638 6 -15016618.885 5  21976904.160    21976904.219    21976905.758
        38.200          34.500
 -16709033.206 6 -13020020.433 5  22529726.633    22529726.756    22529727.292
        37.800          34.000
  -7150129.652 3  -5571518.714 3  24061486.343    24061485.694    24061486.836
        23.400          23.400
 -21608587.485 6 -16837853.195 6  21573938.363    21573938.640    21573938.240
        40.600          36.300
  -3154994.977 2  -2458436.046 3  24912943.714    24912947.461    24912945.059
        17.800          19.300
 13 10 10  0 51  0.0000000  0 11G18G26G21G 9G19G28G15G 5G 7G 8G24
  -4631908.146 2  -3609276.741 2  25064718.275    25064718.022    25064718.950
        13.900          13.900
 -29795256.275 7 -23217075.709 7  19660416.475    19660416.635    19660416.853
        46.100          46.100
  -4701957.745 2  -3663861.448 2  24931807.226    24931807.358    24931806.622
        12.600          16.100
 -23414341.823 6 -18244935.928 6  21007294.023    21007294.234    21007294.170
        41.000          36.900
  -5077629.983 3  -3956596.591 3  24695437.577    24695437.140    24695437.211
        20.500          20.500
 -20410644.430 6 -15904393.300 6  21363173.947    21363173.444    21363173.903
        41.100          39.400
 -19348701.300 6 -15076906.951 5  21962181.698    21962181.361    21962182.695
        38.400          34.400
 -16616562.561 6 -12947965.411 5  22547323.485    22547323.727    22547323.646
        37.200          34.400
  -7050664.026 3  -5494013.062 3  24080415.183    24080413.760    24080414.768
        23.800          23.000
 -21543669.882 6 -16787268.054 5  21586291.646    21586292.035    21586291.433
        40.200          35.600
  -3259343.808 2  -2539746.750 3  24893087.101    24893090.146    24893088.188
        17.000          19.900
 13 10 10  0 51 30.0000000  0 11G18G26G21G 9G19G28G15G 5G 7G 8G24
  -4724083.209 2  -3681101.433 1  25047178.422    25047177.099    25047178.877
        12.600          11.000
 -29792932.834 7 -23215265.216 7  19660858.763    19660858.921    19660859.045
        45.700          46.000
  -4680894.873 1  -3647448.837 2  24935815.246    24935814.646    24935814.311
        11.000          15.100
 -23337658.072 6 -18185182.363 6  21021886.364    21021886.569    21021886.544
        41.300          36.400
  -5059795.177 3  -3942699.411 3  24698832.727    24698830.509    24698832.412
        22.600          19.900
 -20422711.043 6 -15913795.847 6  21360877.732    21360876.989    21360877.699
        41.000          39.100
 -19425788.113 6 -15136974.597 5  21947512.699    21947512.172    21947513.525
        38.300          34.300
 -16523765.087 6 -12875655.704 5  22564982.275    22564981.875    22564982.734
        37.400          33.800
  -6951115.538 4  -5416442.842 4  24099358.035    24099357.351    24099358.661
        24.900          24.600
 -21478450.908 6 -16736448.079 5  21598702.386    21598702.608    21598702.376
        40.400          35.600
  -3363613.195 2  -2620995.599 2  24873243.841    24873247.780    24873245.391
        13.900          17.000
 13 10 10  0 52  0.0000000  0 11G18G26G21G 9G19G28G15G 5G 7G 8G24
  -4816038.213 2  -3752754.638 2  25029680.596    25029678.711    25029679.919
        17.000          17.000
 -29790062.112 7 -23213028.302 7  19661404.812    19661405.166    19661405.242
        45.800          46.000
  -4659373.370 2  -3630678.847 2  24939911.574    24939908.634    24939910.829
        17.000          12.600
 -23260621.654 6 -18125153.993 6  21036545.711    21036546.320    21036545.948
        40.800          36.400
  -5041369.886 3  -3928342.059 3  24702339.528    24702337.012    24702338.560
        21.600          21.100
 -20434236.060 6 -15922776.363 6  21358684.656    21358683.823    21358684.618
        40.900          39.100
 -19502590.474 6 -15196820.591 5  21932897.689    21932897.373    21932898.351
        38.400          34.500
 -16430643.896 6 -12803093.749 5  22582702.693    22582702.391    22582703.100
        37.200          33.800
  -6851485.439 3  -5338809.022 3  24118315.700    24118316.616    24118317.190
        22.100          23.800
 -21412931.884 6 -16685394.288 5  21611170.056    21611170.618    21611170.169
        40.400          35.600
  -3467802.803 2  -2702182.281 2  24853416.927    24853421.046    24853418.839
        12.600          17.000
 13 10 10  0 52 30.0000000  0 11G18G26G21G 9G19G28G15G 5G 7G 8G24
  -4907770.405 2  -3824234.228 2  25012222.388    25012222.956    25012223.213
        13.900          16.100
 -29786643.745 7 -23210364.615 7  19662055.224    19662055.526    19662055.666
        46.000          45.900
  -4637393.821 1  -3613551.892 2  24944093.740    24944091.423    24944094.505
         9.000          17.000
 -23183234.772 6 -18064852.559 6  21051272.041    21051272.453    21051272.300
        40.900          36.200
  -5022355.216 3  -3913525.565 3  24705956.554    24705955.962    24705956.070
        20.500          20.500
 -20445219.198 6 -15931334.647 6  21356594.512    21356593.902    21356594.624
        41.100          39.300
 -19579106.760 6 -15256443.672 5  21918336.969    21918336.554    21918337.787
        38.500          34.600
 -16337201.806 6 -12730281.744 5  22600483.963    22600484.198    22600484.481
        37.200          33.900
  -6751775.034 3  -5261112.651 4  24137290.851    24137290.739    24137291.769
        22.600          24.900
 -21347114.092 6 -16634107.687 5  21623694.981    21623695.409    21623694.967
        40.300          35.800
  -3571910.767 1  -2783305.321 3  24833606.166    24833609.835    24833606.454
        11.000          19.900
 13 10 10  0 53  0.0000000  0 11G18G26G21G 9G19G28G15G 5G 7G 8G24
  -4999277.799 2  -3895538.672 1  24994809.699    24994809.418    24994810.189
        17.000           9.000
 -29782677.563 7 -23207274.081 7  19662809.996    19662810.246    19662810.442
        46.000          45.900
  -4614957.440 2  -3596069.004 2  24948363.205    24948362.119    24948362.944
        12.600          15.100
 -23105499.450 6 -18004279.586 6  21066064.682    21066064.919    21066064.880
        40.800          36.100
  -5002751.326 3  -3898249.851 3  24709686.657    24709686.246    24709686.728
        19.900          20.500
 -20455660.581 6 -15939470.781 6  21354607.651    21354607.156    21354607.603
        41.100          39.300
 -19655334.979 6 -15315842.291 5  21903831.779    21903830.906    21903832.094
        38.900          34.800
 -16243440.888 6 -12657221.304 5  22618326.057    22618326.296    22618326.609
        36.900          33.500
  -6651985.897 3  -5183354.936 3  24156280.806    24156279.887    24156280.903
        21.600          22.600
 -21280999.228 6 -16582589.613 5  21636276.444    21636276.529    21636276.233
        40.100          35.300
  -3675936.220 2  -2864364.080 3  24813811.204    24813814.837    24813812.298
        13.900          19.900
 13 10 10  0 53 30.0000000  0 11G18G26G21G 9G19G28G15G 5G 7G 8G24
  -5090557.747 2  -3966665.876 2  24977439.856    24977439.420    24977440.122
        15.100          13.900
 -29778163.331 7 -23203756.530 7  19663669.163    19663669.366    19663669.534
        46.000          46.100
  -4592065.660 2  -3578231.260 2  24952720.749    24952718.552    24952720.256
        15.100          16.100
 -23027417.555 6 -17943436.564 5  21080922.682    21080923.556    21080923.062
        40.300          35.900
  -4982558.619 3  -3882515.250 3  24713528.620    24713528.153    24713528.827
        20.500          19.900
 -20465560.187 6 -15947184.746 6  21352723.800    21352723.207    21352723.726
        41.000          39.300
 -19731273.299 6 -15375015.023 5  21889381.096    21889380.164    21889381.656
        39.000          35.100
 -16149363.852 6 -12583914.540 5  22636228.127    22636228.617    22636228.793
        36.800          33.600
  -6552119.035 3  -5105536.695 4  24175283.758    24175284.246    24175283.648
        22.100          24.200
 -21214588.915 6 -16530841.326 5  21648913.761    21648914.152    21648913.684
        40.200          35.700
  -3779878.013 2  -2945357.628 3  24794032.508    24794035.615    24794032.218
        17.000          19.900
 13 10 10  0 54  0.0000000  0 11G18G26G21G 9G19G28G15G 5G 7G 8G24
  -5181608.119 2  -4037614.183 2  24960113.904    24960112.918    24960113.705
        16.100          12.600
 -29773100.772 7 -23199811.718 7  19664632.587    19664632.810    19664632.943
        46.000          46.100
  -4568719.664 2  -3560039.587 2  24957162.874    24957160.486    24957162.530
        16.100          16.100
 -22948991.080 6 -17882325.059 5  21095846.876    21095847.408    21095847.132
        40.300          35.700
  -4961778.203 2  -3866322.748 2  24717482.100    24717481.864    24717483.203
        17.800          17.800
 -20474918.214 6 -15954476.705 6  21350942.937    21350942.188    21350942.912
        41.000          39.200
 -19806920.182 6 -15433960.623 5  21874985.893    21874985.097    21874986.572
        39.100          34.900
 -16054973.251 6 -12510363.439 5  22654190.466    22654190.314    22654190.998
        37.000          33.200
  -6452175.932 3  -5027658.957 3  24194303.024    24194302.609    24194303.472
        21.600          23.400
 -21147884.493 6 -16478863.882 5  21661606.885    21661607.720    21661607.040
        39.800          35.300
  -3883735.492 2  -3026285.500 2  24774268.885    24774272.294    24774268.951
        12.600          17.000
 13 10 10  0 54 30.0000000  0 11G18G26G21G 9G19G28G15G 5G 7G 8G24
  -5272426.094 2  -4108381.466 2  24942832.731    24942831.330    24942831.987
        15.100          16.100
 -29767489.671 7 -23195439.475 7  19665700.242    19665700.614    19665700.676
        46.000          46.100
  -4544920.565 2  -3541494.839 2  24961689.933    24961689.221    24961690.578
        12.600          15.100
 -22870222.002 6 -17820946.566 5  21110836.296    21110836.822    21110836.527
        40.600          35.500
  -4940409.999 3  -3849672.191 2  24721549.946    24721548.308    24721549.639
        21.100          16.100
 -20483734.308 6 -15961346.379 6  21349265.240    21349264.557    21349265.151
        40.900          39.100
 -19882273.662 6 -15492677.609 5  21860645.929    21860645.725    21860647.212
        39.300          34.900
 -15960271.727 6 -12436570.050 5  22672211.065    22672211.418    22672211.953
        36.500          33.600
  -6352157.559 3  -4949722.552 3  24213335.394    24213335.111    24213336.151
        23.000          19.300
 -21080887.509 6 -16426658.470 5  21674355.714    21674356.780    21674356.203
        39.800          35.200
  -3987507.489 2  -3107146.760 3  24754521.824    24754524.835    24754522.272
        15.100          19.900
 13 10 10  0 55  0.0000000  0 11G18G26G21G 9G19G28G15G 5G 7G 8G24
  -5363010.051 2  -4178966.358 2  24925594.766    24925593.597    24925593.937
        16.100          15.100
 -29761329.845 7 -23190639.657 7  19666872.488    19666872.865    19666872.910
        46.000          46.000
  -4520669.781 2  -3522598.109 2  24966305.446    24966304.356    24966305.099
        17.800          13.900
 -22791112.227 6 -17759302.610 5  21125890.123    21125890.949    21125890.463
        40.500          35.500
  -4918455.231 3  -3832564.582 3  24725729.263    24725726.606    24725727.670
        21.100          21.600
 -20492008.436 6 -15967793.736 6  21347690.429    21347690.289    21347690.598
        41.100          39.600
 -19957332.261 6 -15551164.830 5  21846362.762    21846362.851    21846363.978
        38.700          35.100
 -15865262.103 6 -12362536.610 5  22690290.654    22690291.523    22690291.641
        36.400          33.600
  -6252065.476 3  -4871728.741 3  24232382.169    24232382.387    24232382.914
        22.100          22.600
 -21013599.229 6 -16374226.059 5  21687160.782    21687161.369    21687160.688
        39.800          35.300
  -4091193.068 2  -3187940.676 3  24734791.156    24734794.501    24734791.018
        17.000          21.600
 13 10 10  0 55 30.0000000  0 11G18G26G21G 9G19G28G15G 5G 7G 8G24
  -5453357.419 2  -4249366.824 2  24908402.687    24908400.926    24908402.103
        17.800          16.100
 -29754621.067 7 -23185412.064 7  19668149.078    19668149.567    19668149.626
        45.900          46.300
  -4495968.343 2  -3503350.270 2  24971007.131    24971005.211    24971007.012
        16.100          12.600
 -22711663.828 6 -17697394.795 5  21141008.982    21141009.604    21141009.114
        40.400          35.900
  -4895914.412 3  -3815000.345 3  24730018.617    24730017.040    24730017.982
        19.300          21.600
 -20499740.788 6 -15973818.930 6  21346219.484    21346218.873    21346219.395
        41.000          39.600
 -20032093.942 6 -15609420.665 5  21832136.039    21832136.041    21832137.252
        38.900          35.500
 -15769946.978 6 -12288265.094 5  22708428.994    22708429.058    22708429.735
        37.000          32.600
  -6151900.906 3  -4793678.398 3  24251442.689    24251442.941    24251443.284
        21.600          22.100
 -20946021.376 6 -16321568.024 5  21700020.370    21700021.031    21700020.478
        39.800          35.700
  -4194790.933 2  -3268666.228 3  24715076.566    24715079.863    24715076.747
        12.600          19.300
 13 10 10  0 56  0.0000000  0 11G18G26G21G 9G19G28G15G 5G 7G 8G24
  -5543465.827 2  -4319581.138 2  24891254.879    24891253.769    24891255.126
        13.900          13.900
 -29747363.211 7 -23179756.651 7  19669530.310    19669530.696    19669530.772
        46.000          46.100
  -4470817.804 2  -3483752.387 2  24975791.632    24975791.077    24975791.413
        12.600          16.100
 -22631878.806 6 -17635224.649 5  21156191.357    21156192.043    21156191.596
        40.000          35.500
  -4872788.109 3  -3796979.877 3  24734418.861    24734417.828    24734418.568
        18.600          20.500
 -20506931.451 6 -15979422.029 6  21344851.002    21344850.409    21344850.997
        41.300          39.600
 -20106556.750 6 -15667443.628 5  21817966.121    21817966.280    21817967.496
        39.100          35.400
 -15674328.688 6 -12213757.346 5  22726624.326    22726624.690    22726624.973
        36.500          33.100
  -6051665.155 3  -4715572.644 3  24270517.185    24270517.604    24270517.824
        20.500          23.400
 -20878155.546 6 -16268685.572 5  21712935.105    21712935.342    21712934.980
        39.600          35.300
  -4298300.050 2  -3349322.647 3  24695380.192    24695383.053    24695380.345
        16.100          21.600
 13 10 10  0 56 30.0000000  0 11G18G26G21G 9G19G28G15G 5G 7G 8G24
  -5633332.771 2  -4389607.272 2  24874153.997    24874152.523    24874153.610
        17.800          13.900
 -29739556.027 7 -23173673.158 7  19671015.911    19671016.344    19671016.378
        46.100          46.100
  -4445219.292 1  -3463805.543 2  24980661.840    24980662.892    24980662.826
         9.000          12.600
 -22551758.947 6 -17572793.590 5  21171437.583    21171438.256    21171438.074
        40.300          35.200
  -4849077.176 2  -3778503.844 3  24738929.925    24738929.375    24738929.941
        17.800          18.600
 -20513580.498 6 -15984603.090 6  21343585.436    21343585.220    21343585.528
        41.000          39.500
 -20180719.163 6 -15725232.544 5  21803853.797    21803853.725    21803854.690
        39.500          35.600
 -15578410.247 6 -12139015.722 5  22744877.017    22744877.643    22744877.740
        36.000          33.000
  -5951359.275 3  -4637412.217 3  24289604.803    24289604.730    24289605.771
        23.000          23.000
 -20810003.094 6 -16215579.774 5  21725904.067    21725904.256    21725903.994
        39.500          34.700
  -4401719.230 1  -3429909.007 3  24675699.571    24675703.270    24675700.217
        11.000          22.600
 13 10 10  0 57  0.0000000  0 11G18G26G21G 9G19G28G15G 5G 7G 8G24
  -5722956.381 3  -4459443.844 3  24857098.811    24857097.549    24857099.044
        18.600          18.600
 -29731199.399 7 -23167161.498 7  19672605.977    19672606.554    19672606.563
        45.900          46.100
  -4419174.110 2  -3443510.592 2  24985619.936    24985618.658    24985619.973
        12.600          17.000
 -22471306.333 6 -17510103.244 5  21186747.364    21186748.138    21186747.803
        40.200          35.400
  -4824782.293 3  -3759572.809 3  24743554.352    24743552.350    24743553.805
        21.100          19.900
 -20519688.144 6 -15989362.277 6  21342423.580    21342423.019    21342423.469
        41.100          39.700
 -20254579.266 6 -15782785.885 5  21789798.827    21789798.698    21789799.608
        39.500          35.500
 -15482194.093 6 -12064042.109 5  22763186.335    22763186.753    22763187.139
        36.100          32.400
  -5850984.727 3  -4559198.229 3  24308705.782    24308705.820    24308706.280
        22.600          22.600
 -20741565.426 6 -16162251.719 5  21738927.246    21738927.555    21738927.207
        39.300          34.600
  -4505048.069 2  -3510424.916 3  24656036.676    24656040.402    24656037.217
        13.900          19.900
 13 10 10  0 57 30.0000000  0 11G18G26G21G 9G19G28G15G 5G 7G 8G24
  -5812334.037 2  -4529088.750 2  24840091.211    24840089.637    24840090.549
        12.600          13.900
 -29722293.227 7 -23160221.633 7  19674300.663    19674301.474    19674301.322
        46.100          46.100
  -4392683.656 2  -3422868.679 2  24990661.532    24990659.293    24990661.375
        15.100          17.000
 -22390522.780 6 -17447155.030 5  21202120.035    21202120.760    21202120.421
        40.000          34.900
  -4799904.372 3  -3740187.399 3  24748288.121    24748285.766    24748287.597
        20.500          18.600
 -20525254.172 6 -15993699.431 6  21341364.407    21341363.733    21341364.311
        41.300          39.500
 -20328135.630 6 -15840102.525 5  21775801.768    21775801.423    21775802.370
        39.600          35.900
 -15385682.938 6 -11988838.631 5  22781551.809    22781552.235    22781552.455
        36.100          32.700
  -5750542.875 3  -4480931.813 3  24327818.613    24327818.874    24327819.159
        19.900          22.100
 -20672844.173 6 -16108702.709 5  21752004.346    21752004.889    21752004.200
        39.300          34.600
  -4608284.627 2  -3590868.994 3  24636391.511    24636394.408    24636392.175
        15.100          21.600
 13 10 10  0 58  0.0000000  0 11G18G26G21G 9G19G28G15G 5G 7G 8G24
  -5901463.361 2  -4598540.134 2  24823130.278    24823128.850    24823129.848
        17.000          16.100
 -29712837.275 7 -23152853.319 7  19676100.326    19676100.794    19676100.823
        46.100          46.300
  -4365749.330 2  -3401880.860 2  24995785.443    24995784.488    24995784.572
        12.600          15.100
 -22309410.355 6 -17383950.558 5  21217555.390    21217555.753    21217555.540
        39.600          34.800
  -4774444.224 3  -3720348.331 2  24753133.444    24753130.798    24753132.236
        19.900          17.000
 -20530278.965 6 -15997614.843 6  21340408.058    21340407.606    21340408.021
        41.100          39.600
 -20401386.456 6 -15897181.088 6  21761862.414    21761862.226    21761863.246
        39.300          36.000
 -15288879.646 6 -11913407.508 5  22799972.951    22799973.330    22799973.576
        36.000          32.700
  -5650034.597 3  -4402613.608 3  24346944.327    24346944.818    24346945.478
        19.900          21.600
 -20603841.007 6 -16054934.022 5  21765135.272    21765135.683    21765135.344
        39.600          34.500
  -4711428.709 2  -3671240.981 3  24616763.391    24616766.618    24616764.581
        13.900          21.100
 13 10 10  0 58 30.0000000  0 11G18G26G21G 9G19G28G15G 5G 7G 8G24
  -5990341.971 2  -4667796.172 2  24806217.087    24806215.835    24806217.436
        17.000          13.900
 -29702831.665 7 -23145056.731 7  19678004.318    19678004.760    19678004.814
        46.000          46.100
  -4338372.282 2  -3380548.114 2  25000996.766    25000994.653    25000995.937
        16.100          13.900
 -22227971.034 6 -17320491.353 5  21233052.946    21233053.110    21233053.108
        39.700          34.600
  -4748402.312 3  -3700055.885 3  24758088.140    24758086.536    24758088.701
        20.500          18.600
 -20534762.729 6 -16001108.683 6  21339555.100    21339554.361    21339554.892
        41.200          39.700
 -20474329.800 6 -15954020.059 5  21747982.309    21747981.477    21747982.576
        39.700          35.900
 -15191786.749 6 -11837750.736 5  22818448.750    22818449.553    22818449.891
        36.000          32.800
  -5549461.480 3  -4324244.884 3  24366083.106    24366082.822    24366083.985
        19.300          22.100
 -20534556.912 6 -16000946.436 5  21778319.440    21778320.047    21778319.579
        39.100          34.300
  -4814478.469 1  -3751539.468 3  24597154.177    24597157.082    24597154.184
        11.000          22.100
 13 10 10  0 59  0.0000000  0 11G18G26G21G 9G19G28G15G 5G 7G 8G24
  -6078967.597 2  -4736855.113 2  24789352.148    24789351.511    24789351.678
        17.000          16.100
 -29692276.255 7 -23136831.757 7  19680012.975    19680013.435    19680013.431
        46.000          46.200
  -4310554.348 1  -3358871.774 2  25006290.165    25006287.587    25006289.861
         9.000          17.000
 -22146206.750 6 -17256778.927 5  21248612.189    21248612.509    21248612.462
        39.500          35.200
  -4721779.454 3  -3679310.805 3  24763154.762    24763152.885    24763154.527
        20.500          19.300
 -20538705.465 6 -16004180.937 6  21338804.590    21338803.887    21338804.591
        41.200          39.700
 -20546963.743 6 -16010617.938 6  21734160.694    21734159.549    21734160.862
        39.700          36.000
 -15094406.530 5 -11761870.061 5  22836979.958    22836980.187    22836980.685
        35.800          31.600
  -5448824.599 3  -4245826.496 3  24385234.362    24385233.666    24385234.784
        21.600          20.500
 -20464993.501 6 -15946741.191 5  21791557.501    21791557.395    21791557.340
        39.300          34.400
  -4917433.447 2  -3831764.129 3  24577562.179    24577565.765    24577563.670
        13.900          21.600
 13 10 10  0 59 30.0000000  0 11G18G26G21G 9G19G28G15G 5G 7G 8G24
  -6167337.824 2  -4805714.995 2  24772534.915    24772535.437    24772535.467
        16.100          17.000
 -29681170.816 7 -23128178.153 7  19682126.354    19682126.643    19682126.696
        46.100          46.200
  -4282296.652 2  -3336852.755 2  25011666.574    25011664.872    25011666.283
        13.900          12.600
 -22064119.673 6 -17192814.986 5  21264232.988    21264233.031    21264232.995
        39.800          34.800
  -4694576.873 2  -3658114.049 3  24768330.016    24768329.945    24768330.213
        17.800          19.900
 -20542107.536 6 -16006831.901 6  21338156.970    21338156.448    21338157.012
        41.200          39.500
 -20619286.610 6 -16066973.444 5  21720397.977    21720397.073    21720398.165
        39.700          35.900
 -14996741.977 6 -11685767.816 5  22855565.183    22855565.220    22855565.732
        36.000          32.300
  -5348125.366 3  -4167359.562 3  24404396.215    24404396.346    24404396.265
        19.900          23.000
 -20395152.336 6 -15892319.523 5  21804847.393    21804847.601    21804847.399
        38.900          33.900
  -5020292.429 2  -3911913.953 3  24557988.461    24557992.240    24557989.756
        15.100          21.100
 13 10 10  1  0  0.0000000  0 11G18G26G21G 9G19G28G15G 5G 7G 8G24
  -6255450.804 2  -4874374.458 2  24755767.385    24755766.959    24755768.350
        17.800          13.900
 -29669515.398 7 -23119096.009 7  19684344.303    19684344.629    19684344.637
        45.900          46.100
  -4253600.643 2  -3314492.271 2  25017125.679    25017126.173    25017126.235
        13.900          13.900
 -21981711.538 6 -17128600.849 5  21279914.588    21279914.810    21279914.728
        39.300          34.300
  -4666795.444 3  -3636466.264 3  24773617.627    24773616.981    24773616.643
        19.900          22.100
 -20544969.027 6 -16009061.632 6  21337612.416    21337612.176    21337612.532
        41.100          39.700
 -20691296.353 6 -16123084.959 6  21706694.538    21706694.057    21706695.283
        40.100          36.500
 -14898795.624 6 -11609445.998 5  22874203.536    22874203.928    22874204.252
        36.100          32.100
  -5247364.837 3  -4088844.864 3  24423570.516    24423570.390    24423570.705
        19.300          22.100
 -20325034.840 6 -15837682.535 5  21818190.138    21818190.844    21818190.250
        38.900          34.000
  -5123054.554 2  -3991988.317 3  24538434.103    24538438.144    24538435.086
        13.900          23.000
 13 10 10  1  0 30.0000000  0 11G18G26G21G 9G19G28G15G 5G 7G 8G24
  -6343304.011 2  -4942831.447 2  24739049.700    24739048.456    24739050.554
        17.800          12.600
 -29657310.006 7 -23109585.299 7  19686666.817    19686667.192    19686667.214
        46.100          46.200
  -4224467.646 2  -3291791.218 2  25022670.334    25022669.652    25022671.595
        15.100          12.600
 -21898984.481 6 -17064138.220 5  21295656.971    21295657.240    21295657.015
        38.900          34.100
  -4638435.672 3  -3614367.743 3  24779014.936    24779013.800    24779013.798
        20.500          21.100
 -20547290.368 6 -16010870.467 6  21337170.720    21337170.476    21337170.851
        41.200          39.800
 -20762991.948 6 -16178951.681 6  21693050.614    21693050.919    21693052.206
        40.200          36.600
 -14800569.969 5 -11532906.551 5  22892895.316    22892895.445    22892895.956
        35.400          31.800
  -5146544.587 2  -4010283.604 3  24442756.104    24442755.565    24442756.465
        17.800          21.600
 -20254642.268 6 -15782831.193 5  21831585.805    21831586.256    21831585.626
        38.800          34.300
  -5225718.331 2  -4071986.056 3  24518897.382    24518901.291    24518898.544
        17.000          22.100
 13 10 10  1  1  0.0000000  0 11G18G26G21G 9G19G28G15G 5G 7G 8G24
  -6430895.009 2  -5011084.135 2  24722381.198    24722381.788    24722382.214
        17.000          16.100
 -29644554.615 7 -23099646.034 7  19689094.001    19689094.507    19689094.492
        46.100          46.300
  -4194899.254 2  -3268750.910 2  25028297.256    25028296.301    25028297.642
        15.100          17.000
 -21815940.430 6 -16999428.587 5  21311460.170    21311459.884    21311460.089
        39.300          34.300
  -4609498.745 3  -3591819.481 3  24784522.836    24784519.655    24784521.958
        22.600          21.100
 -20549071.489 6 -16012258.348 6  21336831.827    21336831.374    21336831.890
        41.100          39.700
 -20834371.005 6 -16234571.758 6  21679468.053    21679467.965    21679469.095
        40.000          36.500
 -14702068.510 5 -11456152.181 5  22911639.412    22911639.949    22911640.063
        34.400          31.500
  -5045665.331 3  -3931676.372 3  24461952.997    24461952.913    24461953.109
        19.900          22.100
 -20183976.361 6 -15727766.863 5  21845033.339    21845033.379    21845033.149
        38.900          33.800
  -5328283.029 2  -4151906.573 3  24499380.283    24499383.192    24499381.703
        15.100          21.600
 13 10 10  1  1 30.0000000  0 11G18G26G21G 9G19G28G15G 5G 7G 8G24
  -6518221.208 2  -5079130.529 3  24705763.985    24705763.158    24705764.850
        17.000          18.600
 -29631249.149 7 -23089278.153 7  19691626.319    19691626.493    19691626.508
        46.100          46.200
  -4164897.087 2  -3245372.608 1  25034005.573    25034004.659    25034004.365
        15.100          11.000
 -21732581.298 6 -16934473.428 5  21327322.529    21327322.739    21327322.652
        39.100          33.900
  -4579985.858 3  -3568822.459 3  24790137.998    24790134.953    24790137.676
        20.500          18.600
 -20550312.712 6 -16013225.530 6  21336595.830    21336595.080    21336595.796
        41.100          39.700
 -20905431.945 6 -16289943.963 6  21665946.340    21665945.591    21665946.633
        40.100          36.400
 -14603293.124 5 -11379184.365 5  22930435.095    22930436.583    22930436.441
        34.900          32.600
  -4944728.321 3  -3853024.149 3  24481160.458    24481159.988    24481160.351
        19.900          19.900
 -20113038.547 6 -15672490.641 5  21858532.360    21858532.352    21858532.140
        38.400          33.400
  -5430747.472 2  -4231748.965 3  24479881.384    24479885.360    24479881.820
        15.100          22.600
 13 10 10  1  2  0.0000000  0 11G18G26G21G 9G19G28G15G 5G 7G 8G24
  -6605280.672 2  -5146969.062 2  24689197.174    24689196.253    24689197.281
        16.100          17.800
 -29617393.621 7 -23078481.641 7  19694262.756    19694263.028    19694263.084
        46.000          46.100
  -4134462.645 2  -3221657.469 2  25039798.255    25039796.905    25039798.017
        15.100          16.100
 -21648908.978 6 -16869274.228 5  21343244.914    21343245.021    21343244.958
        38.900          34.300
  -4549897.742 2  -3545377.181 2  24795862.662    24795860.418    24795861.875
        17.800          17.000
 -20551014.427 6 -16013772.324 6  21336462.214    21336461.808    21336462.273
        41.200          39.700
 -20976172.944 6 -16345066.867 6  21652484.536    21652483.888    21652485.011
        40.100          36.500
 -14504246.503 5 -11302005.199 5  22949283.325    22949284.168    22949284.473
        35.400          32.400
  -4843734.911 2  -3774327.992 3  24500378.728    24500378.465    24500378.894
        17.800          20.500
 -20041830.309 6 -15617003.689 5  21872082.981    21872082.917    21872082.544
        38.200          34.100
  -5533110.625 2  -4311512.422 3  24460403.100    24460405.877    24460403.990
        16.100          23.000
 13 10 10  1  2 30.0000000  0 11G18G26G21G 9G19G28G15G 5G 7G 8G24
  -6692070.734 3  -5214597.649 2  24672682.941    24672681.382    24672682.839
        18.600          15.100
 -29602988.085 7 -23067256.557 7  19697003.858    19697004.353    19697004.393
        46.200          46.100
  -4103597.079 1  -3197606.369 2  25045671.133    25045671.503    25045671.310
         9.000          15.100
 -21564925.215 6 -16803832.341 5  21359226.511    21359226.655    21359226.548
        38.600          34.100
  -4519235.320 2  -3521484.332 3  24801697.220    24801696.402    24801695.976
        15.100          19.300
 -20551177.125 6 -16013899.091 6  21336431.264    21336430.827    21336431.160
        41.200          39.600
 -21046592.231 6 -16399939.087 6  21639083.397    21639083.684    21639084.729
        40.100          36.600
 -14404931.878 5 -11224617.202 5  22968182.688    22968183.231    22968183.317
        34.800          31.600
  -4742686.489 3  -3695588.944 3  24519606.761    24519606.700    24519607.911
        19.300          20.500
 -19970353.106 6 -15561307.169 5  21885684.143    21885684.542    21885684.039
        38.300          33.400
  -5635371.640 2  -4391196.294 3  24440943.444    24440946.200    24440943.803
        13.900          22.100
 13 10 10  1  3  0.0000000  0 11G18G26G21G 9G19G28G15G 5G 7G 8G24
  -6778589.406 3  -5282014.821 2  24656219.159    24656216.832    24656218.547
        18.600          17.000
 -29588032.385 7 -23055602.716 7  19699849.889    19699850.405    19699850.342
        46.100          46.200
  -4072302.198 2  -3173220.722 2  25051627.333    25051625.584    25051626.967
        13.900          13.900
 -21480632.174 6 -16738149.448 5  21375267.018    21375267.083    21375267.022
        38.900          33.600
  -4487999.756 3  -3497145.033 3  24807641.432    24807641.134    24807640.538
        19.900          21.100
 -20550800.953 6 -16013605.967 6  21336502.997    21336502.171    21336502.995
        41.300          39.800
 -21116687.691 6 -16454558.940 6  21625744.949    21625744.890    21625746.053
        40.200          37.000
 -14305351.628 5 -11147022.214 5  22987132.237    22987132.427    22987133.074
        34.700          31.600
  -4641583.997 3  -3616807.806 3  24538845.985    24538846.362    24538847.297
        20.500          21.600
 -19898608.437 6 -15505402.226 5  21899336.485    21899337.028    21899336.518
        38.300          33.800
  -5737529.427 2  -4470799.752 3  24421503.523    24421506.216    24421504.614
        17.000          21.600
 13 10 10  1  3 30.0000000  0 11G18G26G21G 9G19G28G15G 5G 7G 8G24
  -6864834.302 2  -5349218.645 2  24639807.343    24639805.788    24639806.882
        15.100          16.100
 -29572526.781 7 -23043520.405 7  19702800.536    19702800.936    19702800.939
        46.100          46.200
  -4040579.337 2  -3148501.623 2  25057664.638    25057662.890    25057663.924
        13.900          13.900
 -21396031.777 6 -16672227.058 5  21391365.487    21391365.964    21391365.898
        38.800          33.800
  -4456192.039 3  -3472359.826 3  24813694.409    24813693.501    24813693.802
        20.500          22.100
 -20549886.272 6 -16012893.226 6  21336676.886    21336676.193    21336676.992
        41.500          39.600
 -21186457.974 6 -16508925.431 6  21612468.480    21612468.173    21612469.271
        40.500          36.700
 -14205508.124 5 -11069222.098 5  23006132.253    23006131.981    23006132.571
        34.700          31.300
  -4540428.702 3  -3537985.514 3  24558096.555    24558095.347    24558097.509
        19.300          21.100
 -19826597.722 6 -15449289.978 5  21913039.465    21913039.954    21913039.719
        38.100          33.100
  -5839582.724 2  -4550321.776 3  24402082.434    24402086.184    24402083.467
        17.000          21.100
 13 10 10  1  4  0.0000000  0 11G18G26G21G 9G19G28G15G 5G 7G 8G24
  -6950802.975 2  -5416207.178 2  24623447.116    24623446.776    24623447.175
        17.000          17.000
 -29556471.363 7 -23031009.681 7  19705855.754    19705856.137    19705856.211
        46.100          46.200
  -4008430.159 2  -3123450.309 2  25063781.709    25063780.744    25063781.933
        15.100          15.100
 -21311125.926 6 -16606066.660 5  21407522.956    21407522.925    21407522.914
        38.400          33.600
  -4423813.145 3  -3447129.475 3  24819856.126    24819854.882    24819855.258
        20.500          22.100
 -20548433.375 6 -16011761.095 6  21336953.045    21336952.837    21336953.087
        41.200          39.900
 -21255901.146 6 -16563037.030 6  21599254.833    21599253.643    21599254.718
        40.500          37.100
 -14105404.298 5 -10991219.135 5  23025180.830    23025181.306    23025181.542
        34.700          31.100
  -4439221.821 3  -3459123.028 3  24577355.272    24577354.741    24577356.295
        19.300          22.600
 -19754322.347 6 -15392971.515 5  21926793.240    21926793.807    21926793.266
        37.800          33.500
  -5941530.755 2  -4629761.732 3  24382683.050    24382686.231    24382683.729
        16.100          22.600
 13 10 10  1  4 30.0000000  0 11G18G26G21G 9G19G28G15G 5G 7G 8G24
  -7036493.111 3  -5482978.683 2  24607141.049    24607139.440    24607141.168
        18.600          15.100
 -29539866.103 7 -23018070.529 7  19709015.612    19709016.025    19709016.036
        46.200          46.100
  -3975856.276 2  -3098068.031 1  25069980.959    25069978.867    25069979.266
        13.900           9.000
 -21225916.649 6 -16539669.830 5  21423736.847    21423737.867    21423737.450
        38.300          33.400
  -4390864.519 3  -3421455.254 3  24826125.082    24826124.275    24826126.327
        21.100          19.900
 -20546442.746 6 -16010209.949 6  21337332.225    21337331.677    21337332.107
        41.300          39.800
 -21325015.369 6 -16616892.287 6  21586102.032    21586101.761    21586102.738
        40.900          36.900
 -14005042.953 5 -10913015.508 5  23044279.130    23044279.537    23044279.716
        34.000          31.100
  -4337964.513 2  -3380221.301 3  24596622.635    24596623.571    24596623.466
        13.900          22.600
 -19681783.873 6 -15336448.041 5  21940596.728    21940597.445    21940596.815
        37.700          33.400
  -6043372.404 3  -4709118.844 3  24363302.989    24363306.540    24363304.073
        18.600          22.600
 13 10 10  1  5  0.0000000  0 11G18G26G21G 9G19G28G15G 5G 7G 8G24
  -7121902.143 3  -5549531.156 2  24590888.608    24590887.463    24590888.438
        19.900          17.800
 -29522711.209 7 -23004703.087 7  19712279.850    19712280.567    19712280.393
        46.000          46.000
  -3942859.013 1  -3072355.885 2  25076259.503    25076258.374    25076259.652
        11.000          12.600
 -21140405.846 6 -16473038.028 5  21440009.456    21440009.978    21440009.698
        38.100          32.700
  -4357346.918 3  -3395337.594 2  24832503.888    24832501.652    24832503.121
        19.900          17.800
 -20543914.883 6 -16008240.179 6  21337813.306    21337812.638    21337813.287
        41.300          39.700
 -21393799.041 6 -16670489.953 6  21573012.755    21573012.607    21573013.718
        40.700          37.200
 -13904427.229 5 -10834613.665 5  23063425.293    23063426.201    23063426.278
        34.000          31.100
  -4236657.825 2  -3301281.060 3  24615899.689    24615901.514    24615901.368
        17.800          20.500
 -19608983.530 6 -15279720.502 5  21954450.343    21954450.911    21954450.148
        37.700          33.500
  -6145106.655 2  -4788392.230 3  24343943.194    24343946.307    24343943.727
        17.000          19.900
 13 10 10  1  5 30.0000000  0 11G18G26G21G 9G19G28G15G 5G 7G 8G24
  -7207027.959 3  -5615862.975 2  24574688.583    24574688.276    24574689.105
        19.900          15.100
 -29505006.622 7 -22990907.316 7  19715649.161    19715649.698    19715649.545
        46.100          46.200
  -3909440.394 2  -3046315.364 2  25082618.584    25082617.387    25082618.165
        15.100          17.000
 -21054595.317 6 -16406172.668 5  21456339.033    21456339.090    21456339.014
        38.100          33.100
  -4323261.734 3  -3368777.745 3  24838989.195    24838987.990    24838989.330
        20.500          19.300
 -20540850.022 6 -16005851.971 6  21338396.417    21338395.754    21338396.463
        41.300          39.700
 -21462250.298 6 -16723828.606 6  21559986.680    21559986.789    21559987.784
        40.600          37.200
 -13803559.041 5 -10756015.097 5  23082620.501    23082620.198    23082621.101
        34.500          30.600
  -4135303.123 3  -3222303.412 3  24635188.470    24635188.781    24635189.482
        19.900          19.900
 -19535922.706 6 -15222789.986 5  21968353.340    21968353.865    21968353.322
        37.600          33.100
  -6246732.470 2  -4867581.162 3  24324604.827    24324607.618    24324605.350
        15.100          22.600
 13 10 10  1  6  0.0000000  0 11G18G26G21G 9G19G28G15G 5G 7G 8G24
  -7291868.711 3  -5681972.645 3  24558543.394    24558543.961    24558543.911
        19.900          18.600
 -29486752.558 7 -22976683.373 7  19719122.797    19719123.275    19719123.243
        46.200          46.200
  -3875601.647 1  -3019947.530 1  25089058.190    25089056.216    25089057.457
         9.000          11.000
 -20968486.884 6 -16339075.171 5  21472724.762    21472725.094    21472725.046
        38.500          33.500
  -4288609.886 2  -3341776.272 3  24845583.098    24845581.850    24845583.176
        16.100          19.300
 -20537248.646 6 -16003045.696 6  21339081.790    21339081.231    21339081.679
        41.200          39.700
 -21530367.251 6 -16776906.765 6  21547025.327    21547024.591    21547025.431
        40.800          37.300
 -13702441.392 5 -10677222.134 5  23101862.457    23101862.510    23101863.170
        34.000          31.500
  -4033901.494 3  -3143289.201 3  24654485.237    24654484.695    24654485.929
        22.100          19.300
 -19462603.136 6 -15165657.848 5  21982305.924    21982306.152    21982305.653
        37.400          33.000
  -6348248.588 2  -4946684.638 3  24305287.494    24305290.163    24305288.228
        17.800          23.000
 13 10 10  1  6 30.0000000  0 11G18G26G21G 9G19G28G15G 5G 7G 8G24
  -7376421.750 3  -5747858.145 2  24542454.522    24542454.204    24542454.381
        19.900          17.800
 -29467949.171 7 -22962031.398 7  19722701.031    19722701.436    19722701.370
        46.000          46.100
  -3841344.841 2  -2993253.913 2  25095576.688    25095576.338    25095576.684
        13.900          16.100
 -20882082.798 6 -16271747.313 5  21489166.920    21489167.187    21489167.161
        38.100          33.000
  -4253392.534 3  -3314334.174 3  24852285.416    24852284.014    24852284.455
        19.900          19.900
 -20533111.210 6 -15999821.703 6  21339868.921    21339868.482    21339868.914
        41.100          39.800
 -21598148.217 6 -16829723.113 6  21534126.417    21534126.193    21534127.252
        40.700          37.500
 -13601076.979 5 -10598236.905 5  23121151.291    23121151.828    23121151.937
        33.800          31.600
  -3932453.794 2  -3064239.021 3  24673789.962    24673789.893    24673790.491
        16.100          19.900
 -19389026.045 6 -15108325.074 5  21996306.913    21996307.384    21996306.849
        37.500          32.700
  -6449654.238 2  -5025702.012 3  24285989.779    24285993.464    24285990.508
        17.000          23.400
 13 10 10  1  7  0.0000000  0 11G18G26G21G 9G19G28G15G 5G 7G 8G24
  -7460684.917 3  -5813517.721 2  24526420.735    24526418.483    24526420.494
        21.600          17.800
 -29448596.611 7 -22946951.515 7  19726383.838    19726384.213    19726384.051
        46.000          46.100
  -3806671.169 1  -2966235.470 2  25102174.726    25102174.284    25102174.989
         9.000          16.100
 -20795384.902 6 -16204190.518 5  21505664.780    21505665.529    21505665.099
        37.900          33.100
  -4217611.218 3  -3286452.746 3  24859094.553    24859093.333    24859094.288
        19.900          20.500
 -20528438.310 6 -15996180.467 6  21340758.593    21340757.645    21340758.459
        41.300          39.700
 -21665591.407 6 -16882276.248 6  21521292.334    21521292.286    21521293.253
        40.700          37.700
 -13499468.474 5 -10519061.470 5  23140486.467    23140487.104    23140487.294
        33.800          31.300
  -3830961.573 3  -2985154.144 3  24693103.126    24693102.971    24693103.127
        18.600          19.900
 -19315193.117 6 -15050792.928 5  22010357.055    22010357.354    22010357.125
        37.400          32.700
  -6550948.576 2  -5104632.648 3  24266714.661    24266718.192    24266714.885
        17.800          23.000
 13 10 10  1  7 30.0000000  0 11G18G26G21G 9G19G28G15G 5G 7G 8G24
  -7544655.309 3  -5878949.182 3  24510440.336    24510440.167    24510440.595
        20.500          19.900
 -29428694.927 7 -22931443.735 7  19730170.956    19730171.318    19730171.241
        46.100          46.100
  -3771582.377 2  -2938893.548 2  25108852.698    25108851.343    25108851.889
        15.100          16.100
 -20708395.217 6 -16136406.346 5  21522218.441    21522219.074    21522218.725
        37.700          33.600
  -4181266.855 3  -3258132.479 2  24866011.482    24866009.137    24866009.986
        21.100          17.800
 -20523230.480 6 -15992122.409 6  21341749.362    21341748.774    21341749.297
        41.200          39.800
 -21732694.975 6 -16934564.757 6  21508523.867    21508522.878    21508523.919
        40.700          37.700
 -13397618.796 5 -10439698.106 5  23159868.406    23159868.446    23159869.094
        33.900          30.400
  -3729425.782 3  -2906035.352 2  24712424.582    24712424.188    24712425.379
        19.900          16.100
 -19241105.472 6 -14993062.287 5  22024455.548    22024455.594    22024455.511
        37.200          32.600
  -6652130.195 2  -5183475.421 3  24247460.372    24247464.019    24247461.035
        17.800          23.400
 13 10 10  1  8  0.0000000  0 11G18G26G21G 9G19G28G15G 5G 7G 8G24
  -7628330.875 3  -5944150.890 2  24494518.199    24494516.238    24494517.464
        18.600          15.100
 -29408244.440 7 -22915508.296 7  19734062.821    19734062.859    19734062.943
        46.200          46.100
  -3736080.409 1  -2911229.703 2  25115608.300    25115606.001    25115607.266
        11.000          13.900
 -20621115.651 6 -16068396.299 5  21538826.984    21538827.842    21538827.442
        37.600          32.700
  -4144360.626 3  -3229374.249 3  24873033.962    24873032.422    24873033.521
        19.300          19.300
 -20517488.253 6 -15987647.933 6  21342841.876    21342841.490    21342841.876
        41.200          39.800
 -21799457.141 6 -16986587.260 6  21495818.656    21495818.573    21495819.494
        41.000          37.900
 -13295530.664 5 -10360148.922 4  23179295.409    23179295.344    23179295.608
        33.800          29.200
  -3627847.613 3  -2826883.574 2  24731753.195    24731753.885    24731754.365
        18.600          16.100
 -19166764.903 6 -14935134.572 5  22038601.610    22038602.108    22038601.695
        37.100          32.000
  -6753198.001 2  -5262229.555 3  24228227.579    24228230.786    24228228.478
        17.800          23.000
 13 10 10  1  8 30.0000000  0 11G18G26G21G 9G19G28G15G 5G 7G 8G24
  -7711709.741 3  -6009121.431 2  24478651.853    24478650.654    24478651.786
        21.600          17.800
 -29387245.271 7 -22899145.318 7  19738058.847    19738058.996    19738058.888
        45.900          45.900
  -3700166.918 2  -2883245.163 2  25122441.917    25122440.360    25122442.515
        17.800          12.600
 -20533547.834 6 -16000161.629 5  21555490.803    21555491.337    21555490.971
        37.500          32.600
  -4106894.435 3  -3200179.847 3  24880164.312    24880162.842    24880163.801
        20.500          20.500
 -20511212.019 6 -15982757.342 6  21344036.642    21344035.777    21344036.453
        41.400          39.900
 -21865876.379 6 -17038342.515 6  21483179.365    21483179.383    21483180.334
        41.100          38.000
 -13193206.700 5 -10280415.974 4  23198766.682    23198766.730    23198767.377
        33.400          29.500
  -3526228.247 2  -2747699.646 3  24751091.739    24751091.981    24751092.199
        17.000          21.600
 -19092172.791 6 -14877010.855 5  22052795.723    22052796.536    22052796.043
        37.000          32.300
  -6854151.244 3  -5340894.381 3  24209016.209    24209019.773    24209017.664
        19.300          22.100
 13 10 10  1  9  0.0000000  0 11G18G26G21G 9G19G28G15G 5G 7G 8G24
  -7794789.277 3  -6073858.724 2  24462842.245    24462840.555    24462841.602
        19.300          16.100
 -29365697.588 7 -22882354.893 7  19742158.871    19742159.312    19742159.248
        46.100          46.200
  -3663843.174 2  -2854940.941 2  25129353.719    25129351.886    25129353.429
        13.900          15.100
 -20445693.841 6 -15931703.983 5  21572208.865    21572209.452    21572209.147
        37.300          33.000
  -4068869.043 3  -3170549.648 3  24887398.604    24887398.445    24887398.774
        20.500          21.600
 -20504402.318 6 -15977451.069 6  21345332.244    21345331.648    21345332.171
        41.500          39.800
 -21931950.819 6 -17089829.106 6  21470605.961    21470605.937    21470606.749
        41.100          37.700
 -13090649.330 5 -10200501.158 4  23218281.810    23218282.879    23218282.707
        31.600          29.900
  -3424568.674 3  -2668484.376 3  24770437.694    24770436.927    24770438.507
        19.300          19.900
 -19017330.426 6 -14818692.123 5  22067037.966    22067038.713    22067038.231
        37.000          33.000
  -6954988.869 2  -5419469.143 3  24189827.154    24189830.506    24189828.945
        16.100          21.600
 13 10 10  1  9 30.0000000  0 11G18G26G21G 9G19G28G15G 5G 7G 8G24
  -7877567.552 3  -6138361.267 3  24447088.545    24447088.865    24447088.899
        19.300          18.600
 -29343601.714 7 -22865137.324 7  19746363.398    19746363.964    19746363.884
        46.200          46.100
  -3627111.507 1  -2826318.845 2  25136343.824    25136343.424    25136343.043
        11.000          13.900
 -20357555.610 6 -15863024.841 5  21588981.151    21588981.460    21588981.216
        37.300          32.800
  -4030285.702 3  -3140484.730 3  24894740.186    24894739.722    24894741.756
        20.500          19.300
 -20497059.745 6 -15971729.556 6  21346729.535    21346728.852    21346729.427
        41.400          39.700
 -21997678.485 6 -17141045.495 6  21458098.164    21458098.285    21458099.280
        41.300          38.200
 -12987861.437 5 -10120406.721 5  23237842.567    23237843.260    23237843.159
        33.000          30.800
  -3322870.099 3  -2589238.744 2  24789790.492    24789789.385    24789791.549
        21.100          13.900
 -18942239.201 6 -14760179.475 5  22081327.991    22081328.067    22081327.702
        36.600          32.600
  -7055709.631 2  -5497952.839 3  24170660.897    24170664.555    24170662.182
        17.000          23.800
 13 10 10  1 10  0.0000000  0 11G18G26G21G 9G19G28G15G 5G 7G 8G24
  -7960041.788 3  -6202626.877 3  24431394.341    24431394.247    24431394.896
        21.600          18.600
 -29320957.883 7 -22847492.780 7  19750672.566    19750673.048    19750672.991
        46.300          46.100
  -3589973.311 1  -2797380.006 2  25143410.603    25143409.897    25143410.834
        11.000          15.100
 -20269134.969 6 -15794125.650 5  21605806.797    21605807.270    21605807.014
        37.200          32.300
  -3991146.356 3  -3109986.634 3  24902188.911    24902188.054    24902189.195
        19.900          19.300
 -20489185.086 6 -15965593.444 6  21348227.956    21348227.206    21348227.916
        41.300          39.700
 -22063057.760 6 -17191990.388 6  21445656.973    21445656.931    21445658.033
        41.300          38.200
 -12884845.979 5 -10040134.958 5  23257445.840    23257446.079    23257446.240
        33.000          30.200
  -3221133.475 3  -2509963.488 3  24809149.661    24809149.571    24809150.593
        18.600          19.900
 -18866900.623 6 -14701474.089 5  22095664.271    22095664.607    22095664.164
        36.500          32.100
  -7156312.567 3  -5576344.689 4  24151517.870    24151521.074    24151518.212
        18.600          24.600
 13 10 10  1 10 30.0000000  0 11G18G26G21G 9G19G28G15G 5G 7G 8G24
  -8042209.597 3  -6266653.741 2  24415759.379    24415758.418    24415759.602
        21.100          17.800
 -29297766.398 7 -22829421.515 7  19755085.563    19755086.236    19755086.068
        46.100          46.100
  -3552430.518 2  -2768125.883 1  25150555.686    25150554.237    25150555.127
        12.600          11.000
 -20180433.669 6 -15725007.758 5  21622686.024    21622686.670    21622686.327
        37.000          32.400
  -3951451.528 3  -3079055.675 3  24909742.742    24909741.892    24909742.649
        19.300          21.600
 -20480778.711 6 -15959043.020 6  21349827.570    21349826.829    21349827.415
        41.300          39.400
 -22128087.038 6 -17242662.555 6  21433282.728    21433282.316    21433283.304
        41.200          38.400
 -12781605.241 5  -9959687.646 5  23277091.722    23277092.313    23277092.411
        33.400          30.400
  -3119360.325 2  -2430659.769 3  24828516.118    24828517.550    24828517.499
        16.100          22.600
 -18791316.015 6 -14642576.993 5  22110047.658    22110047.942    22110047.479
        36.500          32.600
  -7256796.728 3  -5654643.984 3  24132396.122    24132399.673    24132396.928
        18.600          23.000
 13 10 10  1 11  0.0000000  0 11G18G26G21G 9G19G28G15G 5G 7G 8G24
  -8124069.035 3  -6330440.317 2  24400182.475    24400180.416    24400182.261
        22.100          17.000
 -29274027.474 7 -22810923.685 7  19759603.185    19759603.593    19759603.551
        46.200          46.000
  -3514484.885 2  -2738557.804 2  25157775.760    25157775.608    25157775.721
        12.600          12.600
 -20091453.801 6 -15655672.799 5  21639618.532    21639619.112    21639618.695
        37.400          32.400
  -3911203.090 3  -3047693.211 3  24917403.096    24917400.476    24917402.286
        19.900          18.600
 -20471841.200 6 -15952078.707 6  21351528.261    21351527.527    21351528.324
        41.500          39.600
 -22192764.326 6 -17293060.438 6  21420974.893    21420974.690    21420975.736
        41.400          38.300
 -12678142.786 5  -9879067.568 5  23296780.346    23296780.524    23296780.804
        32.800          30.100
  -3017551.464 2  -2351328.206 3  24847889.744    24847889.123    24847890.877
        17.800          18.600
 -18715486.957 6 -14583489.429 5  22124477.386    22124477.657    22124477.283
        36.500          31.500
  -7357160.887 3  -5732849.827 4  24113297.096    24113300.676    24113298.194
        18.600          24.900
 13 10 10  1 11 30.0000000  0 11G18G26G21G 9G19G28G15G 5G 7G 8G24
  -8205617.491 3  -6393984.566 2  24384663.631    24384662.800    24384663.434
        22.100          16.100
 -29249741.280 7 -22791999.383 7  19764224.838    19764225.027    19764225.048
        46.100          46.000
  -3476137.955 2  -2708677.080 2  25165074.126    25165072.316    25165073.799
        12.600          13.900
 -20002197.368 6 -15586122.316 5  21656603.480    21656603.801    21656603.575
        36.900          31.600
  -3870402.253 3  -3015900.206 3  24925166.496    24925164.819    24925166.095
        20.500          19.300
 -20462373.365 6 -15944701.165 6  21353330.121    21353329.279    21353330.054
        41.500          39.700
 -22257087.785 6 -17343182.622 6  21408734.878    21408734.313    21408735.376
        41.500          38.400
 -12574460.467 5  -9798276.170 4  23316510.175    23316510.615    23316510.856
        32.300          29.900
  -2915708.029 2  -2271969.737 3  24867269.203    24867269.759    24867270.303
        13.900          19.900
 -18639414.900 6 -14524212.505 5  22138953.463    22138953.595    22138953.466
        36.400          31.800
  -7457404.230 3  -5810961.475 4  24094221.349    24094224.203    24094221.844
        19.300          24.600
 13 10 10  1 12  0.0000000  0 11G18G26G21G 9G19G28G15G 5G 7G 8G24
  -8286853.097 3  -6457285.030 2  24369205.006    24369203.417    24369205.406
        19.900          17.000
 -29224908.268 7 -22772648.972 7  19768950.292    19768950.705    19768950.529
        46.100          45.900
  -3437391.580 1  -2678485.111 2  25172446.841    25172444.825    25172446.831
        11.000          17.000
 -19912666.054 6 -15516357.656 5  21673640.646    21673641.087    21673640.826
        36.800          31.600
  -3829050.567 3  -2983678.111 3  24933037.005    24933034.465    24933035.068
        20.500          19.900
 -20452376.097 6 -15936911.077 6  21355232.208    21355231.742    21355232.235
        41.100          39.500
 -22321055.797 6 -17393027.837 6  21396561.683    21396561.529    21396562.711
        41.600          38.400
 -12470561.323 5  -9717315.819 4  23336281.628    23336281.577    23336282.152
        31.600          29.700
  -2813830.956 2  -2192585.027 3  24886656.058    24886656.314    24886656.491
        13.900          20.500
 -18563101.039 6 -14464747.169 5  22153475.769    22153475.825    22153475.522
        36.500          31.500
  -7557525.837 3  -5888978.274 3  24075168.592    24075171.746    24075169.416
        19.300          23.400
 13 10 10  1 12 30.0000000  0 11G18G26G21G 9G19G28G15G 5G 7G 8G24
  -8367773.427 3  -6520339.845 2  24353806.584    24353805.440    24353806.336
        20.500          17.800
 -29199528.785 7 -22752872.747 7  19773779.607    19773780.279    19773780.118
        46.100          46.100
  -3398247.806 2  -2647983.467 1  25179893.668    25179893.776    25179894.602
        15.100          11.000
 -19822861.717 6 -15446380.259 5  21690730.067    21690730.382    21690730.199
        36.900          32.300
  -3787149.563 3  -2951027.996 2  24941010.101    24941007.540    24941009.216
        19.900          17.800
 -20441849.691 6 -15928708.666 6  21357235.353    21357234.755    21357235.337
        41.300          39.500
 -22384666.605 6 -17442594.680 6  21384456.975    21384456.845    21384457.775
        41.500          38.800
 -12366447.918 5  -9636188.513 4  23356093.572    23356093.754    23356094.133
        32.000          29.200
  -2711921.595 2  -2113175.204 2  24906048.514    24906048.491    24906049.085
        12.600          16.100
 -18486546.783 5 -14405094.499 5  22168042.633    22168043.588    22168042.912
        35.800          31.500
  -7657524.460 3  -5966899.278 4  24056140.678    24056142.944    24056141.330
        22.100          25.600
 13 10 10  1 13  0.0000000  0 11G18G26G21G 9G19G28G15G 5G 7G 8G24
  -8448376.184 3  -6583147.195 2  24338469.905    24338466.979    24338469.179
        23.400          17.800
 -29173603.016 7 -22732670.852 7  19778713.106    19778713.807    19778713.614
        46.100          45.900
  -3358708.380 2  -2617173.555 2  25187417.974    25187418.330    25187417.207
        12.600          13.900
 -19732786.411 6 -15376191.715 5  21707870.662    21707870.890    21707870.902
        36.300          31.800
  -3744700.799 2  -2917950.981 3  24949087.350    24949084.315    24949086.403
        17.800          19.300
 -20430795.170 6 -15920094.740 6  21359339.015    21359338.335    21359339.029
        41.400          39.600
 -22447918.196 6 -17491881.632 6  21372420.629    21372420.524    21372421.473
        41.600          38.800
 -12262123.121 5  -9554896.473 4  23375946.284    23375946.408    23375946.598
        32.100          29.000
  -2609981.056 3  -2033741.104 3  24925448.525    24925448.127    24925448.522
        18.600          19.900
 -18409753.503 6 -14345255.567 5  22182656.274    22182656.954    22182656.213
        36.200          31.600
  -7757399.206 3  -6044723.727 4  24037135.127    24037137.460    24037135.415
        19.900          25.300
 13 10 10  1 13 30.0000000  0 12G17G18G26G21G 9G19G28G15G 5G 7G 8G24
   -146167.018 1   -113896.441 2  25502307.682    25502309.638    25502306.258
         9.000          12.600
  -8528658.940 3  -6645705.196 2  24323190.888    24323189.289    24323190.897
        22.100          16.100
 -29147131.421 7 -22712043.649 7  19783750.441    19783751.040    19783751.043
        46.200          45.700
  -3318775.136 1  -2586056.748 2  25195017.765    25195016.768    25195018.178
        11.000          15.100
 -19642442.108 6 -15305793.566 5  21725062.301    21725062.951    21725062.676
        36.400          31.800
  -3701705.365 3  -2884448.019 2  24957268.824    24957267.226    24957268.447
        19.300          17.000
 -20419212.763 6 -15911069.482 6  21361543.115    21361542.328    21361543.077
        41.400          39.400
 -22510809.021 6 -17540887.470 6  21360453.234    21360452.848    21360453.685
        41.700          39.100
 -12157589.960 5  -9473442.086 4  23395838.152    23395838.804    23395838.712
        32.800          29.900
  -2508010.143 2  -1954283.283 3  24944853.920    24944853.069    24944853.740
        16.100          21.600
 -18332722.819 5 -14285231.646 5  22197314.581    22197315.501    22197314.705
        35.900          32.000
  -7857148.864 3  -6122450.723 4  24018152.450    24018155.727    24018153.354
        19.900          24.200
 13 10 10  1 14  0.0000000  0 12G17G18G26G21G 9G19G28G15G 5G 7G 8G24
   -241497.606 2   -188179.971 1  25484165.516    25484167.659    25484165.868
        12.600          11.000
  -8608619.376 3  -6708012.012 2  24307974.354    24307974.307    24307974.936
        22.100          17.800
 -29120114.343 7 -22690991.393 7  19788891.864    19788892.350    19788892.268
        46.300          46.000
  -3278449.699 1  -2554634.310 2  25202691.006    25202690.358    25202692.508
        11.000          12.600
 -19551830.457 6 -15235187.092 5  21742305.501    21742305.765    21742305.619
        36.500          31.800
  -3658165.234 3  -2850520.728 3  24965554.635    24965552.865    24965553.532
        21.100          19.900
 -20407103.491 6 -15901633.674 6  21363847.297    21363846.641    21363847.277
        41.300          39.500
 -22573337.359 6 -17589610.860 6  21348554.189    21348554.113    21348554.999
        41.800          39.200
 -12052851.079 5  -9391827.384 4  23415769.096    23415769.627    23415769.809
        32.400          29.000
  -2406009.898 2  -1874802.620 2  24964263.320    24964262.282    24964264.144
        16.100          12.600
 -18255456.146 6 -14225023.828 5  22212017.703    22212018.792    22212018.089
        36.000          31.800
  -7956772.811 3  -6200079.738 4  23999194.606    23999198.200    23999195.074
        19.900          24.200
 13 10 10  1 14 30.0000000  0 12G17G18G26G21G 9G19G28G15G 5G 7G 8G24
   -336827.694 1   -262463.209 2  25466025.724    25466027.173    25466026.647
         9.000          17.000
  -8688255.456 3  -6770066.120 2  24292819.552    24292819.670    24292820.618
        21.100          16.100
 -29092552.205 7 -22669514.415 7  19794137.175    19794137.318    19794137.227
        46.000          45.900
  -3237734.188 2  -2522907.885 2  25210440.230    25210439.157    25210439.901
        12.600          15.100
 -19460953.186 6 -15164373.641 5  21759598.998    21759599.126    21759599.011
        36.500          32.000
  -3614081.644 3  -2816169.929 3  24973943.481    24973941.518    24973942.256
        18.600          19.900
 -20394468.477 6 -15891788.198 6  21366252.023    21366251.164    21366251.816
        41.400          39.600
 -22635501.182 6 -17638050.210 6  21336724.754    21336724.660    21336725.629
        41.900          39.200
 -11947908.972 5  -9310054.322 4  23435738.878    23435739.828    23435739.772
        31.600          29.700
  -2303981.521 2  -1795300.099 3  24983678.847    24983678.086    24983679.639
        15.100          19.900
 -18177954.668 5 -14164633.058 5  22226766.134    22226766.692    22226766.153
        35.900          31.100
  -8056269.551 3  -6277609.651 4  23980260.915    23980264.289    23980261.719
        19.300          24.600
 13 10 10  1 15  0.0000000  0 12G17G18G26G21G 9G19G28G15G 5G 7G 8G24
   -432155.123 1   -336744.326 2  25447885.826    25447887.351    25447885.021
        11.000          12.600
  -8767564.701 3  -6831865.511 3  24277727.921    24277727.923    24277728.598
        22.100          18.600
 -29064445.332 7 -22647612.964 7  19799485.263    19799485.630    19799485.631
        46.100          45.700
  -3196630.499 2  -2490879.013 1  25218260.868    25218260.645    25218262.027
        12.600           6.500
 -19369812.455 6 -15093354.887 5  21776942.286    21776942.686    21776942.535
        36.400          32.000
  -3569456.305 3  -2781397.116 2  24982434.816    24982432.834    24982435.123
        18.600          15.100
 -20381308.079 6 -15881533.334 6  21368756.051    21368755.496    21368756.069
        41.400          39.700
 -22697299.343 7 -17686204.634 6  21324965.114    21324964.909    21324965.850
        42.000          39.200
 -11842766.434 5  -9228125.103 4  23455746.895    23455747.071    23455747.454
        30.600          28.400
  -2201926.141 2  -1715776.425 3  25003098.495    25003099.096    25003099.426
        15.100          18.600
 -18100219.953 5 -14104060.555 5  22241558.493    22241558.981    22241558.530
        35.700          31.300
  -8155638.333 3  -6355039.838 4  23961351.359    23961354.967    23961351.997
        19.900          25.300
 13 10 10  1 15 30.0000000  0 12G17G18G26G21G 9G19G28G15G 5G 7G 8G24
   -527476.892 2   -411021.042 1  25429746.945    25429747.466    25429747.684
        16.100          11.000
  -8846545.183 3  -6893408.707 2  24262699.015    24262697.788    24262699.572
        23.400          17.800
 -29035794.163 7 -22625287.378 7  19804937.470    19804937.820    19804937.915
        46.200          45.600
  -3155140.241 1  -2458548.988 1  25226155.619    25226156.071    25226156.046
        11.000          11.000
 -19278410.137 6 -15022132.309 5  21794335.533    21794335.955    21794335.840
        36.300          31.500
  -3524290.537 3  -2746203.142 2  24991029.469    24991027.821    24991029.083
        19.300          13.900
 -20367623.093 6 -15870869.700 6  21371360.193    21371359.532    21371360.207
        41.100          39.500
 -22758729.419 7 -17734072.227 6  21313275.290    21313275.194    21313276.109
        42.100          39.500
 -11737426.161 5  -9146041.779 4  23475792.868    23475792.378    23475793.361
        31.500          27.600
  -2099844.776 2  -1636232.552 3  25022523.828    25022524.658    25022524.718
        13.900          18.600
 -18022253.542 5 -14043307.523 5  22256394.824    22256395.687    22256395.051
        35.900          31.500
  -8254877.870 3  -6432369.323 4  23942466.757    23942469.971    23942467.676
        18.600          24.200
 13 10 10  1 16  0.0000000  0 12G17G18G26G21G 9G19G28G15G 5G 7G 8G24
   -622790.551 2   -485291.470 2  25411609.414    25411610.864    25411610.029
        12.600          15.100
  -8925194.278 3  -6954693.697 2  24247732.715    24247732.083    24247732.785
        22.600          17.800
 -29006599.178 7 -22602538.066 7  19810493.114    19810493.679    19810493.426
        46.100          45.800
  -3113265.528 2  -2425919.338 2  25234126.283    25234123.953    25234125.407
        13.900          13.900
 -19186748.036 6 -14950707.292 5  21811778.067    21811778.733    21811778.539
        36.400          31.000
  -3478585.722 3  -2710588.918 3  24999727.852    24999726.189    24999726.794
        21.600          21.100
 -20353414.486 6 -15859798.051 6  21374063.968    21374063.366    21374063.996
        41.200          39.500
 -22819789.836 7 -17781651.757 6  21301656.184    21301655.772    21301656.752
        42.000          39.500
 -11631891.248 5  -9063806.780 4  23495875.463    23495875.673    23495876.032
        31.500          29.000
  -1997738.567 2  -1556669.336 3  25041953.981    25041954.187    25041954.739
        13.900          19.300
 -17944056.843 5 -13982375.029 5  22271275.279    22271276.129    22271275.284
        35.300          31.300
  -8353987.400 3  -6509597.502 4  23923607.523    23923610.269    23923608.530
        19.900          25.600
 13 10 10  1 16 30.0000000  0 12G17G18G26G21G 9G19G28G15G 5G 7G 8G24
   -718093.292 2   -559553.365 2  25393473.931    25393475.399    25393474.098
        13.900          16.100
  -9003510.045 3  -7015718.931 3  24232830.163    24232828.289    24232829.893
        22.600          19.900
 -28976860.700 7 -22579365.243 7  19816152.437    19816152.702    19816152.632
        46.200          45.700
  -3071008.290 1  -2392991.593 2  25242168.280    25242164.980    25242168.400
        11.000          15.100
 -19094827.978 6 -14879081.266 5  21829269.902    21829270.455    21829270.235
        36.000          31.000
  -3432344.145 3  -2674556.568 3  25008526.610    25008524.769    25008525.785
        19.300          21.600
 -20338682.957 6 -15848318.927 6  21376867.477    21376866.624    21376867.371
        41.500          39.300
 -22880479.233 7 -17828942.175 6  21290106.869    21290107.012    21290107.821
        42.100          39.500
 -11526163.703 5  -8981421.716 4  23515994.579    23515995.436    23515995.173
        31.500          29.500
  -1895608.034 2  -1477087.180 3  25061388.559    25061388.942    25061390.260
        15.100          19.300
 -17865630.920 5 -13921263.936 5  22286199.806    22286199.976    22286199.460
        35.500          31.100
  -8452965.893 3  -6586723.594 4  23904771.737    23904775.128    23904772.627
        19.900          25.300
 13 10 10  1 17  0.0000000  0 12G17G18G26G21G 9G19G28G15G 5G 7G 8G24
   -813382.166 2   -633804.470 2  25375341.229    25375341.960    25375341.946
        12.600          16.100
  -9081490.044 3  -7076482.534 3  24217990.841    24217989.675    24217990.897
        21.600          18.600
 -28946579.192 7 -22555769.282 7  19821914.769    19821915.096    19821914.917
        46.100          45.600
  -3028370.381 1  -2359767.263 2  25250280.929    25250279.636    25250280.223
         6.500          15.100
 -19002651.861 6 -14807255.723 5  21846810.770    21846811.108    21846810.909
        36.300          31.000
  -3385566.937 3  -2638106.717 3  25017427.753    25017426.372    25017427.135
        19.300          18.600
 -20323429.281 6 -15836432.937 6  21379770.076    21379769.301    21379769.998
        41.200          39.100
 -22940795.519 7 -17875941.882 6  21278629.282    21278629.083    21278629.993
        42.100          39.900
 -11420246.522 5  -8898888.868 5  23536150.151    23536150.616    23536150.740
        31.600          30.100
  -1793454.648 2  -1397487.203 3  25080828.866    25080829.211    25080829.016
        17.000          21.100
 -17786977.449 5 -13859975.526 5  22301166.805    22301167.287    22301166.863
        35.300          30.800
  -8551812.532 3  -6663746.944 4  23885961.860    23885965.816    23885962.782
        19.300          26.200
 13 10 10  1 17 30.0000000  0 12G17G18G26G21G 9G19G28G15G 5G 7G 8G24
   -908654.376 1   -708042.551 2  25357211.091    25357212.979    25357211.785
        11.000          16.100
  -9159131.808 3  -7136982.589 2  24203215.256    24203214.843    24203215.846
        22.100          16.100
 -28915755.131 7 -22531750.570 7  19827780.186    19827780.658    19827780.608
        46.100          45.500
  -2985354.015 1  -2326248.031 2  25258464.783    25258464.491    25258466.018
         9.000          12.600
 -18910221.599 5 -14735232.165 5  21864399.400    21864399.970    21864399.734
        35.800          31.100
  -3338256.031 2  -2601241.081 2  25026431.227    25026428.843    25026429.835
        15.100          17.800
 -20307654.537 6 -15824140.926 6  21382771.810    21382771.136    21382771.740
        41.100          39.600
 -23000737.054 7 -17922649.587 6  21267222.872    21267222.596    21267223.401
        42.000          39.500
 -11314142.617 5  -8816210.522 4  23556340.587    23556341.543    23556341.442
        31.000          29.500
  -1691279.380 2  -1317870.163 3  25100271.213    25100272.343    25100271.855
        17.000          19.300
 -17708097.635 5 -13798510.747 5  22316177.131    22316177.375    22316177.151
        35.400          30.100
  -8650525.586 3  -6740666.183 4  23867178.592    23867180.694    23867178.713
        20.500          25.900
 13 10 10  1 18  0.0000000  0 12G17G18G26G21G 9G19G28G15G 5G 7G 8G24
  -1003907.154 1   -782265.492 2  25339085.790    25339087.078    25339086.301
         6.500          15.100
  -9236433.463 4  -7197217.632 3  24188505.932    24188504.656    24188505.926
        24.600          18.600
 -28884389.048 7 -22507309.501 7  19833748.713    19833749.584    19833749.376
        46.100          45.500
  -2941960.663 2  -2292435.022 1  25266723.731    25266722.751    25266722.703
        12.600           9.000
 -18817539.036 5 -14663012.001 5  21882036.431    21882036.704    21882036.699
        35.600          30.200
  -3290412.876 3  -2563960.665 3  25035535.045    25035533.311    25035534.985
        18.600          18.600
 -20291359.403 6 -15811443.409 6  21385872.608    21385871.960    21385872.704
        41.100          39.500
 -23060301.868 7 -17969063.733 6  21255887.420    21255887.676    21255888.702
        42.200          39.800
 -11207854.910 5  -8733388.945 4  23576566.866    23576567.053    23576567.301
        31.100          28.400
  -1589083.094 2  -1238236.746 3  25119719.052    25119719.074    25119719.911
        15.100          18.600
 -17628992.891 5 -13736870.685 5  22331230.542    22331230.630    22331230.388
        35.400          30.100
  -8749104.427 3  -6817480.871 4  23848418.994    23848421.929    23848420.169
        19.300          25.600
 13 10 10  1 18 30.0000000  0 12G17G18G26G21G 9G19G28G15G 5G 7G 8G24
  -1099137.787 2   -856471.196 2  25320963.165    25320964.348    25320964.038
        15.100          13.900
  -9313392.773 3  -7257185.915 3  24173861.238    24173859.189    24173860.870
        22.100          19.300
 -28852481.468 7 -22482446.473 7  19839820.854    19839821.318    19839821.287
        46.200          45.500
  -2898192.500 1  -2258329.941 2  25275054.143    25275051.969    25275053.111
         6.500          16.100
 -18724605.785 5 -14590596.499 5  21899721.119    21899721.380    21899721.280
        35.700          30.400
  -3242039.713 3  -2526267.422 3  25044738.802    25044738.474    25044740.187
        20.500          19.300
 -20274544.849 6 -15798341.150 6  21389072.407    21389071.668    21389072.511
        41.500          39.500
 -23119488.416 7 -18015183.109 6  21244625.003    21244624.871    21244625.767
        42.200          40.100
 -11101386.246 5  -8650426.368 4  23596826.835    23596827.558    23596827.655
        30.400          28.100
  -1486867.157 2  -1158587.964 3  25139171.114    25139170.122    25139171.393
        17.800          19.900
 -17549664.717 5 -13675056.523 5  22346326.029    22346326.543    22346325.956
        35.300          31.000
  -8847547.876 3  -6894190.034 4  23829685.702    23829689.752    23829686.001
        19.900          26.500
 13 10 10  1 19  0.0000000  0 12G17G18G26G21G 9G19G28G15G 5G 7G 8G24
  -1194343.084 2   -930657.170 2  25302847.027    25302846.413    25302847.351
        12.600          13.900
  -9390007.382 3  -7316885.596 3  24159282.092    24159280.740    24159282.086
        22.100          19.300
 -28820032.806 7 -22457161.816 7  19845995.855    19845996.017    19845996.107
        46.300          45.600
  -2854051.611 1  -2223934.411 2  25283452.718    25283449.967    25283451.506
         6.500          12.600
 -18631423.561 6 -14517987.003 5  21917452.940    21917453.276    21917453.615
        36.200          30.600
  -3193137.638 2  -2488161.932 3  25054044.666    25054044.350    25054045.456
        16.100          18.600
 -20257211.814 6 -15784834.881 6  21392370.690    21392370.037    21392370.765
        41.400          39.400
 -23178295.198 7 -18061006.575 6  21233434.791    21233434.431    21233435.308
        42.400          40.500
 -10994738.866 4  -8567324.535 4  23617121.029    23617121.762    23617121.824
        29.900          27.100
  -1384632.391 2  -1078924.566 3  25158625.242    25158624.919    25158625.618
        13.900          19.300
 -17470114.530 5 -13613069.347 5  22361464.126    22361464.374    22361463.820
        35.200          31.000
  -8945855.074 3  -6970793.027 4  23810978.485    23810981.484    23810979.163
        21.100          25.300
 13 10 10  1 19 30.0000000  0 12G17G18G26G21G 9G19G28G15G 5G 7G 8G24
  -1289520.761    -1004821.636    25284734.577    25284734.913    25284735.236
         3.000           3.000
  -9466275.085 3  -7376314.969 3  24144767.482    24144767.322    24144768.172
        22.600          19.300
 -28787043.586 7 -22431455.945 7  19852273.441    19852273.873    19852273.615
        46.300          45.600
  -2809539.992 2  -2189250.019 2  25291922.517    25291922.066    25291921.881
        15.100          13.900
 -18537994.393 5 -14445185.056 5  21935231.772    21935232.627    21935232.352
        35.400          30.100
  -3143708.379 3  -2449645.601 2  25063451.610    25063450.314    25063452.280
        18.600          16.100
 -20239361.348 6 -15770925.420 6  21395767.757    21395766.821    21395767.723
        41.300          39.400
 -23236720.223 7 -18106532.544 6  21222316.535    21222316.516    21222317.416
        42.400          40.300
 -10887915.448 5  -8484085.524 4  23637449.423    23637449.461    23637449.887
        30.400          27.400
  -1282379.651 2   -999247.127 2  25178083.615    25178082.971    25178083.421
        15.100          17.800
 -17390343.743 5 -13550910.316 4  22376643.607    22376644.188    22376643.641
        34.600          29.900
  -9044025.360 3  -7047289.348 4  23792297.471    23792299.908    23792298.032
        21.600          25.900
 13 10 10  1 20  0.0000000  0 12G17G18G26G21G 9G19G28G15G 5G 7G 8G24
  -1384668.030 2  -1078962.360 2  25266628.498    25266629.435    25266628.657
        12.600          12.600
  -9542193.696 3  -7435472.298 2  24130320.351    24130320.660    24130321.467
        23.800          17.800
 -28753514.439 7 -22405329.359 7  19858653.643    19858654.209    19858654.052
        46.100          45.500
  -2764659.727 2  -2154278.353 2  25300462.084    25300460.615    25300462.199
        13.900          13.900
 -18444320.098 5 -14372192.117 5  21953057.558    21953058.492    21953057.872
        35.500          30.600
  -3093754.007 3  -2410720.176 2  25072959.033    25072956.180    25072957.481
        18.600          17.000
 -20220994.213 6 -15756613.365 6  21399262.730    21399261.907    21399262.640
        41.300          39.300
 -23294761.617 7 -18151759.587 6  21211271.521    21211271.524    21211272.414
        42.400          40.500
 -10780919.303 4  -8400711.917 4  23657809.444    23657810.317    23657810.351
        29.900          27.900
  -1180110.055 1   -919556.544 2  25197544.962    25197544.809    25197544.546
        11.000          16.100
 -17310353.534 5 -13488580.283 5  22391865.540    22391865.739    22391865.271
        34.800          30.100
  -9142057.245 3  -7123677.824 4  23773643.115    23773645.183    23773643.486
        23.000          26.200
 13 10 10  1 20 30.0000000  0 12G17G18G26G21G 9G19G28G15G 5G 7G 8G24
  -1479781.720 1  -1153076.964 2  25248529.901    25248530.450    25248530.074
         6.500          13.900
  -9617760.988 4  -7494355.923 3  24115940.953    24115940.150    24115941.431
        24.600          20.500
 -28719445.936 7 -22378782.529 7  19865136.641    19865137.195    19865137.188
        46.400          45.400
  -2719412.485    -2119020.763 2  25309073.173    25309072.624    25309073.295
         3.000          13.900
 -18350402.733 5 -14299009.749 5  21970929.616    21970930.279    21970929.679
        35.300          30.200
  -3043275.567 3  -2371386.202 3  25082563.013    25082561.805    25082562.553
        19.300          18.600
 -20202111.186 6 -15741899.315 6  21402856.011    21402855.428    21402855.960
        41.300          39.400
 -23352417.796 7 -18196686.495 6  21200299.836    21200299.922    21200300.789
        42.200          40.300
 -10673752.447 4  -8317205.313 4  23678203.005    23678203.833    23678203.496
        29.700          28.400
  -1077824.555 1   -839853.604 3  25217008.789    25217009.120    25217008.734
         9.000          19.900
 -17230145.122 5 -13426080.242 4  22407128.854    22407128.908    22407128.380
        34.500          29.900
  -9239950.188 3  -7199958.020 4  23755013.146    23755017.167    23755014.291
        21.100          26.200
 13 10 10  1 21  0.0000000  0 12G17G18G26G21G 9G19G28G15G 5G 7G 8G24
  -1574859.312 1  -1227163.398 2  25230436.453    25230438.179    25230438.307
        11.000          15.100
  -9692974.815 3  -7552964.059 3  24101628.649    24101627.628    24101628.775
        23.400          19.300
 -28684838.555 7 -22351815.756 7  19871722.336    19871722.858    19871722.778
        46.300          45.400
  -2673800.642 1  -2083479.054 2  25317753.448    25317751.656    25317753.263
         9.000          13.900
 -18256243.905 5 -14225639.222 5  21988847.525    21988848.015    21988847.580
        35.200          30.100
  -2992275.323 2  -2331645.581 3  25092269.177    25092266.945    25092268.139
        15.100          19.900
 -20182713.501 6 -15726784.233 6  21406547.485    21406546.766    21406547.412
        41.500          39.300
 -23409687.179 7 -18241312.014 6  21189402.178    21189401.891    21189402.863
        42.300          40.300
 -10566418.371 4  -8233568.396 4  23698628.212    23698628.704    23698628.920
        29.700          27.600
   -975523.920 2   -760138.859 2  25236474.681    25236475.835    25236475.751
        13.900          17.000
 -17149720.082 5 -13363411.376 5  22422433.022    22422433.248    22422432.991
        35.200          30.200
  -9337702.447 3  -7276128.586 4  23736412.061    23736415.052    23736413.192
        20.500          25.900
 13 10 10  1 21 30.0000000  0 12G17G18G26G21G 9G19G28G15G 5G 7G 8G24
  -1669897.949 1  -1301219.437 2  25212348.432    25212352.634    25212350.951
        11.000          12.600
  -9767832.617 3  -7611294.807 3  24087383.710    24087383.208    24087383.911
        23.400          19.900
 -28649692.865 7 -22324429.509 7  19878410.382    19878410.890    19878410.745
        46.200          45.500
  -2627826.471 1  -2047654.981 1  25326500.031    25326500.398    25326499.429
         6.500           9.000
 -18161845.557 5 -14152082.089 5  22006810.573    22006811.430    22006811.115
        35.300          30.400
  -2940755.508 3  -2291500.202 3  25102073.211    25102071.226    25102071.377
        18.600          19.300
 -20162802.181 6 -15711268.914 6  21410336.344    21410335.632    21410336.390
        41.300          39.200
 -23466567.777 7 -18285634.568 6  21178578.158    21178578.039    21178578.837
        42.600          40.700
 -10458919.272 4  -8149802.874 4  23719084.521    23719085.316    23719085.065
        29.500          27.900
   -873209.199 2   -680413.051 2  25255944.832    25255944.643    25255946.030
        16.100          16.100
 -17069079.855 5 -13300574.835 5  22437778.678    22437778.570    22437778.263
        35.100          30.100
  -9435313.331 3  -7352188.992 4  23717837.417    23717840.926    23717838.625
        21.600          27.400
 13 10 10  1 22  0.0000000  0 12G17G18G26G21G 9G19G28G15G 5G 7G 8G24
  -1764894.533 2  -1375242.741 2  25194274.572    25194275.347    25194274.342
        13.900          17.800
  -9842332.604 4  -7669346.700 3  24073207.196    24073205.576    24073206.998
        24.200          18.600
 -28614009.648 7 -22296624.441 7  19885200.584    19885201.211    19885200.955
        46.200          45.400
  -2581491.480    -2011549.805 2  25335317.863    25335317.659    25335318.380
                        12.600
 -18067209.508 5 -14078339.762 5  22024819.701    22024819.980    22024819.783
        35.200          30.100
  -2888717.751 2  -2250951.307 3  25111974.789    25111973.650    25111974.389
        16.100          18.600
 -20142377.975 6 -15695353.949 6  21414223.059    21414222.227    21414222.962
        41.400          39.500
 -23523058.031 7 -18329652.940 6  21167828.199    21167828.318    21167829.123
        42.600          40.600
 -10351257.922 4  -8065910.934 4  23739572.000    23739572.752    23739572.525
        29.900          28.100
   -770881.549 2   -600677.234 2  25275417.502    25275418.111    25275418.615
        15.100          17.000
 -16988225.521 5 -13237571.446 5  22453164.424    22453164.564    22453164.082
        34.500          30.100
  -9532782.021 3  -7428138.616 4  23699290.193    23699293.066    23699290.666
        22.100          26.800
 13 10 10  1 22 30.0000000  0 12G17G18G26G21G 9G19G28G15G 5G 7G 8G24
  -1859846.082 2  -1449230.963 2  25176204.266    25176206.590    25176206.722
        13.900          16.100
  -9916472.484 3  -7727118.043 2  24059099.157    24059097.588    24059099.060
        23.400          17.800
 -28577789.312 7 -22268400.837 7  19892092.843    19892093.726    19892093.555
        46.300          45.200
  -2534797.985 2  -1975165.238 2  25344205.564    25344202.488    25344205.156
        15.100          12.600
 -17972337.445 5 -14004413.512 4  22042872.625    22042873.611    22042873.075
        34.500          29.200
  -2836163.720 3  -2210000.092 2  25121976.273    25121973.606    25121974.726
        19.300          17.800
 -20121442.126 6 -15679040.292 6  21418206.823    21418206.198    21418206.762
        41.400          39.300
 -23579156.099 7 -18373365.696 6  21157153.307    21157153.119    21157154.011
        42.800          40.800
 -10243437.893 4  -7981895.352 4  23760088.798    23760089.881    23760089.686
        28.600          27.400
   -668541.704 2   -520931.925 2  25294892.087    25294892.677    25294893.259
        12.600          13.900
 -16907158.572 5 -13174402.383 4  22468590.478    22468590.922    22468590.669
        34.300          29.900
  -9630107.346 3  -7503976.520 4  23680769.906    23680772.922    23680770.264
        22.100          27.100
 13 10 10  1 23  0.0000000  0 12G17G18G26G21G 9G19G28G15G 5G 7G 8G24
  -1954750.090 2  -1523182.096 2  25158146.638    25158146.883    25158146.395
        17.800          13.900
  -9990249.983 3  -7784606.972 3  24045059.707    24045057.962    24045059.440
        23.800          19.900
 -28541032.611 7 -22239759.262 7  19899087.740    19899088.291    19899088.195
        46.200          45.400
  -2487748.047 1  -1938502.969 2  25353157.698    25353156.339    25353156.741
        11.000          13.900
 -17877231.195 5 -13930304.776 4  22060971.150    22060971.777    22060971.326
        34.400          29.900
  -2783095.402 3  -2168648.189 3  25132074.070    25132072.693    25132073.180
        18.600          18.600
 -20099995.716 6 -15662328.801 6  21422288.038    21422287.190    21422287.920
        41.200          39.200
 -23634860.540 7 -18416771.756 6  21146553.239    21146552.935    21146553.847
        42.700          40.700
 -10135460.606 4  -7897757.226 4  23780636.837    23780637.200    23780637.189
        29.900          27.900
   -566190.928 2   -441178.085 2  25314368.570    25314369.596    25314370.224
        13.900          13.900
 -16825880.533 5 -13111068.831 4  22484057.227    22484057.764    22484057.164
        34.000          29.900
  -9727288.132 4  -7579701.791 4  23662277.272    23662279.749    23662277.361
        24.600          26.200
 13 10 10  1 23 30.0000000  0 12G17G18G26G21G 9G19G28G15G 5G 7G 8G24
  -2049603.658 3  -1597093.982 2  25140095.363    25140096.565    25140096.337
        18.600          13.900
 -10063662.882 3  -7841811.837 3  24031088.751    24031088.092    24031088.981
        23.400          18.600
 -28503740.093 7 -22210700.163 7  19906184.418    19906184.842    19906184.665
        46.200          45.300
  -2440343.758 1  -1901564.561 2  25362176.384    25362177.455    25362175.814
         9.000          15.100
 -17781892.748 5 -13856015.115 5  22079113.392    22079114.270    22079113.637
        34.900          30.200
  -2729514.623 3  -2126897.047 2  25142270.655    25142269.379    25142269.496
        19.300          17.800
 -20078039.660 6 -15645220.180 6  21426466.042    21426465.273    21426465.912
        41.100          39.100
 -23690169.616 7 -18459869.742 6  21136027.711    21136027.945    21136028.887
        42.700          41.000
 -10027329.384 4  -7813499.149 4  23801213.262    23801213.762    23801214.347
        29.700          27.400
   -463829.738 2   -361416.140 2  25333847.397    25333848.203    25333848.090
        15.100          16.100
 -16744392.450 5 -13047571.622 4  22499564.185    22499564.486    22499564.166
        34.300          29.200
  -9824323.482 3  -7655313.734 4  23643811.823    23643814.289    23643812.236
        22.600          25.900
 13 10 10  1 24  0.0000000  0 12G17G18G26G21G 9G19G28G15G 5G 7G 8G24
  -2144404.130 2  -1670964.487 2  25122055.998    25122057.359    25122056.222
        17.000          16.100
 -10136709.197 4  -7898731.021 3  24017188.651    24017187.875    24017189.331
        24.900          19.900
 -28465912.478 7 -22181224.096 7  19913382.724    19913383.122    19913382.976
        46.200          45.300
  -2392587.199 1  -1864351.702 2  25371265.243    25371265.576    25371265.855
        11.000          12.600
 -17686323.630 5 -13781545.713 4  22097299.672    22097300.424    22097300.191
        34.900          29.700
  -2675423.036 2  -2084747.661 3  25152563.162    25152562.149    25152562.255
        17.800          18.600
 -20055574.872 6 -15627715.145 6  21430740.814    21430740.291    21430740.970
        41.300          39.300
 -23745081.703 7 -18502658.414 6  21125578.732    21125578.601    21125579.434
        42.700          41.100
  -9919047.028 4  -7729123.302 4  23821818.415    23821819.255    23821819.376
        28.800          27.100
   -361459.335 1   -281647.039 2  25353327.831    25353329.152    25353328.829
        11.000          12.600
 -16662695.924 5 -12983911.976 4  22515110.399    22515110.643    22515110.427
        34.300          29.000
  -9921212.642 3  -7730811.769 4  23625374.238    23625377.170    23625374.604
        21.600          26.800
 13 10 10  1 24 30.0000000  0 12G17G18G26G21G 9G19G28G15G 5G 7G 8G24
  -2239148.358 2  -1744791.151 2  25104025.996    25104028.191    25104026.965
        16.100          16.100
 -10209386.591 3  -7955362.767 2  24003357.985    24003357.263    24003358.530
        23.400          17.800
 -28427550.375 7 -22151331.539 7  19920682.848    19920683.340    19920683.086
        46.200          45.300
  -2344480.364 2  -1826865.835 2  25380421.078    25380418.985    25380419.202
        12.600          12.600
 -17590525.704 5 -13706898.011 4  22115529.670    22115530.188    22115529.892
        34.000          29.900
  -2620822.710 3  -2042201.924 2  25162954.410    25162952.077    25162953.314
        18.600          17.000
 -20032602.831 6 -15609814.845 6  21435112.208    21435111.785    21435112.239
        41.300          39.200
 -23799594.977 7 -18545136.298 6  21115205.238    21115205.029    21115205.864
        42.600          41.000
  -9810616.089 4  -7644631.710 4  23842452.025    23842453.317    23842452.745
        27.400          27.400
   -259080.351 2   -201871.225 2  25372810.428    25372810.612    25372810.406
        12.600          16.100
 -16580792.155 5 -12920090.886 4  22530695.708    22530696.753    22530695.783
        33.800          28.800
 -10017954.262 3  -7806194.830 4  23606964.964    23606967.960    23606965.549
        22.100          26.800
 13 10 10  1 25  0.0000000  0 12G17G18G26G21G 9G19G28G15G 5G 7G 8G24
  -2333833.615 2  -1818571.881 2  25086008.399    25086010.012    25086008.225
        15.100          17.000
 -10281692.856 4  -8011705.303 3  23989599.230    23989598.567    23989599.472
        24.200          19.900
 -28388654.645 7 -22121023.201 7  19928084.316    19928085.044    19928084.634
        46.400          45.700
  -2296025.552 1  -1789108.865 2  25389641.434    25389640.104    25389640.115
         9.000          13.900
 -17494500.618 5 -13632073.305 4  22133802.222    22133803.045    22133802.637
        34.100          29.200
  -2565715.816 3  -1999261.557 3  25173440.769    25173438.453    25173440.087
        18.600          18.600
 -20009124.404 6 -15591519.960 6  21439579.881    21439579.566    21439579.999
        41.100          39.300
 -23853707.573 7 -18587301.975 6  21104907.724    21104907.635    21104908.614
        42.700          41.200
  -9702040.030 4  -7560027.018 4  23863113.414    23863114.337    23863114.428
        27.100          26.200
   -156693.792 1   -122089.541 1  25392293.028    25392293.614    25392295.035
        11.000           6.500
 -16498682.252 5 -12856109.150 4  22546320.726    22546321.462    22546320.950
        33.900          29.200
 -10114547.603 3  -7881462.379 4  23588583.922    23588586.820    23588584.614
        23.000          26.200
 13 10 10  1 25 30.0000000  0 12G17G18G26G21G 9G19G28G15G 5G 7G 8G24
  -2428457.049 2  -1892304.428 3  25068001.316    25068004.046    25068002.551
        17.800          18.600
 -10353625.940 4  -8067757.057 3  23975910.982    23975910.524    23975911.178
        25.300          21.100
 -28349225.908 7 -22090299.542 7  19935587.254    19935588.019    19935587.664
        46.100          45.100
  -2247225.057    -1751082.477 1  25398927.044    25398926.631    25398927.158
         3.000           6.500
 -17398250.319 5 -13557073.103 4  22152118.311    22152118.806    22152118.738
        34.600          28.800
  -2510104.001 3  -1955927.761 2  25184022.083    25184020.907    25184022.429
        19.300          17.800
 -19985140.511 6 -15572831.204 6  21444144.345    21444143.374    21444144.291
        41.400          39.000
 -23907417.622 7 -18629153.942 6  21094686.852    21094687.039    21094687.914
        42.700          41.200
  -9593321.203 4  -7475311.049 4  23883802.180    23883802.573    23883802.970
        26.800          25.300
    -54300.825 2    -42302.913 2  25411778.683    25411778.776    25411779.458
        16.100          17.800
 -16416367.826 5 -12791968.042 4  22561984.965    22561985.617    22561985.041
        33.200          29.000
 -10210991.410 4  -7956613.374 4  23570231.379    23570234.115    23570232.241
        25.600          27.600
 13 10 10  1 26  0.0000000  0 12G17G18G26G21G 9G19G28G15G 5G 7G 8G24
  -2523015.966 2  -1965986.707 2  25050008.300    25050009.280    25050008.299
        17.800          17.800
 -10425183.556 4  -8123516.221 3  23962293.476    23962292.793    23962293.751
        24.600          19.900
 -28309264.791 7 -22059161.017 7  19943191.665    19943192.304    19943192.131
        46.200          45.200
  -2198080.771 1  -1712788.212 2  25408277.677    25408278.437    25408277.733
        11.000          12.600
 -17301776.657 5 -13481898.863 4  22170476.883    22170477.715    22170477.284
        34.700          29.500
  -2453989.331 3  -1912202.021 2  25194700.248    25194699.487    25194700.277
        19.300          15.100
 -19960652.605 6 -15553749.716 6  21448804.019    21448803.322    21448804.033
        41.100          38.900
 -23960723.848 7 -18670691.238 6  21084543.462    21084543.220    21084544.094
        43.000          41.400
  -9484461.480 4  -7390485.310 4  23904517.474    23904517.973    23904518.476
        27.900          25.900
     48097.796 2     37488.155 2  25431264.210    25431265.518    25431264.669
        13.900          15.100
 -16333850.263 5 -12727668.663 4  22577687.618    22577688.313    22577687.504
        33.600          29.700
 -10307285.112 3  -8031647.411 4  23551906.646    23551909.760    23551907.481
        23.000          27.100
 13 10 10  1 26 30.0000000  0 12G17G18G26G21G 9G19G28G15G 5G 7G 8G24
  -2617507.158 3  -2039616.216 3  25032027.822    25032028.842    25032028.107
        18.600          19.300
 -10496363.619 4  -8178981.181 3  23948749.570    23948747.915    23948749.228
        25.600          20.500
 -28268772.189 7 -22027608.377 7  19950897.370    19950897.753    19950897.701
        46.300          45.100
  -2148595.180 1  -1674228.032 2  25417695.364    25417694.593    25417693.666
        11.000          13.900
 -17205081.073 5 -13406551.682 4  22188877.450    22188878.214    22188877.607
        34.000          29.200
  -2397373.769 3  -1868086.049 2  25205474.650    25205473.222    25205474.331
        19.300          17.800
 -19935661.832 6 -15534276.381 6  21453559.552    21453559.012    21453559.571
        41.300          38.800
 -24013624.612 7 -18711912.595 6  21074476.540    21074476.556    21074477.420
        42.700          41.400
  -9375464.149 4  -7305552.344 4  23925259.114    23925259.876    23925260.366
        28.400          26.800
    150501.656 2    117283.346 2  25450750.790    25450751.382    25450751.352
        12.600          12.600
 -16251130.839 5 -12663211.989 4  22593428.556    22593429.330    22593428.723
        34.000          28.800
 -10403426.919 3  -8106563.098 4  23533611.380    23533614.903    23533612.628
        23.000          27.600
 13 10 10  1 27  0.0000000  0 12G17G18G26G21G 9G19G28G15G 5G 7G 8G24
  -2711927.994 2  -2113190.882 3  25014059.030    25014061.092    25014060.275
        17.800          21.100
 -10567164.293 4  -8234150.501 3  23935275.960    23935274.763    23935276.020
        25.600          20.500
 -28227748.755 7 -21995642.105 7  19958703.904    19958704.323    19958704.194
        46.200          45.000
  -2098770.022 2  -1635403.220 2  25427178.581    25427176.380    25427178.311
        16.100          12.600
 -17108165.399 5 -13331033.000 4  22207320.023    22207320.571    22207320.057
        34.000          28.800
  -2340259.199 3  -1823581.148 2  25216343.335    25216341.576    25216342.276
        18.600          17.800
 -19910169.557 6 -15514412.265 6  21458410.649    21458409.925    21458410.687
        41.200          38.800
 -24066118.302 7 -18752816.765 6  21064487.477    21064487.335    21064488.268
        43.000          41.400
  -9266331.862 4  -7220514.234 4  23946027.202    23946027.785    23946027.461
        28.600          28.100
    252909.613 1    197081.646 2  25470238.338    25470239.377    25470237.699
         9.000          12.600
 -16168210.942 5 -12598599.089 4  22609208.234    22609208.109    22609207.856
        33.500          28.400
 -10499416.166 4  -8181359.885 4  23515345.016    23515348.513    23515346.021
        24.600          27.400
 13 10 10  1 27 30.0000000  0 12G17G18G26G21G 9G19G28G15G 5G 7G 8G24
  -2806275.434 2  -2186708.324 3  24996106.421    24996107.627    24996106.006
        15.100          20.500
 -10637583.015 4  -8289022.247 3  23921875.806    23921874.252    23921875.783
        25.300          19.300
 -28186195.144 7 -21963262.685 7  19966611.199    19966611.782    19966611.592
        46.100          45.000
  -2048607.517 1  -1596315.608 1  25436722.777    25436722.393    25436723.002
         9.000          11.000
 -17011031.729 5 -13255344.479 4  22225803.766    22225804.257    22225804.126
        34.100          27.900
  -2282647.941 3  -1778689.349 2  25227306.764    25227304.096    25227306.113
        20.500          13.900
 -19884176.245 6 -15494157.736 6  21463356.741    21463356.186    21463356.829
        41.100          38.600
 -24118203.052 7 -18793402.261 6  21054576.237    21054575.807    21054576.771
        42.900          41.600
  -9157067.474 4  -7135373.165 4  23966819.885    23966819.357    23966819.916
        28.100          26.500
    355321.234      276882.861 1  25489727.343    25489727.859    25489727.275
         3.000          11.000
 -16085091.694 5 -12533830.853 4  22625025.206    22625025.315    22625025.077
        33.400          28.100
 -10595252.335 3  -8256037.418 4  23497108.599    23497111.685    23497109.244
        23.400          26.500
 13 10 10  1 28  0.0000000  0 12G17G18G26G21G 9G19G28G15G 5G 7G 8G24
  -2900546.591 2  -2260166.306 3  24978166.684    24978168.138    24978166.884
        16.100          22.100
 -10707618.169 4  -8343595.059 3  23908547.626    23908547.517    23908548.386
        25.600          19.300
 -28144112.245 7 -21930470.826 7  19974619.359    19974620.010    19974619.765
        46.400          45.200
  -1998110.268 1  -1556967.134 2  25446331.014    25446331.027    25446330.347
         9.000          13.900
 -16913681.673 5 -13179487.323 4  22244328.681    22244329.470    22244328.990
        33.200          29.500
  -2224541.614 3  -1733411.771 2  25238363.618    25238361.731    25238362.999
        18.600          16.100
 -19857683.812 6 -15473514.274 6  21468398.110    21468397.707    21468398.211
        41.200          38.900
 -24169877.016 7 -18833667.692 6  21044742.795    21044742.578    21044743.494
        43.100          41.500
  -9047674.255 4  -7050131.700 4  23987636.554    23987636.472    23987636.814
        28.400          26.500
    457735.558 2    356686.162 2  25509217.300    25509217.195    25509217.645
        15.100          16.100
 -16001774.526 5 -12468908.369 4  22640879.806    22640880.011    22640879.929
        33.900          28.600
 -10690933.686 4  -8330594.290 4  23478901.189    23478904.126    23478901.794
        24.900          27.400
 13 10 10  1 28 30.0000000  0 11G17G18G26G21G 9G19G28G15G 5G 8G24
  -2994739.054 2  -2333562.966 3  24960242.255    24960243.192    24960242.685
        16.100          20.500
 -10777267.222 4  -8397867.040 3  23895294.952    23895293.270    23895294.833
        25.900          18.600
 -28101500.897 7 -21897267.201 7  19982728.120    19982728.613    19982728.522
        46.200          45.100
  -1947280.072 2  -1517359.196 2  25456005.674    25456003.749    25456006.325
        15.100          15.100
 -16816116.980 5 -13103462.917 4  22262894.894    22262895.428    22262894.974
        33.100          29.000
  -2165942.264 3  -1687749.867 2  25249515.053    25249513.187    25249514.082
        19.900          17.000
 -19830692.930 6 -15452482.416 6  21473534.702    21473533.988    21473534.659
        41.300          38.700
 -24221138.861 7 -18873612.003 6  21034987.694    21034987.829    21034988.687
        43.100          41.800
  -8938154.780 4  -6964791.867 4  24008477.341    24008477.033    24008477.476
        27.600          26.500
 -15918260.775 5 -12403832.714 4  22656771.904    22656772.243    22656771.734
        32.800          28.800
 -10786459.474 4  -8405029.952 4  23460722.992    23460725.669    23460723.720
        25.300          27.100
 13 10 10  1 29  0.0000000  0 11G17G18G26G21G 9G19G28G15G 5G 8G24
  -3088849.329 3  -2406895.593 2  24942333.050    24942333.864    24942334.440
        18.600          16.100
 -10846528.043 4  -8451836.502 3  23882114.849    23882114.296    23882114.687
        24.900          19.300
 -28058361.857 7 -21863652.374 7  19990936.991    19990937.722    19990937.473
        46.200          44.900
  -1896119.264 1  -1477493.632 2  25465740.334    25465739.877    25465740.477
         9.000          13.900
 -16718339.381 5 -13027272.606 4  22281501.257    22281501.921    22281501.446
        33.900          28.100
  -2106852.112 2  -1641705.497 2  25260759.098    25260757.120    25260758.227
        17.000          15.100
 -19803205.139 6 -15431063.345 6  21478765.270    21478764.491    21478765.312
        41.200          38.700
 -24271986.671 7 -18913233.699 6  21025312.257    21025311.846    21025312.746
        43.100          41.900
  -8828510.936 4  -6879355.126 4  24029341.147    24029341.541    24029341.735
        27.100          25.300
 -15834551.710 5 -12338604.884 4  22672700.744    22672701.482    22672700.817
        33.000          28.400
 -10881828.402 4  -8479343.374 4  23442575.228    23442577.932    23442575.524
        24.900          28.400
 13 10 10  1 29 30.0000000  0 11G17G18G26G21G 9G19G28G15G 5G 8G24
  -3182874.545 3  -2480161.969 3  24924441.215    24924442.050    24924442.045
        19.900          18.600
 -10915398.767 4  -8505501.999 3  23869009.532    23869007.514    23869009.367
        25.600          18.600
 -28014695.888 7 -21829626.969 7  19999246.285    19999247.033    19999246.872
        46.300          44.900
  -1844629.964 2  -1437372.060 1  25475539.458    25475537.859    25475539.016
        12.600          11.000
 -16620350.561 5 -12950917.686 4  22300147.853    22300148.351    22300148.316
        34.000          27.900
  -2047273.774 3  -1595280.905 2  25272097.493    25272094.788    25272096.500
        19.900          17.000
 -19775221.513 6 -15409257.914 6  21484090.463    21484089.352    21484090.426
        41.200          38.500
 -24322419.076 7 -18952531.703 7  21015714.983    21015714.977    21015715.797
        42.900          42.100
  -8718745.663 4  -6793823.754 4  24050228.017    24050229.814    24050229.234
        24.900          25.900
 -15750648.813 5 -12273226.006 4  22688667.152    22688667.875    22688667.131
        33.400          28.400
 -10977040.038 4  -8553534.262 4  23424457.320    23424459.699    23424457.719
        25.300          28.600
 13 10 10  1 30  0.0000000  0 11G17G18G26G21G 9G19G28G15G 5G 8G24
  -3276812.257 2  -2553360.152 3  24906566.010    24906566.659    24906566.171
        17.800          19.900
 -10983877.137 4  -8558861.768 3  23855978.639    23855977.116    23855978.188
        26.200          19.300
 -27970503.954 7 -21795191.716 7  20007655.977    20007656.533    20007656.362
        46.300          44.700
  -1792814.630 1  -1396996.514 1  25485398.374    25485399.119    25485398.719
         9.000          11.000
 -16522152.351 5 -12874399.615 4  22318834.477    22318835.159    22318834.473
        33.000          28.600
  -1987208.800 3  -1548477.186 3  25283526.819    25283525.805    25283526.087
        19.900          19.300
 -19746743.340 6 -15387067.123 6  21489509.827    21489508.788    21489509.647
        41.200          38.400
 -24372434.487 7 -18991504.783 7  21006197.681    21006197.333    21006198.246
        43.100          42.200
  -8608862.030 4  -6708200.177 4  24071138.991    24071139.871    24071139.429
        25.900          26.200
 -15666553.158 5 -12207696.966 4  22704670.115    22704670.768    22704670.185
        32.700          28.400
 -11072093.129 4  -8627601.589 4  23406368.942    23406371.832    23406369.269
        24.200          28.800
 13 10 10  1 30 30.0000000  0 11G17G18G26G21G 9G19G28G15G 5G 8G24
  -3370659.409 3  -2626487.743 3  24888705.896    24888708.624    24888706.718
        19.300          23.000
 -11051961.265 4  -8611914.315 3  23843021.996    23843021.592    23843022.041
        25.600          20.500
 -27925786.729 7 -21760347.146 7  20016165.442    20016166.058    20016165.709
        46.200          44.800
  -1740675.509 1  -1356368.602 1  25495320.844    25495319.674    25495320.110
         6.500          11.000
 -16423746.411 5 -12797719.695 4  22337560.694    22337561.362    22337561.048
        33.400          28.400
  -1926659.005 3  -1501295.563 2  25295049.670    25295047.229    25295048.256
        19.900          17.000
 -19717772.118 6 -15364492.137 6  21495022.666    21495022.000    21495022.667
        41.300          38.600
 -24422031.172 7 -19030151.598 7  20996759.532    20996759.414    20996760.256
        43.100          42.100
  -8498862.618 4  -6622486.373 4  24092071.399    24092071.813    24092071.948
        26.500          24.900
 -15582265.964 5 -12142018.653 4  22720709.805    22720709.935    22720709.618
        32.400          28.600
 -11166986.677 4  -8701544.603 4  23388311.108    23388314.052    23388311.813
        25.600          27.100
 13 10 10  1 31  0.0000000  0 11G17G18G26G21G 9G19G28G15G 5G 8G24
  -3464413.114 2  -2699542.493 3  24870865.952    24870867.490    24870866.445
        17.800          20.500
 -11119649.014 4  -8664658.006 3  23830141.270    23830140.038    23830141.312
        26.200          18.600
 -27880545.142 7 -21725093.946 7  20024774.536    20024775.197    20024775.073
        46.300          44.800
  -1688214.541 9  -1315489.892 1  25505303.809    25505303.469    25505303.191
        -3.000           9.000
 -16325134.559 5 -12720879.317 4  22356326.174    22356326.585    22356326.333
        33.100          28.400
  -1865627.073 3  -1453738.274 2  25306662.589    25306660.835    25306662.846
        20.500          17.000
 -19688308.825 6 -15341533.716 6  21500629.066    21500628.621    21500629.207
        41.200          38.700
 -24471207.283 7 -19068470.679 7  20987401.713    20987401.551    20987402.388
        43.200          42.400
  -8388749.916 4  -6536684.261 4  24113024.355    24113025.377    24113025.317
        26.200          25.600
 -15497788.903 5 -12076192.406 4  22736785.721    22736785.248    22736785.168
        33.000          27.600
 -11261719.362 4  -8775362.291 4  23370284.076    23370287.213    23370284.995
        24.900          27.900
 13 10 10  1 31 30.0000000  0 11G17G18G26G21G 9G19G28G15G 5G 8G24
  -3558070.217 2  -2772522.005 3  24853043.385    24853044.667    24853044.094
        15.100          22.100
 -11186938.259 4  -8717091.192 3  23817337.130    23817335.772    23817337.302
        26.200          21.100
 -27834780.138 7 -21689432.930 7  20033483.120    20033483.876    20033483.578
        45.900          44.700
  -1635434.104    -1274362.290 1  25515348.285    25515346.014    25515346.783
         3.000           6.500
 -16226318.257 5 -12643879.615 4  22375129.974    22375130.510    22375130.041
        32.600          27.900
  -1804114.729 3  -1405806.613 2  25318368.524    25318366.942    25318368.367
        20.500          16.100
 -19658354.824 6 -15318192.922 6  21506329.683    21506328.553    21506329.408
        41.100          38.500
 -24519961.319 7 -19106460.886 7  20978124.090    20978124.005    20978124.838
        43.100          42.400
  -8278526.996 4  -6450796.300 4  24133999.264    24134000.556    24134000.678
        25.600          26.800
 -15413123.015 5 -12010218.981 4  22752896.954    22752896.880    22752896.507
        32.800          27.600
 -11356290.666 4  -8849054.202 4  23352287.151    23352290.437    23352288.350
        24.900          27.100
 13 10 10  1 32  0.0000000  0 11G17G18G26G21G 9G19G28G15G 5G 8G24
  -3651628.090 3  -2845424.193 3  24835239.703    24835240.814    24835240.601
        19.300          22.100
 -11253826.861 4  -8769212.158 3  23804609.193    23804607.721    23804608.425
        26.200          19.300
 -27788492.506 7 -21653364.647 7  20042291.619    20042292.229    20042291.970
        46.200          44.600
  -1582336.869 1  -1232987.763 1  25525452.533    25525451.130    25525452.476
         9.000           9.000
 -16127299.496 5 -12566722.158 4  22393972.968    22393973.299    22393973.073
        32.700          27.600
  -1742124.432 3  -1357502.550 2  25330164.668    25330163.622    25330164.647
        18.600          16.100
 -19627911.304 6 -15294470.691 6  21512122.483    21512121.886    21512122.475
        41.300          38.500
 -24568291.689 7 -19144120.960 7  20968927.110    20968927.133    20968927.855
        43.200          42.500
  -8168197.135 4  -6364825.000 4  24154994.690    24154995.568    24154995.692
        25.900          25.900
 -15328269.644 5 -11944099.515 4  22769042.972    22769044.041    22769043.204
        31.600          28.100
 -11450699.105 4  -8922619.228 4  23334322.735    23334325.274    23334323.208
        25.900          28.800
 13 10 10  1 32 30.0000000  0 11G17G18G26G21G 9G19G28G15G 5G 8G24
  -3745083.725 3  -2918246.694 3  24817456.319    24817456.723    24817456.520
        21.600          18.600
 -11320312.771 4  -8821019.342 3  23791957.661    23791955.340    23791957.181
        26.200          20.500
 -27741683.235 7 -21616889.888 7  20051199.232    20051199.845    20051199.578
        46.300          44.700
  -1528924.600    -1191367.791 2  25535615.435    25535614.870    25535614.154
         3.000          13.900
 -16028079.895 5 -12489408.168 4  22412853.289    22412854.100    22412853.693
        32.300          26.200
  -1679657.946 3  -1308827.389 2  25342051.261    25342050.104    25342051.354
        19.300          17.000
 -19596979.930 6 -15270368.315 6  21518008.213    21518007.967    21518008.411
        41.000          38.200
 -24616197.319 7 -19181450.056 7  20959811.153    20959811.084    20959811.858
        43.300          42.700
  -8057761.857 4  -6278771.559 4  24176009.947    24176010.394    24176010.571
        26.500          24.900
 -15243230.067 5 -11877834.912 4  22785226.497    22785226.419    22785226.152
        32.400          27.900
 -11544944.003 4  -8996056.775 4  23316388.097    23316390.950    23316388.914
        25.600          28.600
 13 10 10  1 33  0.0000000  0 11G17G18G26G21G 9G19G28G15G 5G 8G24
  -3838434.244 3  -2990987.336 3  24799692.366    24799692.726    24799692.771
        21.600          20.500
 -11386394.070 4  -8872511.250 3  23779381.379    23779380.314    23779381.213
        25.600          18.600
 -27694353.195 7 -21580009.344 7  20060205.600    20060206.341    20060205.974
        46.000          44.500
  -1475199.372 1  -1149503.963 2  25545839.205    25545837.761    25545837.811
         6.500          15.100
 -15928661.115 5 -12411938.952 4  22431771.630    22431772.873    22431772.388
        32.600          27.600
  -1616717.769 3  -1259783.094 2  25354028.630    25354027.010    25354028.640
        20.500          16.100
 -19565561.898 6 -15245886.722 6  21523987.457    21523986.466    21523987.431
        41.100          38.100
 -24663675.490 7 -19218446.032 7  20950776.450    20950776.306    20950777.153
        43.500          42.700
  -7947224.304 4  -6192638.415 4  24197044.303    24197044.785    24197044.912
        24.900          24.900
 -15158005.798 5 -11811426.404 4  22801444.883    22801444.065    22801444.235
        32.700          28.400
 -11639024.319 4  -9069366.130 4  23298485.105    23298487.942    23298485.686
        25.300          29.200
 13 10 10  1 33 30.0000000  0 11G17G18G26G21G 9G19G28G15G 5G 8G24
  -3931676.874 3  -3063643.903 3  24781948.248    24781949.374    24781949.023
        23.000          21.600
 -11452068.641 4  -8923686.235 3  23766884.373    23766883.734    23766884.588
        27.100          21.600
 -27646503.262 7 -21542723.714 7  20069311.247    20069311.876    20069311.626
        46.000          44.300
  -1421163.949 1  -1107398.418 1  25556121.612    25556119.590    25556121.268
        11.000           6.500
 -15829044.825 5 -12334315.799 4  22450728.901    22450728.905    22450729.020
        32.800          27.100
  -1553306.082 3  -1210371.377 2  25366096.463    25366094.519    25366095.477
        19.900          17.000
 -19533658.381 6 -15221026.835 6  21530058.477    21530057.490    21530058.408
        41.100          38.300
 -24710725.080 7 -19255108.021 7  20941823.179    20941822.973    20941823.776
        43.400          42.700
  -7836587.119 4  -6106427.637 3  24218097.635    24218098.449    24218098.583
        24.200          22.600
 -15072597.926 5 -11744874.827 4  22817696.141    22817696.480    22817696.160
        32.100          27.100
 -11732938.863 4  -9142546.299 4  23280613.703    23280616.706    23280614.387
        25.300          28.100
 13 10 10  1 34  0.0000000  0 11G17G18G26G21G 9G19G28G15G 5G 8G24
  -4024808.665 2  -3136214.066 3  24764225.735    24764227.441    24764225.976
        17.800          22.600
 -11517334.600 4  -8974542.827 3  23754463.723    23754463.235    23754463.941
        26.200          19.300
 -27598134.480 7 -21505033.780 7  20078515.483    20078516.186    20078515.892
        46.000          44.300
  -1366820.441 1  -1065052.868 1  25566462.359    25566462.015    25566462.871
         6.500          11.000
 -15729232.738 5 -12256540.088 4  22469722.426    22469722.527    22469722.362
        32.800          26.200
  -1489425.065 3  -1160593.833 2  25378252.043    25378249.950    25378251.010
        18.600          15.100
 -19501270.722 6 -15195789.690 6  21536221.280    21536220.678    21536221.289
        41.100          38.100
 -24757344.828 7 -19291435.076 7  20932951.386    20932951.359    20932952.255
        43.200          42.600
  -7725853.176 4  -6020141.483 4  24239169.506    24239170.351    24239170.248
        24.600          24.200
 -14987007.535 5 -11678181.061 4  22833982.817    22833984.134    22833983.151
        31.600          27.900
 -11826686.635 4  -9215596.520 4  23262774.889    23262777.030    23262775.081
        26.500          27.900
 13 10 10  1 34 30.0000000  0 11G17G18G26G21G 9G19G28G15G 5G 8G24
  -4117826.607 3  -3208695.505 3  24746524.433    24746526.715    24746525.787
        20.500          23.000
 -11582189.709 4  -9025079.273 3  23742123.712    23742122.009    23742123.570
        26.500          19.900
 -27549247.807 7 -21466940.309 7  20087818.333    20087819.100    20087818.687
        45.900          44.300
  -1312171.297    -1022469.023 2  25576862.394    25576859.910    25576862.989
         3.000          12.600
 -15629226.633 5 -12178613.219 4  22488752.519    22488753.223    22488752.771
        32.300          26.800
  -1425076.989 3  -1110452.462 2  25390496.817    25390494.994    25390496.162
        18.600          13.900
 -19468400.495 6 -15170176.517 6  21542476.639    21542475.690    21542476.462
        41.000          38.300
 -24803532.548 7 -19327425.503 7  20924162.306    20924162.067    20924163.034
        43.500          42.700
  -7615025.151 4  -5933782.011 3  24260259.605    24260260.277    24260260.045
        24.900          23.800
 -14901235.958 5 -11611346.122 4  22850305.379    22850305.824    22850305.247
        31.800          27.600
 -11920266.798 4  -9288516.127 4  23244966.916    23244968.981    23244967.400
        26.200          28.400
 13 10 10  1 35  0.0000000  0 11G17G18G26G21G 9G19G28G15G 5G 8G24
  -4210727.611 3  -3281085.805 3  24728846.908    24728848.048    24728847.002
        20.500          23.400
 -11646632.109 4  -9075294.120 3  23729859.525    23729858.830    23729859.365
        25.300          20.500
 -27499844.148 7 -21428443.972 7  20097220.095    20097220.267    20097220.158
        46.100          44.100
  -1257219.027 1   -979649.112 2  25587319.570    25587317.392    25587318.600
         6.500          15.100
 -15529028.399 5 -12100536.704 4  22507819.607    22507820.031    22507819.968
        32.100          27.400
  -1360263.949 3  -1059948.764 2  25402830.467    25402828.385    25402830.369
        18.600          15.100
 -19435048.977 6 -15144188.319 6  21548822.874    21548822.363    21548822.922
        41.100          38.200
 -24849287.143 7 -19363078.402 7  20915455.508    20915455.368    20915456.289
        43.400          42.900
  -7504105.828 3  -5847351.384 4  24281367.010    24281367.986    24281367.796
        23.800          24.200
 -14815284.323 5 -11544370.811 4  22866661.108    22866661.453    22866661.389
        31.500          26.500
 -12013678.380 4  -9361304.381 4  23227190.761    23227193.927    23227191.552
        25.900          29.200
 13 10 10  1 35 30.0000000  0 11G17G18G26G21G 9G19G28G15G 5G 8G24
  -4303508.983 3  -3353382.893 3  24711191.146    24711192.248    24711191.749
        19.300          23.400
 -11710659.924 4  -9125185.911 3  23717676.327    23717674.603    23717676.081
        25.900          22.100
 -27449924.582 7 -21389545.655 7  20106718.993    20106719.712    20106719.415
        45.900          44.300
  -1201966.066 1   -936594.834 1  25597833.327    25597832.786    25597832.745
         6.500           6.500
 -15428639.627 5 -12022311.717 4  22526923.179    22526923.600    22526923.279
        32.000          26.800
  -1294988.350 2  -1009084.664 2  25415252.514    25415249.381    25415251.699
        12.600          16.100
 -19401217.747 6 -15117826.301 6  21555260.796    21555260.184    21555260.882
        41.100          37.800
 -24894606.994 7 -19398392.566 7  20906831.692    20906831.428    20906832.155
        43.700          43.200
  -7393097.726 4  -5760851.583 4  24302491.045    24302492.053    24302491.964
        24.900          24.900
 -14729154.018 5 -11477256.256 4  22883051.163    22883051.713    22883051.233
        32.000          27.100
 -12106920.018 4  -9433960.200 4  23209447.162    23209450.351    23209448.318
        26.800          28.400
 13 10 10  1 36  0.0000000  0 11G17G18G26G21G 9G19G28G15G 5G 8G24
  -4396168.019 3  -3425584.695 3  24693557.230    24693559.791    24693558.136
        18.600          23.000
 -11774271.054 4  -9174753.024 2  23705572.218    23705569.574    23705571.965
        27.400          17.800
 -27399489.960 7 -21350245.984 7  20116316.420    20116317.269    20116316.798
        46.100          44.400
  -1146414.033 1   -893307.546 1  25608403.609    25608403.030    25608405.758
         9.000           9.000
 -15328061.731 5 -11943939.342 4  22546062.221    22546062.921    22546062.496
        32.300          27.400
  -1229252.547 2   -957862.089 2  25427760.923    25427759.501    25427761.104
        13.900          15.100
 -19366907.588 6 -15091091.087 6  21561789.869    21561788.953    21561789.856
        41.100          37.500
 -24939490.438 7 -19433366.667 7  20898290.415    20898290.256    20898291.037
        43.600          43.000
  -7282003.405 4  -5674284.607 4  24323632.934    24323632.691    24323632.880
        24.900          24.600
 -14642846.593 5 -11410003.726 4  22899475.163    22899475.758    22899475.127
        31.300          27.400
 -12199990.957 4  -9506482.984 4  23191736.557    23191739.401    23191737.788
        27.400          28.800
 13 10 10  1 36 30.0000000  0 10G17G18G26G 9G19G28G15G 5G 8G24
  -4488701.605 3  -3497688.701 3  24675948.838    24675951.222    24675949.567
        19.300          23.400
 -11837463.049 4  -9223993.535 3  23693545.671    23693544.903    23693545.713
        26.200          21.100
 -27348541.378 7 -21310545.794 7  20126011.724    20126012.301    20126012.091
        45.900          44.000
 -15227296.489 5 -11865420.983 4  22565237.272    22565237.819    22565237.753
        32.100          26.500
  -1163058.774 3   -906282.599 2  25440358.066    25440356.218    25440356.567
        18.600          13.900
 -19332120.518 6 -15063984.254 6  21568409.498    21568408.671    21568409.587
        41.200          37.700
 -24983936.170 7 -19467999.732 7  20889832.785    20889832.563    20889833.282
        43.600          43.200
  -7170825.689 4  -5587652.623 4  24344788.816    24344789.118    24344789.284
        24.200          24.200
 -14556363.383 5 -11342614.223 4  22915932.432    22915933.166    22915932.153
        31.100          26.800
 -12292889.859 4  -9578871.704 4  23174059.296    23174061.277    23174059.614
        27.400          29.000
 13 10 10  1 37  0.0000000  0 10G17G18G26G 9G19G28G15G 5G 8G24
  -4581106.796 3  -3569692.664 3  24658365.267    24658366.714    24658366.061
        22.100          21.100
 -11900234.411 4  -9272906.287 3  23681601.036    23681600.420    23681600.940
        25.900          20.500
 -27297079.830 7 -21270445.893 7  20135804.471    20135805.064    20135804.752
        45.900          44.000
 -15126345.441 5 -11786757.864 4  22584447.858    22584448.333    22584447.886
        31.300          26.800
  -1096408.994 2   -854347.726 2  25453040.167    25453039.208    25453039.062
        13.900          17.800
 -19296857.895 6 -15036506.855 6  21575119.916    21575119.130    21575119.819
        41.100          37.700
 -25027942.291 7 -19502290.226 7  20881458.588    20881458.631    20881459.264
        43.600          43.300
  -7059567.401 3  -5500957.883 4  24365960.057    24365960.788    24365961.024
        23.000          25.300
 -14469705.148 5 -11275088.357 4  22932422.879    22932423.368    22932422.825
        31.500          26.500
 -12385616.339 4  -9651126.099 4  23156413.358    23156416.124    23156414.081
        27.600          29.200
 13 10 10  1 37 30.0000000  0 11G17G18G26G21G 9G19G28G15G 5G 8G24
  -4673380.768 3  -3641594.420 3  24640806.118    24640807.367    24640807.010
        23.000          19.900
 -11962583.378 4  -9321489.880 3  23669736.547    23669735.175    23669736.610
        27.900          21.600
 -27245106.463 7 -21229947.197 7  20145695.015    20145695.345    20145695.286
        46.200          44.000
     18843.201 1     14682.888 2  25640455.014    25640452.964    25640454.947
        11.000          12.600
 -15025210.414 5 -11707951.353 4  22603693.097    22603693.923    22603693.311
        31.500          26.800
  -1029305.595 2   -802059.411 2  25465809.263    25465808.662    25465809.010
        16.100          17.800
 -19261121.178 6 -15008660.047 6  21581920.188    21581919.768    21581920.292
        41.200          37.800
 -25071507.433 7 -19536237.080 7  20873168.298    20873168.428    20873169.157
        43.400          43.300
  -6948231.257 3  -5414202.474 4  24387146.565    24387148.101    24387147.039
        21.600          24.900
 -14382873.144 5 -11207427.072 4  22948946.496    22948946.902    22948946.296
        31.000          26.800
 -12478169.352 4  -9723245.319 4  23138800.728    23138804.213    23138801.886
        27.600          29.700
 13 10 10  1 38  0.0000000  0 11G17G18G26G21G 9G19G28G15G 5G 8G24
  -4765520.705 4  -3713391.762 3  24623273.516    24623274.229    24623274.023
        24.200          23.400
 -12024507.857 4  -9369742.727 3  23657952.998    23657951.576    23657952.822
        27.600          22.100
 -27192622.169 7 -21189050.349 7  20155682.005    20155682.768    20155682.486
        45.800          43.800
     75566.444       58882.813 2  25651248.451    25651247.127    25651247.479
                        12.600
 -14923892.871 5 -11629002.548 4  22622973.450    22622974.032    22622973.449
        31.800          27.900
   -961750.799 3   -749419.192 3  25478665.528    25478662.889    25478664.462
        18.600          18.600
 -19224911.672 6 -14980444.834 6  21588810.808    21588809.988    21588810.779
        41.200          37.800
 -25114630.179 7 -19569839.217 7  20864962.808    20864962.383    20864963.145
        43.500          43.400
  -6836819.333 3  -5327388.025 4  24408347.663    24408348.934    24408348.131
        22.100          25.600
 -14295868.928 5 -11139631.582 4  22965502.547    22965503.525    22965502.542
        31.100          26.500
 -12570547.346 4  -9795228.178 5  23121222.524    23121225.590    23121223.232
        28.100          30.200
 13 10 10  1 38 30.0000000  0 11G17G18G26G21G 9G19G28G15G 5G 8G24
  -4857523.343 3  -3785082.114 3  24605765.579    24605766.129    24605766.147
        21.600          21.100
 -12086005.723 4  -9417663.146 3  23646250.109    23646248.587    23646249.951
        26.500          19.900
 -27139628.084 7 -21147756.280 7  20165766.690    20165767.370    20165766.923
        45.900          44.000
    132576.831      103306.433 1  25662096.531    25662097.658    25662099.340
         3.000           6.500
 -14822394.588 5 -11549912.960 4  22642287.589    22642287.977    22642287.701
        31.000          25.600
   -893747.345 3   -696429.483 2  25491605.909    25491603.933    25491605.293
        19.900          16.100
 -19188231.149 6 -14951862.594 6  21595790.750    21595789.805    21595790.837
        40.900          37.500
 -25157308.905 7 -19603095.351 7  20856841.102    20856840.831    20856841.683
        43.600          43.700
  -6725335.142 3  -5240517.259 4  24429562.216    24429563.476    24429562.978
        22.100          24.600
 -14208693.559 5 -11071702.695 4  22982091.913    22982092.210    22982091.547
        31.000          26.800
 -12662749.547 4  -9867074.027 4  23103677.039    23103679.883    23103677.760
        27.600          29.900
 13 10 10  1 39  0.0000000  0 11G17G18G26G21G 9G19G28G15G 5G 8G24
  -4949386.016 3  -3856663.422 3  24588284.743    24588284.974    24588284.820
        21.100          21.600
 -12147075.046 4  -9465249.614 3  23634628.904    23634627.476    23634629.070
        26.800          20.500
 -27086125.390 7 -21106065.914 7  20175947.881    20175948.563    20175948.198
        45.700          43.800
    189871.695 1    147951.719 1  25673000.767    25672998.249    25673001.858
         6.500           9.000
 -14720717.191 5 -11470683.816 4  22661636.120    22661636.737    22661636.334
        31.100          26.200
   -825297.631 3   -643092.133 3  25504631.930    25504629.677    25504631.117
        19.300          19.300
 -19151080.912 6 -14922914.349 6  21602860.205    21602859.320    21602860.306
        40.900          37.400
 -25199541.779 7 -19636004.077 7  20848804.281    20848804.109    20848804.975
        43.900          43.800
  -6613780.892 3  -5153591.895 3  24450791.015    24450791.243    24450790.851
        22.100          23.000
 -14121348.303 5 -11003641.444 4  22998712.565    22998713.479    22998712.871
        30.400          25.300
 -12754774.929 4  -9938782.106 4  23086164.942    23086167.681    23086165.415
        28.100          29.500
 13 10 10  1 39 30.0000000  0 12G17G18G26G21G 9G19G28G15G 5G22G 8G24
  -5041105.798 3  -3928133.398 3  24570830.536    24570831.927    24570830.779
        21.100          23.000
 -12207713.945 4  -9512500.706 3  23623088.309    23623088.517    23623089.537
        27.900          21.600
 -27032115.059 7 -21063979.974 7  20186225.605    20186226.481    20186226.074
        45.900          43.700
    247448.733      192816.964 1  25683956.604    25683956.171    25683957.096
         3.000           9.000
 -14618862.462 5 -11391316.520 4  22681018.690    22681019.050    22681018.669
        30.800          26.200
   -756403.537 3   -589408.394 2  25517741.483    25517739.788    25517740.754
        19.300          15.100
 -19113462.389 6 -14893601.197 6  21610018.733    21610018.022    21610018.800
        40.700          37.600
 -25241327.532 7 -19668564.393 7  20840852.771    20840852.505    20840853.458
        43.800          43.500
  -6502159.185 3  -5066613.964 3  24472031.452    24472032.142    24472032.095
        22.100          21.100
   -180756.730 2   -140849.172 1  25872359.463    25872358.774    25872359.901
        12.600           9.000
 -14033834.474 5 -10935448.838 4  23015366.275    23015367.008    23015366.200
        30.400          26.500
 -12846622.794 4 -10010351.858 4  23068686.794    23068689.795    23068687.422
        27.900          29.900
 13 10 10  1 40  0.0000000  0 12G17G18G26G21G 9G19G28G15G 5G22G 8G24
  -5132679.523 3  -3999489.457 4  24553404.023    24553406.251    24553404.743
        22.100          25.300
 -12267920.633 4  -9559414.998 3  23611631.739    23611631.862    23611632.838
        26.200          21.100
 -26977598.175 7 -21021499.303 7  20196600.170    20196600.652    20196600.404
        45.700          43.700
    305305.551 1    237898.167 2  25694966.043    25694964.068    25694965.244
         9.000          13.900
 -14516832.302 5 -11311812.522 4  22700434.271    22700434.777    22700434.392
        31.300          27.100
   -687067.969 3   -535380.720 2  25530935.755    25530934.132    25530934.090
        18.600          16.100
 -19075377.087 6 -14863924.317 6  21617266.001    21617265.464    21617265.994
        40.800          37.700
 -25282664.529 7 -19700775.015 7  20832986.429    20832986.349    20832987.158
        43.800          44.000
  -6390472.866 3  -4979585.671 3  24493285.122    24493284.771    24493284.955
        22.600          22.100
   -273934.056 1   -213454.709 2  25854629.211    25854628.197    25854628.058
         9.000          16.100
 -13946153.178 5 -10867125.708 4  23032051.647    23032052.286    23032051.612
        31.000          26.500
 -12938291.865 4 -10081782.277 4  23051242.658    23051245.879    23051243.716
        28.600          29.700
 13 10 10  1 40 30.0000000  0 12G17G18G26G21G 9G19G28G15G 5G22G 8G24
  -5224104.534 3  -4070729.680 3  24536007.034    24536008.771    24536007.715
        22.600          23.800
 -12327693.279 4  -9605991.087 3  23600258.438    23600257.181    23600258.632
        27.400          20.500
 -26922575.881 7 -20978624.798 7  20207070.129    20207071.019    20207070.595
        45.600          43.500
    363440.008      283197.826 1  25706028.996    25706028.047    25706028.161
                        11.000
 -14414627.853 5 -11232172.723 4  22719882.926    22719883.523    22719883.226
        30.600          26.500
   -617293.203 3   -481010.936 2  25544213.499    25544211.780    25544212.755
        19.300          16.100
 -19036826.532 6 -14833884.904 6  21624601.879    21624601.330    21624601.916
        40.600          37.500
 -25323551.553 7 -19732635.068 7  20825205.732    20825205.933    20825206.617
        43.500          43.800
  -6278724.770 3  -4892509.256 3  24514549.964    24514550.273    24514550.319
        22.100          23.800
   -366892.790 2   -285889.929 2  25836939.920    25836938.020    25836938.835
        12.600          13.900
 -13858305.757 5 -10798673.145 4  23048768.220    23048768.989    23048768.489
        30.400          26.200
 -13029780.811 4 -10153072.314 5  23033833.225    23033836.274    23033833.918
        28.400          30.100
 13 10 10  1 41  0.0000000  0 12G17G18G26G21G 9G19G28G15G 5G22G 8G24
  -5315377.725 4  -4141851.614 4  24518638.888    24518639.882    24518639.467
        24.200          25.300
 -12387029.840 4  -9652227.353 3  23588967.261    23588965.901    23588967.286
        27.400          20.500
 -26867049.391 7 -20935357.424 7  20217636.568    20217637.392    20217637.052
        45.700          43.600
    421849.410 9    328711.559 1  25717144.973    25717143.574    25717143.325
        -3.000           6.500
 -14312250.978 5 -11152398.621 4  22739364.400    22739365.326    22739365.016
        30.800          25.300
   -547080.907 3   -426299.999 2  25557574.479    25557572.730    25557573.004
        18.600          17.800
 -18997812.273 6 -14803484.176 6  21632026.140    21632025.314    21632026.249
        41.000          37.200
 -25363986.918 7 -19764143.150 7  20817511.126    20817511.374    20817512.119
        43.800          44.000
  -6166916.992 3  -4805386.323 4  24535826.381    24535827.029    24535827.091
        23.000          24.200
   -459630.173 2   -358152.637 2  25819291.729    25819290.835    25819291.424
        13.900          13.900
 -13770293.343 5 -10730092.026 4  23065516.260    23065517.286    23065516.488
        30.200          25.600
 -13121089.068 4 -10224221.587 4  23016457.445    23016460.480    23016458.467
        28.600          29.700
 13 10 10  1 41 30.0000000  0 12G17G18G26G21G 9G19G28G15G 5G22G 8G24
  -5406496.218 4  -4212853.026 3  24501299.311    24501300.080    24501299.916
        25.300          22.600
 -12445928.267 4  -9698122.226 3  23577758.529    23577758.412    23577759.211
        27.900          21.100
 -26811019.715 7 -20891697.946 7  20228298.781    20228299.577    20228299.140
        45.700          43.500
    480531.381      374437.740 1  25728312.727    25728311.326    25728313.691
         3.000           9.000
 -14209702.962 5 -11072491.130 4  22758879.018    22758879.897    22758879.373
        30.200          25.300
   -476434.122 2   -371250.654 2  25571018.093    25571016.851    25571017.940
        17.000          15.100
 -18958335.735 6 -14772723.231 6  21639538.443    21639537.435    21639538.429
        40.900          37.200
 -25403969.108 7 -19795298.093 7  20809902.909    20809902.925    20809903.789
        43.800          43.900
  -6055052.558 4  -4718219.250 3  24557113.791    24557114.192    24557113.879
        24.200          23.400
   -552144.079 2   -430241.200 2  25801687.267    25801684.472    25801686.595
        15.100          12.600
 -13682117.229 5 -10661383.363 4  23082295.776    23082296.879    23082295.961
        31.000          26.200
 -13212215.391 4 -10295229.070 4  22999116.303    22999119.840    22999117.279
        29.000          29.500
 13 10 10  1 42  0.0000000  0 12G17G18G26G21G 9G19G28G15G 5G22G 8G24
  -5497457.196 3  -4283731.714 3  24483989.632    24483990.495    24483990.240
        23.000          22.600
 -12504387.167 4  -9743674.611 3  23566633.915    23566632.705    23566634.512
        27.600          21.100
 -26754488.055 7 -20847647.314 7  20239056.460    20239057.263    20239056.863
        45.700          43.500
    539483.805 1    420374.686 1  25739530.714    25739528.579    25739529.305
        11.000           9.000
 -14106985.584 5 -10992451.637 4  22778425.740    22778425.988    22778425.857
        30.400          25.300
   -405354.968 2   -315864.343 2  25584544.991    25584542.529    25584543.553
        17.800          15.100
 -18918398.742 6 -14741603.493 6  21647138.262    21647137.329    21647138.205
        40.900          37.200
 -25443496.702 7 -19826098.822 7  20802381.206    20802381.012    20802381.876
        43.900          44.100
  -5943134.451 4  -4631010.341 3  24578410.563    24578411.626    24578411.257
        24.200          23.800
   -644432.075 2   -502153.759 2  25784126.019    25784123.226    25784125.241
        12.600          15.100
 -13593778.672 5 -10592548.141 4  23099106.049    23099107.020    23099106.032
        30.400          26.200
 -13303158.782 4 -10366093.971 5  22981810.592    22981813.869    22981811.423
        29.000          30.400
 13 10 10  1 42 30.0000000  0 12G17G18G26G21G 9G19G28G15G 5G22G 8G24
  -5588257.547 3  -4354485.212 3  24466710.456    24466712.049    24466711.202
        21.100          23.000
 -12562404.520 4  -9788882.937 3  23555594.219    23555592.520    23555594.012
        27.400          21.100
 -26697455.571 7 -20803206.425 7  20249909.515    20249910.126    20249909.709
        45.600          43.300
    598703.716 1    466520.031 1  25750798.694    25750797.593    25750799.788
        11.000           6.500
 -14004100.693 4 -10912281.641 4  22798004.159    22798004.636    22798004.426
        29.700          26.500
   -333845.699 2   -260142.723 2  25598151.796    25598150.348    25598150.853
        17.800          12.600
 -18878003.000 6 -14710126.283 6  21654825.521    21654824.306    21654825.207
        40.600          37.200
 -25482568.301 7 -19856544.214 7  20794946.144    20794945.911    20794946.750
        44.000          44.000
  -5831165.105 3  -4543761.530 3  24599717.291    24599718.289    24599717.833
        21.600          22.600
   -736491.702 2   -573888.402 2  25766607.362    25766604.585    25766605.413
        13.900          16.100
 -13505278.596 4 -10523587.014 4  23115946.874    23115947.660    23115946.983
        29.200          26.500
 -13393918.360 4 -10436815.626 4  22964539.205    22964542.099    22964540.200
        28.600          29.200
 13 10 10  1 43  0.0000000  0 12G17G18G26G21G 9G19G28G15G 5G22G 8G24
  -5678894.345 3  -4425111.266 4  24449463.201    24449464.279    24449463.507
        21.100          24.200
 -12619978.422 4  -9833745.706 3  23544638.623    23544637.412    23544638.353
        27.900          22.100
 -26639923.514 7 -20758376.250 7  20260857.560    20260858.039    20260857.826
        45.600          43.300
    658189.124 1    512872.270 1  25762118.231    25762115.739    25762116.510
         6.500           6.500
 -13901049.805 5 -10831982.257 4  22817614.624    22817614.616    22817614.530
        30.100          25.900
   -261909.129 2   -204088.168 2  25611839.689    25611838.475    25611839.105
        17.800          15.100
 -18837149.592 6 -14678292.466 6  21662599.459    21662598.407    21662599.303
        40.600          36.800
 -25521182.575 7 -19886633.226 7  20787597.887    20787597.899    20787598.690
        43.800          44.100
  -5719146.609 3  -4456474.401 3  24621034.102    24621034.739    24621034.992
        22.600          23.000
   -828320.686 1   -645443.234 2  25749131.851    25749130.712    25749129.470
         9.000          13.900
 -13416618.388 4 -10454501.128 4  23132818.557    23132819.103    23132818.605
        29.900          25.600
 -13484493.142 4 -10507393.310 5  22947303.753    22947306.574    22947304.653
        29.000          30.400
 13 10 10  1 43 30.0000000  0 12G17G18G26G21G 9G19G28G15G 5G22G 8G24
  -5769364.868 3  -4495607.781 3  24432247.033    24432248.018    24432247.225
        20.500          22.100
 -12677106.405 4  -9878261.016 3  23533767.947    23533765.596    23533767.586
        28.400          21.600
 -26581893.042 7 -20713157.702 7  20271900.101    20271900.861    20271900.542
        45.500          43.300
    717937.934 1    559429.784 1  25773487.301    25773487.276    25773488.664
         6.500          11.000
 -13797834.549 4 -10751554.779 4  22837255.573    22837255.599    22837255.626
        29.500          24.200
   -189547.851 2   -147702.727 2  25625609.916    25625609.787    25625609.465
        13.900          13.900
 -18795840.293 6 -14646103.406 6  21670460.264    21670459.410    21670460.253
        40.600          37.200
 -25559337.838 7 -19916364.600 7  20780337.165    20780337.237    20780337.957
        43.900          44.400
  -5607082.397 3  -4369151.647 3  24642358.213    24642360.054    24642359.775
        20.500          23.800
   -919916.586 2   -716816.554 2  25731702.019    25731699.920    25731700.426
        15.100          13.900
 -13327799.215 4 -10385291.403 4  23149720.206    23149720.961    23149720.311
        29.000          24.900
 -13574882.089 4 -10577826.216 5  22930102.657    22930106.293    22930103.962
        29.000          30.400
 13 10 10  1 44  0.0000000  0 12G17G18G26G21G 9G19G28G15G 5G22G 8G24
  -5859665.959 3  -4565972.245 4  24415063.984    24415064.912    24415064.638
        23.400          24.600
 -12733787.746 4  -9922428.289 3  23522981.403    23522979.489    23522981.338
        28.100          22.600
 -26523365.310 7 -20667551.668 7  20283037.611    20283038.335    20283038.075
        45.500          43.200
    777947.169 9    606190.164 2  25784908.531    25784907.841    25784909.200
        -3.000          15.100
 -13694456.323 4 -10671000.341 4  22856927.549    22856928.096    22856927.460
        29.200          24.600
   -116764.264 1    -90988.341 1  25639461.498    25639460.462    25639460.756
        11.000          11.000
 -18754076.913 6 -14613560.530 6  21678407.577    21678406.803    21678407.583
        40.700          37.000
 -25597032.610 7 -19945737.158 7  20773164.280    20773164.094    20773164.929
        43.900          44.400
  -5494974.481 3  -4281794.845 3  24663692.390    24663692.911    24663692.944
        21.100          23.000
  -1011277.184 3   -788006.737 2  25714316.988    25714314.777    25714316.441
        18.600          13.900
 -13238822.634 4 -10315959.036 4  23166651.481    23166652.204    23166651.767
        28.800          24.600
 -13665083.976 4 -10648113.330 5  22912938.773    22912941.167    22912939.376
        29.000          30.600
 13 10 10  1 44 30.0000000  0 11G17G18G26G 9G19G28G15G 5G22G 8G24
  -5949794.724 3  -4636202.438 3  24397913.531    24397912.748    24397913.744
        22.600          23.000
 -12790020.382 4  -9966245.902 3  23512280.579    23512279.622    23512280.420
        27.100          21.100
 -26464341.601 7 -20621559.152 7  20294269.601    20294270.049    20294269.898
        45.600          43.000
 -13590916.929 5 -10590320.286 4  22876630.158    22876631.006    22876630.506
        30.200          25.300
    -43559.889 2    -33945.851 2  25653391.688    25653389.769    25653389.878
        12.600          17.000
 -18711860.796 6 -14580664.872 6  21686441.112    21686440.159    21686441.107
        40.500          36.600
 -25634265.810 7 -19974750.070 7  20766079.130    20766078.872    20766079.735
        43.800          44.600
  -5382826.317 2  -4194406.702 3  24685032.595    24685034.325    24685033.934
        17.800          23.400
  -1102399.799 2   -859011.246 2  25696977.550    25696974.982    25696975.502
        15.100          15.100
 -13149689.531 4 -10246504.682 4  23183613.120    23183613.807    23183613.147
        28.600          24.200
 -13755098.212 4 -10718254.237 5  22895808.741    22895812.426    22895809.828
        29.700          31.100
 13 10 10  1 45  0.0000000  0 11G17G18G26G 9G19G28G15G 5G22G 8G24
  -6039748.486 4  -4706296.261 3  24380795.022    24380795.783    24380795.827
        24.600          23.400
 -12845801.930 4 -10009712.044 3  23501665.458    23501664.497    23501665.753
        28.100          21.600
 -26404823.104 7 -20575181.069 7  20305595.355    20305596.231    20305595.777
        45.300          43.000
 -13487217.792 4 -10509515.741 4  22896362.882    22896364.136    22896363.759
        29.900          24.900
     30061.693 1     23421.674 1  25667400.213    25667398.406    25667399.838
         9.000          11.000
 -18669193.576 6 -14547417.697 6  21694560.092    21694559.555    21694560.163
        40.400          36.700
 -25671035.802 7 -20003402.017 7  20759081.908    20759081.815    20759082.705
        43.800          44.400
  -5270639.376 3  -4106988.342 3  24706382.043    24706383.052    24706382.688
        21.600          23.000
  -1193282.669 2   -929828.977 2  25679681.590    25679679.661    25679680.764
        13.900          13.900
 -13060401.171 4 -10176929.349 4  23200604.219    23200605.408    23200604.123
        29.700          25.300
 -13844923.622 5 -10788248.023 5  22878716.191    22878718.622    22878716.823
        30.400          30.200
 13 10 10  1 45 30.0000000  0 11G17G18G26G 9G19G28G15G 5G22G 8G24
  -6129524.191 3  -4776251.329 4  24363711.779    24363712.165    24363712.223
        23.800          24.200
 -12901131.307 4 -10052825.836 3  23491135.880    23491134.978    23491136.025
        28.100          20.500
 -26344811.067 7 -20528418.416 7  20317015.391    20317016.271    20317015.762
        45.500          43.400
 -13383360.430 4 -10428587.902 4  22916127.148    22916127.681    22916127.042
        29.700          24.600
    104098.281 2     81112.474 1  25681489.935    25681488.369    25681488.647
        16.100          11.000
 -18626076.883 6 -14513820.284 6  21702764.966    21702764.432    21702765.098
        40.300          36.700
 -25707340.867 7 -20031691.653 7  20752173.183    20752173.174    20752174.010
        44.100          44.800
  -5158416.884 3  -4019542.267 3  24727736.763    24727738.039    24727737.956
        19.300          23.400
  -1283923.200 2  -1000457.933 2  25662431.877    25662431.541    25662432.429
        16.100          15.100
 -12970958.759 4 -10107233.968 4  23217624.516    23217625.118    23217624.709
        29.700          24.200
 -13934559.104 4 -10858093.772 4  22861658.204    22861661.492    22861659.405
        29.900          29.900
 13 10 10  1 46  0.0000000  0 11G17G18G26G 9G19G28G15G 5G22G 8G24
  -6219118.726 3  -4846065.240 4  24346661.859    24346663.337    24346662.115
        23.000          24.200
 -12956006.344 4 -10095585.618 3  23480694.402    23480693.353    23480694.571
        28.800          21.100
 -26284306.865 7 -20481272.290 7  20328528.610    20328529.616    20328529.047
        45.100          43.100
 -13279346.429 4 -10347538.018 4  22935920.387    22935920.670    22935920.484
        29.200          24.600
    178546.888 2    139124.245 2  25695658.126    25695655.689    25695657.251
        12.600          13.900
 -18582512.574 6 -14479874.074 6  21711055.270    21711054.290    21711055.187
        40.500          36.600
 -25743180.220 7 -20059618.433 7  20745353.245    20745353.100    20745353.933
        44.100          44.400
  -5046161.626 3  -3932070.663 3  24749098.797    24749099.262    24749099.815
        21.100          22.100
  -1374318.340 2  -1070895.640 2  25645230.793    25645230.133    25645230.283
        15.100          13.900
 -12881363.504 4 -10037419.479 4  23234674.061    23234674.702    23234674.229
        29.200          24.600
 -14024003.693 4 -10927790.804 5  22844638.269    22844640.843    22844638.710
        29.900          31.100
 13 10 10  1 46 30.0000000  0 11G17G18G26G 9G19G28G15G 5G22G 8G24
  -6308529.351 3  -4915735.839 4  24329647.684    24329649.440    24329648.278
        20.500          25.600
 -13010425.343 4 -10137990.030 3  23470339.196    23470337.476    23470338.691
        28.400          22.100
 -26223311.655 7 -20433743.566 7  20340135.763    20340136.619    20340136.075
        45.100          42.700
 -13175177.557 4 -10266367.501 3  22955743.490    22955743.259    22955743.339
        29.500          23.800
    253405.970      197455.929 1  25709901.801    25709899.596    25709900.801
                         6.500
 -18538501.904 6 -14445580.018 6  21719430.135    21719429.209    21719430.180
        40.500          36.500
 -25778551.933 7 -20087180.819 7  20738622.241    20738622.039    20738623.007
        44.300          44.700
  -4933875.962 3  -3844575.343 3  24770465.820    24770466.671    24770466.895
        21.600          21.100
  -1464466.149 2  -1141140.603 2  25628077.273    25628076.147    25628077.421
        12.600          13.900
 -12791616.609 4  -9967486.845 3  23251751.888    23251753.060    23251751.832
        27.400          23.800
 -14113256.486 4 -10997338.377 5  22827653.132    22827656.917    22827654.410
        29.500          30.800
 13 10 10  1 47  0.0000000  0 11G17G18G26G 9G19G28G15G 5G22G 8G24
  -6397753.175 4  -4985260.844 4  24312668.433    24312670.611    24312669.486
        24.600          25.600
 -13064386.388 4 -10180037.569 3  23460070.731    23460068.614    23460070.272
        28.600          19.900
 -26161826.797 7 -20385833.322 7  20351836.075    20351836.792    20351836.541
        45.400          42.800
 -13070855.375 4 -10185077.489 4  22975594.762    22975595.212    22975594.961
        28.600          24.900
    328672.823 1    256105.205 1  25724223.530    25724223.571    25724221.641
         6.500           9.000
 -18494046.766 6 -14410939.631 6  21727889.663    21727888.953    21727889.651
        40.300          36.500
 -25813454.762 7 -20114377.794 7  20731980.679    20731980.361    20731981.190
        44.200          44.900
  -4821562.620 3  -3757058.465 3  24791837.674    24791838.685    24791839.274
        19.300          21.600
  -1554364.351 2  -1211191.155 2  25610969.369    25610968.192    25610969.413
        15.100          16.100
 -12701719.091 4  -9897436.842 4  23268858.777    23268859.888    23268859.104
        28.600          25.300
 -14202316.227 5 -11066735.506 5  22810705.759    22810709.061    22810707.140
        30.600          30.800
 13 10 10  1 47 30.0000000  0 11G17G18G26G 9G19G28G15G 5G22G 8G24
  -6486787.155 3  -5054637.934 4  24295726.276    24295727.074    24295726.934
        23.800          24.900
 -13117888.071 4 -10221727.197 3  23449889.135    23449887.547    23449889.278
        27.600          21.100
 -26099853.488 7 -20337542.465 7  20363629.312    20363629.949    20363629.575
        45.100          42.700
 -12966381.206 4 -10103669.048 4  22995475.370    22995476.119    22995475.565
        28.800          26.200
    404344.880 1    315070.326 2  25738623.548    25738622.125    25738627.030
         6.500          12.600
 -18449149.092 6 -14375954.446 6  21736433.559    21736432.866    21736433.376
        40.300          36.800
 -25847887.546 7 -20141208.516 7  20725427.908    20725428.094    20725428.802
        44.200          45.000
  -4709224.275 3  -3669522.089 3  24813215.546    24813216.323    24813216.777
        21.100          22.100
  -1644010.851 2  -1281045.729 2  25593912.113    25593910.117    25593910.041
        12.600          15.100
 -12611672.121 4  -9827270.424 4  23285994.466    23285995.555    23285994.682
        28.400          24.200
 -14291182.183 5 -11135981.652 5  22793795.605    22793798.452    22793796.421
        30.800          31.000
 13 10 10  1 48  0.0000000  0 11G17G18G26G 9G19G28G15G 5G22G 8G24
  -6575628.456 3  -5123864.922 4  24278819.717    24278821.540    24278820.133
        23.000          25.300
 -13170928.602 4 -10263057.488 3  23439795.908    23439795.074    23439795.653
        28.600          19.900
 -26037393.065 7 -20288872.021 7  20375514.922    20375515.910    20375515.444
        45.200          42.900
 -12861756.483 4 -10022143.280 4  23015385.106    23015385.108    23015385.202
        29.500          24.600
    480419.599      374349.334 9  25753101.331    25753098.754    25753098.716
         3.000          -3.000
 -18403810.220 6 -14340625.459 6  21745061.106    21745060.398    21745061.053
        40.300          36.400
 -25881848.760 7 -20167671.773 7  20718965.224    20718965.401    20718966.120
        44.000          45.000
  -4596863.228 3  -3581968.054 3  24834598.385    24834598.162    24834598.334
        19.300          21.600
  -1733403.184 2  -1350702.348 2  25576901.532    25576898.489    25576900.485
        12.600          15.100
 -12521476.962 4  -9756988.508 3  23303158.682    23303158.719    23303158.860
        29.200          23.800
 -14379853.277 5 -11205075.959 5  22776922.468    22776924.298    22776922.940
        30.600          30.800
 13 10 10  1 48 30.0000000  0 11G17G18G26G 9G19G28G15G 5G22G 8G24
  -6664274.275 4  -5192939.531 4  24261951.747    24261952.988    24261952.073
        24.600          25.600
 -13223506.186 4 -10304027.017 3  23429790.632    23429789.614    23429790.592
        28.800          22.100
 -25974446.872 7 -20239823.075 7  20387493.174    20387494.191    20387493.560
        45.000          42.700
 -12756983.013 4  -9940501.623 4  23035323.314    23035322.727    23035323.098
        29.500          24.600
    556893.987 1    433939.577 1  25767655.081    25767652.977    25767655.267
         6.500           6.500
 -18358031.822 6 -14304953.978 6  21753772.401    21753771.514    21753772.414
        40.300          36.300
 -25915336.955 7 -20193766.420 7  20712593.267    20712592.654    20712593.689
        44.300          45.200
  -4484482.759 2  -3494398.874 3  24855982.878    24855983.361    24855983.599
        17.800          23.000
  -1822538.051 2  -1420158.195 2  25559939.031    25559936.643    25559938.559
        15.100          15.100
 -12431134.972 4  -9686592.135 3  23320350.241    23320350.197    23320350.188
        28.800          23.000
 -14468328.261 5 -11274017.462 5  22760086.348    22760088.604    22760086.730
        31.100          31.600
 13 10 10  1 49  0.0000000  0 10G17G18G26G 9G28G15G 5G22G 8G24
  -6752721.332 4  -5261859.299 4  24245120.582    24245122.258    24245121.196
        25.600          25.300
 -13275619.102 4 -10344634.501 3  23419873.696    23419872.204    23419873.922
        28.400          22.600
 -25911016.201 7 -20190396.618 7  20399564.235    20399564.690    20399564.345
        45.100          42.600
 -12652062.054 4  -9858745.007 3  23055288.364    23055288.941    23055288.481
        28.600          23.400
 -18311815.748 6 -14268941.478 6  21762567.400    21762566.230    21762567.179
        40.200          36.200
 -25948351.196 7 -20219491.801 7  20706310.317    20706310.294    20706311.248
        44.500          45.400
  -4372084.541 3  -3406815.844 3  24877371.085    24877372.358    24877371.489
        18.600          20.500
  -1911413.450 2  -1489411.712 2  25543026.387    25543024.712    25543026.976
        17.000          16.100
 -12340646.979 4  -9616082.017 3  23337569.876    23337569.855    23337569.373
        28.100          23.400
 -14556606.435 5 -11342805.595 5  22743286.466    22743289.565    22743287.397
        30.200          31.300
 13 10 10  1 49 30.0000000  0 10G17G18G26G 9G28G15G 5G22G 8G24
  -6840966.943 3  -5330622.091 4  24228327.544    24228329.297    24228328.387
        22.100          24.600
 -13327265.451 4 -10384878.417 3  23410044.738    23410044.695    23410045.435
        28.100          21.600
 -25847102.396 7 -20140593.668 7  20411726.573    20411727.091    20411726.646
        44.900          42.600
 -12546995.387 4  -9776874.922 3  23075282.472    23075282.584    23075282.294
        27.100          23.400
 -18265163.653 6 -14232589.233 5  21771444.792    21771443.898    21771444.780
        40.500          35.900
 -25980889.563 7 -20244846.343 7  20700118.303    20700118.490    20700119.260
        44.400          45.300
  -4259671.721 2  -3319221.485 3  24898762.166    24898763.849    24898763.242
        17.800          21.600
  -2000026.780 2  -1558461.008 2  25526163.821    25526161.938    25526163.405
        16.100          15.100
 -12250014.255 4  -9545459.135 4  23354816.156    23354816.950    23354816.275
        28.400          24.600
 -14644686.525 5 -11411439.357 5  22726525.913    22726528.438    22726526.465
        31.600          31.300
 13 10 10  1 50  0.0000000  0 10G17G18G26G 9G28G15G 5G22G 8G24
  -6929008.248 4  -5399225.684 4  24211574.269    24211575.194    24211574.801
        24.200          24.900
 -13378444.176 4 -10424757.943 3  23400306.998    23400306.039    23400307.138
        29.200          22.100
 -25782706.846 7 -20090415.360 7  20423980.175    20423981.149    20423980.585
        44.900          42.300
 -12441784.390 4  -9694892.348 4  23095303.181    23095303.705    23095303.098
        28.400          24.600
 -18218077.101 6 -14195898.421 6  21780404.474    21780404.122    21780404.855
        40.300          36.200
 -26012951.300 7 -20269829.538 7  20694017.643    20694017.260    20694018.168
        44.500          45.400
  -4147247.067 2  -3231617.869 3  24920156.437    24920157.040    24920157.385
        17.000          19.300
  -2088376.117 2  -1627304.479 2  25509351.939    25509348.815    25509351.006
        15.100          12.600
 -12159238.020 4  -9474724.429 4  23372090.320    23372090.836    23372090.467
        27.600          24.600
 -14732567.850 5 -11479918.271 5  22709802.251    22709805.448    22709803.201
        30.600          31.600
