     2.10           OBSERVATION DATA    G (GPS)             RINEX VERSION / TYPE
teqc  2005Sep1                          20131010 00:15:19UTCPGM / RUN BY / DATE
OBSERVATION MODE: IGS-Net                                   COMMENT
WSRT Westerbork_Synth (WSRT)                                MARKER NAME
13506M005                                                   MARKER NUMBER
229                 AOA SNR-12 ACT       3.3.32.2N          REC # / TYPE / VERS
273                 AOAD/M_T        DUTD                    ANT # / TYPE
        0.3888        0.0000        0.0000                  ANTENNA: DELTA H/E/N
  3828735.6941  443305.1350  5064884.8236                   APPROX POSITION XYZ
  6.60450833  52.91461271  82.2809  LonLatAlt  RSW          COMMENT
Linux 2.4.20-8|Pentium IV|gcc|Linux|486/DX+                 COMMENT
HANS VAN DER MAREL  DUT/DEOS                                OBSERVER / AGENCY
     1     1                                                WAVELENGTH FACT L1/2
     7    L1    L2    C1    P2    P1    S1    S2            # / TYPES OF OBSERV
RUN BY HANS VAN DER MAREL                                   COMMENT
H.VANDERMAREL@TUDELFT.NL                                    COMMENT
    P1 =    P1  TurboRogue; =    Y1  Benchmark              COMMENT
    L1 = L1(CA)                                             COMMENT
    P2 =    P2  TurboRogue; =    Y2  Benchmark              COMMENT
    L2 = L2(P2) TurboRogue; = L2(Y2) Benchmark              COMMENT
 SNR is mapped to RINEX snr flag value [0-9]                COMMENT
  L1 & L2: min(max(int(snr_dBHz/6), 0), 9)                  COMMENT
  2013    10     9     0     0    0.0000000     GPS         TIME OF FIRST OBS
  2013    10     9    23    59   30.0000000     GPS         TIME OF LAST OBS
                                                            END OF HEADER
 13 10  9  0  0  0.0000000  0 12G 5G13G26G21G28G 7G15G 9G19G10G 6G 8
 -24303294.458 7 -18937618.609 7  21082218.363    21082218.604    21082218.964
        42.800          43.100
   1666597.460     1298662.715 1  25585755.345    25585754.216    25585755.711
         3.000           9.000
 -27337144.271 7 -21301660.736 6  20221523.551    20221524.558    20221523.838
        43.100          41.500
  -4719651.087 2  -3677643.220 2  25053921.446    25053921.840    25053921.344
        12.600          16.100
 -15808094.231 5 -12317991.265 5  22219700.108    22219700.217    22219700.033
        35.300          31.000
 -16553109.269 6 -12898518.272 5  22152225.821    22152225.978    22152226.463
        36.600          33.200
  -9373511.876 4  -7304033.094 4  23841018.821    23841020.369    23841019.867
        24.600          24.200
 -28821279.727 7 -22458132.274 7  19894608.170    19894609.013    19894608.435
        45.200          44.300
  -3316862.542 2  -2584578.066 2  25000547.783    25000549.760    25000547.842
        17.000          12.600
  -6776565.316 3  -5280421.848 3  24074160.156    24074162.403    24074159.734
        23.400          19.900
   1096329.774 2    854283.299 1  25450701.313    25450704.343    25450700.574
        15.100           9.000
 -26552700.252 7 -20690407.480 7  20632309.938    20632310.921    20632309.904
        44.700          43.000
 13 10  9  0  0 30.0000000  0 12G 5G13G26G21G28G 7G15G 9G19G10G 6G 8
 -24259927.722 7 -18903826.359 7  21090470.711    21090471.049    21090471.213
        42.600          43.100
   1772524.795 1   1381204.509 1  25605911.741    25605913.190    25605913.287
         9.000          11.000
 -27390541.612 7 -21343269.059 6  20211362.651    20211363.400    20211362.667
        43.100          41.600
  -4752019.291 1  -3702865.027 2  25047760.725    25047762.243    25047761.213
        11.000          12.600
 -15874891.884 5 -12370041.362 5  22206988.927    22206989.171    22206988.997
        35.500          31.000
 -16471862.216 5 -12835208.910 5  22167686.484    22167686.887    22167686.955
        35.800          33.800
  -9471873.837 4  -7380678.722 3  23822301.788    23822301.962    23822302.297
        24.900          23.400
 -28794886.015 7 -22437565.749 7  19899630.899    19899631.578    19899630.986
        45.300          44.100
  -3361387.654 2  -2619272.867 2  24992076.356    24992076.685    24992075.040
        15.100          17.800
  -6661433.887 3  -5190709.074 3  24096068.898    24096071.084    24096068.483
        23.400          20.500
   1134979.791 2    884400.278 1  25458055.407    25458058.548    25458056.248
        17.000           6.500
 -26529326.195 7 -20672193.934 7  20636758.045    20636758.748    20636757.906
        44.500          42.800
 13 10  9  0  1  0.0000000  0 12G 5G13G26G21G28G 7G15G 9G19G10G 6G 8
 -24216015.162 7 -18869608.798 7  21098827.021    21098827.335    21098827.595
        42.500          43.000
   1878481.429 1   1463768.082 2  25626074.013    25626075.520    25626073.931
         6.500          12.600
 -27443494.524 7 -21384531.063 6  20201285.729    20201286.705    20201286.100
        43.200          41.800
  -4783916.602 2  -3727719.984 2  25041691.516    25041692.094    25041691.353
        15.100          17.800
 -15941273.057 5 -12421766.935 5  22194356.895    22194357.309    22194356.862
        35.500          31.100
 -16390355.784 6 -12771697.426 5  22183196.570    22183197.036    22183197.434
        36.300          33.600
  -9570125.331 3  -7457238.352 4  23803604.266    23803605.661    23803605.782
        23.800          24.200
 -28767944.983 7 -22416572.729 7  19904757.552    19904758.223    19904757.673
        45.200          44.200
  -3405417.784 2  -2653581.800 3  24983696.214    24983698.764    24983696.031
        16.100          20.500
  -6546201.464 3  -5100917.590 3  24117997.389    24117998.789    24117996.880
        21.100          19.300
   1174125.121 2    914903.237 1  25465504.923    25465506.875    25465505.585
        12.600          11.000
 -26505501.286 7 -20653629.075 7  20641291.589    20641292.387    20641291.595
        44.600          42.800
 13 10  9  0  1 30.0000000  0 11G 5G26G21G28G 7G15G 9G19G10G 6G 8
 -24171557.753 7 -18834966.674 7  21107286.876    21107287.309    21107287.566
        42.700          42.800
 -27496001.622 7 -21425445.683 6  20191293.683    20191294.838    20191294.259
        43.300          41.600
  -4815342.717 2  -3752208.007 1  25035710.870    25035711.921    25035710.921
        17.000           9.000
 -16007235.956 5 -12473166.569 5  22181804.348    22181805.074    22181804.259
        35.100          31.500
 -16308591.868 6 -12707985.276 5  22198755.663    22198756.081    22198756.402
        36.100          33.000
  -9668264.984 3  -7533710.802 3  23784929.842    23784930.112    23784930.091
        22.600          22.600
 -28740458.094 7 -22395154.377 7  19909987.913    19909988.854    19909988.216
        45.000          44.200
  -3448952.138 3  -2687504.918 3  24975412.849    24975414.388    24975412.925
        19.900          18.600
  -6430870.071 3  -5011048.973 3  24139944.212    24139945.302    24139943.327
        21.600          21.600
   1213763.744 2    945790.268 2  25473047.607    25473050.415    25473047.107
        12.600          12.600
 -26481226.329 7 -20634713.528 7  20645911.314    20645911.782    20645911.142
        44.700          42.800
 13 10  9  0  2  0.0000000  0 11G 5G26G21G28G 7G15G 9G19G10G 6G 8
 -24126557.191 7 -18799901.322 7  21115850.381    21115850.796    21115850.939
        42.600          42.900
 -27548061.556 7 -21466011.862 6  20181387.240    20181388.079    20181387.607
        43.200          41.600
  -4846296.802 2  -3776328.620 2  25029820.952    25029821.692    25029821.361
        15.100          12.600
 -16072778.546 5 -12524238.699 5  22169331.937    22169332.304    22169332.211
        35.600          30.400
 -16226572.237 6 -12644073.885 5  22214363.156    22214363.873    22214364.129
        36.000          33.100
  -9766291.355 4  -7610095.062 3  23766276.355    23766276.770    23766276.836
        24.600          23.800
 -28712426.392 7 -22373311.496 7  19915321.980    19915323.171    19915322.450
        45.100          44.100
  -3491987.599 3  -2721039.401 2  24967224.167    24967224.858    24967223.737
        22.100          17.000
  -6315442.231 3  -4921105.219 3  24161908.876    24161911.503    24161908.512
        22.600          21.600
   1253894.810 2    977060.945 2  25480684.467    25480687.744    25480685.793
        15.100          13.900
 -26456502.517 7 -20615448.224 7  20650615.851    20650616.696    20650615.827
        44.600          42.700
 13 10  9  0  2 30.0000000  0 11G 5G26G21G28G 7G15G 9G19G10G 6G 8
 -24081013.989 7 -18764413.124 7  21124516.705    21124517.494    21124517.364
        42.200          42.800
 -27599672.847 7 -21506228.444 6  20171565.758    20171566.841    20171566.268
        43.200          41.900
  -4876776.857 2  -3800079.657 2  25024021.418    25024023.611    25024021.668
        13.900          12.600
 -16137898.539 5 -12574981.538 5  22156940.526    22156940.418    22156940.429
        35.600          31.000
 -16144298.924 5 -12579964.824 5  22230019.397    22230020.106    22230020.206
        35.800          33.100
  -9864203.036 4  -7686389.853 3  23747643.322    23747644.457    23747644.935
        25.300          22.600
 -28683851.215 7 -22351045.134 7  19920760.026    19920760.761    19920760.140
        45.200          44.100
  -3534521.793 2  -2754183.221 2  24959128.294    24959130.929    24959129.102
        16.100          13.900
  -6199919.957 3  -4831087.888 3  24183892.748    24183894.328    24183892.106
        21.100          22.100
   1294517.286 2   1008714.688 1  25488415.701    25488417.642    25488416.335
        17.000           9.000
 -26431330.813 7 -20595833.911 7  20655405.891    20655406.807    20655405.845
        44.800          42.800
 13 10  9  0  3  0.0000000  0 12G 5G27G26G21G28G 7G15G 9G19G10G 6G 8
 -24034929.948 7 -18728503.511 7  21133286.313    21133286.843    21133286.974
        42.700          42.700
     18855.586 2     14691.972 3  25069806.752    25069810.356    25069807.007
        17.800          19.300
 -27650834.105 7 -21546094.348 6  20161830.536    20161831.234    20161830.659
        43.300          41.900
  -4906781.274 2  -3823459.611 2  25018312.461    25018313.745    25018311.932
        12.600          13.900
 -16202594.012 5 -12625393.571 5  22144629.029    22144629.388    22144629.053
        35.400          31.600
 -16061773.737 5 -12515659.510 5  22245723.196    22245724.314    22245724.268
        35.900          33.200
  -9961998.520 4  -7762594.053 4  23729033.671    23729034.798    23729034.564
        24.600          24.200
 -28654734.114 7 -22328356.498 7  19926300.700    19926301.536    19926300.957
        45.000          44.000
  -3576552.364 2  -2786934.426 2  24951132.225    24951133.021    24951131.479
        17.800          17.000
  -6084305.739 3  -4740998.891 3  24205892.872    24205894.856    24205892.675
        21.100          22.100
   1335629.340 1   1040749.815 1  25496239.021    25496240.716    25496239.283
         9.000          11.000
 -26405712.486 7 -20575871.577 7  20660280.933    20660281.707    20660280.844
        44.600          42.700
 13 10  9  0  3 30.0000000  0 12G 5G27G26G21G28G 7G15G 9G19G10G 6G 8
 -23988306.168 7 -18692173.300 7  21142158.229    21142159.071    21142159.159
        42.500          42.500
     33650.180 2     26220.319 2  25072621.321    25072625.281    25072622.015
        17.000          17.000
 -27701543.929 7 -21585608.501 6  20152180.126    20152181.468    20152180.836
        43.400          41.900
  -4936310.177 2  -3846469.136 2  25012692.542    25012694.302    25012692.981
        15.100          15.100
 -16266863.165 5 -12675473.405 5  22132398.752    22132399.410    22132399.049
        35.400          32.000
 -15978998.383 5 -12451159.258 5  22261475.175    22261475.778    22261476.002
        35.300          32.700
 -10059676.769 4  -7838706.987 3  23710446.276    23710446.958    23710447.184
        25.300          21.600
 -28625076.238 7 -22305246.445 7  19931944.481    19931945.326    19931944.690
        45.300          44.000
  -3618077.374 3  -2819291.611 2  24943230.714    24943231.594    24943229.159
        18.600          16.100
  -5968601.743 3  -4650839.960 3  24227910.369    24227912.859    24227910.089
        21.600          22.100
   1377230.356 2   1073166.325 1  25504156.092    25504157.685    25504155.172
        12.600           9.000
 -26379648.208 7 -20555561.743 7  20665240.795    20665241.569    20665240.743
        44.700          42.600
 13 10  9  0  4  0.0000000  0 12G 5G27G26G21G28G 7G15G 9G19G10G 6G 8
 -23941143.907 7 -18655423.510 7  21151132.892    21151133.865    21151133.760
        42.100          42.600
     49003.187 2     38183.832 2  25075543.144    25075547.216    25075542.931
        16.100          16.100
 -27751800.919 7 -21624769.801 7  20142617.001    20142617.902    20142617.232
        43.600          42.100
  -4965363.307 1  -3869108.014 2  25007162.405    25007164.805    25007163.842
         9.000          13.900
 -16330703.891 6 -12725219.405 5  22120250.512    22120250.587    22120250.653
        36.400          31.600
 -15895975.033 5 -12386465.738 5  22277273.846    22277274.418    22277274.839
        35.700          33.100
 -10157236.524 4  -7914727.579 4  23691881.067    23691882.051    23691882.297
        25.300          24.200
 -28594879.109 7 -22281716.211 7  19937690.890    19937691.575    19937691.040
        45.200          44.000
  -3659094.889 2  -2851253.177 2  24935421.998    24935424.789    24935422.765
        15.100          15.100
  -5852809.890 3  -4560612.567 3  24249944.730    24249947.396    24249944.735
        21.600          19.900
   1419317.950 2   1105961.750 2  25512163.652    25512167.385    25512164.151
        15.100          12.600
 -26353139.623 7 -20534905.717 7  20670285.143    20670286.022    20670285.152
        44.700          42.700
 13 10  9  0  4 30.0000000  0 12G 5G27G26G21G28G 7G15G 9G19G10G 6G 8
 -23893444.724 7 -18618255.335 7  21160209.856    21160210.655    21160210.763
        42.300          42.700
     64914.651 2     50582.717 2  25078570.817    25078574.132    25078571.518
        17.000          16.100
 -27801603.716 7 -21663577.168 7  20133139.217    20133140.758    20133140.010
        43.700          42.000
  -4993939.614 1  -3891375.557 2  25001726.725    25001727.622    25001726.481
        11.000          15.100
 -16394114.184 6 -12774630.007 5  22108183.925    22108183.962    22108184.094
        36.100          31.300
 -15812705.210 5 -12321580.181 5  22293119.422    22293120.114    22293120.471
        35.700          32.600
 -10254676.308 4  -7990654.687 3  23673338.774    23673339.912    23673340.267
        25.600          23.000
 -28564144.253 7 -22257766.969 7  19943539.292    19943540.185    19943539.662
        45.100          43.700
  -3699603.564 2  -2882818.389 2  24927715.227    24927717.268    24927715.572
        17.800          17.000
  -5736932.462 3  -4470318.486 3  24271995.722    24271997.799    24271995.978
        21.100          21.100
   1461890.751 1   1139135.245 1  25520263.355    25520268.368    25520266.273
         9.000           6.500
 -26326187.696 7 -20513904.221 7  20675413.853    20675414.788    20675413.928
        44.700          42.600
 13 10  9  0  5  0.0000000  0 12G 5G27G26G21G28G 7G15G 9G19G10G 6G 8
 -23845209.538 7 -18580669.495 7  21169388.892    21169389.416    21169389.579
        42.200          42.300
     81382.947 2     63415.211 2  25081703.472    25081707.538    25081704.122
        16.100          16.100
 -27850950.898 7 -21702029.531 6  20123749.380    20123750.201    20123749.618
        43.700          41.900
  -5022037.113 2  -3913269.573 2  24996380.050    24996381.041    24996380.006
        15.100          13.900
 -16457092.027 5 -12823703.629 5  22096199.464    22096199.709    22096199.610
        35.400          32.100
 -15729190.707 5 -12256503.946 5  22309011.997    22309012.418    22309013.040
        35.900          32.300
 -10351994.574 4  -8066487.127 4  23654819.655    23654821.343    23654820.709
        25.600          25.300
 -28532872.942 7 -22233399.718 7  19949490.028    19949490.995    19949490.313
        45.200          43.700
  -3739601.543 3  -2913985.770 3  24920104.634    24920106.591    24920103.561
        19.900          18.600
  -5620971.801 3  -4379959.554 3  24294062.755    24294064.344    24294062.547
        21.100          20.500
   1504946.501 1   1172684.609 1  25528457.918    25528463.143    25528457.963
         9.000           6.500
 -26298793.724 7 -20492558.275 7  20680627.010    20680627.634    20680626.830
        44.700          42.500
 13 10  9  0  5 30.0000000  0 12G 5G27G26G21G28G 7G15G 9G19G10G 6G 8
 -23796440.033 7 -18542667.302 7  21178669.310    21178670.092    21178670.076
        42.300          42.200
     98408.294 2     76681.706 3  25084944.030    25084947.862    25084944.682
        17.000          19.300
 -27899841.199 7 -21740125.872 7  20114445.684    20114446.725    20114446.154
        43.900          42.200
  -5049656.379 2  -3934790.988 1  24991124.084    24991124.331    24991124.185
        12.600           6.500
 -16519635.672 6 -12872438.912 5  22084297.881    22084298.134    22084298.059
        36.000          31.800
 -15645433.657 5 -12191238.731 5  22324950.355    22324951.033    22324951.303
        35.800          32.700
 -10449189.806 4  -8142223.659 3  23636324.513    23636324.823    23636325.798
        26.500          22.600
 -28501066.546 7 -22208615.520 7  19955542.561    19955543.648    19955542.908
        45.200          43.700
  -3779086.414 3  -2944753.283 2  24912590.026    24912592.083    24912589.064
        18.600          12.600
  -5504930.283 3  -4289537.600 3  24316144.760    24316146.042    24316144.404
        20.500          18.600
   1548485.470 9   1206610.851 1  25536742.956    25536748.785    25536743.858
        -3.000           6.500
 -26270958.613 7 -20470868.575 7  20685923.622    20685924.522    20685923.641
        44.700          42.400
 13 10  9  0  6  0.0000000  0 12G 5G27G26G21G28G 7G15G 9G19G10G 6G 8
 -23747137.214 7 -18504249.536 7  21188051.441    21188052.027    21188052.222
        42.300          42.200
    115989.740 2     90381.347 2  25088289.759    25088293.750    25088290.193
        17.800          17.000
 -27948273.144 7 -21777865.031 7  20105229.873    20105230.406    20105229.965
        43.600          42.300
  -5076796.452 1  -3955939.046 1  24985960.336    24985960.198    24985959.715
        11.000          11.000
 -16581743.245 6 -12920834.412 5  22072479.311    22072479.381    22072479.372
        36.100          32.300
 -15561435.722 5 -12125785.808 5  22340935.121    22340935.353    22340935.678
        35.900          32.600
 -10546260.813 4  -8217863.369 4  23617852.008    23617854.020    23617852.785
        26.800          25.600
 -28468726.565 7 -22183415.546 7  19961696.661    19961697.756    19961696.958
        45.100          43.600
  -3818055.407 3  -2975118.500 2  24905175.866    24905176.178    24905174.933
        19.300          17.800
  -5388809.934 3  -4199054.218 3  24338241.543    24338243.966    24338241.491
        19.300          21.100
   1592505.981 2   1240912.764 9  25545121.121    25545124.710    25545121.962
        12.600          -3.000
 -26242683.528 7 -20448836.045 7  20691304.264    20691305.029    20691304.240
        44.700          42.400
 13 10  9  0  6 30.0000000  0 12G 5G27G26G21G28G 7G15G 9G19G10G 6G 8
 -23697302.580 7 -18465417.373 7  21197534.489    21197535.280    21197535.334
        42.200          42.200
    134126.945 3    104513.953 2  25091741.887    25091744.902    25091742.219
        18.600          16.100
 -27996245.443 7 -21815246.043 7  20096100.569    20096101.575    20096101.028
        43.600          42.200
  -5103456.361 2  -3976712.980 2  24980885.926    24980886.760    24980886.559
        16.100          15.100
 -16643412.601 5 -12968888.431 5  22060743.782    22060744.234    22060743.766
        35.800          32.300
 -15477198.633 5 -12060146.510 5  22356964.709    22356964.986    22356965.450
        35.400          32.400
 -10643206.233 4  -8293405.241 4  23599403.931    23599404.727    23599404.558
        24.900          24.200
 -28435854.411 7 -22157800.889 7  19967951.877    19967953.130    19967952.366
        45.000          43.800
  -3856507.675 3  -3005081.155 3  24897857.644    24897859.489    24897856.916
        18.600          18.600
  -5272613.072 3  -4108511.244 2  24360353.336    24360354.841    24360352.767
        21.600          17.000
   1637005.215 1   1275587.381    25553588.953    25553592.157    25553590.222
         9.000           3.000
 -26213969.749 7 -20426461.664 7  20696768.345    20696769.159    20696768.307
        44.800          42.400
 13 10  9  0  7  0.0000000  0 12G 5G27G26G21G28G 7G15G 9G19G10G 6G 8
 -23646937.836 7 -18426172.132 7  21207118.642    21207119.413    21207119.522
        42.100          42.000
    152820.541 2    119080.659 2  25095298.335    25095302.658    25095298.235
        15.100          17.000
 -28043756.691 7 -21852267.790 7  20087060.072    20087060.490    20087060.090
        43.900          42.300
  -5129635.334 2  -3997112.126 2  24975904.553    24975905.001    24975904.800
        17.800          13.900
 -16704641.917 6 -13016599.561 5  22049092.689    22049092.494    22049092.482
        36.000          32.400
 -15392724.274 5 -11994322.343 5  22373039.511    22373040.260    22373040.518
        35.100          32.700
 -10740024.883 4  -8368848.326 4  23580979.412    23580981.490    23580980.777
        26.200          24.900
 -28402451.443 7 -22131772.613 7  19974308.633    19974309.439    19974308.772
        45.100          43.600
  -3894441.232 2  -3034639.578 2  24890639.257    24890639.649    24890638.154
        17.000          16.100
  -5156341.912 3  -4017910.342 2  24382478.045    24382480.127    24382477.806
        18.600          17.000
   1681983.907 2   1310636.444 1  25562147.005    25562150.350    25562147.927
        13.900           9.000
 -26184818.278 7 -20403746.238 7  20702315.595    20702316.529    20702315.596
        44.500          42.300
 13 10  9  0  7 30.0000000  0 12G 5G27G26G21G28G 7G15G 9G19G10G 6G 8
 -23596043.932 7 -18386514.563 7  21216803.652    21216804.125    21216804.395
        42.100          42.000
    172068.021 2    134078.489 3  25098960.689    25098965.677    25098961.429
        16.100          18.600
 -28090805.606 7 -21888929.286 7  20078106.525    20078107.444    20078106.895
        44.000          42.400
  -5155332.805 2  -4017136.074 2  24971013.556    24971016.043    24971013.660
        12.600          13.900
 -16765429.462 6 -13063966.461 5  22037525.075    22037524.959    22037525.132
        36.500          32.400
 -15308014.872 5 -11928315.032 5  22389159.617    22389159.786    22389159.870
        34.900          32.000
 -10836715.159 4  -8444191.361 3  23562580.458    23562581.226    23562581.525
        27.400          23.400
 -28368519.005 7 -22105331.756 7  19980765.693    19980766.606    19980765.993
        45.000          43.400
  -3931854.648 3  -3063792.976 2  24883520.210    24883521.004    24883518.922
        18.600          16.100
  -5039998.650 3  -3927253.271 3  24404618.030    24404620.196    24404617.508
        19.900          19.300
   1727437.382 1   1346054.737 1  25570795.613    25570800.690    25570797.555
        11.000           6.500
 -26155230.412 7 -20380690.753 7  20707945.676    20707946.907    20707945.927
        44.600          42.400
 13 10  9  0  8  0.0000000  0 12G 5G27G26G21G28G 7G15G 9G19G10G 6G 8
 -23544622.488 7 -18346445.924 7  21226588.826    21226589.510    21226589.516
        42.200          42.200
    191870.105 2    149508.600 3  25102728.428    25102733.295    25102729.634
        12.600          18.600
 -28137390.825 7 -21925229.464 7  20069241.773    20069242.601    20069242.016
        44.100          42.500
  -5180547.714 2  -4036784.075 2  24966215.664    24966217.030    24966215.799
        16.100          16.100
 -16825773.375 6 -13110987.672 5  22026042.079    22026042.176    22026042.022
        36.400          32.100
 -15223071.604 5 -11862125.491 5  22405323.567    22405323.998    22405324.186
        35.200          32.100
 -10933275.914 4  -8519433.475 4  23544205.547    23544206.310    23544206.371
        26.200          24.600
 -28334058.779 7 -22078479.628 7  19987323.272    19987324.179    19987323.530
        45.000          43.300
  -3968744.768 2  -3092538.265 2  24876499.012    24876500.019    24876497.856
        17.000          15.100
  -4923585.396 3  -3836541.674 3  24426771.160    24426772.896    24426770.588
        20.500          19.300
   1773365.490 1   1381842.939 9  25579536.142    25579539.545    25579535.346
        11.000          -3.000
 -26125207.365 7 -20357296.178 7  20713659.242    20713660.086    20713659.284
        44.700          42.200
 13 10  9  0  8 30.0000000  0 12G 5G27G26G21G28G 7G15G 9G19G10G 6G 8
 -23492675.343 7 -18305967.649 6  21236473.941    21236474.688    21236474.766
        42.000          41.900
    212225.181 2    165369.425 2  25106602.770    25106606.887    25106603.306
        15.100          16.100
 -28183511.023 7 -21961167.282 7  20060465.057    20060466.166    20060465.655
        44.000          42.500
  -5205279.952 2  -4056056.114 2  24961509.060    24961510.901    24961509.800
        17.800          12.600
 -16885671.535 6 -13157661.542 5  22014643.277    22014643.857    22014643.564
        36.400          32.700
 -15137896.516 5 -11795755.313 5  22421532.160    22421532.267    22421532.472
        34.900          31.500
 -11029705.286 4  -8594573.270 4  23525856.140    23525856.901    23525856.832
        27.100          24.900
 -28299072.242 7 -22051217.404 7  19993981.050    19993981.798    19993981.289
        45.000          43.300
  -4005111.289 2  -3120875.860 2  24869578.479    24869580.669    24869578.563
        17.000          17.000
  -4807104.417 3  -3745777.282 3  24448936.155    24448938.758    24448935.979
        19.900          19.300
   1819767.498 9   1418000.771 1  25588366.688    25588368.310    25588367.944
        -3.000           9.000
 -26094750.378 7 -20333563.467 7  20719454.788    20719455.867    20719454.984
        44.400          42.300
 13 10  9  0  9  0.0000000  0 12G 5G27G26G21G28G 7G15G 9G19G10G 6G 8
 -23440203.523 7 -18265080.539 6  21246459.103    21246459.727    21246459.869
        42.100          41.900
    233133.245 2    181661.115 2  25110581.691    25110585.196    25110581.276
        17.000          15.100
 -28229164.852 7 -21996741.686 7  20051777.909    20051778.471    20051778.023
        44.100          42.800
  -5229528.802 1  -4074951.316 2  24956894.651    24956896.462    24956894.849
         9.000          12.600
 -16945122.481 5 -13203986.935 5  22003330.591    22003330.575    22003330.467
        35.900          32.700
 -15052491.530 5 -11729205.980 5  22437783.970    22437784.234    22437784.445
        34.900          32.100
 -11126002.223 4  -8669609.800 4  23507531.788    23507532.002    23507532.517
        28.100          25.300
 -28263560.702 7 -22023546.084 7  20000738.618    20000739.444    20000738.896
        44.900          43.300
  -4040951.433 2  -3148803.212 2  24862758.341    24862759.943    24862759.146
        17.000          17.000
  -4690557.880 3  -3654961.832 3  24471113.682    24471116.754    24471113.676
        19.900          21.100
   1866640.147 2   1454524.960    25597285.937    25597289.054    25597287.808
        15.100           3.000
 -26063860.536 7 -20309493.466 7  20725333.249    20725334.037    20725333.147
        44.600          42.300
 13 10  9  0  9 30.0000000  0 12G 5G27G26G21G28G 7G15G 9G19G10G 6G 8
 -23387208.579 7 -18223785.789 6  21256543.625    21256544.454    21256544.495
        42.300          41.800
    254594.607 2    198384.539 2  25114664.987    25114670.052    25114666.084
        15.100          17.000
 -28274350.982 7 -22031951.658 7  20043178.542    20043179.846    20043179.290
        44.000          42.700
  -5253292.916 2  -4093468.685 2  24952372.531    24952373.528    24952372.364
        15.100          12.600
 -17004124.257 6 -13249962.329 5  21992103.007    21992103.117    21992102.861
        36.500          33.000
 -14966858.357 5 -11662478.849 5  22454079.098    22454079.749    22454079.934
        34.900          32.000
 -11222165.267 4  -8744542.025 4  23489231.427    23489233.245    23489232.713
        26.200          25.900
 -28227525.636 7 -21995466.821 7  20007595.844    20007596.699    20007596.115
        44.900          43.300
  -4076263.713 3  -3176319.352 3  24856039.540    24856041.708    24856038.424
        19.900          20.500
  -4573948.132 3  -3564097.121 3  24493303.827    24493306.989    24493304.334
        19.900          21.100
   1913981.568 1   1491414.024 1  25606296.360    25606299.383    25606295.844
         9.000           9.000
 -26032538.964 7 -20285087.051 7  20731293.467    20731294.372    20731293.521
        44.600          42.300
 13 10  9  0 10  0.0000000  0 12G 5G27G26G21G28G 7G15G 9G19G10G 6G 8
 -23333691.999 7 -18182084.577 6  21266727.384    21266728.284    21266728.219
        42.000          41.800
    276606.426 2    215536.383 3  25118854.411    25118859.272    25118855.191
        17.800          18.600
 -28319068.143 7 -22066796.192 7  20034669.496    20034670.486    20034669.937
        44.100          42.900
  -5276572.479 2  -4111608.643 2  24947942.944    24947944.030    24947943.368
        13.900          17.000
 -17062674.816 6 -13295586.121 5  21980961.222    21980961.405    21980961.173
        36.900          33.100
 -14880998.715 5 -11595575.229 5  22470417.806    22470418.377    22470418.569
        34.600          31.600
 -11318192.933 4  -8819368.797 3  23470958.286    23470958.794    23470959.295
        27.100          23.400
 -28190968.598 7 -21966980.836 7  20014552.625    20014553.236    20014552.769
        45.100          43.100
  -4111046.207 3  -3203422.636 3  24849420.942    24849421.765    24849420.385
        19.900          18.600
  -4457277.218 3  -3473184.746 3  24515505.953    24515508.103    24515505.991
        19.300          20.500
   1961792.761 2   1528669.911 1  25615393.487    25615395.415    25615392.997
        12.600           6.500
 -26000787.155 7 -20260345.395 7  20737335.664    20737336.648    20737335.667
        44.500          42.200
 13 10  9  0 10 30.0000000  0 12G 5G27G26G21G28G 7G15G 9G19G10G 6G 8
 -23279655.729 7 -18139978.414 6  21277010.391    21277010.803    21277011.149
        42.000          41.400
    299169.987 2    233118.545 2  25123146.958    25123152.288    25123148.155
        15.100          17.800
 -28363314.987 7 -22101274.241 7  20026249.611    20026250.634    20026250.024
        44.100          42.800
  -5299366.328 2  -4129370.058 2  24943606.115    24943606.201    24943606.270
        17.000          16.100
 -17120772.553 6 -13340857.071 5  21969905.249    21969905.362    21969905.348
        36.600          32.700
 -14794914.547 5 -11528496.674 5  22486798.776    22486799.529    22486799.683
        34.400          31.100
 -11414083.776 4  -8894088.942 4  23452711.903    23452712.140    23452712.238
        28.400          25.600
 -28153891.205 7 -21938089.352 7  20021608.011    20021608.960    20021608.335
        44.900          43.400
  -4145297.257 2  -3230111.792 2  24842902.460    24842903.855    24842902.036
        17.800          17.800
  -4340547.456 3  -3382226.488 2  24537718.788    24537721.198    24537718.499
        19.300          17.800
   2010070.185     1566289.060 1  25624579.787    25624581.157    25624580.454
         3.000           6.500
 -25968606.355 7 -20235269.450 7  20743459.591    20743460.423    20743459.469
        44.500          42.200
 13 10  9  0 11  0.0000000  0 12G 5G27G26G21G28G 7G15G 9G19G10G 6G 8
 -23225100.679 7 -18097467.999 6  21287391.655    21287392.569    21287392.661
        42.100          41.700
    322282.734 2    251128.254 2  25127545.854    25127551.120    25127546.110
        15.100          17.000
 -28407090.286 7 -22135384.860 7  20017919.136    20017920.506    20017919.766
        44.100          42.700
  -5321674.569 2  -4146753.099 2  24939360.338    24939360.197    24939360.404
        17.000          13.900
 -17178415.942 6 -13385773.983 5  21958936.311    21958936.203    21958936.230
        36.600          33.100
 -14708607.965 5 -11461244.800 5  22503222.100    22503223.136    22503223.260
        34.300          31.300
 -11509836.549 4  -8968701.473 4  23434490.002    23434490.621    23434490.518
        26.800          24.900
 -28116295.095 7 -21908793.688 7  20028762.210    20028763.307    20028762.624
        44.900          43.200
  -4179015.225 3  -3256385.527 3  24836484.954    24836488.190    24836486.003
        18.600          18.600
  -4223760.985 3  -3291224.083 3  24559942.774    24559945.327    24559942.231
        19.900          18.600
   2058810.470 1   1604267.901 9  25633854.545    25633857.746    25633855.035
         9.000          -3.000
 -25935997.424 7 -20209859.912 7  20749664.592    20749665.606    20749664.677
        44.500          42.200
 13 10  9  0 11 30.0000000  0 12G 5G27G26G21G28G 7G15G 9G19G10G 6G 8
 -23170028.545 6 -18054554.662 6  21297871.633    21297872.349    21297872.359
        41.800          41.300
    345946.201 2    269567.823 2  25132048.650    25132053.473    25132050.233
        17.800          17.000
 -28450392.681 7 -22169126.984 7  20009679.350    20009680.283    20009679.602
        44.000          43.000
  -5343496.038 2  -4163756.624 2  24935208.005    24935208.544    24935207.681
        13.900          15.100
 -17235603.002 6 -13430335.311 5  21948053.845    21948054.038    21948053.877
        36.800          33.100
 -14622080.204 5 -11393820.577 5  22519688.135    22519689.135    22519689.098
        34.400          31.500
 -11605449.558 4  -9043205.111 4  23416295.681    23416296.449    23416296.356
        28.100          26.200
 -28078181.648 7 -21879094.905 7  20036015.130    20036016.034    20036015.429
        45.000          43.200
  -4212198.561 3  -3282242.761 3  24830171.952    24830173.215    24830171.639
        18.600          18.600
  -4106920.040 3  -3200179.233 3  24582177.230    24582179.400    24582176.558
        20.500          18.600
   2108013.775 1   1642607.546 1  25643219.107    25643221.865    25643219.927
         9.000           6.500
 -25902961.695 7 -20184117.790 7  20755951.178    20755952.163    20755951.148
        44.400          42.100
 13 10  9  0 12  0.0000000  0 12G 5G27G26G21G28G 7G15G 9G19G10G 6G 8
 -23114441.260 6 -18011239.907 6  21308449.699    21308450.124    21308450.414
        41.900          41.200
    370157.051 2    288433.391 2  25136656.422    25136660.658    25136656.268
        17.000          17.800
 -28493220.933 7 -22202499.644 7  20001529.001    20001530.360    20001529.693
        44.100          42.900
  -5364830.181 2  -4180380.395 2  24931147.980    24931149.147    24931147.701
        12.600          16.100
 -17292331.599 6 -13474539.393 5  21937258.808    21937258.960    21937258.765
        37.000          33.600
 -14535333.172 5 -11326225.501 5  22536195.703    22536196.386    22536196.408
        34.500          31.500
 -11700921.492 4  -9117598.792 4  23398127.707    23398128.470    23398128.675
        27.400          25.600
 -28039552.532 7 -21848994.320 7  20043366.052    20043366.959    20043366.332
        44.900          43.000
  -4244845.422 3  -3307681.906 3  24823960.058    24823960.899    24823958.912
        22.100          19.900
  -3990026.680 3  -3109093.489 2  24604422.272    24604423.552    24604421.418
        19.900          17.800
   2157679.815 1   1681308.446 1  25652670.205    25652672.602    25652671.239
        11.000          11.000
 -25869500.551 7 -20158044.182 7  20762318.448    20762319.637    20762318.568
        44.300          42.000
 13 10  9  0 12 30.0000000  0 12G 5G27G26G21G28G 7G15G 9G19G10G 6G 8
 -23058340.163 7 -17967524.783 6  21319125.517    21319126.020    21319126.128
        42.000          41.400
    394915.536 2    307725.644 2  25141367.857    25141371.420    25141368.298
        15.100          16.100
 -28535573.777 7 -22235501.854 7  19993470.131    19993470.867    19993470.276
        44.200          43.100
  -5385676.795 2  -4196624.392 2  24927180.332    24927181.711    24927180.092
        16.100          15.100
 -17348600.537 6 -13518385.306 5  21926550.906    21926551.229    21926550.908
        36.800          33.600
 -14448368.845 5 -11258461.091 5  22552744.345    22552745.182    22552745.333
        34.100          31.000
 -11796250.987 4  -9191881.469 4  23379987.234    23379987.879    23379987.790
        26.800          25.300
 -28000409.326 7 -21818493.133 7  20050814.637    20050815.508    20050814.922
        44.800          43.100
  -4276954.264 3  -3332701.959 3  24817850.039    24817851.487    24817849.475
        19.300          18.600
  -3873083.039 2  -3017968.586 2  24626674.925    24626676.981    24626674.561
        17.800          17.000
   2207805.467 1   1720367.546    25662207.625    25662210.342    25662209.205
         6.500           3.000
 -25835615.357 7 -20131640.146 7  20768766.824    20768767.710    20768766.775
        44.300          42.000
 13 10  9  0 13  0.0000000  0 12G 5G27G26G21G28G 7G15G 9G19G10G 6G 8
 -23001727.025 6 -17923410.668 6  21329898.394    21329899.380    21329899.175
        41.800          41.400
    420221.692 2    327445.075 2  25146183.024    25146187.269    25146183.470
        13.900          12.600
 -28577449.942 7 -22268132.626 7  19985500.769    19985502.114    19985501.419
        44.300          43.100
  -5406035.658 1  -4212488.617 2  24923307.309    24923307.408    24923306.518
         9.000          13.900
 -17404408.031 6 -13561871.650 5  21915931.161    21915931.419    21915931.159
        36.700          33.200
 -14361188.754 5 -11190528.566 5  22569334.742    22569334.891    22569335.200
        34.000          31.100
 -11891436.727 4  -9266052.219 4  23361873.405    23361874.442    23361874.069
        28.100          25.600
 -27960753.562 7 -21787592.538 7  20058360.774    20058361.712    20058361.158
        44.800          42.900
  -4308523.474 3  -3357301.612 2  24811842.033    24811843.522    24811841.882
        18.600          17.000
  -3756091.622 3  -2926806.482 2  24648937.668    24648939.637    24648937.505
        18.600          17.800
   2258388.720 9   1759784.170 1  25671833.464    25671835.963    25671835.761
        -3.000           6.500
 -25801307.189 7 -20104906.526 6  20775295.368    20775296.370    20775295.299
        44.300          41.900
 13 10  9  0 13 30.0000000  0 12G 5G27G26G21G28G 7G15G 9G19G10G 6G 8
 -22944603.156 6 -17878898.579 6  21340768.813    21340769.336    21340769.567
        41.900          41.000
    446072.843 2    347588.695 2  25151102.377    25151106.175    25151103.414
        17.000          15.100
 -28618848.167 7 -22300390.986 7  19977623.343    19977624.204    19977623.716
        44.100          43.000
  -5425905.784 2  -4227971.800 2  24919525.036    24919526.573    24919525.209
        13.900          13.900
 -17459752.235 6 -13604996.982 5  21905399.572    21905399.568    21905399.603
        37.100          33.800
 -14273794.803 5 -11122429.390 5  22585964.626    22585965.299    22585965.857
        34.300          31.000
 -11986477.156 4  -9340109.732 4  23343788.588    23343788.846    23343789.239
        29.000          25.900
 -27920586.830 7 -21756293.798 7  20066004.497    20066005.364    20066004.750
        44.800          43.100
  -4339550.748 2  -3381478.732 2  24805938.036    24805939.227    24805937.165
        17.000          17.000
  -3639054.498 3  -2835608.725 2  24671209.071    24671210.831    24671209.027
        19.300          13.900
   2309428.689 1   1799555.825    25681546.363    25681548.518    25681547.257
         9.000           3.000
 -25766577.158 7 -20077844.182 7  20781904.390    20781905.323    20781904.413
        44.700          42.000
 13 10  9  0 14  0.0000000  0 12G 5G27G26G21G28G 7G15G 9G19G10G 6G 8
 -22886970.678 6 -17833990.166 6  21351735.980    21351736.542    21351736.643
        41.600          41.000
    472469.089 2    368157.007 2  25156124.842    25156129.788    25156125.090
        13.900          13.900
 -28659767.218 7 -22332275.954 7  19969836.693    19969837.605    19969837.075
        44.100          43.400
  -5445286.694 2  -4243073.775 2  24915838.003    24915837.466    24915837.392
        13.900          12.600
 -17514631.553 6 -13647760.078 5  21894956.527    21894956.456    21894956.446
        37.300          33.800
 -14186188.769 5 -11054164.955 5  22602635.200    22602636.214    22602636.438
        33.600          30.100
 -12081370.823 4  -9414052.841 4  23325730.782    23325731.110    23325731.767
        28.800          24.900
 -27879910.726 7 -21724598.146 7  20073744.921    20073745.704    20073745.211
        44.900          42.900
  -4370035.052 2  -3405232.672 2  24800136.020    24800138.217    24800136.142
        13.900          17.000
  -3521973.975 2  -2744377.168 3  24693488.306    24693490.595    24693488.457
        17.000          18.600
   2360922.581 1   1839680.900 1  25691345.272    25691347.425    25691345.019
         9.000           9.000
 -25731426.828 7 -20050454.331 6  20788593.401    20788594.160    20788593.259
        44.300          41.900
 13 10  9  0 14 30.0000000  0 12G 5G27G26G21G28G 7G15G 9G19G10G 6G 8
 -22828830.609 6 -17788686.232 6  21362799.919    21362800.375    21362800.504
        41.800          41.300
    499409.286 2    389149.138 2  25161252.766    25161256.741    25161253.030
        17.000          15.100
 -28700205.756 7 -22363786.494 7  19962141.356    19962142.400    19962141.852
        44.300          43.300
  -5464177.897 2  -4257794.116 2  24912242.687    24912243.459    24912242.067
        13.900          12.600
 -17569044.360 6 -13690159.651 5  21884601.875    21884602.124    21884601.837
        37.000          34.100
 -14098372.190 5 -10985736.460 5  22619346.702    22619347.415    22619347.266
        33.500          30.400
 -12176115.792 4  -9487880.080 4  23307700.615    23307702.026    23307701.622
        27.100          26.200
 -27838726.977 7 -21692506.932 7  20081581.933    20081582.766    20081582.185
        44.900          42.800
  -4399974.253 2  -3428561.742 3  24794438.625    24794441.326    24794437.886
        13.900          19.300
  -3404852.158 2  -2653113.444 3  24715775.705    24715778.239    24715775.707
        13.900          18.600
   2412868.912 1   1880158.660 1  25701228.712    25701231.233    25701229.910
         6.500           6.500
 -25695857.415 7 -20022737.911 6  20795361.953    20795362.837    20795361.969
        44.400          41.900
 13 10  9  0 15  0.0000000  0 12G 5G27G26G21G28G 7G15G 9G19G10G 6G 8
 -22770184.815 6 -17742988.234 6  21373959.488    21373960.247    21373960.326
        41.500          41.000
    526892.966 3    410564.820 3  25166482.492    25166487.282    25166483.300
        18.600          18.600
 -28740162.631 7 -22394921.721 7  19954538.114    19954538.800    19954538.292
        44.200          43.400
  -5482579.287 2  -4272132.737 1  24908740.516    24908740.461    24908741.215
        16.100          11.000
 -17622989.059 6 -13732194.461 5  21874336.523    21874336.897    21874336.475
        37.100          34.100
 -14010347.197 5 -10917145.564 5  22636097.077    22636098.215    22636097.842
        33.100          31.500
 -12270710.997 4  -9561590.669 4  23289700.951    23289701.540    23289701.074
        29.200          26.200
 -27797036.998 7 -21660021.240 7  20089515.309    20089516.161    20089515.604
        44.600          43.000
  -4429368.034 3  -3451466.132 3  24788846.154    24788847.855    24788846.373
        20.500          19.300
  -3287691.141 2  -2561819.158 2  24738071.027    24738073.652    24738070.935
        15.100          15.100
   2465266.734 2   1920988.542    25711200.202    25711202.832    25711201.207
        15.100           3.000
 -25659870.193 7 -19994695.943 6  20802210.352    20802211.037    20802210.178
        44.400          41.900
 13 10  9  0 15 30.0000000  0 12G 5G27G26G21G28G 7G15G 9G19G10G 6G 8
 -22711035.322 6 -17696897.740 6  21385215.389    21385216.123    21385216.102
        41.600          40.900
    554918.695 3    432402.707 3  25171815.616    25171820.324    25171816.735
        18.600          20.500
 -28779636.605 7 -22425680.650 7  19947026.309    19947027.098    19947026.579
        44.100          43.400
  -5500491.271 2  -4286090.418 2  24905331.732    24905332.556    24905332.293
        16.100          15.100
 -17676463.860 6 -13773863.126 5  21864161.169    21864160.834    21864161.025
        37.700          33.900
 -13922115.441 5 -10848393.556 5  22652887.501    22652888.023    22652887.894
        33.600          30.600
 -12365155.116 5  -9635183.460 4  23271728.780    23271728.741    23271729.561
        30.100          24.600
 -27754842.371 7 -21627142.322 7  20097544.797    20097545.414    20097545.000
        44.700          42.700
  -4458213.251 3  -3473942.696 3  24783356.993    24783358.139    24783356.495
        18.600          19.900
  -3170493.031 3  -2470495.947 2  24760373.256    24760375.805    24760373.452
        19.900          17.000
   2518112.942 2   1962167.608 1  25721256.181    25721258.614    25721256.599
        16.100           9.000
 -25623466.503 7 -19966329.447 6  20809137.572    20809138.501    20809137.518
        44.400          41.900
 13 10  9  0 16  0.0000000  0 12G 5G27G26G21G28G 7G15G 9G19G10G 6G 8
 -22651383.652 6 -17650415.938 6  21396567.037    21396567.213    21396567.472
        41.800          40.300
    583486.787 2    454663.688 3  25177251.262    25177256.611    25177253.013
        12.600          19.300
 -28818626.442 7 -22456062.333 7  19939606.748    19939607.591    19939607.032
        44.400          43.300
  -5517911.463 2  -4299664.763 2  24902018.200    24902018.863    24902018.214
        15.100          16.100
 -17729467.148 6 -13815164.376 5  21854074.831    21854074.447    21854074.631
        37.600          34.100
 -13833678.791 5 -10779481.894 5  22669716.617    22669716.875    22669716.944
        33.600          30.200
 -12459446.517 4  -9708657.245 4  23253784.901    23253786.380    23253786.043
        29.500          27.600
 -27712144.906 7 -21593871.581 7  20105669.486    20105670.599    20105669.881
        44.800          42.700
  -4486509.599 2  -3495991.601 3  24777971.293    24777973.255    24777970.626
        15.100          21.100
  -3053260.252 2  -2379145.770 3  24782681.829    24782684.779    24782681.462
        16.100          18.600
   2571406.131 1   2003694.987    25731397.950    25731400.271    25731397.238
        11.000           3.000
 -25586647.514 7 -19937639.346 6  20816144.085    20816144.831    20816143.982
        44.300          41.600
 13 10  9  0 16 30.0000000  0 12G 5G27G26G21G28G 7G15G 9G19G10G 6G 8
 -22591231.569 6 -17603544.211 6  21408013.624    21408013.985    21408014.145
        41.800          40.700
    612595.282 2    477345.833 2  25182791.416    25182795.203    25182790.846
        13.900          16.100
 -28857130.985 7 -22486065.869 7  19932279.048    19932280.445    19932279.829
        44.300          43.400
  -5534840.844 2  -4312856.527 2  24898796.043    24898797.765    24898796.484
        15.100          16.100
 -17781997.362 6 -13856096.993 5  21844078.577    21844078.472    21844078.489
        37.300          34.400
 -13745038.787 5 -10710411.774 4  22686584.131    22686584.346    22686584.752
        33.800          29.900
 -12553583.642 4  -9782010.856 4  23235871.043    23235871.807    23235871.982
        29.000          25.600
 -27668946.269 7 -21560210.341 7  20113890.045    20113891.127    20113890.345
        44.500          42.800
  -4514255.181 2  -3517611.232 3  24772692.181    24772693.143    24772691.207
        17.000          19.900
  -2935994.577 2  -2287769.921 2  24804996.969    24804999.374    24804996.756
        17.000          16.100
   2625144.444 2   2045569.109 2  25741623.545    25741627.241    25741623.495
        15.100          13.900
 -25549414.247 7 -19908626.407 6  20823229.390    20823230.081    20823229.234
        44.400          41.600
 13 10  9  0 17  0.0000000  0 12G 5G27G26G21G28G 7G15G 9G19G10G 6G 8
 -22530580.820 6 -17556283.914 6  21419554.682    21419555.587    21419555.415
        41.300          40.600
    642243.156 2    500448.230 2  25188432.866    25188436.828    25188433.220
        12.600          17.000
 -28895149.023 7 -22515690.309 7  19925045.066    19925045.737    19925045.290
        44.400          43.600
  -5551278.648 2  -4325665.097 2  24895667.474    24895669.017    24895668.067
        17.000          13.900
 -17834052.834 6 -13896659.683 5  21834172.710    21834172.820    21834172.598
        37.700          34.700
 -13656197.211 5 -10641184.594 5  22703490.372    22703490.458    22703490.438
        32.800          30.400
 -12647565.181 4  -9855243.205 4  23217987.641    23217988.248    23217988.382
        29.900          26.500
 -27625247.905 7 -21526159.644 7  20122205.524    20122206.631    20122205.837
        44.400          42.500
  -4541448.373 3  -3538800.397 3  24767516.268    24767518.978    24767515.688
        18.600          19.900
  -2818698.459 3  -2196370.337 2  24827316.422    24827319.680    24827316.932
        20.500          17.000
   2679326.585 1   2087789.388 9  25751933.939    25751937.278    25751933.537
         6.500          -3.000
 -25511768.679 7 -19879292.241 6  20830392.795    20830393.864    20830392.938
        44.300          41.600
 13 10  9  0 17 30.0000000  0 12G 5G27G26G21G28G 7G15G 9G19G10G 6G 8
 -22469433.340 6 -17508636.552 6  21431190.770    21431191.393    21431191.521
        41.600          40.300
    672430.137 2    523971.103 2  25194177.481    25194180.579    25194176.946
        17.000          16.100
 -28932679.264 7 -22544934.651 7  19917902.877    19917903.993    19917903.549
        44.400          43.600
  -5567224.667 2  -4338090.471 2  24892633.362    24892634.143    24892633.157
        15.100          17.000
 -17885632.287 6 -13936851.446 5  21824357.345    21824357.401    21824357.289
        37.900          34.800
 -13567155.627 5 -10571801.530 5  22720433.591    22720434.274    22720434.681
        32.600          30.200
 -12741389.598 4  -9928353.113 4  23200133.105    23200133.529    23200134.255
        29.700          25.900
 -27581051.629 7 -21491720.998 7  20130615.843    20130616.908    20130616.216
        44.800          42.600
  -4568088.422 3  -3559558.726 3  24762448.040    24762448.764    24762446.771
        20.500          18.600
  -2701374.055 2  -2104948.761 2  24849642.607    24849646.111    24849642.860
        17.800          15.100
   2733950.121 2   2130353.299 2  25762327.970    25762332.208    25762329.701
        12.600          13.900
 -25473711.885 7 -19849637.577 6  20837634.990    20837635.815    20837634.925
        44.100          41.500
 13 10  9  0 18  0.0000000  0 12G 5G27G26G21G28G 7G15G 9G19G10G 6G 8
 -22407790.530 6 -17460603.206 6  21442921.199    21442921.630    21442921.849
        41.600          40.200
    703153.694 2    547911.756 2  25200024.475    25200027.286    25200023.825
        17.000          15.100
 -28969720.683 7 -22573798.085 7  19910854.298    19910855.298    19910854.765
        44.500          43.400
  -5582678.268 2  -4350131.992 2  24889693.136    24889693.646    24889692.814
        17.800          17.000
 -17936733.850 6 -13976670.832 5  21814632.675    21814632.794    21814632.886
        37.300          34.000
 -13477915.945 5 -10502264.104 5  22737415.287    22737416.030    22737416.372
        33.000          30.400
 -12835055.358 4 -10001339.415 4  23182308.937    23182310.081    23182309.637
        28.600          27.100
 -27536359.324 7 -21456895.848 7  20139120.722    20139121.598    20139120.954
        44.600          42.500
  -4594173.409 2  -3579884.461 3  24757483.204    24757484.012    24757482.206
        16.100          18.600
  -2584023.409 2  -2013506.717 2  24871975.149    24871976.926    24871974.518
        16.100          15.100
   2789012.771 1   2173259.229 1  25772806.712    25772809.969    25772807.185
        11.000          11.000
 -25435245.110 7 -19819663.467 6  20844954.736    20844955.822    20844954.820
        44.100          41.200
 13 10  9  0 18 30.0000000  0 12G 5G27G26G21G28G 7G15G 9G19G10G 6G 8
 -22345654.133 6 -17412185.248 6  21454745.118    21454745.834    21454745.899
        41.100          40.300
    734413.623 3    572270.442 3  25205972.367    25205975.451    25205972.218
        19.300          18.600
 -29006271.940 7 -22602279.586 7  19903898.903    19903899.839    19903899.341
        44.700          43.600
  -5597639.694 2  -4361790.158 2  24886846.413    24886846.514    24886845.936
        12.600          16.100
 -17987356.171 6 -14016116.788 5  21804999.787    21804999.720    21804999.748
        37.300          34.600
 -13388479.906 5 -10432573.709 5  22754434.248    22754435.371    22754435.603
        32.700          30.100
 -12928561.229 5 -10074201.127 4  23164516.168    23164516.293    23164516.530
        30.200          27.100
 -27491172.673 7 -21421685.475 7  20147719.295    20147720.190    20147719.592
        44.500          42.300
  -4619702.422 3  -3599777.072 3  24752625.723    24752627.542    24752624.687
        19.300          19.300
  -2466648.892 2  -1922046.028 2  24894310.747    24894312.950    24894310.226
        17.000          15.100
   2844512.193 2   2216504.997 2  25783368.954    25783371.719    25783368.662
        12.600          17.000
 -25396369.689 7 -19789370.959 6  20852352.503    20852353.588    20852352.576
        44.100          41.200
 13 10  9  0 19  0.0000000  0 12G 5G27G26G21G28G 7G15G 9G19G10G 6G 8
 -22283026.301 6 -17363384.367 6  21466662.854    21466663.547    21466663.521
        41.100          40.000
    766207.773 2    597044.972 2  25212021.099    25212025.757    25212021.928
        15.100          16.100
 -29042332.000 7 -22630378.326 7  19897036.803    19897037.817    19897037.368
        44.500          43.700
  -5612108.117 2  -4373064.043 2  24884091.457    24884092.408    24884091.728
        17.000          16.100
 -18037497.690 6 -14055188.087 5  21795458.286    21795458.253    21795458.295
        38.000          34.500
 -13298849.290 5 -10362731.671 4  22771490.944    22771491.236    22771491.595
        32.700          29.900
 -13021905.335 4 -10146936.754 4  23146752.890    23146753.622    23146753.800
        29.900          27.600
 -27445492.985 7 -21386090.903 7  20156411.665    20156412.731    20156412.097
        44.600          42.400
  -4644673.569 3  -3619234.914 2  24747872.703    24747874.960    24747873.169
        19.900          17.000
  -2349252.750 2  -1830568.547 2  24916649.828    24916652.988    24916650.049
        17.000          15.100
   2900446.872     2260089.907 1  25794013.375    25794015.909    25794012.992
         3.000           9.000
 -25357086.887 7 -19758760.975 6  20859828.017    20859828.734    20859827.970
        44.200          41.300
 13 10  9  0 19 30.0000000  0 12G 5G27G26G21G28G 7G15G 9G19G10G 6G 8
 -22219908.566 6 -17314201.732 6  21478673.775    21478674.624    21478674.596
        41.400          40.400
    798535.986 2    622235.660 2  25218174.281    25218177.859    25218174.797
        13.900          17.800
 -29077899.675 7 -22658093.398 7  19890269.081    19890269.469    19890269.100
        44.600          43.800
  -5626083.816 2  -4383954.071 2  24881432.515    24881433.193    24881432.402
        17.000          15.100
 -18087156.988 6 -14093883.628 5  21786008.326    21786008.405    21786008.332
        37.600          35.200
 -13209025.716 5 -10292739.287 5  22788583.753    22788584.391    22788584.377
        33.100          30.100
 -13115086.249 4 -10219545.277 4  23129020.907    23129021.827    23129021.531
        29.000          27.900
 -27399322.227 7 -21350113.671 7  20165197.719    20165198.786    20165198.056
        44.400          42.300
  -4669085.330 3  -3638256.744 3  24743227.472    24743228.345    24743227.056
        18.600          19.300
  -2231837.038 3  -1739075.829 3  24938993.624    24938995.972    24938993.154
        18.600          19.900
   2956817.047 2   2304014.699 1  25804739.335    25804742.796    25804740.767
        16.100           9.000
 -25317397.922 7 -19727834.518 6  20867380.298    20867381.289    20867380.426
        44.100          41.200
 13 10  9  0 20  0.0000000  0 12G 5G27G26G21G28G 7G15G 9G19G10G 6G 8
 -22156302.866 6 -17264638.866 6  21490777.625    21490778.160    21490778.334
        41.200          39.800
    831398.146 2    647842.922 3  25224427.639    25224431.196    25224427.549
        12.600          19.300
 -29112973.735 7 -22685423.831 7  19883594.142    19883595.119    19883594.597
        44.600          43.800
  -5639566.726 2  -4394460.445 2  24878867.596    24878867.241    24878867.205
        17.800          13.900
 -18136332.553 6 -14132202.233 5  21776650.659    21776650.544    21776650.575
        38.100          35.200
 -13119010.903 5 -10222597.876 4  22805713.571    22805713.214    22805713.702
        32.600          29.700
 -13208102.404 5 -10292025.399 4  23111320.861    23111321.163    23111321.414
        30.400          27.400
 -27352661.741 7 -21313754.816 7  20174076.858    20174078.079    20174077.180
        44.500          42.400
  -4692936.046 3  -3656841.093 2  24738688.756    24738688.853    24738688.734
        20.500          17.800
  -2114403.624 2  -1647569.295 2  24961340.825    24961342.225    24961339.790
        17.000          15.100
   3013618.620 2   2348275.504 2  25815548.978    25815551.803    25815549.238
        13.900          13.900
 -25277304.162 7 -19696592.581 6  20875009.730    20875010.915    20875009.966
        44.000          41.100
 13 10  9  0 20 30.0000000  0 12G 5G27G26G21G28G 7G15G 9G19G10G 6G 8
 -22092211.098 6 -17214697.242 6  21502973.828    21502974.482    21502974.606
        41.400          39.800
    864791.802 2    673864.219 3  25230781.436    25230785.232    25230781.472
        13.900          18.600
 -29147553.043 7 -22712368.735 7  19877013.895    19877014.982    19877014.412
        44.700          43.800
  -5652555.945 2  -4404582.203 2  24876395.355    24876395.704    24876395.630
        15.100          12.600
 -18185022.781 6 -14170142.660 5  21767385.232    21767385.153    21767385.171
        38.100          35.700
 -13028806.718 5 -10152308.883 4  22822877.952    22822878.648    22822878.985
        32.600          29.900
 -13300952.339 4 -10364375.992 4  23093651.722    23093652.894    23093652.646
        29.900          27.100
 -27305513.643 7 -21277016.031 7  20183049.250    20183050.030    20183049.330
        44.600          42.300
  -4716225.393 3  -3674988.121 2  24734255.548    24734257.225    24734255.834
        18.600          17.800
  -1996954.850 2  -1556050.794 2  24983691.000    24983692.694    24983690.194
        17.800          16.100
   3070850.820 1   2392872.161 1  25826439.173    25826443.021    25826440.484
         9.000          11.000
 -25236807.119 7 -19665036.415 6  20882716.334    20882717.315    20882716.243
        44.000          41.000
 13 10  9  0 21  0.0000000  0 12G 5G27G26G21G28G 7G15G 9G19G10G 6G 8
 -22027635.360 6 -17164378.501 6  21515262.100    21515263.114    21515262.838
        40.800          40.000
    898715.340 2    700298.139 3  25237237.081    25237240.834    25237237.451
        13.900          18.600
 -29181636.625 7 -22738927.366 7  19870528.448    19870529.100    19870528.573
        44.700          44.000
  -5665052.273 2  -4414320.035 2  24874016.707    24874018.588    24874017.225
        13.900          15.100
 -18233226.289 6 -14207703.818 5  21758211.875    21758212.335    21758212.058
        37.600          34.800
 -12938414.683 5 -10081873.533 4  22840079.756    22840079.873    22840080.088
        32.100          29.000
 -13393634.766 5 -10436596.023 4  23076014.048    23076015.402    23076015.394
        30.100          27.100
 -27257879.680 7 -21239898.667 7  20192113.377    20192114.472    20192113.689
        44.300          42.000
  -4738952.263 2  -3692697.135 3  24729931.414    24729933.065    24729931.002
        17.800          19.900
  -1879492.952 2  -1464522.065 2  25006042.702    25006045.378    25006042.916
        12.600          16.100
   3128511.734 1   2437803.103 1  25837411.853    25837415.911    25837410.612
        11.000           6.500
 -25195908.233 7 -19633167.161 6  20890498.966    20890500.053    20890499.008
        43.900          40.800
 13 10  9  0 21 30.0000000  0 12G 5G27G26G21G28G 7G15G 9G19G10G 6G 8
 -21962577.272 6 -17113683.908 6  21527642.671    21527643.132    21527643.233
        41.400          39.500
    933168.210 2    727144.497 2  25243792.966    25243796.415    25243793.760
        17.000          16.100
 -29215223.191 7 -22765098.714 7  19864136.847    19864137.743    19864137.298
        44.800          44.000
  -5677055.156 2  -4423673.421 2  24871733.594    24871735.031    24871733.871
        12.600          13.900
 -18280941.800 6 -14244884.721 5  21749132.175    21749132.298    21749132.220
        37.600          35.200
 -12847836.430 5 -10011293.084 5  22857315.651    22857316.640    22857316.677
        32.800          30.100
 -13486147.896 4 -10508684.177 4  23058409.567    23058411.214    23058410.987
        29.900          27.400
 -27209761.629 7 -21202404.096 6  20201270.222    20201270.881    20201270.429
        44.600          41.900
  -4761115.586 2  -3709967.368 2  24725713.482    24725714.885    24725713.908
        17.800          17.000
  -1762020.139 2  -1372984.807 2  25028397.361    25028399.297    25028396.298
        15.100          16.100
   3186598.252 1   2483065.213 1  25848465.764    25848468.018    25848466.206
         9.000          11.000
 -25154608.587 7 -19600985.625 6  20898358.100    20898359.092    20898358.121
        43.900          41.000
 13 10  9  0 22  0.0000000  0 12G 5G27G26G21G28G 7G15G 9G19G10G 6G 8
 -21897038.808 6 -17062614.986 6  21540113.936    21540114.512    21540114.804
        41.100          39.400
    968149.068 3    754402.243 3  25250448.939    25250453.101    25250449.674
        18.600          18.600
 -29248311.679 7 -22790881.946 7  19857840.502    19857841.249    19857840.768
        44.800          44.100
  -5688563.194 2  -4432640.842 2  24869544.414    24869544.818    24869543.811
        16.100          15.100
 -18328167.577 6 -14281684.016 5  21740145.430    21740145.498    21740145.391
        38.000          34.900
 -12757073.906 5  -9940569.050 4  22874587.936    22874588.536    22874588.418
        32.300          29.500
 -13578490.255 5 -10580639.231 4  23040837.520    23040838.720    23040839.059
        30.800          27.100
 -27161161.067 7 -21164533.542 7  20210518.467    20210519.308    20210518.737
        44.300          42.000
  -4782712.432 2  -3726795.561 3  24721604.282    24721605.519    24721603.661
        16.100          19.900
  -1644538.407 1  -1281440.641 2  25050753.460    25050755.594    25050753.146
        11.000          17.000
   3245109.728     2528658.883 9  25859599.763    25859602.038    25859599.045
         3.000          -3.000
 -25112909.697 7 -19568492.999 6  20906293.045    20906294.181    20906293.101
        43.700          41.000
 13 10  9  0 22 30.0000000  0 12G 5G27G26G21G28G 7G15G 9G19G10G 6G 8
 -21831021.493 6 -17011172.943 6  21552676.423    21552677.279    21552677.220
        40.900          39.600
   1003656.674 2    782070.389 2  25257206.131    25257210.541    25257206.464
        13.900          17.000
 -29280901.067 7 -22816276.263 7  19851638.750    19851639.633    19851639.095
        44.600          44.000
  -5699576.965 2  -4441223.094 2  24867447.878    24867449.987    24867448.116
        16.100          16.100
 -18374902.317 6 -14318100.684 5  21731251.909    21731252.192    21731251.852
        37.900          35.100
 -12666128.682 5  -9869702.655 4  22891893.734    22891894.365    22891894.534
        32.600          29.200
 -13670660.551 4 -10652460.238 4  23023298.279    23023299.243    23023299.217
        29.900          27.900
 -27112079.836 7 -21126288.431 6  20219858.210    20219859.202    20219858.606
        44.400          41.900
  -4803744.251 3  -3743184.342 3  24717601.638    24717603.135    24717601.220
        21.100          19.900
  -1527049.911 2  -1189891.208 2  25073110.337    25073113.076    25073110.320
        15.100          17.800
   3304042.975 1   2574580.912 1  25870814.850    25870814.396    25870813.940
         6.500          11.000
 -25070812.824 7 -19535690.267 6  20914303.927    20914304.850    20914303.913
        44.000          40.800
 13 10  9  0 23  0.0000000  0 12G 5G27G26G21G28G 7G15G 9G19G10G 6G 8
 -21764527.630 6 -16959359.555 6  21565329.934    21565330.679    21565330.732
        40.700          39.400
   1039689.953 2    810148.163 2  25264064.057    25264067.592    25264063.939
        13.900          13.900
 -29312990.130 7 -22841280.715 7  19845532.147    19845533.230    19845532.698
        44.800          44.100
  -5710096.226 2  -4449419.828 2  24865445.914    24865447.290    24865446.236
        13.900          16.100
 -18421144.828 6 -14354133.791 6  21722452.302    21722452.615    21722452.369
        38.000          36.000
 -12575002.349 5  -9798695.133 4  22909234.753    22909234.798    22909235.368
        32.400          28.600
 -13762656.822 5 -10724145.633 4  23005792.359    23005793.004    23005793.049
        30.400          27.600
 -27062519.658 7 -21087670.116 6  20229289.136    20229290.128    20229289.480
        44.400          41.600
  -4824208.540 2  -3759131.007 2  24713705.591    24713708.212    24713706.278
        17.800          13.900
  -1409556.856 2  -1098338.178 2  25095467.629    25095470.877    25095467.167
        16.100          16.100
   3363396.243 1   2620829.100 1  25882109.702    25882111.307    25882109.102
         6.500           6.500
 -25028319.542 7 -19502578.621 6  20922390.174    20922391.029    20922390.292
        44.100          40.600
 13 10  9  0 23 30.0000000  0 12G 5G27G26G21G28G 7G15G 9G19G10G 6G 8
 -21697559.337 6 -16907176.486 6  21578073.698    21578074.532    21578074.453
        41.000          39.700
   1076247.259 1    838634.146 2  25271019.844    25271024.692    25271020.110
        11.000          15.100
 -29344577.839 7 -22865894.513 7  19839521.531    19839522.387    19839521.720
        44.600          44.100
  -5720120.727 3  -4457230.896 2  24863539.134    24863540.359    24863538.715
        18.600          16.100
 -18466893.645 6 -14389782.197 5  21713746.781    21713746.982    21713746.662
        37.600          35.700
 -12483696.674 5  -9727547.858 4  22926609.572    22926609.855    22926610.314
        32.000          29.000
 -13854477.817 5 -10795694.443 4  22988320.292    22988319.824    22988320.418
        31.100          27.600
 -27012482.379 7 -21048680.042 6  20238811.132    20238811.942    20238811.375
        44.200          41.600
  -4844102.648 3  -3774632.783 3  24709922.568    24709922.305    24709922.350
        20.500          19.300
  -1292061.549 2  -1006783.428 2  25117826.509    25117829.725    25117826.258
        13.900          12.600
   3423167.897     2667404.521 1  25893483.167    25893485.886    25893484.381
                        11.000
 -24985431.092 7 -19469159.063 6  20930551.548    20930552.654    20930551.650
        43.900          40.800
 13 10  9  0 24  0.0000000  0 12G 5G27G26G21G28G 7G15G 9G19G10G 6G 8
 -21630118.025 6 -16854624.829 6  21590907.186    21590907.953    21590908.044
        40.700          39.100
   1113329.134 2    867529.638 2  25278076.780    25278080.153    25278076.702
        13.900          17.000
 -29375663.177 7 -22890116.845 7  19833606.029    19833607.060    19833606.420
        44.700          44.200
  -5729651.654 2  -4464657.811 2  24861725.701    24861726.433    24861725.928
        15.100          17.000
 -18512147.465 6 -14425044.895 5  21705135.040    21705134.904    21705135.081
        37.700          35.400
 -12392213.432 5  -9656262.233 4  22944018.319    22944018.875    22944018.936
        32.100          29.500
 -13946121.824 5 -10867105.323 4  22970880.386    22970880.834    22970880.977
        31.100          27.900
 -26961969.445 7 -21009319.321 6  20248423.078    20248424.278    20248423.644
        44.200          41.400
  -4863425.340 3  -3789688.731 3  24706245.506    24706244.799    24706244.711
        19.900          20.500
  -1174565.737 2   -915228.275 2  25140185.878    25140188.394    25140185.098
        16.100          17.800
   3483356.341 1   2714304.885 9  25904936.795    25904940.112    25904935.250
         6.500          -3.000
 -24942148.778 7 -19435432.586 6  20938788.067    20938789.032    20938788.028
        43.700          40.900
 13 10  9  0 24 30.0000000  0 11G 5G27G26G21G28G 7G15G 9G19G10G 8
 -21562205.709 6 -16801706.156 6  21603830.415    21603831.180    21603831.297
        40.400          38.900
   1150931.942 2    896830.724 2  25285232.189    25285235.568    25285232.819
        17.800          16.100
 -29406245.000 7 -22913946.836 7  19827786.476    19827787.540    19827786.961
        44.800          44.300
  -5738687.646 2  -4471698.761 2  24860005.393    24860006.999    24860006.177
        13.900          13.900
 -18556904.700 6 -14459920.651 5  21696618.185    21696618.031    21696618.205
        38.600          35.700
 -12300554.141 5  -9584839.426 4  22961460.598    22961461.075    22961460.990
        32.000          29.200
 -14037587.539 5 -10938377.332 4  22953474.397    22953475.769    22953475.355
        31.800          28.400
 -26910982.734 7 -20969589.428 6  20258125.981    20258126.701    20258126.021
        44.000          41.600
  -4882178.028 3  -3804301.066 3  24702676.886    24702677.033    24702676.525
        19.900          20.500
  -1057071.745 2   -823674.529 2  25162544.591    25162546.696    25162543.582
        17.800          15.100
 -24898474.250 7 -19401400.506 6  20947099.280    20947100.025    20947099.168
        43.800          40.500
 13 10  9  0 25  0.0000000  0 11G 5G27G26G21G28G 7G15G 9G19G10G 8
 -21493824.910 6 -16748422.425 6  21616842.935    21616843.791    21616843.819
        40.600          39.000
   1189054.516 2    926536.480 2  25292485.088    25292490.071    25292487.048
        17.000          12.600
 -29436322.282 7 -22937383.673 7  19822063.149    19822063.951    19822063.357
        44.900          44.500
  -5747229.540 2  -4478354.806 2  24858380.643    24858381.473    24858380.604
        16.100          17.000
 -18601164.478 6 -14494408.769 6  21688195.741    21688195.930    21688195.754
        38.100          36.000
 -12208720.440 5  -9513280.719 4  22978935.650    22978936.150    22978936.416
        31.500          28.400
 -14128873.292 5 -11009509.058 4  22936103.491    22936104.442    22936104.454
        31.300          28.100
 -26859524.243 7 -20929491.912 6  20267917.894    20267919.104    20267918.310
        44.200          41.500
  -4900358.158 3  -3818467.110 3  24699216.304    24699217.663    24699215.721
        19.900          19.900
   -939581.704 2   -732123.864 2  25184901.560    25184904.134    25184901.800
        12.600          12.600
 -24854408.748 7 -19367063.739 6  20955484.550    20955485.361    20955484.406
        43.600          40.400
 13 10  9  0 25 30.0000000  0 11G 5G27G26G21G28G 7G15G 9G19G10G 8
 -21424977.378 6 -16694774.999 6  21629944.444    21629945.170    21629945.116
        40.800          39.300
   1227696.051 1    956646.641 2  25299839.826    25299843.748    25299840.145
         9.000          12.600
 -29465893.937 7 -22960426.514 7  19816435.758    19816436.622    19816436.105
        44.700          44.300
  -5755276.745 2  -4484625.325 2  24856848.335    24856850.062    24856848.307
        15.100          16.100
 -18644925.165 6 -14528507.984 6  21679868.621    21679868.543    21679868.514
        38.200          36.300
 -12116714.140 5  -9441587.498 4  22996443.842    22996444.173    22996444.900
        31.500          28.400
 -14219977.314 5 -11080499.162 4  22918766.547    22918768.137    22918767.867
        31.600          28.800
 -26807595.779 7 -20889028.158 6  20277799.918    20277800.630    20277800.047
        44.100          41.300
  -4917966.268 2  -3832187.992 3  24695864.672    24695867.192    24695864.223
        15.100          18.600
   -822097.734 2   -640577.933 2  25207258.086    25207260.369    25207257.784
        16.100          12.600
 -24809953.740 7 -19332423.457 6  20963943.744    20963944.861    20963943.804
        43.600          40.600
 13 10  9  0 26  0.0000000  0 12G 5G27G26G21G28G 7G15G 9G19G10G 3G 8
 -21355665.124 6 -16640765.455 6  21643133.974    21643134.756    21643134.552
        40.400          39.100
   1266855.383 2    987160.282 3  25307292.571    25307296.181    25307292.914
        13.900          18.600
 -29494958.991 7 -22983074.596 7  19810904.998    19810905.760    19810905.213
        44.700          44.400
  -5762829.321 2  -4490510.463 2  24855411.723    24855413.105    24855412.184
        17.800          15.100
 -18688185.597 6 -14562217.386 6  21671636.399    21671636.195    21671636.261
        38.400          36.000
 -12024536.758 5  -9369760.970 4  23013984.862    23013985.232    23013985.356
        31.500          29.500
 -14310898.160 5 -11151346.561 4  22901465.374    22901466.523    22901466.123
        31.500          28.400
 -26755199.051 7 -20848199.522 6  20287770.633    20287771.314    20287770.810
        44.200          41.400
  -4934998.868 3  -3845459.949 3  24692625.313    24692624.984    24692624.597
        20.500          21.100
   -704621.912 2   -549038.376 2  25229612.371    25229615.290    25229613.129
        12.600          17.000
     60683.863 2     47286.402 2  24684381.147    24684383.150    24684381.313
        17.000          13.900
 -24765110.442 7 -19297480.635 6  20972477.153    20972478.265    20972477.257
        43.500          40.300
 13 10  9  0 26 30.0000000  0 11G 5G27G26G21G28G 7G15G 9G19G10G 8
 -21285889.906 6 -16586395.155 6  21656411.789    21656412.318    21656412.494
        40.700          38.300
   1306530.823 1   1018076.030 3  25314842.333    25314846.086    25314842.602
        11.000          18.600
 -29523516.412 7 -23005327.122 7  19805470.561    19805471.515    19805470.918
        44.900          44.500
  -5769887.614 2  -4496010.570 2  24854069.093    24854069.829    24854068.537
        12.600          16.100
 -18730944.746 6 -14595536.181 6  21663499.249    21663499.419    21663499.240
        38.100          36.000
 -11932189.851 5  -9297802.361 4  23031557.866    23031558.442    23031557.954
        31.100          28.800
 -14401634.164 5 -11222049.918 4  22884198.854    22884200.154    22884199.729
        32.000          29.000
 -26702335.748 7 -20807007.343 6  20297829.831    20297830.985    20297830.296
        44.000          41.300
  -4951456.167 3  -3858283.707 3  24689492.823    24689493.227    24689492.604
        21.100          18.600
   -587156.501 2   -457506.911 2  25251965.761    25251968.567    25251964.903
        15.100          16.100
 -24719880.241 7 -19262236.320 6  20981084.411    20981085.370    20981084.326
        43.600          40.400
 13 10  9  0 27  0.0000000  0 11G 5G27G26G21G28G 7G15G 9G19G10G 8
 -21215653.893 6 -16531665.791 6  21669777.157    21669777.948    21669778.031
        40.700          38.500
   1346720.419 2   1049392.084 2  25322490.313    25322494.070    25322489.941
        16.100          16.100
 -29551565.225 7 -23027183.331 7  19800132.842    19800133.985    19800133.343
        45.000          44.400
  -5776450.801 2  -4501124.613 2  24852819.217    24852820.894    24852819.514
        16.100          16.100
 -18773200.840 6 -14628462.985 6  21655458.357    21655458.287    21655458.364
        38.600          36.000
 -11839675.264 5  -9225713.092 4  23049163.015    23049163.359    23049163.594
        31.100          29.000
 -14492183.971 5 -11292608.191 4  22866967.871    22866968.610    22866968.707
        31.600          29.000
 -26649007.839 7 -20765453.139 6  20307977.953    20307978.904    20307978.190
        43.800          41.000
  -4967336.614 3  -3870657.784 2  24686471.079    24686470.211    24686470.933
        21.100          17.800
   -469703.651 2   -365985.216 1  25274316.754    25274319.223    25274316.345
        12.600          11.000
 -24674264.643 7 -19226691.696 6  20989764.774    20989765.723    20989764.722
        43.600          40.300
 13 10  9  0 27 30.0000000  0 11G 5G27G26G21G28G 7G15G 9G19G10G 8
 -21144959.356 6 -16476579.153 6  21683229.658    21683230.809    21683230.554
        40.000          38.600
   1387424.741 2   1081109.941 2  25330235.793    25330239.390    25330235.801
        15.100          17.000
 -29579104.382 7 -23048642.407 7  19794892.459    19794893.381    19794892.770
        45.000          44.400
  -5782519.256 1  -4505853.031 2  24851664.091    24851665.800    24851664.588
        11.000          15.100
 -18814953.135 6 -14660997.228 5  21647512.873    21647512.898    21647512.891
        38.100          35.900
 -11746994.923 5  -9153494.659 4  23066799.919    23066799.543    23066800.028
        31.800          28.600
 -14582546.056 5 -11363020.177 4  22849772.406    22849773.156    22849773.281
        32.000          28.100
 -26595217.100 7 -20723538.272 6  20318214.117    20318214.868    20318214.247
        44.000          41.100
  -4982640.793 3  -3882583.261 2  24683558.569    24683557.772    24683557.753
        19.300          16.100
   -352265.513 3   -274474.998 1  25296664.715    25296666.427    25296664.399
        18.600          11.000
 -24628264.877 7 -19190847.718 6  20998518.030    20998519.224    20998518.043
        43.400          40.300
 13 10  9  0 28  0.0000000  0 11G 5G27G26G21G28G 7G15G 9G19G10G 8
 -21073808.142 6 -16421136.664 6  21696769.745    21696770.282    21696770.366
        40.200          38.600
   1428640.718 2   1113226.333 2  25338079.171    25338082.092    25338079.247
        15.100          16.100
 -29606132.867 7 -23069703.561 7  19789749.019    19789749.965    19789749.420
        44.800          44.400
  -5788093.592 2  -4510196.632 2  24850604.490    24850605.241    24850603.992
        13.900          12.600
 -18856200.259 6 -14693137.818 6  21639663.845    21639664.086    21639663.845
        38.300          36.400
 -11654149.813 5  -9081147.840 4  23084467.013    23084467.698    23084467.577
        31.000          28.600
 -14672718.828 5 -11433284.671 4  22832612.847    22832613.735    22832613.861
        32.100          28.800
 -26540965.605 7 -20681264.384 6  20328537.863    20328538.567    20328538.028
        44.100          41.200
  -4997365.399 3  -3894056.446 3  24680756.348    24680756.413    24680754.670
        18.600          18.600
   -234843.913 1   -182977.683 2  25319009.486    25319011.800    25319009.039
         6.500          12.600
 -24581882.846 7 -19154705.885 6  21007344.439    21007345.453    21007344.395
        43.500          40.200
 13 10  9  0 28 30.0000000  0 11G 5G27G26G21G28G 7G15G 9G19G10G 8
 -21002202.223 6 -16365339.870 6  21710395.828    21710396.499    21710396.427
        40.100          38.400
   1470367.044 2   1145740.359 2  25346019.057    25346022.229    25346019.391
        17.000          16.100
 -29632649.723 7 -23090366.044 7  19784703.168    19784704.001    19784703.519
        45.000          44.800
  -5793173.837 1  -4514155.232 1  24849637.104    24849638.467    24849636.987
         6.500          11.000
 -18896940.996 6 -14724883.824 6  21631911.207    21631911.564    21631911.202
        38.600          36.600
 -11561141.878 5  -9008674.154 4  23102165.622    23102166.649    23102166.548
        30.800          29.000
 -14762700.405 5 -11503400.173 4  22815490.617    22815490.417    22815491.097
        32.600          28.100
 -26486255.017 7 -20638632.758 6  20338948.864    20338949.774    20338949.166
        43.800          41.000
  -5011511.621 2  -3905079.360 3  24678061.709    24678065.157    24678062.073
        16.100          19.300
   -117440.869 1    -91494.796 2  25341350.837    25341353.067    25341350.264
        11.000          15.100
 -24535119.740 7 -19118267.101 6  21016243.008    21016244.026    21016243.061
        43.300          40.400
 13 10  9  0 29  0.0000000  0 11G 5G27G26G21G28G 7G15G 9G19G10G 8
 -20930143.886 6 -16309190.530 6  21724108.117    21724108.690    21724108.684
        40.200          38.200
   1512602.159 3   1178650.783 2  25354057.034    25354059.986    25354056.906
        19.300          17.800
 -29658654.002 7 -23110629.115 7  19779754.600    19779755.582    19779755.031
        45.100          44.700
  -5797759.715 2  -4517728.584 2  24848763.236    24848765.188    24848763.374
        15.100          15.100
 -18937174.425 6 -14756234.523 6  21624255.022    21624255.060    21624255.030
        38.500          36.500
 -11467972.695 5  -8936074.807 4  23119895.289    23119896.138    23119896.018
        31.000          28.400
 -14852489.281 5 -11573365.512 4  22798403.685    22798404.593    22798404.463
        31.800          28.800
 -26431087.094 7 -20595644.775 6  20349446.898    20349447.941    20349447.268
        43.800          41.000
  -5025077.924 2  -3915650.413 2  24675481.147    24675483.675    24675479.991
        16.100          17.800
       -58.579 2       -28.098 2  25363688.670    25363689.609    25363687.180
        15.100          12.600
 -24487976.906 7 -19081532.443 6  21025214.074    21025215.093    21025213.991
        43.400          40.400
 13 10  9  0 29 30.0000000  0 11G 5G27G26G21G28G 7G15G 9G19G10G 8
 -20857635.227 6 -16252690.291 6  21737905.821    21737906.681    21737906.547
        40.200          38.100
   1555345.471 2   1211957.553 3  25362189.616    25362193.940    25362190.090
        16.100          18.600
 -29684144.690 7 -23130491.988 7  19774903.683    19774904.838    19774904.254
        44.900          44.600
  -5801851.420 2  -4520916.708 2  24847984.318    24847986.318    24847984.358
        13.900          17.800
 -18976899.249 6 -14787188.910 6  21616695.446    21616695.548    21616695.631
        38.500          36.700
 -11374644.079 5  -8863351.220 4  23137655.441    23137655.861    23137656.020
        31.100          27.900
 -14942083.927 5 -11643179.521 4  22781354.123    22781355.325    22781355.336
        32.100          28.800
 -26375463.663 7 -20552301.841 6  20360031.788    20360032.592    20360032.017
        43.800          41.000
  -5038063.133 3  -3925768.620 3  24673011.110    24673011.941    24673010.336
        20.500          19.300
    117300.642 2     91420.617 2  25386021.087    25386022.915    25386020.593
        13.900          15.100
 -24440455.489 7 -19044502.771 6  21034257.126    21034258.126    21034257.046
        43.100          39.800
 13 10  9  0 30  0.0000000  0 11G 5G27G26G21G28G 7G15G 9G19G10G 8
 -20784678.411 6 -16195840.830 6  21751789.328    21751789.937    21751790.078
        40.000          38.100
   1598593.984 2   1245657.619 2  25370419.937    25370423.193    25370419.693
        17.000          17.000
 -29709120.832 7 -23149953.921 7  19770151.183    19770151.986    19770151.554
        45.200          44.600
  -5805449.249 2  -4523720.106 2  24847300.205    24847302.263    24847299.902
        17.000          16.100
 -19016114.033 6 -14817745.861 6  21609232.978    21609233.312    21609233.177
        38.600          36.400
 -11281157.554 5  -8790504.580 4  23155445.711    23155445.515    23155445.679
        30.600          27.400
 -15031482.830 5 -11712840.973 4  22764342.536    22764343.251    22764343.435
        32.300          29.000
 -26319386.453 7 -20508605.312 6  20370702.868    20370703.808    20370703.150
        43.800          40.900
  -5050467.301 3  -3935434.526 3  24670651.283    24670652.662    24670650.856
        19.900          20.500
    234634.597 2    182849.652 2  25408348.088    25408350.337    25408348.364
        15.100          17.800
 -24392557.156 7 -19007179.395 6  21043371.637    21043372.843    21043371.702
        43.100          39.900
 13 10  9  0 30 30.0000000  0 11G 5G27G26G21G28G 7G15G 9G19G10G 8
 -20711275.834 6 -16138644.034 6  21765757.004    21765757.988    21765757.891
        39.700          37.900
   1642346.630 2   1279750.412 3  25378744.957    25378749.456    25378745.889
        16.100          18.600
 -29733581.561 7 -23169014.225 7  19765496.674    19765497.332    19765496.884
        45.100          44.800
  -5808553.736 1  -4526139.143 2  24846709.324    24846710.983    24846710.055
        11.000          16.100
 -19054818.069 6 -14847904.832 6  21601868.124    21601868.235    21601868.139
        38.600          36.500
 -11187514.647 5  -8717536.069 4  23173264.927    23173265.060    23173265.575
        30.400          26.800
 -15120684.423 5 -11782348.702 4  22747368.227    22747368.590    22747368.855
        32.700          29.200
 -26262857.493 7 -20464556.771 6  20381460.101    20381460.945    20381460.231
        43.500          40.700
  -5062288.400 3  -3944645.816 3  24668403.410    24668402.480    24668402.291
        21.600          19.900
    351941.537 2    274257.602 2  25430670.390    25430673.900    25430670.660
        12.600          16.100
 -24344283.308 7 -18969563.410 6  21052557.718    21052558.992    21052557.908
        43.100          39.900
 13 10  9  0 31  0.0000000  0 11G 5G27G26G21G28G 7G15G 9G19G10G 8
 -20637429.173 6 -16081101.195 6  21779809.992    21779810.531    21779810.505
        40.300          38.000
   1686601.578 2   1314234.394 2  25387167.158    25387171.376    25387167.645
        13.900          16.100
 -29757525.831 7 -23187672.084 7  19760939.946    19760941.035    19760940.332
        45.100          44.900
  -5811164.534 2  -4528173.433 1  24846212.645    24846213.023    24846211.967
        15.100          11.000
 -19093010.157 6 -14877664.874 6  21594600.684    21594600.631    21594600.635
        38.900          37.200
 -11093716.772 5  -8644446.814 4  23191113.608    23191114.195    23191114.690
        30.800          26.800
 -15209686.940 5 -11851701.291 4  22730431.717    22730431.973    22730432.317
        33.200          29.900
 -26205878.679 7 -20420157.709 6  20392302.837    20392303.647    20392302.941
        43.500          40.700
  -5073526.758 3  -3953403.297 3  24666264.411    24666263.458    24666264.449
        23.000          19.300
    469219.284 2    365642.838 2  25452987.747    25452991.084    25452988.702
        13.900          12.600
 -24295635.502 7 -18931656.031 6  21061815.441    21061816.412    21061815.468
        43.100          39.700
 13 10  9  0 31 30.0000000  0 11G 5G27G26G21G28G 7G15G 9G19G10G 8
 -20563140.259 6 -16023213.745 6  21793946.737    21793947.468    21793947.349
        39.700          38.200
   1731358.829 3   1349110.318 3  25395683.973    25395688.456    25395685.141
        18.600          18.600
 -29780952.758 7 -23205926.821 7  19756481.923    19756483.083    19756482.245
        45.000          44.800
  -5813281.751 2  -4529823.018 2  24845809.423    24845810.189    24845808.916
        12.600          12.600
 -19130689.128 6 -14907025.088 6  21587430.597    21587430.484    21587430.450
        38.700          37.100
 -10999765.843 5  -8571238.287 4  23208992.129    23208992.708    23208993.089
        30.200          28.600
 -15298488.843 5 -11920897.560 4  22713532.720    22713533.420    22713533.892
        32.800          29.000
 -26148452.001 7 -20375409.631 6  20403230.785    20403231.624    20403230.931
        43.600          40.700
  -5084179.814 3  -3961704.209 3  24664237.005    24664236.347    24664236.848
        23.800          19.900
    586465.407 2    457003.437 1  25475298.608    25475302.203    25475298.035
        12.600          11.000
 -24246614.887 7 -18893458.109 6  21071143.774    21071144.657    21071143.710
        43.100          39.800
 13 10  9  0 32  0.0000000  0 11G 5G27G26G21G28G 7G15G 9G19G10G 8
 -20488411.788 6 -15964983.779 6  21808166.988    21808167.600    21808167.719
        40.000          37.600
   1776615.290 2   1384375.152 1  25404295.030    25404300.486    25404296.640
        16.100          11.000
 -29803861.476 7 -23223777.758 7  19752122.598    19752123.588    19752122.849
        45.100          44.800
  -5814906.180 2  -4531088.837 2  24845500.482    24845500.943    24845500.135
        12.600          16.100
 -19167854.122 6 -14935984.805 6  21580358.155    21580358.090    21580358.091
        38.900          36.800
 -10905663.286 5  -8497911.632 4  23226899.574    23226899.895    23226900.144
        30.200          28.100
 -15387088.599 5 -11989936.321 4  22696672.466    22696673.952    22696673.426
        32.800          29.900
 -26090579.036 7 -20330313.762 6  20414243.588    20414244.462    20414243.774
        43.400          40.500
  -5094248.171 3  -3969549.434 3  24662320.545    24662319.430    24662319.492
        21.100          19.900
    703678.079 1    548337.961 1  25497603.009    25497606.149    25497602.925
         6.500           9.000
 -24197223.342 7 -18854971.200 6  21080542.687    21080543.589    21080542.569
        42.800          39.500
 13 10  9  0 32 30.0000000  0 12G 5G27G26G21G28G 7G15G 9G19G10G18G 8
 -20413245.643 6 -15906412.770 6  21822470.113    21822471.370    21822471.094
        39.200          37.700
   1822369.265 2   1420027.372 2  25413002.446    25413008.017    25413003.633
        13.900          17.000
 -29826251.095 7 -23241224.203 7  19747861.906    19747862.868    19747862.315
        45.200          45.000
  -5816037.587 2  -4531970.271 2  24845286.813    24845284.980    24845285.594
        15.100          12.600
 -19204503.922 6 -14964543.074 6  21573383.749    21573383.861    21573383.823
        38.600          36.900
 -10811410.723 4  -8424468.070 4  23244835.347    23244835.643    23244835.464
        29.900          27.100
 -15475484.368 5 -12058816.125 4  22679851.247    22679852.444    22679852.478
        32.700          29.500
 -26032261.849 7 -20284871.808 6  20425340.678    20425341.855    20425340.905
        43.400          40.500
  -5103731.149 3  -3976938.727 2  24660514.750    24660513.680    24660513.439
        18.600          15.100
    820855.250 2    639644.790 2  25519901.177    25519905.062    25519902.132
        16.100          12.600
   -213197.639 1   -166128.133 1  25895429.638    25895429.155    25895428.840
         9.000           6.500
 -24147462.187 7 -18816196.287 6  21090011.690    21090012.897    21090011.754
        43.000          39.700
 13 10  9  0 33  0.0000000  0 12G 5G27G26G21G28G 7G15G 9G19G10G18G 8
 -20337644.285 6 -15847502.643 6  21836857.026    21836857.779    21836857.858
        40.000          37.400
   1868619.692 2   1456066.568 2  25421804.017    25421808.257    25421804.227
        16.100          13.900
 -29848120.674 7 -23258265.425 7  19743700.049    19743701.181    19743700.622
        45.100          44.900
  -5816676.425 2  -4532467.935 2  24845164.864    24845163.938    24845164.442
        16.100          15.100
 -19240637.615 6 -14992699.177 6  21566507.882    21566507.728    21566507.730
        38.700          37.100
 -10717009.792 5  -8350908.908 4  23262798.507    23262799.778    23262799.272
        30.100          27.400
 -15563674.450 5 -12127535.640 4  22663069.377    22663070.741    22663070.527
        33.200          29.700
 -25973502.050 7 -20239084.956 6  20436522.173    20436523.479    20436522.535
        43.200          40.400
  -5112627.305 2  -3983870.553 2  24658818.359    24658822.588    24658818.179
        12.600          16.100
    937994.952      730922.427 2  25542192.588    25542196.490    25542192.991
         3.000          12.600
   -312952.761 2   -243859.294 2  25876447.402    25876447.305    25876446.272
        12.600          15.100
 -24097332.683 7 -18777134.316 6  21099550.912    21099552.150    21099550.977
        42.900          39.500
 13 10  9  0 33 30.0000000  0 11G 5G26G21G28G 7G15G 9G19G10G18G 8
 -20261609.790 6 -15788254.997 6  21851325.702    21851326.637    21851326.738
        39.800          37.700
 -29869469.446 7 -23274900.833 7  19739637.785    19739638.669    19739638.096
        45.300          44.900
  -5816823.368 1  -4532582.566 2  24845136.357    24845136.054    24845136.611
        11.000          13.900
 -19276254.095 6 -15020452.267 6  21559730.040    21559730.374    21559730.277
        39.100          37.500
 -10622461.957 4  -8277235.266 4  23280789.754    23280791.561    23280791.409
        29.900          27.900
 -15651657.667 5 -12196093.963 4  22646327.119    22646327.800    22646327.770
        33.000          29.900
 -25914301.918 7 -20192954.986 6  20447787.610    20447788.777    20447787.976
        43.200          40.100
  -5120936.579 2  -3990344.950 2  24657238.283    24657239.671    24657238.653
        17.800          16.100
   1055095.122 1    822169.246 2  25564477.217    25564479.176    25564476.443
         9.000          12.600
   -412589.632     -321498.339 1  25857485.889    25857485.487    25857485.969
         3.000           6.500
 -24046836.288 7 -18737786.463 6  21109160.111    21109161.170    21109160.193
        42.900          39.300
 13 10  9  0 34  0.0000000  0 11G 5G26G21G28G 7G15G 9G19G10G18G 8
 -20185144.554 6 -15728671.720 6  21865876.490    21865877.637    21865877.606
        39.300          37.500
 -29890296.476 7 -23291129.686 7  19735674.551    19735675.372    19735674.908
        45.100          44.900
  -5816478.195 2  -4532313.671 2  24845201.590    24845202.505    24845201.806
        16.100          15.100
 -19311352.526 6 -15047801.675 6  21553051.372    21553051.471    21553051.229
        38.900          37.700
 -10527769.106 4  -8203448.640 4  23298810.370    23298810.637    23298810.976
        29.900          26.500
 -15739432.045 5 -12264489.564 4  22629623.992    22629624.952    22629624.882
        33.000          29.900
 -25854663.434 7 -20146483.446 6  20459136.618    20459137.646    20459136.917
        43.200          40.300
  -5128658.591 3  -3996361.924 3  24655771.690    24655771.403    24655771.728
        19.900          19.300
   1172153.737 1    913383.700 2  25586753.108    25586754.727    25586751.759
         9.000          15.100
   -512106.272 1   -399043.748    25838549.477    25838550.433    25838548.893
         9.000           3.000
 -23995974.548 7 -18698153.930 6  21118838.667    21118839.875    21118838.823
        42.700          39.300
 13 10  9  0 34 30.0000000  0 11G 5G26G21G28G 7G15G 9G19G10G18G 8
 -20108250.772 6 -15668754.507 6  21880508.974    21880510.100    21880509.916
        39.100          37.200
 -29910600.819 7 -23306951.246 7  19731810.791    19731811.572    19731811.160
        45.300          44.900
  -5815641.321 2  -4531661.616 2  24845361.683    24845361.638    24845361.365
        16.100          13.900
 -19345931.696 6 -15074746.467 6  21546470.936    21546470.910    21546471.013
        39.100          37.500
 -10432932.411 4  -8129549.913 4  23316857.714    23316857.175    23316858.045
        29.500          27.100
 -15826996.229 5 -12332721.362 5  22612961.033    22612961.959    22612962.023
        33.800          30.100
 -25794588.252 7 -20099671.618 6  20470568.536    20470569.557    20470568.894
        43.100          40.000
  -5135792.868 3  -4001921.186 3  24654414.448    24654414.651    24654414.395
        22.100          19.300
   1289168.539 1   1004564.009 2  25609019.631    25609021.739    25609019.180
         6.500          16.100
   -611499.884     -476493.272 1  25819634.843    25819635.869    25819635.406
         3.000           6.500
 -23944748.958 7 -18658237.878 6  21128586.634    21128587.955    21128586.795
        42.700          39.300
 13 10  9  0 35  0.0000000  0 11G 5G26G21G28G 7G15G 9G19G10G18G 8
 -20030930.249 6 -15608504.770 6  21895223.106    21895223.629    21895223.626
        39.400          37.200
 -29930381.786 7 -23322364.983 7  19728046.631    19728047.399    19728046.946
        45.000          44.800
  -5814313.211 2  -4530626.742 2  24845614.152    24845614.591    24845613.659
        17.000          17.800
 -19379991.008 6 -15101286.181 6  21539989.840    21539989.553    21539989.861
        39.300          37.100
 -10337953.623 4  -8055540.457 4  23334931.317    23334931.291    23334931.762
        29.500          26.800
 -15914348.188 5 -12400787.789 5  22596339.030    22596339.436    22596339.604
        34.000          30.400
 -25734078.203 7 -20052520.912 6  20482083.187    20482084.167    20482083.430
        43.000          39.800
  -5142338.202 3  -4007021.537 3  24653169.634    24653169.402    24653169.956
        23.800          22.600
   1406137.472 2   1095708.601 2  25631278.524    25631279.967    25631277.502
        16.100          12.600
   -710768.121 2   -553844.759 1  25800744.267    25800744.787    25800743.571
        12.600           6.500
 -23893160.846 7 -18618039.348 6  21138403.738    21138404.749    21138403.712
        42.700          39.300
 13 10  9  0 35 30.0000000  0 11G 5G26G21G28G 7G15G 9G19G10G18G 8
 -19953185.454 6 -15547924.420 6  21910017.044    21910017.747    21910017.970
        39.700          36.800
 -29949638.487 7 -23337370.196 7  19724382.085    19724383.000    19724382.478
        45.200          44.900
  -5812494.398 2  -4529209.612 2  24845959.416    24845960.826    24845959.611
        15.100          17.000
 -19413529.512 6 -15127420.067 6  21533607.483    21533607.481    21533607.448
        38.900          37.400
 -10242834.135 4  -7981421.381 4  23353031.621    23353032.131    23353031.929
        27.600          26.800
 -16001486.803 5 -12468687.982 5  22579756.540    22579757.388    22579757.462
        33.600          30.800
 -25673135.208 7 -20005032.858 6  20493680.365    20493681.196    20493680.609
        43.000          40.000
  -5148294.278 3  -4011662.760 3  24652035.725    24652036.347    24652035.445
        21.100          22.600
   1523058.576 1   1186815.920 2  25653527.614    25653530.004    25653527.126
        11.000          13.900
   -809909.784 1   -631097.727 2  25781876.934    25781878.523    25781878.182
         9.000          12.600
 -23841211.691 7 -18577559.508 6  21148289.409    21148290.265    21148289.327
        42.700          39.100
 13 10  9  0 36  0.0000000  0 11G 5G26G21G28G 7G15G 9G19G10G18G 8
 -19875018.870 6 -15487015.409 6  21924891.895    21924892.608    21924892.712
        39.500          37.000
 -29968370.139 7 -23351966.289 7  19720817.535    19720818.508    19720817.997
        45.200          45.000
  -5810184.694 2  -4527409.839 2  24846399.747    24846401.244    24846400.128
        12.600          16.100
 -19446546.090 6 -15153147.252 6  21527324.477    21527324.857    21527324.675
        39.200          37.700
 -10147575.762 4  -7907194.077 4  23371158.659    23371159.540    23371159.418
        29.500          26.500
 -16088409.783 5 -12536420.176 5  22563215.489    22563216.580    22563216.530
        34.100          30.600
 -25611761.193 7 -19957208.958 6  20505359.598    20505360.507    20505359.834
        43.100          40.000
  -5153660.856 3  -4015844.837 3  24651013.506    24651015.163    24651014.469
        22.100          21.600
   1639929.797 2   1277884.335 2  25675767.097    25675769.858    25675767.857
        13.900          13.900
   -908922.804 2   -708250.647 1  25763034.356    25763036.569    25763034.943
        13.900           6.500
 -23788903.011 7 -18536799.505 6  21158243.494    21158244.276    21158243.415
        42.700          39.200
 13 10  9  0 36 30.0000000  0 11G 5G26G21G28G 7G15G 9G19G10G18G 8
 -19796433.007 6 -15425779.690 6  21939846.170    21939847.232    21939846.921
        39.200          37.200
 -29986575.914 7 -23366152.607 7  19717353.211    19717354.024    19717353.591
        45.300          45.100
  -5807384.554 2  -4525227.979 2  24846932.814    24846933.929    24846932.272
        13.900          15.100
 -19479040.052 6 -15178467.207 6  21521141.231    21521141.300    21521141.243
        39.300          37.800
 -10052179.907 4  -7832859.643 4  23389311.871    23389312.536    23389312.543
        29.500          26.800
 -16175115.693 5 -12603983.219 5  22546716.288    22546717.017    22546717.012
        34.300          30.400
 -25549958.079 7 -19909050.699 6  20517119.675    20517121.243    20517120.269
        43.000          39.800
  -5158436.519 3  -4019566.058 3  24650105.338    24650106.049    24650105.069
        21.100          22.600
   1756749.345     1368912.513 2  25697997.325    25697999.376    25697996.421
         3.000          12.600
  -1007804.155 1   -785300.805 9  25744217.466    25744221.244    25744217.960
        11.000          -3.000
 -23736236.257 7 -18495760.492 6  21168265.376    21168266.562    21168265.474
        42.400          39.100
 13 10  9  0 37  0.0000000  0 12G 5G24G26G21G28G 7G15G 9G19G10G18G 8
 -19717429.356 6 -15364218.423 6  21954880.034    21954880.951    21954880.777
        39.200          37.000
   -163335.594 2   -127271.595 1  25620735.814    25620741.932    25620735.507
        13.900           6.500
 -30004254.946 7 -23379928.466 7  19713989.128    19713989.820    19713989.382
        45.200          45.000
  -5804094.924 2  -4522664.617 2  24847558.663    24847558.699    24847558.740
        12.600          13.900
 -19511010.235 6 -15203379.033 6  21515057.350    21515057.377    21515057.369
        39.100          37.200
  -9956647.864 4  -7758419.065 4  23407490.730    23407491.786    23407491.712
        28.600          26.200
 -16261603.100 5 -12671375.995 5  22530258.434    22530258.906    22530258.894
        34.500          30.200
 -25487727.802 7 -19860559.568 6  20528962.115    20528963.188    20528962.470
        43.000          39.900
  -5162621.095 2  -4022826.659 3  24649307.604    24649310.130    24649307.763
        17.800          19.300
   1873515.140 1   1459898.796 2  25720217.102    25720219.012    25720217.220
        11.000          12.600
  -1106551.977 1   -862246.874 1  25725427.645    25725429.509    25725427.652
         6.500           6.500
 -23683213.039 7 -18454443.721 6  21178355.413    21178356.585    21178355.466
        42.400          38.900
 13 10  9  0 37 30.0000000  0 12G 5G24G26G21G28G 7G15G 9G19G10G18G 8
 -19638010.562 6 -15302333.664 6  21969993.363    21969993.927    21969993.787
        39.100          37.100
   -269805.558 2   -210235.077 2  25600475.449    25600479.762    25600476.479
        12.600          12.600
 -30021406.598 7 -23393293.383 7  19710725.047    19710725.964    19710725.495
        45.300          45.200
  -5800316.117 2  -4519720.108 2  24848278.356    24848277.652    24848277.553
        16.100          13.900
 -19542456.127 6 -15227882.317 6  21509073.641    21509073.570    21509073.626
        39.300          37.900
  -9860981.415 4  -7683873.769 4  23425695.359    23425696.582    23425696.629
        28.800          26.800
 -16347870.413 5 -12738597.257 5  22513842.067    22513842.837    22513842.825
        34.000          31.000
 -25425072.272 7 -19811737.086 6  20540885.320    20540886.117    20540885.393
        42.700          39.700
  -5166213.582 2  -4025625.491 3  24648623.805    24648625.511    24648623.009
        17.000          19.300
   1990225.050 2   1550841.519 1  25742426.349    25742428.412    25742426.221
        13.900          11.000
  -1205164.556 1   -939087.625 9  25706661.991    25706662.585    25706663.916
         9.000          -3.000
 -23629834.719 7 -18412850.239 6  21188512.750    21188514.013    21188512.941
        42.300          38.500
 13 10  9  0 38  0.0000000  0 12G 5G24G26G21G28G 7G15G 9G19G10G18G 8
 -19558178.882 6 -15240127.174 6  21985184.295    21985185.388    21985185.251
        39.300          36.700
   -376232.805 1   -293165.312 1  25580222.480    25580226.747    25580224.161
        11.000           9.000
 -30038029.972 7 -23406246.669 7  19707561.961    19707562.542    19707562.175
        45.200          45.100
  -5796048.549 2  -4516394.686 2  24849089.603    24849090.236    24849090.547
        15.100          13.900
 -19573376.674 6 -15251976.241 6  21503189.559    21503189.669    21503189.583
        39.500          37.800
  -9765182.185 4  -7609225.011 4  23443925.506    23443926.419    23443926.311
        28.400          26.500
 -16433915.751 5 -12805645.551 5  22497468.298    22497468.864    22497468.984
        34.000          31.100
 -25361993.480 7 -19762584.786 6  20552888.719    20552889.480    20552888.994
        42.800          39.300
  -5169215.078 3  -4027964.118 3  24648051.696    24648052.972    24648051.141
        18.600          18.600
   2106876.946 2   1641739.041 2  25764624.713    25764627.208    25764624.022
        12.600          12.600
  -1303639.324    -1015821.133 1  25687922.825    25687924.022    25687922.660
         3.000          11.000
 -23576102.518 7 -18370980.994 6  21198738.106    21198738.956    21198738.052
        42.500          38.600
 13 10  9  0 38 30.0000000  0 12G 5G24G26G21G28G 7G15G 9G19G10G18G 8
 -19477936.859 6 -15177600.938 6  22000454.024    22000454.782    22000454.902
        39.100          36.500
   -482616.172 1   -376061.342 2  25559978.890    25559982.541    25559982.205
         9.000          15.100
 -30054124.467 7 -23418787.835 7  19704498.996    19704499.911    19704499.449
        45.300          45.300
  -5791292.571 2  -4512688.681 2  24849994.032    24849994.895    24849995.224
        15.100          15.100
 -19603771.193 6 -15275660.268 6  21497405.876    21497405.608    21497405.658
        39.100          37.800
  -9669251.520 4  -7534473.822 4  23462180.777    23462181.137    23462181.455
        29.000          25.900
 -16519737.363 5 -12872519.515 5  22481136.675    22481137.547    22481137.617
        34.500          31.100
 -25298493.324 7 -19713104.149 6  20564972.369    20564973.082    20564972.593
        42.700          39.300
  -5171624.635 3  -4029841.618 2  24647593.857    24647593.829    24647594.113
        19.900          17.000
   2223468.499 1   1732589.506 2  25786811.519    25786813.403    25786811.496
        11.000          12.600
  -1401973.930 1  -1092445.326 2  25669210.474    25669212.108    25669210.210
         9.000          12.600
 -23522017.913 7 -18328837.145 6  21209029.946    21209030.962    21209029.972
        42.200          38.600
 13 10  9  0 39  0.0000000  0 12G 5G24G26G21G28G 7G15G 9G19G10G18G 8
 -19397286.574 6 -15114756.576 6  22015801.234    22015802.183    22015802.092
        38.800          36.500
   -588955.330 9   -458922.901 2  25539743.565    25539747.018    25539743.677
        -3.000          13.900
 -30069689.238 7 -23430916.228 7  19701537.063    19701538.038    19701537.498
        45.300          45.300
  -5786048.648 2  -4508602.582 2  24850993.609    24850993.015    24850993.408
        15.100          13.900
 -19633638.874 6 -15298933.769 6  21491721.974    21491721.926    21491721.987
        39.100          37.800
  -9573190.970 4  -7459621.411 4  23480460.256    23480460.564    23480461.021
        28.800          25.900
 -16605333.751 5 -12939217.985 5  22464848.263    22464849.016    22464849.283
        34.100          31.000
 -25234573.651 7 -19663296.618 6  20577135.785    20577136.666    20577135.996
        42.700          39.700
  -5173441.667 3  -4031257.459 2  24647248.127    24647247.551    24647248.781
        21.100          15.100
   2339998.249 2   1823391.881 1  25808986.087    25808987.822    25808985.747
        12.600          11.000
  -1500166.412 2  -1168958.772 1  25650526.518    25650524.869    25650525.591
        12.600           9.000
 -23467582.408 7 -18286419.891 6  21219388.778    21219389.628    21219388.856
        42.100          38.400
 13 10  9  0 39 30.0000000  0 12G 5G24G26G21G28G 7G15G 9G19G10G18G 8
 -19316230.275 6 -15051595.849 6  22031225.542    22031226.759    22031226.572
        38.600          36.400
   -695248.796 2   -541748.857 2  25519516.257    25519521.174    25519516.183
        12.600          13.900
 -30084723.525 7 -23442631.260 7  19698676.200    19698677.127    19698676.589
        45.200          45.100
  -5780317.563 2  -4504136.872 2  24852083.966    24852083.869    24852084.345
        17.000          16.100
 -19662979.068 6 -15321796.243 6  21486138.892    21486138.757    21486138.892
        39.700          37.900
  -9477001.862 4  -7384668.810 4  23498764.283    23498764.890    23498765.497
        27.900          26.500
 -16690703.268 5 -13005739.671 5  22448602.794    22448604.024    22448604.031
        34.300          31.500
 -25170236.419 7 -19613163.730 6  20589378.792    20589379.814    20589379.135
        42.600          39.200
  -5174665.620 3  -4032211.084 2  24647016.535    24647015.080    24647016.243
        22.600          16.100
   2456464.080 2   1914144.385 2  25831148.510    25831151.129    25831148.263
        13.900          13.900
  -1598214.564 2  -1245359.794 1  25631866.105    25631867.051    25631866.872
        12.600           9.000
 -23412797.614 6 -18243730.443 6  21229813.908    21229814.907    21229813.937
        41.900          38.600
 13 10  9  0 40  0.0000000  0 12G 5G24G26G21G28G 7G15G 9G19G10G18G 8
 -19234770.384 6 -14988120.629 6  22046727.496    22046727.938    22046727.946
        38.900          36.500
   -801496.153 1   -624538.893 1  25499297.868    25499302.074    25499300.529
         9.000          11.000
 -30099226.598 7 -23453932.358 7  19695916.504    19695917.281    19695916.815
        45.300          45.200
  -5774099.472 2  -4499291.777 2  24853266.519    24853267.876    24853266.787
        17.000          13.900
 -19691790.849 6 -15344246.965 6  21480656.293    21480656.067    21480656.186
        39.700          38.300
  -9380686.065 4  -7309617.525 4  23517092.162    23517093.044    23517093.224
        27.400          24.200
 -16775844.218 5 -13072083.246 5  22432401.406    22432402.241    22432402.043
        34.500          31.800
 -25105483.637 7 -19562707.026 6  20601700.980    20601701.761    20601701.193
        42.500          39.100
  -5175296.701 3  -4032702.882 2  24646897.465    24646895.152    24646897.338
        22.100          17.800
   2572863.968 1   2004845.542 1  25853298.590    25853300.550    25853298.634
         9.000           9.000
  -1696116.027 1  -1321646.585 1  25613237.243    25613236.727    25613238.122
        11.000          11.000
 -23357664.983 6 -18200769.944 6  21240305.491    21240306.227    21240305.380
        41.900          38.400
 13 10  9  0 40 30.0000000  0 12G 5G24G26G21G28G 7G15G 9G19G10G18G 8
 -19152909.465 6 -14924332.915 6  22062305.030    22062305.559    22062305.746
        39.100          36.500
   -907695.641     -707291.669 1  25479088.960    25479092.892    25479089.299
         3.000           6.500
 -30113197.779 7 -23464818.987 7  19693257.772    19693258.642    19693258.184
        45.400          45.300
  -5767395.394 2  -4494067.877 2  24854542.286    24854543.007    24854542.158
        16.100          17.000
 -19720073.510 6 -15366285.385 6  21475274.051    21475273.946    21475274.082
        39.800          37.900
  -9284245.054 4  -7234468.649 4  23535444.714    23535445.583    23535445.498
        27.400          25.300
 -16860754.738 5 -13138247.282 5  22416244.321    22416244.341    22416244.361
        35.200          32.000
 -25040317.275 7 -19511928.043 6  20614101.452    20614102.643    20614101.926
        42.400          38.900
  -5175334.134 3  -4032732.140 3  24646889.531    24646888.704    24646888.724
        19.900          18.600
   2689196.168     2095493.959 9  25875435.891    25875437.992    25875436.049
         3.000          -3.000
  -1793868.510 2  -1397817.185 1  25594635.959    25594634.705    25594636.609
        12.600          11.000
 -23302186.168 6 -18157539.689 6  21250862.587    21250863.492    21250862.526
        41.700          38.400
 13 10  9  0 41  0.0000000  0 12G 5G24G26G21G28G 7G15G 9G19G10G18G 8
 -19070649.793 6 -14860234.493 6  22077958.146    22077959.383    22077958.884
        38.600          36.700
  -1013846.538 1   -790006.571 2  25458888.846    25458893.659    25458889.410
         9.000          13.900
 -30126636.391 7 -23475290.629 7  19690700.446    19690701.458    19690700.911
        45.400          45.300
  -5760205.030 2  -4488464.891 2  24855910.749    24855911.417    24855910.215
        15.100          17.000
 -19747826.596 6 -15387911.156 6  21469992.630    21469992.679    21469992.745
        39.500          37.700
  -9187680.177 4  -7159223.253 4  23553820.814    23553821.338    23553821.295
        26.500          25.900
 -16945433.305 5 -13204230.562 5  22400129.948    22400130.443    22400130.340
        35.300          32.300
 -24974739.127 7 -19460828.195 6  20626580.732    20626581.743    20626580.890
        42.200          39.100
  -5174778.080 3  -4032299.056 3  24646994.608    24646995.361    24646995.108
        19.300          19.300
   2805458.626 2   2186087.985 1  25897559.466    25897562.264    25897559.654
        13.900           6.500
  -1891470.045 2  -1473870.297 1  25576063.332    25576062.402    25576062.634
        13.900           6.500
 -23246362.422 6 -18114040.680 6  21261485.478    21261486.305    21261485.313
        41.600          37.900
 13 10  9  0 41 30.0000000  0 12G 5G24G26G21G28G 7G15G 9G19G10G18G 8
 -18987993.388 6 -14795826.937 5  22093687.501    22093687.862    22093688.076
        38.600          35.900
  -1119947.774 1   -872682.773 2  25438698.163    25438703.081    25438697.152
         9.000          15.100
 -30139541.782 7 -23485346.779 7  19688244.695    19688245.724    19688245.150
        45.400          45.500
  -5752530.096 3  -4482484.376 2  24857372.074    24857371.360    24857372.351
        18.600          17.000
 -19775049.260 6 -15409123.616 6  21464812.677    21464812.425    21464812.561
        39.700          38.000
  -9090992.774 4  -7083882.377 4  23572218.632    23572220.237    23572220.178
        27.100          26.500
 -17029877.884 5 -13270031.510 5  22384060.514    22384061.104    22384060.898
        34.600          32.300
 -24908751.186 7 -19409409.028 6  20639137.904    20639138.781    20639138.037
        42.100          38.700
  -5173627.848 3  -4031402.897 3  24647213.296    24647214.542    24647213.599
        19.900          19.900
   2921649.468 2   2276626.272 1  25919669.863    25919674.123    25919670.652
        12.600           6.500
  -1988918.075 2  -1549803.740 1  25557518.582    25557518.393    25557517.979
        15.100           9.000
 -23190195.316 6 -18070274.115 6  21272173.588    21272174.428    21272173.662
        41.900          38.200
 13 10  9  0 42  0.0000000  0 12G 5G24G26G21G28G 7G15G 9G19G10G18G 8
 -18904942.986 6 -14731112.360 5  22109491.194    22109492.147    22109492.013
        38.400          35.600
  -1225999.061 2   -955320.016 2  25418517.429    25418521.365    25418518.033
        13.900          15.100
 -30151913.253 7 -23494986.896 7  19685890.675    19685891.460    19685890.983
        45.600          45.300
  -5744370.880 3  -4476126.558 2  24858923.799    24858924.671    24858924.349
        18.600          17.800
 -19801740.816 6 -15429922.219 6  21459733.374    21459733.303    21459733.375
        39.500          38.300
  -8994184.196 4  -7008447.074 4  23590640.833    23590642.266    23590642.460
        27.100          25.900
 -17114087.434 5 -13335649.331 5  22368035.983    22368036.328    22368036.504
        35.500          31.500
 -24842355.314 7 -19357671.994 6  20651772.561    20651773.434    20651772.669
        42.100          38.800
  -5171883.003 3  -4030043.232 3  24647545.866    24647546.406    24647545.973
        22.100          19.300
   3037766.659 1   2367107.131 9  25941765.786    25941770.367    25941764.759
        11.000          -3.000
  -2086210.232    -1625615.791 1  25539003.690    25539005.169    25539004.960
         3.000           6.500
 -23133686.367 6 -18026241.181 6  21282926.580    21282927.912    21282926.757
        41.300          38.200
 13 10  9  0 42 30.0000000  0 12G 5G24G26G21G28G 7G15G 9G19G10G18G 8
 -18821501.077 6 -14666092.718 6  22125369.710    22125370.833    22125370.478
        38.400          36.200
  -1331998.208 2  -1037916.725 2  25398346.536    25398350.578    25398347.752
        15.100          12.600
 -30163750.175 7 -23504210.480 7  19683638.183    19683638.870    19683638.423
        45.400          45.300
  -5735727.992 2  -4469391.908 2  24860568.292    24860569.491    24860567.559
        16.100          17.000
 -19827900.501 6 -15450306.375 6  21454755.327    21454755.075    21454755.365
        39.700          38.100
  -8897256.382 4  -6932918.826 4  23609085.803    23609086.996    23609086.674
        26.200          24.200
 -17198060.097 5 -13401082.560 5  22352056.314    22352057.067    22352057.132
        35.100          31.500
 -24775553.736 7 -19305618.819 6  20664484.433    20664485.429    20664484.745
        42.100          38.600
  -5169543.580 3  -4028220.159 3  24647989.793    24647991.022    24647989.728
        19.300          22.100
   3153808.314     2457529.060 9  25963847.795    25963849.401    25963848.390
         3.000          -3.000
  -2183344.923 1  -1701305.135 1  25520519.703    25520520.316    25520520.481
        11.000           9.000
 -23076836.907 6 -17981942.917 6  21293745.092    21293746.153    21293745.057
        41.700          38.100
 13 10  9  0 43  0.0000000  0 11G 5G24G26G21G28G 7G15G 9G19G18G 8
 -18737670.072 6 -14600769.886 6  22141322.200    22141323.314    22141323.017
        38.400          36.400
  -1437945.136 2  -1120472.724 2  25378185.079    25378189.616    25378186.175
        13.900          16.100
 -30175051.787 7 -23513016.919 7  19681487.508    19681488.143    19681487.785
        45.400          45.200
  -5726602.050 2  -4462280.871 2  24862305.348    24862305.700    24862304.486
        15.100          17.000
 -19853527.898 6 -15470275.773 6  21449878.658    21449878.254    21449878.612
        39.700          38.000
  -8800210.587 4  -6857298.652 4  23627552.599    23627553.711    23627554.397
        27.100          24.200
 -17281793.666 5 -13466329.482 5  22336122.153    22336122.910    22336122.848
        35.400          32.100
 -24708348.357 7 -19253250.994 6  20677273.086    20677274.121    20677273.463
        42.100          38.400
  -5166609.180 2  -4025933.407 2  24648548.398    24648549.520    24648547.721
        17.800          16.100
  -2280319.433 1  -1776869.654 1  25502066.420    25502067.236    25502065.413
         6.500          11.000
 -23019648.675 6 -17937380.676 6  21304627.631    21304628.767    21304627.619
        41.500          38.000
 13 10  9  0 43 30.0000000  0 12G 5G24G26G21G28G 7G15G 9G19G10G18G 8
 -18653451.882 6 -14535145.349 5  22157348.337    22157349.488    22157349.246
        38.100          35.800
  -1543838.294 1  -1202986.789 2  25358033.902    25358037.657    25358034.691
         9.000          13.900
 -30185817.554 7 -23521405.826 7  19679438.620    19679439.482    19679439.121
        45.300          45.400
  -5716993.665 2  -4454793.987 2  24864133.163    24864133.792    24864133.182
        15.100          17.000
 -19878622.280 6 -15489829.828 6  21445103.256    21445103.259    21445103.265
        39.600          38.300
  -8703048.471 4  -6781587.836 4  23646042.831    23646042.986    23646043.438
        26.800          24.600
 -17365286.911 5 -13531389.143 5  22320234.031    22320234.822    22320235.007
        35.400          32.400
 -24640741.067 6 -19200569.996 6  20690138.514    20690139.418    20690138.815
        41.900          38.400
  -5163080.774 3  -4023184.106 3  24649220.548    24649221.409    24649220.701
        21.100          21.600
   3385658.510 1   2638190.336    26007967.180    26007968.065    26007967.532
         9.000           3.000
  -2377132.014 2  -1852308.246 1  25483644.968    25483644.358    25483644.335
        12.600           9.000
 -22962123.182 6 -17892555.637 6  21315574.167    21315575.603    21315574.365
        41.500          37.700
 13 10  9  0 44  0.0000000  0 11G 5G24G26G21G28G 7G15G 9G19G18G 8
 -18568849.139 6 -14469221.163 6  22173447.683    22173448.721    22173448.631
        38.000          36.000
  -1649676.843 2  -1285458.339 2  25337893.258    25337898.640    25337893.841
        13.900          13.900
 -30196046.818 7 -23529376.677 7  19677492.240    19677492.944    19677492.585
        45.500          45.300
  -5706903.457 2  -4446931.578 2  24866054.069    24866054.968    24866053.933
        17.000          17.000
 -19903183.106 6 -15508968.125 6  21440429.622    21440429.418    21440429.552
        40.000          38.400
  -8605771.213 4  -6705787.340 4  23664553.639    23664554.093    23664554.294
        26.200          24.900
 -17448537.975 5 -13596260.065 5  22304391.678    22304392.467    22304392.839
        35.800          32.100
 -24572733.922 6 -19147577.426 6  20703079.414    20703081.003    20703079.963
        41.800          38.400
  -5158956.733 3  -4019970.477 3  24650005.069    24650005.705    24650004.379
        20.500          19.900
  -2473779.277 2  -1927617.740 2  25465253.825    25465253.806    25465253.070
        15.100          12.600
 -22904261.812 6 -17847468.861 6  21326585.030    21326586.082    21326585.052
        40.900          37.600
 13 10  9  0 44 30.0000000  0 11G 5G24G26G21G28G 7G15G 9G19G18G 8
 -18483864.372 6 -14402999.296 5  22189620.155    22189620.990    22189620.669
        37.700          35.500
  -1755459.255 1  -1367886.151 2  25317764.478    25317768.107    25317764.759
         9.000          16.100
 -30205739.000 7 -23536929.030 7  19675647.846    19675648.652    19675648.201
        45.300          45.300
  -5696332.189 2  -4438694.254 2  24868065.866    24868066.300    24868065.500
        15.100          17.000
 -19927209.819 6 -15527690.233 6  21435857.418    21435857.321    21435857.380
        39.700          38.400
  -8508380.361 4  -6629898.308 4  23683086.583    23683086.620    23683087.358
        27.100          24.600
 -17531545.129 5 -13660940.944 5  22288595.810    22288596.919    22288596.842
        35.500          32.300
 -24504328.771 6 -19094274.714 6  20716097.074    20716097.932    20716097.172
        41.900          38.500
  -5154237.871 3  -4016293.411 3  24650902.985    24650903.024    24650902.809
        19.900          21.600
  -2570259.462 2  -2002796.906    25446893.171    25446893.505    25446892.874
        16.100           3.000
 -22846065.716 6 -17802121.259 6  21337659.451    21337660.447    21337659.339
        41.200          37.900
 13 10  9  0 45  0.0000000  0 11G 5G24G26G21G28G 7G15G 9G19G18G 8
 -18398500.334 6 -14336481.885 5  22205864.153    22205865.131    22205864.967
        38.000          35.300
  -1861184.815 1  -1450269.713 1  25297644.669    25297648.780    25297645.332
        11.000           9.000
 -30214893.519 7 -23544062.424 7  19673905.745    19673906.547    19673906.159
        45.500          45.400
  -5685280.659 2  -4430082.765 2  24870168.107    24870169.910    24870167.732
        13.900          17.800
 -19950701.846 6 -15545995.694 6  21431386.733    21431386.963    21431386.808
        39.800          38.600
  -8410877.408 4  -6553921.953 4  23701639.983    23701640.743    23701641.353
        24.900          25.600
 -17614306.773 5 -13725430.522 5  22272846.357    22272847.847    22272847.890
        35.700          33.100
 -24435527.570 7 -19040663.392 6  20729189.393    20729190.300    20729189.677
        42.100          38.200
  -5148924.016 3  -4012152.717 3  24651914.980    24651914.660    24651914.462
        22.100          19.900
  -2666571.394 2  -2077845.500 2  25428566.933    25428566.459    25428566.072
        17.800          12.600
 -22787536.292 6 -17756513.921 6  21348797.212    21348798.322    21348797.290
        41.400          37.300
 13 10  9  0 45 30.0000000  0 11G 5G24G26G21G28G 7G15G 9G19G18G 8
 -18312759.029 6 -14269670.493 5  22222180.284    22222181.090    22222181.176
        38.300          35.300
  -1966852.819 2  -1532608.321 2  25277537.753    25277540.972    25277538.345
        13.900          16.100
 -30223509.739 7 -23550776.355 7  19672266.129    19672266.951    19672266.577
        45.500          45.500
  -5673749.455 2  -4421097.449 2  24872363.157    24872363.478    24872362.632
        15.100          15.100
 -19973658.561 6 -15563884.035 6  21427018.242    21427018.253    21427018.295
        39.700          38.400
  -8313263.621 4  -6477859.199 4  23720215.918    23720216.229    23720216.905
        25.300          24.600
 -17696821.034 5 -13789727.351 5  22257144.565    22257145.947    22257145.759
        35.800          32.600
 -24366332.274 6 -18986744.991 6  20742356.884    20742357.670    20742357.055
        41.800          38.100
  -5143014.654 3  -4007547.794 3  24653038.838    24653039.485    24653038.040
        19.300          20.500
  -2762712.601 1  -2152761.478 1  25410271.907    25410272.558    25410271.418
        11.000           6.500
 -22728675.359 6 -17710648.283 6  21359997.983    21359999.274    21359998.110
        41.000          37.400
 13 10  9  0 46  0.0000000  0 12G 5G24G26G21G28G 7G15G 9G19G 3G18G 8
 -18226642.776 6 -14202566.940 5  22238567.388    22238568.515    22238568.370
        37.900          35.400
  -2072461.671 1  -1614900.892 2  25257440.820    25257444.972    25257440.567
        11.000          12.600
 -30231587.165 7 -23557070.459 7  19670729.104    19670729.864    19670729.515
        45.500          45.500
  -5661739.443 2  -4411739.086 2  24874649.509    24874649.651    24874649.610
        13.900          15.100
 -19996079.519 6 -15581354.905 6  21422752.023    21422751.642    21422751.858
        39.800          38.400
  -8215540.682 4  -6401711.458 4  23738812.065    23738812.686    23738812.692
        24.900          25.600
 -17779086.326 6 -13853830.164 5  22241490.446    22241491.142    22241491.329
        36.400          32.600
 -24296744.786 6 -18932520.972 6  20755598.730    20755599.827    20755599.135
        41.900          38.100
  -5136509.744 3  -4002478.673 2  24654276.492    24654276.464    24654276.379
        19.900          17.800
    141764.181 1    110465.790 1  25115996.837    25116001.493    25115997.724
        11.000          11.000
  -2858678.935 1  -2227540.496 1  25392009.476    25392008.943    25392009.268
        11.000          11.000
 -22669484.293 6 -17664525.396 6  21371261.606    21371262.892    21371261.765
        41.300          37.200
 13 10  9  0 46 30.0000000  0 12G 5G24G26G21G28G 7G15G 9G19G 3G18G 8
 -18140154.182 6 -14135173.256 5  22255026.028    22255026.833    22255026.719
        37.800          35.300
  -2178010.826 1  -1697146.948 2  25237354.919    25237360.096    25237356.348
         9.000          17.800
 -30239125.263 7 -23562944.310 7  19669294.482    19669295.390    19669294.995
        45.300          45.400
  -5649251.808 2  -4402008.555 2  24877026.364    24877026.597    24877026.432
        13.900          13.900
 -20017964.342 6 -15598408.002 6  21418587.204    21418587.184    21418587.031
        39.800          38.500
  -8117710.007 4  -6325479.817 4  23757429.431    23757429.120    23757429.869
        26.200          25.300
 -17861100.939 6 -13917737.651 5  22225883.900    22225884.496    22225884.532
        36.000          32.300
 -24226767.191 6 -18877992.988 6  20768915.153    20768916.147    20768915.325
        41.400          37.800
  -5129409.370 3  -3996945.414 3  24655626.142    24655627.345    24655626.049
        19.900          19.300
    208976.294 2    162839.125 1  25128786.871    25128790.883    25128786.913
        13.900          11.000
  -2954469.862 1  -2302183.131    25373781.155    25373782.353    25373781.372
         9.000           3.000
 -22609964.973 6 -17618146.717 6  21382588.000    21382589.051    21382587.965
        41.000          37.300
 13 10  9  0 47  0.0000000  0 12G 5G24G26G21G28G 7G15G 9G19G 3G18G 8
 -18053295.726 6 -14067491.371 5  22271554.445    22271555.494    22271555.179
        37.200          35.200
  -2283498.890 1  -1779345.392 2  25217281.480    25217286.628    25217282.221
         9.000          17.000
 -30246123.359 7 -23568397.372 7  19667963.037    19667963.752    19667963.246
        45.300          45.600
  -5636286.884 2  -4391906.226 2  24879492.524    24879494.408    24879492.885
        13.900          15.100
 -20039312.366 6 -15615042.820 6  21414525.058    21414524.614    21414524.988
        39.900          38.400
  -8019773.063 4  -6249165.373 4  23776065.894    23776065.792    23776066.296
        25.300          24.600
 -17942863.334 6 -13981448.612 5  22210325.426    22210325.740    22210325.602
        36.400          32.800
 -24156401.288 6 -18823162.429 6  20782305.545    20782306.352    20782305.667
        41.200          37.600
  -5121714.649 3  -3990949.203 3  24657090.693    24657090.795    24657090.634
        19.300          19.900
    276665.541 1    215582.388    25141669.758    25141671.864    25141669.470
        11.000           3.000
  -3050081.769    -2376685.951 1  25355587.343    25355587.855    25355587.552
         3.000           9.000
 -22550118.754 6 -17571513.313 6  21393976.463    21393977.343    21393976.376
        41.000          37.400
 13 10  9  0 47 30.0000000  0 12G 5G24G26G21G28G 7G15G 9G19G 3G18G 8
 -17966070.114 6 -13999523.395 5  22288153.359    22288154.003    22288153.906
        37.600          34.700
  -2388924.788 2  -1861495.434 2  25197219.076    25197223.753    25197220.136
        15.100          16.100
 -30252581.037 7 -23573429.328 7  19666734.140    19666734.983    19666734.439
        45.400          45.600
  -5622845.467 2  -4381432.573 2  24882049.212    24882051.932    24882048.658
        13.900          12.600
 -20060123.586 6 -15631259.347 6  21410564.647    21410564.591    21410564.698
        40.000          38.800
  -7921730.813 4  -6172768.832 4  23794722.529    23794722.292    23794722.882
        25.600          24.200
 -18024371.428 6 -14044961.414 5  22194814.594    22194815.073    22194815.167
        36.300          32.800
 -24085649.153 6 -18768030.908 6  20795769.274    20795770.137    20795769.338
        41.300          37.800
  -5113425.322 3  -3984490.047 3  24658667.994    24658667.700    24658668.051
        19.300          19.900
    344837.233 1    268703.300 1  25154642.477    25154645.221    25154642.258
        11.000           9.000
  -3145513.038 1  -2451048.170 2  25337428.315    25337428.009    25337427.812
         9.000          12.600
 -22489947.094 6 -17524626.336 6  21405426.505    21405427.612    21405426.631
        40.700          36.600
 13 10  9  0 48  0.0000000  0 12G 5G24G26G21G28G 7G15G 9G19G 3G18G 8
 -17878479.567 6 -13931271.050 5  22304821.195    22304821.712    22304821.805
        37.700          34.500
  -2494287.868 1  -1943596.523 1  25177168.538    25177174.487    25177170.194
         9.000          11.000
 -30258497.764 7 -23578039.764 7  19665608.425    19665609.014    19665608.575
        45.500          45.500
  -5608928.369 2  -4370588.100 2  24884698.206    24884699.652    24884697.858
        13.900          15.100
 -20080397.239 6 -15647056.985 6  21406706.636    21406706.541    21406706.625
        39.900          38.600
  -7823585.026 4  -6096291.595 4  23813397.977    23813398.666    23813399.381
        24.200          24.200
 -18105623.772 6 -14108274.951 5  22179352.516    22179353.130    22179353.344
        36.200          33.000
 -24014512.838 6 -18712600.039 6  20809305.601    20809306.785    20809306.070
        41.300          37.200
  -5104540.464 3  -3977566.716 3  24660359.308    24660358.252    24660358.719
        18.600          19.300
    413487.463 2    322197.857 1  25167704.751    25167708.157    25167704.636
        16.100           9.000
  -3240761.476 2  -2525267.877 2  25319302.089    25319303.342    25319302.209
        15.100          13.900
 -22429451.471 6 -17477486.907 6  21416938.466    21416939.708    21416938.432
        40.500          37.000
 13 10  9  0 48 30.0000000  0 12G 5G24G26G21G28G 7G15G 9G19G 3G18G 8
 -17790526.631 6 -13862736.310 5  22321557.639    22321558.547    22321558.643
        37.200          34.400
  -2599586.311 2  -2025647.198 2  25157131.387    25157135.638    25157131.953
        12.600          17.800
 -30263873.044 7 -23582228.289 7  19664585.346    19664586.031    19664585.636
        45.500          45.500
  -5594536.989 3  -4359374.086 2  24887439.551    24887436.722    24887439.062
        19.900          12.600
 -20100132.768 6 -15662435.322 6  21402951.123    21402950.850    21402951.099
        39.900          38.700
  -7725337.110 3  -6019734.773 4  23832094.331    23832095.156    23832095.540
        23.800          24.600
 -18186618.279 6 -14171387.578 5  22163940.299    22163940.344    22163940.787
        36.600          33.100
 -23942994.245 6 -18656871.280 6  20822915.553    20822916.471    20822915.594
        41.400          37.700
  -5095061.265 3  -3970180.389 2  24662162.920    24662162.025    24662163.010
        20.500          17.000
    482609.662      376059.296 1  25180858.050    25180862.701    25180857.807
         3.000          11.000
  -3335824.935 1  -2599343.517 2  25301213.619    25301213.452    25301212.148
         9.000          12.600
 -22368633.248 6 -17430096.095 6  21428511.977    21428513.189    21428512.042
        40.700          37.100
 13 10  9  0 49  0.0000000  0 12G 5G24G26G21G28G 7G15G 9G19G 3G18G 8
 -17702213.931 6 -13793921.245 5  22338363.112    22338364.468    22338363.993
        37.200          35.200
  -2704819.675 2  -2107647.200 2  25137106.863    25137111.134    25137107.256
        13.900          16.100
 -30268706.404 7 -23585994.540 7  19663665.360    19663666.307    19663665.742
        45.400          45.500
  -5579671.609 3  -4347790.488 2  24890267.522    24890266.346    24890267.425
        18.600          17.000
 -20119330.155 6 -15677394.325 6  21399297.659    21399297.972    21399297.854
        39.800          38.900
  -7626988.430 3  -5943099.435 4  23850809.737    23850810.615    23850810.328
        23.800          24.200
 -18267353.454 6 -14234298.107 5  22148576.480    22148576.791    22148577.248
        36.300          33.000
 -23871095.277 6 -18600846.123 6  20836597.461    20836598.412    20836597.804
        41.300          37.500
  -5084986.855 2  -3962330.039 3  24664080.193    24664079.129    24664080.049
        17.800          18.600
    552205.082 2    430290.037 9  25194101.200    25194104.989    25194101.723
        12.600          -3.000
  -3430700.837 2  -2673272.810 2  25283159.799    25283159.756    25283158.484
        16.100          12.600
 -22307493.937 6 -17382455.109 6  21440146.367    21440147.576    21440146.358
        40.700          37.000
 13 10  9  0 49 30.0000000  0 12G 5G24G26G21G28G 7G15G 9G19G 3G18G 8
 -17613543.917 6 -13724827.764 5  22355236.689    22355237.882    22355237.431
        37.400          34.900
  -2809986.407 2  -2189595.298 2  25117093.832    25117098.670    25117094.870
        15.100          13.900
 -30272997.338 7 -23589338.121 7  19662848.691    19662849.904    19662849.252
        45.400          45.800
  -5564333.699 2  -4335838.789 2  24893184.325    24893186.080    24893183.726
        12.600          17.800
 -20137988.743 6 -15691933.475 6  21395747.360    21395747.311    21395747.234
        40.000          38.900
  -7528539.993 3  -5866386.347 3  23869545.028    23869544.073    23869544.936
        23.000          23.400
 -18347827.669 6 -14297005.323 5  22133262.712    22133263.214    22133263.330
        36.500          33.100
 -23798817.944 6 -18544526.119 6  20850351.227    20850352.307    20850351.560
        41.200          37.200
  -5074318.555 3  -3954017.272 3  24666109.261    24666109.540    24666108.995
        19.900          19.900
    622267.986 1    484884.344    25207434.620    25207437.029    25207434.843
         6.500           3.000
  -3525386.625 2  -2747053.974 1  25265141.117    25265140.766    25265140.290
        13.900           9.000
 -22246034.914 6 -17334564.971 6  21451841.836    21451842.858    21451841.708
        40.600          36.500
 13 10  9  0 50  0.0000000  0 12G 5G24G26G21G28G 7G15G 9G19G 3G18G 8
 -17524519.029 6 -13655457.746 5  22372177.322    22372178.342    22372178.348
        37.200          34.300
  -2915086.333 1  -2271491.345 2  25097094.339    25097098.149    25097095.989
        11.000          12.600
 -30276745.395 7 -23592258.694 7  19662135.759    19662136.717    19662136.087
        45.500          45.700
  -5548523.614 2  -4323519.203 2  24896191.208    24896194.812    24896191.736
        15.100          15.100
 -20156108.333 6 -15706052.628 6  21392299.360    21392299.153    21392299.275
        40.000          38.900
  -7429993.927 4  -5789597.211 3  23888298.794    23888297.209    23888297.787
        24.900          23.000
 -18428039.092 6 -14359507.756 5  22117999.419    22117999.523    22117999.834
        37.000          33.100
 -23726164.373 6 -18487912.970 6  20864176.953    20864177.912    20864177.142
        41.000          37.200
  -5063055.644 3  -3945241.043 3  24668253.148    24668253.215    24668252.242
        18.600          18.600
    692797.718 2    539842.256 1  25220856.322    25220859.614    25220855.973
        12.600           9.000
  -3619880.757 2  -2820685.818 2  25247159.770    25247159.329    25247158.938
        15.100          13.900
 -22184257.770 6 -17286426.938 6  21463597.643    21463598.733    21463597.661
        40.600          36.800
 13 10  9  0 50 30.0000000  0 12G 5G24G26G21G28G 7G15G 9G19G 3G18G 8
 -17435141.634 6 -13585813.053 5  22389185.668    22389186.283    22389186.309
        36.800          34.300
  -3020117.512 2  -2353333.819 1  25077106.566    25077111.758    25077108.511
        12.600           9.000
 -30279950.129 7 -23594755.897 7  19661525.869    19661526.859    19661526.293
        45.400          45.800
  -5532243.206 2  -4310833.433 2  24899292.730    24899292.060    24899292.089
        17.000          13.900
 -20173688.482 6 -15719751.440 6  21388953.856    21388953.734    21388953.843
        40.100          38.800
  -7331351.184 4  -5712732.724 4  23907068.670    23907068.523    23907068.652
        24.600          24.200
 -18507985.805 6 -14421803.915 5  22102785.872    22102786.388    22102786.393
        36.500          33.200
 -23653136.529 6 -18431008.176 6  20878073.379    20878074.618    20878073.649
        40.900          37.200
  -5051198.083 3  -3936001.266 2  24670509.489    24670509.806    24670508.925
        22.100          17.800
    763792.017 2    595162.412    25234365.482    25234368.437    25234366.779
        12.600           3.000
  -3714180.497 2  -2894166.281 1  25229214.490    25229214.793    25229214.420
        12.600           9.000
 -22122163.896 6 -17238042.117 6  21475413.757    21475414.638    21475413.602
        40.300          36.500
 13 10  9  0 51  0.0000000  0 12G 5G24G26G21G28G 7G15G 9G19G 3G18G 8
 -17345414.689 6 -13515895.989 5  22406259.961    22406261.250    22406260.803
        37.000          34.700
  -3125079.363 1  -2435122.267 3  25057132.773    25057137.905    25057134.562
         9.000          18.600
 -30282611.092 7 -23596829.365 7  19661019.412    19661020.426    19661019.931
        45.500          45.700
  -5515492.577 2  -4297781.108 2  24902480.004    24902478.955    24902479.778
        17.800          12.600
 -20190729.088 6 -15733029.827 6  21385710.919    21385711.148    21385710.982
        39.800          38.900
  -7232613.189 3  -5635794.038 3  23925856.545    23925857.318    23925857.653
        23.800          23.000
 -18587666.274 6 -14483892.590 5  22087623.023    22087623.758    22087623.746
        36.600          33.500
 -23579736.350 6 -18373813.256 6  20892041.102    20892042.257    20892041.352
        40.800          37.000
  -5038746.541 3  -3926298.722 2  24672879.925    24672878.706    24672878.643
        19.900          17.800
    835248.185 1    650842.584 9  25247963.005    25247965.981    25247963.785
        11.000          -3.000
  -3808283.437 2  -2967493.112 1  25211304.996    25211306.699    25211306.398
        13.900          11.000
 -22059754.744 6 -17189411.605 6  21487290.028    21487290.504    21487289.838
        40.400          36.300
 13 10  9  0 51 30.0000000  0 12G 5G24G26G21G28G 7G15G 9G19G 3G18G 8
 -17255340.306 6 -13445708.186 5  22423400.808    22423401.558    22423401.506
        37.200          34.000
  -3229970.592 1  -2516855.664 2  25037172.460    25037177.101    25037173.556
         9.000          16.100
 -30284727.892 7 -23598478.824 7  19660616.692    19660617.622    19660617.112
        45.500          45.900
  -5498272.436 2  -4284362.697 2  24905754.760    24905756.027    24905755.349
        12.600          13.900
 -20207229.524 6 -15745887.300 6  21382571.435    21382571.234    21382571.417
        40.200          39.100
  -7133781.327 3  -5558782.201 3  23944663.454    23944664.762    23944664.516
        22.100          23.400
 -18667078.610 6 -14545772.321 5  22072511.447    22072511.828    22072512.358
        37.200          33.400
 -23505965.601 6 -18316329.576 6  20906079.419    20906080.497    20906079.463
        40.900          37.000
  -5025701.293 2  -3916133.607 3  24675361.181    24675361.611    24675360.952
        17.800          21.100
    907162.696 2    706879.420 9  25261648.940    25261650.866    25261648.104
        12.600          -3.000
  -3902187.647 2  -3040665.255 2  25193436.850    25193437.999    25193437.277
        17.000          12.600
 -21997032.021 6 -17140536.775 6  21499225.284    21499226.573    21499225.357
        40.000          36.500
 13 10  9  0 52  0.0000000  0 12G 5G24G26G21G28G 7G15G 9G19G 3G18G 8
 -17164921.314 6 -13375251.859 5  22440606.711    22440607.822    22440607.460
        36.500          34.000
  -3334790.111 2  -2598533.206 2  25017227.169    25017231.130    25017227.679
        12.600          17.000
 -30286300.125 7 -23599703.927 7  19660317.506    19660318.290    19660317.872
        45.500          45.600
  -5480584.256 1  -4270579.586 2  24909121.107    24909123.639    24909121.373
        11.000          15.100
 -20223189.881 6 -15758323.932 6  21379534.240    21379533.869    21379534.159
        40.400          39.000
  -7034856.865 3  -5481698.215 4  23963489.556    23963489.923    23963489.534
        23.800          25.300
 -18746221.246 6 -14607441.886 5  22057450.639    22057451.505    22057451.908
        36.800          33.800
 -23431826.292 6 -18258558.710 6  20920187.741    20920188.639    20920187.760
        40.900          36.800
  -5012062.709 3  -3905506.161 3  24677956.139    24677956.825    24677955.921
        19.900          21.100
    979535.323      763273.681    25275420.021    25275421.947    25275420.403
         3.000           3.000
  -3995890.657 2  -3113680.639 2  25175607.486    25175606.167    25175606.018
        13.900          12.600
 -21933997.180 6 -17091418.732 6  21511220.637    21511221.748    21511220.606
        40.100          36.800
 13 10  9  0 52 30.0000000  0 12G 5G24G26G21G28G 7G15G 9G19G 3G18G 8
 -17074160.345 6 -13304529.054 5  22457877.800    22457879.083    22457878.787
        36.800          33.900
  -3439537.591 3  -2680154.600 3  24997293.893    24997298.810    24997295.205
        18.600          19.900
 -30287327.404 7 -23600504.407 7  19660122.251    19660122.795    19660122.403
        45.500          45.700
  -5462429.141 2  -4256432.685 2  24912575.984    24912577.345    24912575.487
        16.100          15.100
 -20238609.838 6 -15770339.472 6  21376599.849    21376599.603    21376599.707
        40.000          39.000
  -6935841.320 3  -5404543.257 3  23982331.785    23982331.333    23982331.819
        22.600          23.800
 -18825092.293 6 -14668899.844 5  22042442.153    22042442.900    22042443.076
        37.000          33.800
 -23357320.636 6 -18200502.371 6  20934365.500    20934366.597    20934365.701
        40.600          36.800
  -4997831.513 2  -3894417.181 3  24680665.200    24680665.462    24680665.335
        17.800          20.500
   1052364.275 2    820024.177 9  25289278.985    25289280.329    25289279.267
        12.600          -3.000
  -4089389.520 3  -3186536.627 1  25157814.290    25157814.397    25157813.995
        18.600           9.000
 -21870651.859 6 -17042058.745 5  21523274.157    21523275.726    21523274.546
        39.700          35.700
 13 10  9  0 53  0.0000000  0 12G 5G24G26G21G28G 7G15G 9G19G 3G18G 8
 -16983059.376 6 -13233541.317 5  22475214.163    22475215.142    22475214.702
        36.600          34.100
  -3544211.069 2  -2761718.356 2  24977375.444    24977380.425    24977376.324
        15.100          16.100
 -30287809.383 7 -23600879.972 7  19660030.255    19660031.148    19660030.653
        45.400          45.800
  -5443807.975 2  -4241922.524 2  24916119.423    24916121.106    24916119.470
        13.900          17.800
 -20253489.132 6 -15781933.719 6  21373768.105    21373768.382    21373768.235
        40.400          39.100
  -6836735.914 3  -5327318.262 3  24001189.261    24001190.569    24001190.725
        23.800          23.800
 -18903690.189 6 -14730144.966 5  22027485.506    22027486.253    22027486.440
        37.000          33.900
 -23282450.517 6 -18142162.011 6  20948612.585    20948613.733    20948613.092
        40.500          36.500
  -4983007.214 3  -3882865.818 3  24683487.078    24683487.176    24683486.721
        22.100          22.100
   1125644.559 2    877126.009 9  25303224.016    25303227.273    25303221.025
        13.900          -3.000
  -4182682.911 2  -3259232.777 2  25140060.022    25140061.260    25140059.601
        15.100          13.900
 -21806997.524 6 -16992457.959 6  21535387.766    21535388.868    21535387.685
        39.900          36.100
 13 10  9  0 53 30.0000000  0 11G 5G24G26G21G28G 7G15G 9G19G18G 8
 -16891621.324 6 -13162290.913 5  22492614.546    22492615.227    22492614.855
        36.100          33.900
  -3648809.942 1  -2843223.954 2  24957470.483    24957475.234    24957471.460
        11.000          17.000
 -30287745.630 7 -23600830.304 7  19660042.588    19660043.244    19660042.831
        45.600          45.700
  -5424722.040 1  -4227050.386 2  24919751.808    24919751.622    24919751.353
         9.000          13.900
 -20267827.394 6 -15793106.384 6  21371039.616    21371039.736    21371039.789
        40.400          39.100
  -6737542.266 3  -5250024.526 3  24020065.109    24020066.811    24020066.465
        23.400          23.400
 -18982012.797 6 -14791175.573 5  22012581.356    22012582.040    22012582.023
        37.400          33.900
 -23207217.958 6 -18083539.247 6  20962928.729    20962930.005    20962929.140
        40.300          36.500
  -4967591.002 3  -3870853.486 3  24686421.405    24686420.399    24686419.636
        20.500          18.600
  -4275767.929 2  -3331766.452 2  25122346.669    25122347.748    25122346.864
        15.100          13.900
 -21743035.310 6 -16942617.309 5  21547559.271    21547560.495    21547559.257
        39.800          35.900
 13 10  9  0 54  0.0000000  0 11G 5G24G26G21G28G 7G15G 9G19G18G 8
 -16799848.896 6 -13090779.950 5  22510077.938    22510078.535    22510078.575
        36.600          33.500
  -3753332.893 2  -2924670.398 2  24937579.772    24937585.171    24937581.493
        17.800          17.800
 -30287135.824 7 -23600355.145 7  19660158.542    19660159.343    19660158.839
        45.400          45.900
  -5405172.079 1  -4211816.521 2  24923471.991    24923472.085    24923471.705
         6.500          12.600
 -20281624.541 6 -15803857.402 6  21368414.291    21368413.974    21368414.253
        40.000          38.900
  -6638261.562 3  -5172662.968 3  24038958.186    24038958.917    24038959.033
        22.600          23.000
 -19060058.784 6 -14851990.623 5  21997729.998    21997730.623    21997730.424
        37.600          34.300
 -23131624.742 6 -18024635.463 6  20977314.207    20977314.927    20977314.381
        40.600          36.500
  -4951582.042 3  -3858378.778 3  24689465.991    24689467.261    24689465.860
        21.600          20.500
  -4368641.813 2  -3404135.477 1  25104673.159    25104673.896    25104672.985
        15.100           9.000
 -21678766.786 6 -16892537.941 5  21559789.399    21559790.352    21559789.322
        40.200          35.900
 13 10  9  0 54 30.0000000  0 11G 5G24G26G21G28G 7G15G 9G19G18G 8
 -16707744.138 6 -13019010.026 5  22527605.195    22527605.892    22527605.789
        36.800          33.400
  -3857778.849 2  -3006056.865 2  24917706.283    24917709.855    24917706.089
        16.100          17.800
 -30285979.617 7 -23599454.216 7  19660378.549    19660379.334    19660378.888
        45.600          45.800
  -5385160.238 2  -4196223.079 2  24927280.170    24927281.585    24927280.069
        12.600          12.600
 -20294880.413 6 -15814186.642 6  21365891.791    21365891.535    21365891.814
        40.300          38.900
  -6538894.954 3  -5095234.479 3  24057867.718    24057867.165    24057867.647
        23.000          22.600
 -19137826.120 6 -14912588.553 5  21982930.967    21982931.838    21982931.707
        37.800          34.400
 -23055672.893 6 -17965452.215 6  20991767.277    20991768.297    20991767.552
        40.400          36.500
  -4934981.995 2  -3845443.778 3  24692625.286    24692626.438    24692624.588
        17.000          20.500
  -4461303.739 2  -3476339.578 1  25087038.707    25087041.308    25087039.982
        15.100          11.000
 -21614193.734 6 -16842221.263 5  21572076.992    21572078.205    21572076.971
        39.700          35.700
 13 10  9  0 55  0.0000000  0 11G 5G24G26G21G28G 7G15G 9G19G18G 8
 -16615310.250 5 -12946983.653 5  22545194.482    22545195.708    22545195.039
        35.600          33.900
  -3962146.878 1  -3087382.568 3  24897845.130    24897849.356    24897846.056
         9.000          21.600
 -30284276.722 7 -23598127.290 7  19660702.713    19660703.410    19660703.111
        45.600          45.900
  -5364685.612 2  -4180268.637 2  24931176.018    24931177.858    24931174.938
        15.100          12.600
 -20307595.049 6 -15824094.138 6  21363472.556    21363472.208    21363472.383
        40.400          39.300
  -6439443.838 3  -5017740.144 3  24076791.408    24076792.777    24076793.122
        21.600          21.600
 -19215313.265 6 -14972968.137 5  21968185.871    21968186.501    21968186.594
        37.600          34.400
 -22979364.348 6 -17905991.018 6  21006288.408    21006289.289    21006288.576
        40.600          36.400
  -4917790.951 3  -3832048.412 3  24695896.652    24695897.415    24695896.475
        19.900          19.900
  -4553750.545 2  -3548376.037 1  25069447.345    25069449.771    25069447.263
        13.900          11.000
 -21549317.672 6 -16791668.472 5  21584422.414    21584423.619    21584422.494
        39.700          35.700
 13 10  9  0 55 30.0000000  0 11G 5G24G26G21G28G 7G15G 9G19G18G 8
 -16522549.792 5 -12874702.797 5  22562846.329    22562846.964    22562847.009
        35.900          33.500
  -4066435.774 2  -3168646.636 3  24877999.204    24878003.293    24878000.544
        16.100          18.600
 -30282026.886 7 -23596374.188 7  19661130.877    19661131.717    19661131.190
        45.600          45.900
  -5343751.159 2  -4163956.147 2  24935159.510    24935160.983    24935159.556
        12.600          17.000
 -20319768.017 6 -15833579.556 6  21361155.915    21361155.617    21361155.852
        40.200          38.900
  -6339909.721 4  -4940181.106 3  24095732.894    24095733.264    24095733.620
        24.600          22.600
 -19292518.312 6 -15033127.909 5  21953494.270    21953494.844    21953495.000
        38.100          34.700
 -22902701.415 6 -17846253.681 5  21020876.506    21020877.772    21020876.921
        40.400          35.900
  -4900008.622 3  -3818191.958 2  24699281.143    24699280.730    24699281.615
        21.600          17.000
  -4645979.505 2  -3620242.616 2  25051897.071    25051898.564    25051897.690
        15.100          16.100
 -21484139.812 6 -16740880.528 5  21596825.291    21596826.422    21596825.438
        39.500          35.500
 13 10  9  0 56  0.0000000  0 11G 5G24G26G21G28G 7G15G 9G19G18G 8
 -16429465.209 6 -12802169.385 5  22580559.679    22580560.705    22580560.383
        36.700          33.500
  -4170644.876 2  -3249848.521 2  24858168.342    24858172.369    24858169.491
        12.600          15.100
 -30279229.680 7 -23594194.559 7  19661663.098    19661663.945    19661663.408
        45.700          45.900
  -5322357.292 2  -4147285.590 2  24939231.697    24939230.992    24939231.323
        12.600          13.900
 -20331399.373 6 -15842642.940 6  21358942.488    21358942.123    21358942.503
        40.300          38.900
  -6240293.636 3  -4862558.213 3  24114689.838    24114689.816    24114690.372
        23.000          23.800
 -19369439.399 6 -15093066.421 5  21938856.785    21938857.320    21938857.275
        37.700          34.400
 -22825685.838 6 -17786241.545 6  21035532.095    21035533.602    21035532.450
        40.000          36.100
  -4881635.981 3  -3803875.492 3  24702777.716    24702777.070    24702777.699
        21.600          19.300
  -4737989.164 2  -3691938.590 2  25034389.778    25034390.219    25034388.861
        15.100          13.900
 -21418661.574 6 -16689858.529 5  21609285.324    21609286.612    21609285.553
        39.700          35.400
 13 10  9  0 56 30.0000000  0 11G 5G24G26G21G28G 7G15G 9G19G18G 8
 -16336058.720 6 -12729385.127 5  22598333.917    22598335.403    22598335.174
        36.300          33.200
  -4274772.852 1  -3330987.214 2  24838353.510    24838358.104    24838354.758
        11.000          17.000
 -30275884.930 7 -23591588.277 7  19662299.693    19662300.360    19662299.924
        45.600          45.900
  -5300504.921 2  -4130257.723 2  24943389.926    24943389.198    24943389.014
        12.600          13.900
 -20342489.116 6 -15851284.287 6  21356831.849    21356831.988    21356832.017
        40.300          39.300
  -6140597.139 3  -4784872.680 4  24133660.528    24133661.528    24133661.985
        21.600          24.600
 -19446074.913 6 -15152782.397 5  21924272.993    21924273.888    21924274.108
        37.800          34.500
 -22748319.655 6 -17725956.222 5  21050254.751    21050255.739    21050254.849
        40.100          35.700
  -4862673.584 3  -3789099.432 3  24706384.980    24706385.645    24706384.583
        21.600          19.300
  -4829777.482 2  -3763462.345 2  25016921.628    25016923.990    25016921.606
        15.100          15.100
 -21352884.613 6 -16638603.784 5  21621802.437    21621803.684    21621802.457
        39.300          35.700
 13 10  9  0 57  0.0000000  0 11G 5G24G26G21G28G 7G15G 9G19G18G 8
 -16242333.303 5 -12656352.354 5  22616169.642    22616170.731    22616170.316
        35.800          32.700
  -4378818.687 1  -3412061.861 3  24818554.405    24818558.411    24818555.835
        11.000          18.600
 -30271992.369 7 -23588555.132 7  19663040.428    19663041.077    19663040.693
        45.500          45.800
  -5278195.809 2  -4112874.010 2  24947634.877    24947635.421    24947634.943
        17.800          12.600
 -20353037.050 6 -15859503.447 6  21354824.796    21354824.774    21354824.850
        40.300          39.300
  -6040821.643 3  -4707125.577 3  24152648.358    24152647.968    24152648.514
        19.900          22.100
 -19522422.976 6 -15212274.378 5  21909744.567    21909745.381    21909745.371
        38.400          35.100
 -22670604.801 6 -17665399.199 5  21065042.828    21065044.316    21065043.295
        39.800          35.700
  -4843121.820 3  -3773864.113 3  24710105.600    24710106.330    24710105.894
        19.900          19.900
  -4921340.296 2  -3834809.716 1  24999497.019    24999498.729    24999497.629
        13.900          11.000
 -21286810.308 6 -16587117.333 5  21634375.981    21634377.187    21634375.967
        39.400          35.300
 13 10  9  0 57 30.0000000  0 11G 5G24G26G21G28G 7G15G 9G19G18G 8
 -16148291.525 5 -12583073.062 5  22634065.309    22634066.511    22634065.947
        35.800          33.100
  -4482781.552 2  -3493071.883 3  24798771.939    24798775.632    24798771.865
        12.600          19.900
 -30267551.701 7 -23585094.883 7  19663885.350    19663886.159    19663885.694
        45.600          46.000
  -5255430.891 2  -4095135.174 2  24951967.725    24951967.527    24951967.437
        16.100          15.100
 -20363043.213 6 -15867300.447 6  21352920.896    21352920.675    21352920.814
        40.300          39.400
  -5940968.207 2  -4629317.772 3  24171649.279    24171649.685    24171649.957
        17.800          22.600
 -19598481.928 6 -15271541.084 5  21895271.077    21895271.732    21895271.990
        38.300          35.100
 -22592543.138 6 -17604571.945 6  21079897.726    21079899.159    21079897.826
        39.800          36.000
  -4822982.036 3  -3758170.874 3  24713937.862    24713938.066    24713937.507
        21.100          18.600
  -5012676.894 2  -3905981.264 2  24982117.031    24982118.331    24982118.145
        13.900          15.100
 -21220440.346 6 -16535400.480 5  21647005.532    21647006.944    21647005.659
        39.000          35.100
 13 10  9  0 58  0.0000000  0 11G 5G24G26G21G28G 7G15G 9G19G18G 8
 -16053936.026 6 -12509549.309 5  22652020.844    22652021.297    22652021.482
        36.100          32.800
  -4586660.256 2  -3574016.308 2  24779004.215    24779008.145    24779004.451
        15.100          17.000
 -30262562.708 7 -23581207.369 7  19664834.700    19664835.636    19664835.098
        45.600          46.100
  -5232211.540 2  -4077042.377 1  24956386.474    24956386.366    24956385.325
        17.000          11.000
 -20372507.471 6 -15874675.184 6  21351119.850    21351119.595    21351119.739
        40.200          39.100
  -5841038.168 3  -4551450.248 3  24190665.988    24190665.500    24190666.606
        23.000          21.600
 -19674250.231 6 -15330581.296 5  21880853.068    21880853.468    21880853.780
        38.400          34.700
 -22514136.714 6 -17543476.034 5  21094817.937    21094819.089    21094818.140
        39.500          35.400
  -4802254.622 3  -3742019.805 2  24717880.865    24717881.227    24717880.680
        19.900          13.900
  -5103784.029 2  -3976973.831 1  24964780.592    24964781.695    24964780.256
        16.100           9.000
 -21153776.387 6 -16483454.552 5  21659691.469    21659692.883    21659691.391
        39.000          35.100
 13 10  9  0 58 30.0000000  0 11G 5G24G26G21G28G 7G15G 9G19G18G 8
 -15959269.256 5 -12435783.003 5  22670034.855    22670036.062    22670035.624
        34.900          33.100
  -4690453.345 2  -3654894.038 2  24759252.411    24759256.098    24759252.650
        12.600          16.100
 -30257025.135 7 -23576892.388 7  19665888.589    19665889.344    19665888.883
        45.600          46.100
  -5208538.287 1  -4058595.550 1  24960889.588    24960890.191    24960889.285
        11.000          11.000
 -20381429.923 6 -15881627.735 6  21349421.955    21349421.622    21349421.848
        40.500          39.100
  -5741032.632 3  -4473523.893 3  24209695.632    24209695.899    24209696.659
        21.600          22.100
 -19749725.817 6 -15389393.408 5  21866490.388    21866490.904    21866491.293
        38.600          34.900
 -22435387.582 6 -17482113.078 5  21109803.566    21109804.585    21109803.754
        39.300          35.400
  -4780939.455 3  -3725410.594 3  24721938.990    24721937.589    24721938.128
        19.900          18.600
  -5194659.510 2  -4047785.816 1  24947487.424    24947488.328    24947486.963
        16.100           9.000
 -21086819.569 6 -16431280.421 5  21672432.728    21672434.209    21672433.007
        39.000          34.800
 13 10  9  0 59  0.0000000  0 11G 5G24G26G21G28G 7G15G 9G19G18G 8
 -15864294.075 5 -12361776.393 5  22688107.765    22688109.474    22688108.979
        35.200          33.100
  -4794160.068 2  -3735704.458 3  24739518.413    24739521.850    24739519.255
        15.100          19.300
 -30250938.830 7 -23572149.822 7  19667046.603    19667047.531    19667047.024
        45.600          45.800
  -5184412.878 2  -4039796.548 2  24965481.404    24965481.895    24965481.120
        17.800          16.100
 -20389810.617 6 -15888158.130 6  21347827.033    21347826.959    21347827.012
        40.500          39.500
  -5640953.255 3  -4395539.981 3  24228739.287    24228740.804    24228740.894
        20.500          22.600
 -19824906.939 6 -15447976.077 5  21852183.791    21852184.454    21852184.610
        38.100          34.700
 -22356297.593 6 -17420484.527 5  21124853.642    21124855.086    21124853.951
        39.400          35.400
  -4759037.625 3  -3708344.242 3  24726106.746    24726106.179    24726106.015
        20.500          19.300
  -5285301.612 1  -4118416.308 1  24930238.622    24930240.052    24930238.661
        11.000          11.000
 -21019571.528 6 -16378879.358 5  21685230.003    21685231.247    21685229.958
        38.900          34.800
 13 10  9  0 59 30.0000000  0 11G 5G24G26G21G28G 7G15G 9G19G18G 8
 -15769012.993 5 -12287531.407 5  22706239.881    22706240.623    22706240.418
        35.900          32.400
  -4897779.570 2  -3816446.932 3  24719800.251    24719804.320    24719799.675
        13.900          20.500
 -30244303.613 7 -23566979.536 7  19668309.249    19668310.242    19668309.727
        45.500          46.000
  -5159836.804 2  -4020646.334 2  24970158.492    24970158.972    24970158.047
        13.900          12.600
 -20397649.245 6 -15894266.140 6  21346335.471    21346335.457    21346335.380
        40.300          39.500
  -5540801.124 3  -4317499.397 3  24247798.308    24247798.662    24247798.468
        20.500          21.600
 -19899791.946 6 -15506328.007 5  21837933.529    21837934.418    21837934.373
        38.600          35.300
 -22276868.904 6 -17358592.067 5  21139968.628    21139969.873    21139968.940
        39.600          35.600
  -4736549.305 3  -3690820.704 3  24730386.384    24730386.433    24730386.020
        21.600          21.600
  -5375707.941 2  -4188862.974 2  24913034.463    24913036.941    24913035.104
        17.000          13.900
 -20952033.620 6 -16326252.434 5  21698081.867    21698083.275    21698081.970
        39.000          35.100
 13 10  9  1  0  0.0000000  0 11G 5G24G26G21G28G 7G15G 9G19G18G 8
 -15673429.201 5 -12213050.540 5  22724428.823    22724429.699    22724429.375
        35.900          32.600
  -5001310.763 2  -3897120.550 3  24700098.655    24700103.245    24700099.585
        12.600          20.500
 -30237119.248 7 -23561381.326 7  19669676.433    19669677.389    19669676.917
        45.600          46.100
  -5134811.115 2  -4001145.657 2  24974920.204    24974921.042    24974920.035
        17.000          13.900
 -20404946.334 6 -15899952.176 6  21344946.868    21344946.781    21344946.796
        40.300          39.300
  -5440577.568 3  -4239403.154 3  24266870.315    24266871.280    24266870.717
        19.900          22.600
 -19974378.840 6 -15564447.632 5  21823740.143    21823741.067    21823741.015
        38.800          35.600
 -22197103.271 6 -17296437.051 5  21155147.625    21155148.593    21155147.694
        39.100          34.800
  -4713475.507 3  -3672840.957 3  24734776.811    24734776.977    24734776.102
        19.900          20.500
  -5465875.229 2  -4259123.100 2  24895876.455    24895878.180    24895877.262
        16.100          15.100
 -20884207.298 6 -16273400.779 5  21710989.323    21710990.084    21710989.153
        39.100          34.400
 13 10  9  1  0 30.0000000  0 11G 5G24G26G21G28G 7G15G 9G19G18G 8
 -15577544.207 5 -12138334.978 5  22742674.712    22742676.228    22742675.597
        35.300          32.400
  -5104752.220 2  -3977724.266 3  24680414.154    24680419.091    24680415.133
        16.100          21.600
 -30229385.593 7 -23555355.098 7  19671147.871    19671148.986    19671148.476
        45.600          46.000
  -5109336.556 1  -3981295.153 2  24979766.121    24979768.510    24979766.451
        11.000          16.100
 -20411701.817 6 -15905216.186 6  21343661.112    21343661.212    21343661.186
        40.400          39.200
  -5340283.738 3  -4161252.135 3  24285955.755    24285956.403    24285956.380
        21.600          22.600
 -20048666.030 6 -15622333.746 5  21809603.464    21809604.672    21809604.626
        38.700          35.300
 -22117002.706 6 -17234021.047 5  21170390.193    21170391.260    21170390.514
        39.500          34.900
  -4689817.516 3  -3654406.115 3  24739277.286    24739277.940    24739277.881
        19.300          19.300
  -5555802.170 2  -4329196.045 2  24878765.061    24878765.928    24878764.114
        17.800          15.100
 -20816094.151 6 -16220325.615 5  21723950.291    21723951.517    21723950.552
        38.900          34.400
 13 10  9  1  1  0.0000000  0 11G 5G24G26G21G28G 7G15G 9G19G18G 8
 -15481360.993 5 -12063387.029 5  22760978.058    22760979.071    22760979.010
        35.500          31.800
  -5208103.507 2  -4058257.714 2  24660746.479    24660751.349    24660747.766
        12.600          13.900
 -30221102.569 7 -23548900.796 7  19672724.241    19672725.214    19672724.638
        45.600          46.000
  -5083415.342 2  -3961096.723 2  24984699.074    24984701.389    24984699.423
        13.900          15.100
 -20417915.531 6 -15910058.030 6  21342479.044    21342478.836    21342479.005
        40.600          39.500
  -5239920.980 2  -4083047.432 3  24305055.194    24305055.112    24305055.634
        17.800          22.100
 -20122651.653 6 -15679984.880 5  21795524.565    21795525.656    21795525.570
        38.700          35.500
 -22036569.226 6 -17171345.620 5  21185696.283    21185697.518    21185696.686
        39.300          35.200
  -4665575.187 3  -3635515.894 2  24743891.490    24743891.130    24743890.658
        18.600          17.000
  -5645485.623 2  -4399079.025 2  24861698.421    24861699.167    24861698.328
        17.000          13.900
 -20747695.625 6 -16167028.072 5  21736966.229    21736967.403    21736966.381
        38.700          34.800
 13 10  9  1  1 30.0000000  0 11G 5G24G26G21G28G 7G15G 9G19G18G 8
 -15384882.610 5 -11988209.081 5  22779336.884    22779338.367    22779337.822
        34.700          32.300
  -5311362.886 2  -4138719.549 3  24641097.372    24641101.394    24641098.269
        17.000          21.100
 -30212269.934 7 -23542018.230 7  19674404.960    19674406.079    19674405.474
        45.700          46.000
  -5057048.548 2  -3940551.084 2  24989718.441    24989718.101    24989718.324
        13.900          15.100
 -20423587.854 6 -15914478.010 6  21341399.580    21341399.320    21341399.513
        40.600          39.400
  -5139490.519 3  -4004789.970 3  24324165.119    24324166.169    24324166.029
        19.300          20.500
 -20196333.959 6 -15737399.647 5  21781503.671    21781504.289    21781504.360
        38.600          35.600
 -21955804.683 6 -17108412.214 5  21201065.424    21201066.474    21201065.567
        38.900          35.100
  -4640750.177 2  -3616171.818 2  24748615.875    24748615.140    24748614.710
        17.800          17.800
  -5734923.741 3  -4468770.879 2  24844677.851    24844679.316    24844679.048
        18.600          16.100
 -20679013.167 6 -16113509.274 5  21750036.155    21750037.383    21750036.026
        38.200          34.600
 13 10  9  1  2  0.0000000  0 11G 5G24G26G21G28G 7G15G 9G19G18G 8
 -15288111.427 5 -11912802.988 5  22797752.008    22797753.310    22797752.749
        34.600          32.300
  -5414529.817 1  -4219109.353 3  24621465.735    24621469.129    24621466.375
        11.000          18.600
 -30202887.679 7 -23534707.383 7  19676190.351    19676191.459    19676190.875
        45.600          46.100
  -5030237.939 2  -3919659.770 2  24994819.311    24994820.436    24994819.533
        13.900          16.100
 -20428718.620 6 -15918476.003 6  21340423.256    21340422.959    21340423.119
        40.600          39.500
  -5038993.748 3  -3926480.832 3  24343290.337    24343290.244    24343289.707
        19.300          21.600
 -20269711.164 6 -15794576.672 5  21767540.399    21767541.015    21767541.087
        38.900          35.800
 -21874711.178 6 -17045222.489 5  21216496.895    21216497.853    21216497.091
        38.900          34.500
  -4615342.501 3  -3596373.509 3  24753450.655    24753449.753    24753449.443
        19.900          18.600
  -5824114.210 2  -4538269.750 2  24827704.996    24827706.854    24827705.842
        16.100          17.800
 -20610048.256 6 -16059770.403 5  21763159.584    21763160.938    21763159.620
        38.400          34.700
 13 10  9  1  2 30.0000000  0 11G 5G24G26G21G28G 7G15G 9G19G18G 8
 -15191050.177 5 -11837170.859 5  22816222.461    22816223.321    22816223.309
        35.500          31.500
  -5517602.978 2  -4299426.086 3  24601851.110    24601855.476    24601852.401
        13.900          18.600
 -30192955.649 7 -23526968.140 7  19678080.316    19678081.442    19678080.890
        45.600          45.900
  -5002984.293 2  -3898423.284 1  25000004.675    25000006.770    25000005.313
        13.900          11.000
 -20433308.386 6 -15922052.430 6  21339549.816    21339549.621    21339549.750
        40.400          39.700
  -4938431.907 3  -3848121.006 3  24362424.798    24362425.948    24362425.734
        18.600          19.900
 -20342781.670 6 -15851514.747 5  21753635.426    21753636.170    21753636.374
        39.000          35.800
 -21793290.828 6 -16981778.074 5  21231990.745    21231991.723    21231991.027
        38.900          34.500
  -4589353.444 3  -3576122.365 3  24758396.895    24758394.948    24758396.588
        21.100          18.600
  -5913054.719 3  -4607573.790 2  24810780.485    24810781.316    24810781.021
        19.300          17.000
 -20540802.203 6 -16005812.454 5  21776336.814    21776337.969    21776336.820
        38.500          34.300
 13 10  9  1  3  0.0000000  0 11G 5G24G26G21G28G 7G15G 9G19G18G 8
 -15093701.654 5 -11761314.870 5  22834747.165    22834748.203    22834747.901
        34.700          32.100
  -5620581.655 2  -4379669.196 3  24582255.044    24582258.882    24582255.509
        12.600          20.500
 -30182473.774 7 -23518800.448 7  19680075.176    19680076.050    19680075.569
        45.600          46.000
  -4975289.000 2  -3876842.435 2  25005276.582    25005275.628    25005275.394
        13.900          12.600
 -20437357.200 6 -15925207.347 6  21338779.092    21338779.046    21338779.160
        40.400          39.500
  -4837806.084 3  -3769711.283 3  24381575.120    24381574.536    24381575.492
        20.500          19.300
 -20415543.383 6 -15908212.180 5  21739789.122    21739790.050    21739790.171
        38.900          35.900
 -21711545.318 6 -16918080.286 5  21247546.417    21247547.534    21247546.850
        39.100          34.600
  -4562783.447 3  -3555418.542 2  24763453.054    24763451.693    24763452.354
        21.600          17.000
  -6001743.370 2  -4676681.871 2  24793904.839    24793904.877    24793904.076
        17.000          17.000
 -20471276.717 6 -15951636.753 5  21789566.850    21789568.093    21789567.161
        38.100          34.100
 13 10  9  1  3 30.0000000  0 11G 5G24G26G21G28G 7G15G 9G19G18G 8
 -14996068.483 5 -11685237.087 5  22853326.404    22853327.251    22853326.879
        34.300          31.500
  -5723464.259 2  -4459837.394 3  24562677.003    24562681.507    24562678.209
        13.900          19.900
 -30171441.916 7 -23510204.198 7  19682174.297    19682175.306    19682174.859
        45.600          46.000
  -4947153.626 2  -3854918.820 2  25010630.194    25010631.252    25010630.574
        12.600          13.900
 -20440865.289 6 -15927940.915 6  21338111.366    21338111.319    21338111.541
        40.300          39.400
  -4737117.524 3  -3691252.729 3  24400733.447    24400735.607    24400735.368
        19.900          21.600
 -20487994.696 6 -15964667.731 6  21726001.912    21726002.944    21726003.142
        39.300          36.000
 -21629476.850 6 -16854130.837 5  21263163.288    21263164.433    21263163.775
        38.600          34.400
  -4535633.524 2  -3534262.684 3  24768618.119    24768618.775    24768617.732
        17.800          20.500
  -6090177.804 2  -4745592.004 2  24777076.006    24777076.979    24777075.786
        13.900          15.100
 -20401473.245 6 -15897244.445 5  21802850.235    21802851.201    21802850.084
        38.100          33.600
 13 10  9  1  4  0.0000000  0 11G 5G24G26G21G28G 7G15G 9G19G18G 8
 -14898153.606 5 -11608939.806 5  22871958.681    22871959.862    22871959.524
        34.800          31.600
  -5826250.447 2  -4539930.536 3  24543117.922    24543122.631    24543118.206
        17.000          21.100
 -30159860.026 7 -23501179.353 7  19684378.450    19684379.310    19684378.793
        45.600          45.900
  -4918579.719 2  -3832653.523 2  25016066.546    25016068.044    25016066.255
        12.600          12.600
 -20443832.904 6 -15930253.345 6  21337546.664    21337546.909    21337546.841
        40.300          39.700
  -4636367.541 3  -3612746.262 3  24419906.405    24419908.021    24419906.801
        18.600          20.500
 -20560133.886 6 -16020880.072 6  21712274.848    21712275.218    21712275.474
        39.300          36.000
 -21547087.086 6 -16789931.027 5  21278841.875    21278842.806    21278842.005
        38.600          34.600
  -4507904.512 3  -3512655.566 3  24773894.885    24773895.403    24773893.688
        21.100          19.300
  -6178354.863 2  -4814301.458 2  24760295.696    24760297.110    24760295.967
        17.000          13.900
 -20331393.215 6 -15842636.648 5  21816185.993    21816187.242    21816185.936
        37.800          33.500
 13 10  9  1  4 30.0000000  0 11G 5G24G26G21G28G 7G15G 9G19G18G 8
 -14799958.935 5 -11532424.484 5  22890645.090    22890645.523    22890645.530
        34.100          31.000
  -5928938.569 2  -4619947.198 3  24523577.095    24523581.108    24523577.794
        16.100          22.100
 -30147728.103 7 -23491725.899 7  19686687.080    19686687.893    19686687.398
        45.500          46.000
  -4889568.476 2  -3810047.505 2  25021586.952    25021588.840    25021588.300
        13.900          13.900
 -20446259.929 6 -15932144.528 6  21337085.259    21337085.091    21337085.160
        40.600          39.800
  -4535557.241 3  -3534192.820 3  24439090.102    24439090.557    24439091.300
        19.900          21.100
 -20631959.086 6 -16076847.754 6  21698606.412    21698607.403    21698607.604
        39.500          36.400
 -21464378.007 6 -16725482.411 5  21294580.377    21294581.717    21294580.742
        38.400          34.300
  -4479597.682 3  -3490598.327 3  24779281.884    24779282.199    24779280.952
        19.900          19.900
  -6266272.305 2  -4882808.479 2  24743565.250    24743566.409    24743565.763
        17.000          17.000
 -20261038.170 6 -15787814.539 5  21829574.336    21829575.383    21829574.274
        38.100          33.800
 13 10  9  1  5  0.0000000  0 11G 5G24G26G21G28G 7G15G 9G19G18G 8
 -14701487.486 5 -11455693.501 5  22909383.157    22909384.465    22909383.652
        33.900          31.800
  -6031527.717 2  -4699886.773 3  24504055.119    24504058.592    24504055.214
        17.800          21.100
 -30135046.159 7 -23481843.866 7  19689100.245    19689101.198    19689100.678
        45.600          46.000
  -4860121.405 2  -3787101.762 1  25027192.114    25027191.767    25027192.231
        16.100           9.000
 -20448146.847 6 -15933614.850 6  21336725.754    21336725.838    21336725.896
        40.300          39.500
  -4434687.774 3  -3455593.254 3  24458284.493    24458286.251    24458286.309
        20.500          19.900
 -20703468.513 6 -16132569.386 6  21684999.250    21684999.759    21684999.757
        39.700          36.200
 -21381351.746 6 -16660786.628 5  21310380.712    21310381.116    21310380.528
        38.400          34.000
  -4450713.790 3  -3468091.526 3  24784779.599    24784778.299    24784778.916
        22.600          18.600
  -6353928.082 2  -4951111.608 2  24726884.421    24726886.374    24726885.069
        12.600          15.100
 -20190409.570 6 -15732779.272 5  21843014.831    21843015.451    21843014.536
        37.800          33.400
 13 10  9  1  5 30.0000000  0 11G 5G24G26G21G28G 7G15G 9G19G18G 8
 -14602742.280 5 -11378749.203 5  22928173.351    22928175.112    22928174.269
        33.500          31.800
  -6134017.117 2  -4779748.626 3  24484551.224    24484555.584    24484552.257
        15.100          22.100
 -30121814.105 7 -23471533.173 7  19691618.255    19691619.242    19691618.644
        45.500          46.000
  -4830239.875 2  -3763817.445 1  25032876.673    25032878.163    25032876.289
        13.900          11.000
 -20449493.878 6 -15934664.484 6  21336469.584    21336469.431    21336469.676
        40.400          39.400
  -4333760.732 3  -3376948.876 3  24477490.721    24477491.551    24477491.273
        19.900          20.500
 -20774660.281 6 -16188043.478 6  21671451.812    21671452.458    21671452.405
        39.300          36.500
 -21298010.288 6 -16595845.239 5  21326239.395    21326240.544    21326239.700
        38.300          33.600
  -4421253.644 3  -3445135.534 3  24790384.927    24790384.117    24790384.694
        21.100          19.300
  -6441320.221 3  -5019209.356 2  24710255.728    24710255.467    24710255.473
        19.300          13.900
 -20119508.595 6 -15677531.774 5  21856506.598    21856507.445    21856506.297
        37.600          33.400
 13 10  9  1  6  0.0000000  0 11G 5G24G26G21G28G 7G15G 9G19G18G 8
 -14503725.745 5 -11301593.478 5  22947015.941    22947017.024    22947016.637
        34.500          31.800
  -6236405.808 2  -4859531.958 3  24465066.983    24465071.934    24465068.471
        16.100          19.900
 -30108032.047 7 -23460793.896 7  19694240.968    19694241.887    19694241.288
        45.700          46.000
  -4799925.373 2  -3740195.716 2  25038645.437    25038647.581    25038646.113
        16.100          15.100
 -20450301.346 6 -15935293.675 6  21336316.238    21336315.917    21336316.077
        40.800          39.700
  -4232777.082 3  -3298260.316 3  24496707.207    24496708.143    24496707.935
        19.300          19.900
 -20845532.749 6 -16243268.766 6  21657964.938    21657965.834    21657965.781
        39.700          36.700
 -21214355.444 6 -16530659.652 5  21342158.811    21342159.528    21342158.747
        38.200          33.900
  -4391218.328 3  -3421731.551 2  24796100.325    24796098.836    24796099.433
        22.100          13.900
  -6528445.959 3  -5087099.503 2  24693676.449    24693675.917    24693675.610
        18.600          15.100
 -20048336.979 6 -15622073.367 5  21870049.684    21870050.908    21870049.856
        37.500          33.200
 13 10  9  1  6 30.0000000  0 11G 5G24G26G21G28G 7G15G 9G19G18G 8
 -14404440.260 5 -11224228.176 5  22965909.011    22965910.519    22965910.069
        33.800          31.300
  -6338692.431 2  -4939235.781 3  24445602.857    24445606.778    24445603.044
        13.900          18.600
 -30093699.843 7 -23449625.943 7  19696968.154    19696969.180    19696968.595
        45.600          45.900
  -4769179.548 2  -3716237.864 2  25044496.073    25044497.686    25044496.760
        15.100          13.900
 -20450569.701 6 -15935502.776 6  21336264.449    21336264.943    21336264.728
        40.600          39.700
  -4131737.825 3  -3219528.477 3  24515934.733    24515934.717    24515935.613
        19.300          20.500
 -20916084.278 6 -16298243.967 6  21644539.045    21644540.250    21644540.300
        39.500          36.500
 -21130389.158 6 -16465231.380 5  21358136.694    21358137.979    21358136.876
        38.100          34.000
  -4360608.411 2  -3397879.638 3  24801923.645    24801924.742    24801924.020
        17.000          19.900
  -6615302.766 3  -5154780.066 1  24677147.507    24677148.034    24677147.391
        18.600          11.000
 -19976895.995 6 -15566405.078 5  21883645.153    21883645.798    21883644.687
        37.600          33.200
 13 10  9  1  7  0.0000000  0 11G 5G24G26G21G28G 7G15G 9G19G18G 8
 -14304888.838 5 -11146655.657 5  22984853.070    22984854.206    22984854.192
        33.500          31.000
  -6440876.044 2  -5018859.346 3  24426158.267    24426162.298    24426159.478
        17.000          21.600
 -30078817.653 7 -23438029.421 7  19699800.342    19699801.171    19699800.598
        45.600          46.100
  -4738003.992 2  -3691945.187 2  25050429.740    25050431.101    25050429.061
        12.600          16.100
 -20450299.120 6 -15935291.925 6  21336316.345    21336316.234    21336316.450
        40.300          39.600
  -4030644.541 3  -3140754.502 3  24535172.029    24535172.730    24535172.742
        20.500          19.900
 -20986312.884 6 -16352967.542 6  21631175.261    21631176.103    21631176.149
        39.700          36.700
 -21046113.320 6 -16399561.893 5  21374174.281    21374174.815    21374174.193
        38.100          33.600
  -4329424.872 2  -3373580.675 2  24807857.919    24807859.460    24807858.378
        17.000          17.800
  -6701888.593 3  -5222249.590 2  24660671.841    24660670.987    24660671.173
        18.600          17.000
 -19905187.121 6 -15510528.041 5  21897290.161    21897291.363    21897290.358
        37.400          33.200
 13 10  9  1  7 30.0000000  0 11G 5G24G26G21G28G 7G15G 9G19G18G 8
 -14205074.140 5 -11068877.989 5  23003847.444    23003848.238    23003848.248
        33.900          30.200
  -6542955.370 2  -5098401.674 3  24406732.471    24406737.353    24406733.911
        16.100          19.900
 -30063385.467 7 -23426004.339 7  19702737.170    19702737.783    19702737.338
        45.600          46.100
  -4706400.535 2  -3667319.304 2  25056444.287    25056444.349    25056443.984
        12.600          17.000
 -20449489.844 6 -15934661.328 6  21336470.526    21336470.156    21336470.627
        40.900          39.500
  -3929497.978 2  -3061939.061 3  24554419.709    24554419.729    24554420.572
        16.100          19.300
 -21056216.527 6 -16407437.893 6  21617873.716    21617873.852    21617874.029
        40.000          37.100
 -20961529.861 6 -16333652.691 5  21390269.347    21390270.596    21390269.817
        37.500          33.600
  -4297669.919 3  -3348836.697 3  24813900.816    24813902.498    24813901.468
        19.900          19.900
  -6788201.721 2  -5289506.639 2  24644246.703    24644246.071    24644246.121
        17.800          13.900
 -19833211.967 6 -15454443.492 5  21910986.890    21910987.637    21910986.872
        37.200          33.000
 13 10  9  1  8  0.0000000  0 11G 5G24G26G21G28G 7G15G 9G19G18G 8
 -14104999.108 5 -10990897.465 5  23022890.991    23022892.204    23022891.762
        33.900          30.600
  -6644929.534 2  -5177862.013 3  24387327.681    24387332.253    24387328.742
        16.100          22.100
 -30047403.348 7 -23413550.736 7  19705778.258    19705779.102    19705778.621
        45.600          45.900
  -4674369.875 2  -3642360.362 2  25062538.378    25062540.472    25062539.005
        13.900          15.100
 -20448142.303 6 -15933611.287 6  21336726.896    21336726.632    21336726.738
        40.700          39.700
  -3828299.507 3  -2983083.147 3  24573678.322    24573677.966    24573678.652
        18.600          21.100
 -21125793.965 6 -16461654.105 6  21604633.480    21604633.761    21604633.947
        40.000          37.100
 -20876640.862 6 -16267505.409 5  21406423.957    21406424.356    21406423.748
        38.100          33.400
  -4265343.922 3  -3323647.797 3  24820053.751    24820053.299    24820053.055
        20.500          19.900
  -6874239.057 3  -5356548.674 2  24627873.746    24627874.897    24627873.480
        18.600          13.900
 -19760972.035 6 -15398152.633 5  21924733.655    21924734.652    21924733.431
        37.000          32.400
 13 10  9  1  8 30.0000000  0 11G 5G24G26G21G28G 7G15G 9G19G18G 8
 -14004666.146 5 -10912715.952 5  23041983.863    23041985.094    23041984.565
        33.400          31.100
  -6746797.597 2  -5257239.699 3  24367942.766    24367947.450    24367944.169
        17.000          23.400
 -30030871.430 7 -23400668.721 7  19708923.940    19708924.989    19708924.401
        45.600          46.000
  -4641913.817 2  -3617069.889 2  25068715.802    25068716.018    25068714.425
        15.100          12.600
 -20446256.937 6 -15932142.163 6  21337085.573    21337085.528    21337085.513
        40.300          39.500
  -3727050.606 2  -2904187.979 3  24592943.128    24592945.538    24592944.574
        16.100          19.900
 -21195043.325 6 -16515614.638 6  21591455.888    21591456.066    21591456.253
        40.200          37.200
 -20791448.230 6 -16201121.536 5  21422634.689    21422635.998    21422635.023
        37.400          33.000
  -4232447.532 3  -3298014.187 3  24826312.111    24826313.676    24826313.394
        21.600          18.600
  -6959997.989 3  -5423373.744 2  24611554.330    24611554.981    24611554.104
        21.100          17.000
 -19688468.775 6 -15341656.583 5  21938530.162    21938531.638    21938530.397
        37.200          32.800
 13 10  9  1  9  0.0000000  0 11G 5G24G26G21G28G 7G15G 9G19G18G 8
 -13904077.799 5 -10834335.447 5  23061125.344    23061126.312    23061125.909
        33.000          30.800
  -6848558.580 2  -5336533.937 3  24348578.337    24348582.267    24348580.313
        16.100          22.100
 -30013789.700 7 -23387358.279 7  19712174.488    19712175.570    19712174.939
        45.600          46.100
  -4609034.397 2  -3591449.544 1  25074972.155    25074973.305    25074971.523
        15.100           9.000
 -20443834.047 6 -15930254.197 6  21337546.692    21337546.520    21337546.733
        40.700          39.700
  -3625752.243 2  -2825254.213 3  24612220.743    24612222.200    24612220.662
        15.100          21.600
 -21263962.618 6 -16569317.974 6  21578340.869    21578341.284    21578341.343
        40.100          37.000
 -20705953.967 6 -16134502.627 5  21438903.862    21438905.044    21438904.066
        37.200          33.200
  -4198982.511 3  -3271937.656 2  24832681.899    24832680.587    24832680.875
        20.500          17.800
  -7045476.642 3  -5489980.386 2  24595288.789    24595289.330    24595288.294
        20.500          17.800
 -19615703.852 6 -15284956.658 5  21952377.036    21952378.319    21952377.084
        36.600          32.700
 13 10  9  1  9 30.0000000  0 11G 5G24G26G21G28G 7G15G 9G19G18G 8
 -13803237.178 5 -10755758.355 5  23080314.783    23080315.331    23080315.340
        33.000          30.400
  -6950211.252 2  -5415743.777 3  24329234.660    24329238.998    24329235.654
        16.100          21.600
 -29996158.351 7 -23373619.561 7  19715529.560    19715530.786    19715530.142
        45.600          46.100
  -4575732.964    -3565500.239 1  25081308.821    25081309.826    25081308.379
         3.000          11.000
 -20440874.210 6 -15927947.828 6  21338109.961    21338109.744    21338109.923
        40.700          39.500
  -3524405.335 2  -2746282.689 2  24631505.571    24631507.204    24631507.051
        15.100          17.000
 -21332549.886 6 -16622762.593 6  21565288.694    21565289.362    21565289.469
        40.100          37.200
 -20620159.970 6 -16067650.159 5  21455230.369    21455231.049    21455230.398
        37.600          33.400
  -4164949.455 3  -3245418.382 2  24839157.947    24839157.110    24839157.412
        21.100          16.100
  -7130672.429 3  -5556366.405 1  24579075.659    24579076.269    24579075.312
        19.900          11.000
 -19542678.348 6 -15228053.665 5  21966273.386    21966274.675    21966273.459
        36.600          32.600
 13 10  9  1 10  0.0000000  0 11G 5G24G26G21G28G 7G15G 9G19G18G 8
 -13702146.962 5 -10676986.788 5  23099551.319    23099552.366    23099552.020
        32.700          30.400
  -7051754.858 2  -5494868.625 3  24309912.007    24309915.465    24309912.349
        17.000          21.100
 -29977977.464 7 -23359452.633 7  19718989.258    19718990.456    19718989.816
        45.600          46.000
  -4542011.537 2  -3539223.928 1  25087725.969    25087726.640    25087725.828
        13.900          11.000
 -20437377.887 6 -15925223.421 6  21338775.330    21338775.144    21338775.212
        40.500          39.600
  -3423011.424 3  -2667274.493 3  24650802.639    24650801.808    24650802.214
        19.300          19.900
 -21400803.556 6 -16675947.249 6  21552300.415    21552301.112    21552301.262
        40.200          37.100
 -20534068.285 6 -16000565.731 5  21471612.845    21471613.877    21471613.166
        37.500          33.000
  -4130349.545 2  -3218457.266 2  24845742.238    24845740.739    24845741.113
        17.800          17.000
  -7215583.922 3  -5622531.118 2  24562917.271    24562918.200    24562917.540
        21.100          13.900
 -19469393.520 6 -15170948.600 5  21980219.035    21980220.302    21980218.984
        36.500          32.600
 13 10  9  1 10 30.0000000  0 11G 5G24G26G21G28G 7G15G 9G19G18G 8
 -13600809.272 5 -10598022.382 5  23118835.672    23118836.272    23118836.133
        32.700          30.200
  -7153188.217 2  -5573907.587 3  24290609.899    24290613.416    24290611.033
        17.000          21.100
 -29959247.185 7 -23344857.612 7  19722553.547    19722554.641    19722554.026
        45.500          45.800
  -4507871.270 1  -3512621.245 2  25094221.776    25094224.072    25094221.467
         9.000          13.900
 -20433345.539 6 -15922081.320 6  21339542.600    21339542.474    21339542.438
        40.700          39.600
  -3321571.495 3  -2588230.432 3  24670104.742    24670104.658    24670104.785
        20.500          19.300
 -21468721.944 6 -16728870.654 6  21539375.739    21539376.526    21539376.818
        40.400          37.600
 -20447680.798 6 -15933250.818 5  21488051.724    21488052.781    21488052.079
        37.100          33.100
  -4095184.004 2  -3191055.331 3  24852432.838    24852433.062    24852431.930
        16.100          19.300
  -7300207.898 3  -5688471.679 2  24546812.715    24546814.817    24546814.071
        19.900          15.100
 -19395851.132 6 -15113642.853 5  21994213.566    21994214.998    21994213.649
        36.000          32.700
 13 10  9  1 11  0.0000000  0 11G 5G24G26G21G28G 7G15G 9G19G18G 8
 -13499227.303 5 -10518867.626 5  23138165.644    23138166.647    23138166.336
        32.600          30.200
  -7254510.007 3  -5652859.594 3  24271328.900    24271333.082    24271329.069
        19.300          23.800
 -29939967.600 7 -23329834.555 7  19726222.480    19726223.462    19726222.844
        45.600          45.900
  -4473313.672 2  -3485693.279 2  25100798.252    25100800.832    25100798.590
        13.900          12.600
 -20428777.461 6 -15918521.771 6  21340411.917    21340411.696    21340411.937
        40.900          39.500
  -3220086.510 2  -2509151.268 2  24689416.944    24689417.450    24689417.390
        17.000          17.800
 -21536303.572 6 -16781531.643 6  21526516.137    21526516.257    21526516.440
        40.300          37.500
 -20360999.285 6 -15865706.781 5  21504546.732    21504548.081    21504547.055
        37.200          33.000
  -4059454.172 3  -3163213.657 3  24859232.213    24859232.362    24859231.644
        19.300          19.300
  -7384542.799 3  -5754186.997 2  24530765.963    24530766.160    24530766.208
        19.300          16.100
 -19322052.617 6 -15056137.519 5  22008257.825    22008258.421    22008257.635
        37.100          32.700
 13 10  9  1 11 30.0000000  0 11G 5G24G26G21G28G 7G15G 9G19G18G 8
 -13397403.844 5 -10439524.688 5  23157542.675    23157543.334    23157542.939
        32.600          31.000
  -7355719.549 2  -5731724.120 3  24252069.308    24252073.772    24252069.850
        17.800          23.000
 -29920138.945 7 -23314383.655 7  19729995.794    19729996.728    19729996.093
        45.600          46.000
  -4438340.416 2  -3458441.488 2  25107453.459    25107455.329    25107453.780
        16.100          15.100
 -20423674.410 6 -15914545.369 6  21341383.212    21341382.754    21341383.039
        40.600          39.700
  -3118557.909 2  -2430038.146 2  24708737.924    24708737.320    24708737.400
        17.800          15.100
 -21603546.179 6 -16833928.467 6  21513719.795    21513720.395    21513720.560
        40.300          37.400
 -20274025.614 6 -15797935.079 5  21521097.188    21521098.519    21521097.517
        37.200          32.800
  -4023161.911 2  -3134933.981 2  24866139.395    24866137.484    24866137.808
        17.800          17.800
  -7468586.094 2  -5819675.309 2  24514772.552    24514773.170    24514772.352
        17.000          16.100
 -19247999.231 6 -14998433.572 5  22022349.251    22022350.046    22022349.207
        36.500          32.000
 13 10  9  1 12  0.0000000  0 11G 5G24G26G21G28G 7G15G 9G19G18G 8
 -13295341.278 5 -10359995.439 4  23176964.523    23176964.924    23176964.901
        32.800          29.000
  -7456815.846 2  -5810500.425 3  24232830.917    24232835.073    24232831.674
        13.900          22.600
 -29899761.466 7 -23298505.096 7  19733873.440    19733874.292    19733873.783
        45.600          45.800
  -4402953.643 2  -3430867.475 2  25114188.047    25114188.963    25114187.303
        13.900          13.900
 -20418036.574 6 -15910152.245 6  21342455.580    21342455.626    21342455.578
        40.500          39.500
  -3016986.564 2  -2350891.692 2  24728063.921    24728065.643    24728065.427
        16.100          17.000
 -21670447.869 6 -16886059.645 6  21500989.198    21500989.515    21500989.600
        40.600          37.700
 -20186761.693 6 -15729937.214 5  21537702.701    21537704.172    21537703.221
        36.800          32.400
  -3986307.728 3  -3106216.260 2  24873151.407    24873151.045    24873150.777
        19.300          17.800
  -7552335.265 2  -5884934.400 2  24498835.527    24498835.520    24498835.304
        17.800          17.800
 -19173692.630 6 -14940532.325 5  22036488.998    22036489.960    22036489.009
        36.100          31.800
 13 10  9  1 12 30.0000000  0 11G 5G24G26G21G28G 7G15G 9G19G18G 8
 -13193042.336 5 -10280281.984 5  23196430.773    23196431.758    23196431.627
        32.400          30.100
  -7557797.626 3  -5889187.465 3  24213614.818    24213618.838    24213615.805
        20.500          22.600
 -29878835.272 7 -23282198.969 7  19737855.446    19737856.489    19737855.881
        45.600          45.900
  -4367154.902 2  -3402972.397 1  25121000.945    25121001.214    25121000.648
        13.900          11.000
 -20411864.700 6 -15905342.990 6  21343630.256    21343630.127    21343630.236
        40.700          39.700
  -2915373.554 2  -2271712.759 3  24747401.777    24747402.979    24747402.298
        17.000          18.600
 -21737006.996 6 -16937923.879 6  21488323.190    21488323.740    21488323.891
        40.700          38.200
 -20099209.435 6 -15661714.667 5  21554363.437    21554364.827    21554363.744
        36.600          32.400
  -3948893.631 3  -3077062.593 3  24880272.086    24880271.816    24880271.453
        20.500          19.300
  -7635787.804 3  -5949962.356 2  24482955.228    24482955.952    24482955.397
        21.100          17.800
 -19099134.042 5 -14882434.725 5  22050676.852    22050678.209    22050677.066
        35.900          32.400
 13 10  9  1 13  0.0000000  0 11G 5G24G26G21G28G 7G15G 9G19G18G 8
 -13090510.065 5 -10200386.729 5  23215941.566    23215943.330    23215942.548
        31.600          30.100
  -7658663.901 2  -5967784.540 3  24194420.109    24194423.757    24194421.440
        17.800          21.600
 -29857360.548 7 -23265465.414 7  19741942.064    19741943.031    19741942.487
        45.600          45.900
  -4330945.923 1  -3374757.789 2  25127890.531    25127891.290    25127891.066
         6.500          13.900
 -20405159.352 6 -15900118.043 6  21344906.517    21344906.144    21344906.387
        40.900          39.700
  -2813720.415 3  -2192502.556 2  24766744.956    24766746.452    24766746.200
        18.600          17.800
 -21803222.153 6 -16989520.085 6  21475722.482    21475723.297    21475723.331
        40.600          38.100
 -20011370.896 6 -15593269.054 5  21571078.777    21571079.606    21571078.983
        36.500          32.100
  -3910919.931 3  -3047472.634 2  24887496.953    24887497.426    24887496.697
        19.900          17.800
  -7718941.401 3  -6014757.274 2  24467131.346    24467131.951    24467131.198
        19.900          13.900
 -19024325.103 6 -14824142.045 5  22064912.776    22064914.128    22064912.816
        36.200          32.000
 13 10  9  1 13 30.0000000  0 11G 5G24G26G21G28G 7G15G 9G19G18G 8
 -12987746.915 5 -10120311.565 4  23235497.674    23235498.449    23235498.088
        32.100          29.200
  -7759413.815 2  -6046290.925 3  24175248.064    24175252.342    24175248.686
        17.000          23.000
 -29835337.547 7 -23248304.631 7  19746132.773    19746133.842    19746133.257
        45.600          45.900
  -4294328.255 1  -3346224.640 2  25134857.892    25134859.975    25134858.342
        11.000          12.600
 -20397920.982 6 -15894477.758 6  21346283.548    21346283.634    21346283.590
        40.600          39.700
  -2712028.211 3  -2113261.975 2  24786096.786    24786097.990    24786098.087
        19.900          17.800
 -21869091.173 6 -17040846.565 6  21463187.940    21463188.906    21463188.982
        40.700          38.100
 -19923247.946 6 -15524601.815 5  21587847.853    21587849.017    21587848.213
        37.000          32.100
  -3872388.674 3  -3017448.360 2  24894829.453    24894829.489    24894829.247
        19.300          17.800
  -7801794.437 3  -6079318.212 2  24451364.912    24451365.776    24451364.888
        18.600          17.000
 -18949267.156 5 -14765655.336 5  22079195.448    22079197.000    22079195.749
        35.800          31.800
 13 10  9  1 14  0.0000000  0 11G 5G24G26G21G28G 7G15G 9G19G18G 8
 -12884755.717 5 -10040058.690 4  23255095.877    23255096.907    23255096.716
        31.600          29.000
  -7860046.165 2  -6124705.696 3  24156098.183    24156102.807    24156098.814
        17.800          23.000
 -29812766.551 7 -23230716.842 7  19750428.041    19750429.087    19750428.377
        45.600          45.900
  -4257303.357 2  -3317374.132 2  25141904.409    25141906.234    25141903.878
        12.600          12.600
 -20390150.237 6 -15888422.642 6  21347762.361    21347762.328    21347762.398
        40.900          39.500
  -2610298.008 2  -2033991.698 3  24805456.620    24805456.924    24805456.346
        17.000          19.900
 -21934612.330 6 -17091901.991 6  21450719.900    21450720.439    21450720.632
        40.400          38.100
 -19834842.603 6 -15455714.528 5  21604671.044    21604672.102    21604671.150
        36.800          32.100
  -3833300.562 3  -2986989.948 3  24902267.787    24902267.589    24902267.750
        19.900          19.300
  -7884343.402 3  -6143641.749 2  24435655.866    24435656.320    24435655.829
        18.600          12.600
 -18873961.774 5 -14706975.826 5  22093525.992    22093527.145    22093526.049
        35.800          31.800
 13 10  9  1 14 30.0000000  0 11G 5G24G26G21G28G 7G15G 9G19G18G 8
 -12781539.420 5  -9959630.423 4  23274737.036    23274738.540    23274737.989
        32.100          29.200
  -7960559.970 2  -6203028.096 3  24136971.452    24136975.780    24136972.507
        17.800          23.400
 -29789647.817 7 -23212702.241 7  19754827.416    19754828.376    19754827.734
        45.600          45.800
  -4219873.669 2  -3288208.335 2  25149026.025    25149028.270    25149026.192
        15.100          12.600
 -20381847.919 6 -15881953.307 6  21349342.276    21349341.915    21349342.181
        40.600          39.300
  -2508530.658 2  -1954692.507 3  24824820.489    24824823.026    24824822.411
        15.100          19.900
 -21999784.319 6 -17142685.353 6  21438318.012    21438318.662    21438318.983
        40.800          38.100
 -19746156.614 6 -15386608.569 5  21621547.212    21621548.363    21621547.476
        36.200          32.100
  -3793657.422 3  -2956099.129 3  24909811.475    24909811.547    24909811.607
        18.600          19.900
  -7966587.211 3  -6207727.750 2  24420006.014    24420006.594    24420005.758
        20.500          16.100
 -18798410.339 5 -14648104.584 5  22107902.528    22107904.339    22107902.881
        35.900          31.800
 13 10  9  1 15  0.0000000  0 11G 5G24G26G21G28G 7G15G 9G19G18G 8
 -12678100.579 5  -9879028.736 4  23294421.052    23294422.248    23294421.836
        31.600          29.900
  -8060954.071 2  -6281257.225 4  24117867.069    24117871.441    24117867.868
        16.100          24.200
 -29765981.573 7 -23194261.007 7  19759331.063    19759331.799    19759331.339
        45.700          45.700
  -4182039.991 2  -3258727.453 2  25156227.234    25156228.219    25156227.081
        13.900          16.100
 -20373014.422 6 -15875070.062 6  21351023.270    21351022.944    21351023.223
        40.400          39.200
  -2406727.504 2  -1875365.483 2  24844193.697    24844194.587    24844194.095
        17.000          17.000
 -22064604.270 6 -17193194.376 6  21425983.511    21425983.906    21425984.088
        40.900          38.300
 -19657191.850 6 -15317285.382 5  21638476.700    21638477.948    21638476.886
        36.600          31.500
  -3753460.601 3  -2924776.911 2  24917461.515    24917459.650    24917461.219
        19.900          12.600
  -8048522.821 3  -6271573.537 1  24404414.283    24404413.927    24404413.898
        19.900          11.000
 -18722614.222 5 -14589042.686 5  22122326.319    22122327.641    22122326.333
        35.300          31.500
 13 10  9  1 15 30.0000000  0 11G 5G24G26G21G28G 7G15G 9G19G18G 8
 -12574441.782 5  -9798255.665 4  23314146.500    23314147.988    23314147.330
        31.500          29.200
  -8161227.611 2  -6359392.399 3  24098785.029    24098789.458    24098785.670
        16.100          22.100
 -29741768.085 7 -23175393.352 7  19763938.612    19763939.414    19763938.891
        45.600          45.600
  -4143804.845 2  -3228933.907 1  25163502.992    25163503.999    25163500.503
        13.900           6.500
 -20363650.307 6 -15867773.349 6  21352805.190    21352804.979    21352805.206
        40.700          39.500
  -2304889.291 2  -1796011.117 2  24863571.889    24863573.413    24863573.337
        12.600          17.000
 -22129071.412 6 -17243428.496 6  21413715.809    21413716.301    21413716.392
        40.900          38.600
 -19567950.373 6 -15247746.568 5  21655458.557    21655459.991    21655458.986
        36.400          31.300
  -3712711.261 3  -2893024.161 2  24925214.998    24925214.888    24925214.359
        19.300          17.800
  -8130148.716 3  -6335178.113 3  24388880.010    24388881.379    24388881.286
        19.300          19.300
 -18646574.687 5 -14529791.098 5  22136796.181    22136797.427    22136796.403
        35.300          31.500
 13 10  9  1 16  0.0000000  0 11G 5G24G26G21G28G 7G15G 9G19G18G 8
 -12470565.761 5  -9717313.321 4  23333914.086    23333914.556    23333914.418
        31.100          28.400
  -8261379.554 2  -6437432.835 3  24079726.841    24079730.977    24079727.360
        17.800          23.800
 -29717007.728 7 -23156099.565 7  19768650.296    19768651.315    19768650.561
        45.600          45.900
  -4105170.443 2  -3198829.408 2  25170854.125    25170855.696    25170854.419
        12.600          15.100
 -20353756.396 6 -15860063.801 6  21354687.748    21354687.709    21354687.802
        40.400          39.300
  -2203017.439 1  -1716630.507 2  24882958.165    24882959.851    24882958.196
        11.000          17.800
 -22193183.726 6 -17293386.148 6  21401515.642    21401516.094    21401516.190
        41.000          38.800
 -19478433.766 6 -15177993.362 5  21672493.447    21672494.445    21672493.645
        36.200          32.000
  -3671411.229 2  -2860842.339 3  24933074.482    24933074.881    24933074.043
        17.000          21.100
  -8211462.078 3  -6398539.171 2  24373407.836    24373407.213    24373407.398
        20.500          17.800
 -18570293.083 5 -14470350.884 5  22151312.392    22151313.583    22151312.316
        35.800          31.500
 13 10  9  1 16 30.0000000  0 11G 5G24G26G21G28G 7G15G 9G19G18G 8
 -12366475.376 5  -9636203.938 4  23353721.218    23353722.386    23353721.991
        30.600          28.400
  -8361409.173 3  -6515377.952 4  24060692.503    24060696.022    24060693.075
        19.300          24.200
 -29691700.749 7 -23136379.842 7  19773466.053    19773467.039    19773466.467
        45.700          45.800
  -4066137.166    -3168413.903 2  25178282.157    25178283.178    25178282.773
         3.000          15.100
 -20343333.332 6 -15851941.925 6  21356671.114    21356671.244    21356671.151
        40.600          39.600
  -2101113.013 3  -1637224.524 2  24902349.016    24902351.040    24902350.198
        18.600          13.900
 -22256939.462 6 -17343065.918 6  21389383.052    21389383.686    21389383.771
        41.000          38.800
 -19388644.242 6 -15108027.515 5  21689580.049    21689580.705    21689580.097
        36.400          32.000
  -3629561.621 3  -2828232.199 3  24941038.022    24941037.391    24941038.416
        21.600          19.300
  -8292460.542 3  -6461654.798 2  24357994.414    24357994.755    24357993.753
        20.500          17.800
 -18493770.958 5 -14410723.262 5  22165874.129    22165875.259    22165873.945
        35.400          31.300
 13 10  9  1 17  0.0000000  0 11G 5G24G26G21G28G 7G15G 9G19G18G 8
 -12262173.342 5  -9554929.638 4  23373569.634    23373570.769    23373570.201
        31.000          29.000
  -8461314.890 3  -6593226.540 4  24041681.489    24041684.929    24041681.775
        19.300          24.600
 -29665847.532 7 -23116234.483 7  19778385.470    19778386.804    19778386.094
        45.600          45.800
  -4026707.757 1  -3137689.788 2  25185784.977    25185787.700    25185784.882
         9.000          12.600
 -20332381.720 6 -15843408.208 6  21358755.209    21358755.123    21358755.288
        40.500          39.500
  -1999177.083 2  -1557794.043 2  24921747.709    24921749.583    24921749.036
        13.900          17.800
 -22320336.732 6 -17392466.389 6  21377318.780    21377319.488    21377319.779
        40.800          38.600
 -19298583.611 5 -15037850.398 5  21706717.939    21706718.515    21706717.961
        35.900          31.000
  -3587164.335 2  -2795195.431 2  24949105.850    24949105.118    24949105.882
        17.800          15.100
  -8373142.314 3  -6524523.801 2  24342641.447    24342640.675    24342641.345
        21.100          17.800
 -18417009.893 5 -14350909.455 5  22180481.139    22180482.573    22180481.087
        34.600          31.800
 13 10  9  1 17 30.0000000  0 11G 5G24G26G21G28G 7G15G 9G19G18G 8
 -12157662.315 5  -9473492.492 4  23393457.306    23393458.615    23393458.028
        31.300          28.400
  -8561095.986 2  -6670977.992 3  24022693.245    24022696.827    24022693.689
        17.800          23.000
 -29639448.383 7 -23095663.720 7  19783409.336    19783410.252    19783409.758
        45.600          45.600
  -3986884.043 1  -3106658.284 1  25193363.033    25193365.154    25193363.569
        11.000          11.000
 -20320902.576 6 -15834463.420 6  21360939.897    21360939.504    21360939.865
        40.800          39.500
  -1897210.814 3  -1478339.863 3  24941152.207    24941153.541    24941152.745
        18.600          20.500
 -22383373.938 6 -17441586.240 6  21365323.246    21365323.987    21365324.165
        40.900          38.900
 -19208253.627 6 -14967463.387 5  21723906.754    21723907.860    21723907.085
        36.000          31.300
  -3544219.658 3  -2761731.836 3  24957278.214    24957278.227    24957277.552
        19.300          19.900
  -8453504.893 3  -6587144.102 2  24327347.913    24327348.601    24327348.327
        22.100          15.100
 -18340011.375 5 -14290910.630 5  22195133.680    22195134.809    22195133.620
        35.300          31.000
 13 10  9  1 18  0.0000000  0 12G 5G24G26G21G28G 7G15G 9G19G17G18G 8
 -12052944.925 5  -9391894.538 4  23413383.258    23413385.504    23413384.887
        30.400          28.600
  -8660751.387 3  -6748631.516 4  24003729.804    24003733.426    24003730.230
        20.500          24.900
 -29612503.667 7 -23074667.835 7  19788536.825    19788537.692    19788537.185
        45.700          45.700
  -3946667.885 1  -3075321.040 2  25201015.897    25201017.939    25201017.011
         9.000          12.600
 -20308896.423 6 -15825107.976 6  21363224.549    21363224.203    21363224.515
        40.800          39.400
  -1795214.977 2  -1398862.660 2  24960561.265    24960561.618    24960562.775
        15.100          16.100
 -22446049.181 6 -17490424.067 6  21353396.661    21353397.246    21353397.372
        41.400          39.000
 -19117656.216 6 -14896868.021 5  21741146.535    21741148.081    21741147.292
        36.200          31.300
  -3500730.512 3  -2727844.237 3  24965554.809    24965553.811    24965553.340
        19.300          18.600
   -184293.727 2   -143605.287 2  25486909.281    25486913.297    25486911.494
        12.600          12.600
  -8533545.450 3  -6649513.291 2  24312116.419    24312117.865    24312117.169
        21.100          16.100
 -18262776.319 5 -14230727.472 5  22209830.739    22209832.115    22209830.863
        35.600          30.600
 13 10  9  1 18 30.0000000  0 12G 5G24G26G21G28G 7G15G 9G19G17G18G 8
 -11948024.068 5  -9310138.046 4  23433349.537    23433351.508    23433350.792
        30.400          28.600
  -8760279.925 2  -6826186.183 4  23984788.692    23984793.528    23984790.067
        17.000          24.200
 -29585013.791 7 -23053247.152 7  19793767.999    19793768.953    19793768.305
        45.500          45.600
  -3906061.134 1  -3043679.574 2  25208744.614    25208744.437    25208744.414
        11.000          13.900
 -20296364.008 6 -15815342.460 6  21365609.302    21365609.112    21365609.321
        40.500          39.300
  -1693190.863 2  -1319363.422 3  24979976.480    24979977.307    24979976.898
        16.100          18.600
 -22508360.915 6 -17538978.655 6  21341538.608    21341539.718    21341539.858
        41.200          39.100
 -19026793.403 5 -14826065.828 5  21758438.023    21758438.795    21758437.973
        35.700          31.500
  -3456698.086 3  -2693533.378 3  24973933.413    24973932.899    24973932.053
        18.600          18.600
   -279619.530 1   -217885.164 1  25468770.767    25468771.698    25468771.307
        11.000          11.000
  -8613262.164 3  -6711630.179 2  24296947.199    24296947.919    24296947.336
        20.500          13.900
 -18185306.420 5 -14170361.344 5  22224572.890    22224574.131    22224572.956
        35.100          31.000
 13 10  9  1 19  0.0000000  0 12G 5G24G26G21G28G 7G15G 9G19G17G18G 8
 -11842902.279 5  -9228224.986 4  23453354.249    23453354.832    23453354.592
        30.400          27.400
  -8859680.698 3  -6903641.282 3  23965873.731    23965878.013    23965875.025
        20.500          23.800
 -29556979.052 7 -23031401.896 7  19799102.635    19799103.587    19799103.025
        45.700          45.500
  -3865065.393 2  -3011734.875 2  25216545.058    25216547.055    25216545.655
        15.100          13.900
 -20283306.153 6 -15805167.514 6  21368094.230    21368093.994    21368094.212
        40.700          39.600
  -1591139.522 2  -1239842.905 2  24999395.561    24999397.102    24999396.336
        15.100          17.000
 -22570307.055 6 -17587248.357 6  21329751.065    21329751.822    21329751.853
        41.300          39.100
 -18935666.908 5 -14755058.175 5  21775778.486    21775779.591    21775778.639
        35.600          31.300
  -3412123.443 3  -2658799.910 2  24982414.432    24982413.989    24982414.359
        19.900          17.800
   -374943.066 2   -292163.287 1  25450630.441    25450632.285    25450632.555
        12.600           9.000
  -8692652.446 3  -6773492.535 2  24281839.681    24281840.006    24281840.019
        21.100          17.800
 -18107602.926 5 -14109813.164 5  22239359.801    22239360.435    22239359.467
        35.100          31.000
 13 10  9  1 19 30.0000000  0 12G 5G24G26G21G28G 7G15G 9G19G17G18G 8
 -11737582.750 5  -9146157.825 4  23473395.702    23473396.410    23473396.522
        30.100          27.600
  -8958952.710 3  -6980996.062 4  23946983.083    23946986.892    23946983.866
        19.300          24.600
 -29528400.031 7 -23009132.526 7  19804541.232    19804541.996    19804541.574
        45.700          45.500
  -3823682.643 1  -2979488.639 2  25224419.331    25224422.072    25224419.415
        11.000          16.100
 -20269723.536 6 -15794583.657 6  21370678.500    21370678.608    21370678.663
        40.700          39.300
  -1489061.919 2  -1160302.048 2  25018820.183    25018822.016    25018819.844
        16.100          17.800
 -22631885.924 6 -17635231.865 6  21318032.692    21318033.704    21318033.835
        41.300          39.500
 -18844278.469 5 -14683846.406 5  21793169.009    21793169.991    21793169.278
        35.700          31.300
  -3367008.304 2  -2623645.176 2  24991000.078    24990999.660    24990999.332
        16.100          17.800
   -470261.540 2   -366437.426 1  25432492.628    25432493.873    25432492.386
        15.100           6.500
  -8771714.899 3  -6835099.717 2  24266794.686    24266795.398    24266795.233
        22.600          17.000
 -18029667.389 5 -14049084.190 5  22254190.154    22254191.263    22254189.830
        35.300          30.600
 13 10  9  1 20  0.0000000  0 12G 5G24G26G21G28G 7G15G 9G19G17G18G 8
 -11632068.101 5  -9063938.624 4  23493474.566    23493476.041    23493475.502
        30.400          28.800
  -9058094.925 3  -7058249.707 4  23928117.736    23928120.920    23928118.286
        19.900          25.600
 -29499276.996 7 -22986439.252 7  19810082.915    19810084.111    19810083.432
        45.600          45.600
  -3781914.791 1  -2946942.214 1  25232367.605    25232369.875    25232369.309
         9.000           6.500
 -20255617.227 6 -15783591.725 6  21373362.987    21373362.884    21373362.982
        40.400          39.300
  -1386959.164 2  -1080741.528 2  25038249.623    25038250.721    25038250.071
        17.000          17.800
 -22693095.795 6 -17682927.846 6  21306385.052    21306385.825    21306385.983
        41.400          39.400
 -18752630.085 5 -14612432.088 5  21810608.896    21810610.331    21810609.473
        35.600          31.000
  -3321354.414 3  -2588070.679 2  24999688.762    24999687.901    24999687.803
        21.600          17.800
   -565572.213 1   -440705.519 2  25414355.369    25414356.415    25414355.328
         6.500          12.600
  -8850446.622 3  -6896449.211 2  24251813.731    24251812.981    24251813.195
        21.600          17.000
 -17951501.112 5 -13988175.395 5  22269063.639    22269065.901    22269064.422
        34.900          31.100
 13 10  9  1 20 30.0000000  0 12G 5G24G26G21G28G 7G15G 9G19G17G18G 8
 -11526360.633 4  -8981569.196 4  23513590.067    23513591.695    23513590.878
        29.900          29.500
  -9157106.216 3  -7135401.310 3  23909275.840    23909279.747    23909276.488
        21.100          23.400
 -29469610.447 7 -22963322.460 7  19815728.509    19815729.453    19815728.870
        45.700          45.500
  -3739763.870 1  -2914097.167 2  25240389.732    25240391.152    25240390.332
         9.000          12.600
 -20240987.767 6 -15772192.143 6  21376147.159    21376146.847    21376147.096
        40.600          39.100
  -1284832.124 2  -1001162.079 2  25057684.065    25057685.441    25057685.868
        17.000          15.100
 -22753934.989 6 -17730334.989 6  21294807.938    21294808.518    21294808.674
        41.600          39.600
 -18660723.576 5 -14540816.632 5  21828098.179    21828099.498    21828098.400
        35.100          30.800
  -3275163.683 3  -2552078.051 3  25008478.481    25008478.009    25008477.211
        19.900          18.600
   -660872.317 1   -514965.315 1  25396220.310    25396222.058    25396221.346
        11.000          11.000
  -8928845.627 3  -6957539.503 2  24236894.001    24236894.732    24236893.947
        21.600          17.000
 -17873105.532 5 -13927087.942 5  22283982.562    22283983.886    22283982.662
        34.600          30.200
 13 10  9  1 21  0.0000000  0 12G 5G24G26G21G28G 7G15G 9G19G17G18G 8
 -11420463.427 5  -8899051.908 4  23533741.524    23533742.937    23533742.463
        30.800          28.800
  -9255985.420 3  -7212450.009 4  23890459.559    23890463.671    23890460.836
        21.600          25.300
 -29439400.814 7 -22939782.480 7  19821477.402    19821478.085    19821477.589
        45.700          45.500
  -3697232.099 1  -2880955.594 2  25248483.254    25248484.664    25248483.889
         9.000          13.900
 -20225835.978 6 -15760385.549 6  21379030.261    21379030.250    21379030.276
        40.500          39.500
  -1182682.000 2   -921564.658 3  25077123.850    25077124.829    25077124.148
        17.800          20.500
 -22814402.034 6 -17777452.131 6  21283301.181    21283301.892    21283302.119
        41.700          39.700
 -18568560.850 5 -14469001.523 5  21845636.151    21845637.545    21845636.704
        35.300          30.800
  -3228437.449 2  -2515668.128 2  25017369.448    25017369.354    25017368.386
        17.800          13.900
   -756158.743 2   -589214.522 2  25378088.329    25378089.605    25378089.813
        13.900          12.600
  -9006909.375 3  -7018368.522 2  24222039.409    24222040.024    24222039.440
        22.600          13.900
 -17794482.212 5 -13865823.026 4  22298944.728    22298945.374    22298944.401
        34.700          29.900
 13 10  9  1 21 30.0000000  0 12G 5G24G26G21G28G 7G15G 9G19G17G18G 8
 -11314379.123 4  -8816388.831 4  23553928.523    23553930.135    23553929.482
        29.500          27.900
  -9354731.968 3  -7289395.329 4  23871669.033    23871672.798    23871669.553
        19.300          25.300
 -29408648.555 7 -22915819.679 7  19827329.103    19827329.983    19827329.505
        45.700          45.500
  -3654321.231    -2847518.767 1  25256647.692    25256649.803    25256647.451
         3.000          11.000
 -20210162.815 6 -15748172.685 6  21382012.604    21382012.681    21382012.672
        40.600          39.000
  -1080509.827 2   -841950.046 2  25096564.834    25096567.061    25096565.930
        17.800          15.100
 -22874494.785 6 -17824277.622 6  21271866.058    21271866.554    21271866.685
        41.500          39.800
 -18476143.851 5 -14396988.280 5  21863222.480    21863223.829    21863223.073
        35.300          30.600
  -3181177.115 3  -2478841.902 2  25026363.241    25026362.504    25026362.243
        21.100          15.100
   -851428.837 2   -663450.959 2  25359959.252    25359960.763    25359959.296
        12.600          13.900
  -9084635.452 3  -7078934.283 2  24207247.080    24207249.094    24207248.068
        22.600          16.100
 -17715632.401 5 -13804381.621 5  22313949.373    22313949.957    22313949.063
        34.800          30.100
 13 10  9  1 22  0.0000000  0 12G 5G24G26G21G28G 7G15G 9G19G17G18G 8
 -11208110.288 4  -8733581.952 4  23574151.123    23574151.901    23574151.757
        29.200          27.400
  -9453344.411 3  -7366236.160 3  23852903.697    23852907.310    23852905.032
        21.100          23.800
 -29377354.200 7 -22891434.467 7  19833284.138    19833285.160    19833284.586
        45.700          45.500
  -3611032.876 1  -2813787.651 1  25264885.763    25264886.690    25264885.593
         9.000           9.000
 -20193969.194 6 -15735554.276 6  21385094.246    21385094.064    21385094.339
        40.600          39.100
   -978316.645 2   -762319.075 3  25116011.692    25116013.242    25116012.561
        17.000          18.600
 -22934211.380 6 -17870810.024 6  21260502.028    21260502.880    21260503.093
        41.600          39.900
 -18383474.435 5 -14324778.340 5  21880856.939    21880857.984    21880857.384
        34.900          30.100
  -3133385.065 2  -2441601.553 2  25035458.807    25035457.512    25035457.502
        17.800          17.800
   -946680.216 1   -737672.801 2  25341833.322    25341835.130    25341834.929
         9.000          13.900
  -9162021.161 3  -7139234.645 3  24192520.751    24192522.480    24192521.820
        22.100          19.300
 -17636557.549 5 -13742764.850 5  22328996.268    22328997.489    22328996.525
        34.900          30.100
 13 10  9  1 22 30.0000000  0 12G 5G24G26G21G28G 7G15G 9G19G17G18G 8
 -11101660.073 4  -8650633.748 4  23594407.263    23594408.924    23594408.362
        29.000          26.800
  -9551822.195 3  -7442972.069 4  23834163.797    23834168.525    23834164.320
        18.600          25.900
 -29345518.224 7 -22866627.212 7  19839342.210    19839343.357    19839342.834
        45.700          45.600
  -3567368.944    -2779763.799 2  25273196.455    25273197.280    25273195.662
         3.000          12.600
 -20177255.962 6 -15722530.968 6  21388274.713    21388274.554    21388274.822
        40.700          39.000
   -876103.060 2   -682672.176 3  25135462.561    25135463.645    25135464.542
        16.100          19.300
 -22993550.346 6 -17917048.171 6  21249210.342    21249211.131    21249211.186
        41.500          40.000
 -18290554.437 5 -14252373.153 5  21898539.324    21898540.158    21898539.420
        34.800          30.100
  -3085062.012 2  -2403947.357 3  25044653.902    25044653.297    25044652.740
        17.800          18.600
  -1041909.965 2   -811877.820 2  25323711.669    25323713.357    25323711.578
        12.600          12.600
  -9239065.532 3  -7199269.224 2  24177860.368    24177860.935    24177861.011
        23.000          17.800
 -17557258.949 5 -13680973.740 5  22344086.168    22344087.643    22344086.288
        34.100          30.600
 13 10  9  1 23  0.0000000  0 12G 5G24G26G21G28G 7G15G 9G19G17G18G 8
 -10995031.227 4  -8567546.361 4  23614698.893    23614699.973    23614699.739
        29.900          27.400
  -9650163.670 3  -7519601.724 4  23815450.570    23815454.241    23815450.839
        21.600          25.600
 -29313141.136 7 -22841398.312 7  19845503.512    19845504.435    19845503.942
        45.600          45.500
  -3523331.510 1  -2745448.849 2  25281576.459    25281577.320    25281575.491
         9.000          12.600
 -20160024.197 6 -15709103.616 6  21391553.598    21391553.677    21391553.827
        40.500          39.300
   -773870.604 1   -603010.609 2  25154917.267    25154918.222    25154918.552
        11.000          17.800
 -23052510.029 6 -17962990.777 6  21237991.028    21237991.462    21237991.526
        41.700          40.200
 -18197385.391 5 -14179773.897 5  21916268.922    21916269.537    21916269.176
        35.300          30.200
  -3036210.014 2  -2365880.903 3  25053949.080    25053949.690    25053948.624
        17.800          19.300
  -1137114.932 2   -886063.537 2  25305595.522    25305595.581    25305595.543
        12.600          12.600
  -9315766.048 3  -7259035.891 2  24163265.316    24163265.822    24163265.252
        22.100          17.000
 -17477737.887 5 -13619009.290 5  22359219.129    22359220.064    22359218.863
        34.800          30.600
 13 10  9  1 23 30.0000000  0 12G 5G24G26G21G28G 7G15G 9G19G17G18G 8
 -10888225.993 4  -8484321.506 4  23635022.723    23635024.065    23635023.941
        29.500          26.800
  -9748368.281 3  -7596124.761 4  23796762.090    23796765.652    23796762.960
        19.300          24.200
 -29280223.454 7 -22815748.170 7  19851767.643    19851768.620    19851767.930
        45.600          45.500
  -3478923.237 2  -2710844.981 2  25290025.906    25290027.393    25290026.062
        13.900          15.100
 -20142274.370 6 -15695272.573 6  21394931.508    21394931.283    21394931.565
        40.300          39.000
   -671620.171 2   -523335.012 2  25174374.900    25174376.297    25174375.569
        15.100          13.900
 -23111088.599 6 -18008636.422 6  21226843.560    21226844.359    21226844.415
        41.800          40.200
 -18103969.226 5 -14106982.066 5  21934045.313    21934046.497    21934045.563
        34.800          30.100
  -2986830.849 3  -2327403.653 2  25063346.578    25063345.557    25063346.306
        20.500          17.000
  -1232292.671 1   -960228.033 1  25287483.298    25287483.089    25287482.607
         6.500          11.000
  -9392120.482 3  -7318532.946 2  24148735.434    24148736.070    24148735.786
        22.100          17.000
 -17397995.913 5 -13556872.693 4  22374393.061    22374394.418    22374393.113
        34.100          29.700
 13 10  9  1 24  0.0000000  0 12G 5G24G26G21G28G 7G15G 9G19G17G18G 8
 -10781247.104 4  -8400961.346 4  23655379.894    23655381.489    23655381.059
        28.100          27.400
  -9846434.890 3  -7672540.276 4  23778101.224    23778104.224    23778101.971
        21.600          24.200
 -29246765.658 7 -22789677.159 7  19858134.432    19858135.283    19858134.784
        45.800          45.400
  -3434145.266 1  -2675952.931 2  25298545.998    25298548.343    25298545.652
        11.000          12.600
 -20124007.752 6 -15681038.852 6  21398407.677    21398407.265    21398407.581
        40.400          39.100
   -569352.698 2   -443646.114 2  25193836.584    25193837.054    25193836.573
        13.900          17.800
 -23169284.303 6 -18053983.716 6  21215769.312    21215769.975    21215770.191
        41.600          40.200
 -18010307.983 5 -14033999.274 5  21951868.920    21951869.761    21951868.684
        34.600          30.200
  -2936926.347 3  -2288517.094 3  25072843.129    25072842.573    25072842.509
        18.600          18.600
  -1327440.173 1  -1034368.919    25269377.076    25269378.147    25269377.373
         9.000           3.000
  -9468125.584 3  -7377757.708 3  24134271.447    24134273.572    24134272.443
        22.100          19.900
 -17318034.436 5 -13494565.046 4  22389608.781    22389610.715    22389609.056
        33.500          29.700
 13 10  9  1 24 30.0000000  0 12G 5G24G26G21G28G 7G15G 9G19G17G18G 8
 -10674097.604 4  -8317468.258 4  23675769.794    23675771.678    23675770.982
        27.100          26.500
  -9944362.476 3  -7748847.442 4  23759465.711    23759469.558    23759466.312
        20.500          25.300
 -29212768.456 7 -22763185.828 7  19864603.807    19864604.725    19864604.273
        45.700          45.300
  -3389000.227 2  -2640775.001 2  25307137.130    25307138.870    25307138.375
        12.600          12.600
 -20105225.140 6 -15666403.042 6  21401981.794    21401981.636    21401981.687
        40.600          39.100
   -467069.157 2   -363944.720 2  25213298.647    25213301.309    25213300.586
        13.900          15.100
 -23227095.289 6 -18099031.255 6  21204768.205    21204768.850    21204769.030
        41.700          40.300
 -17916403.322 5 -13960826.806 5  21969738.531    21969739.095    21969738.112
        34.800          30.100
  -2886498.625 3  -2249222.969 2  25082438.007    25082438.368    25082438.341
        18.600          17.800
  -1422554.700 1  -1108484.159 1  25251277.528    25251278.880    25251278.065
         6.500          11.000
  -9543780.058 3  -7436709.313 3  24119875.126    24119876.353    24119875.737
        23.000          19.900
 -17237854.672 5 -13432087.313 4  22404866.349    22404868.176    22404866.909
        34.300          29.200
 13 10  9  1 25  0.0000000  0 12G 5G24G26G21G28G 7G15G 9G19G17G18G 8
 -10566780.425 4  -8233844.499 4  23696192.095    23696193.547    23696192.731
        28.400          27.400
 -10042150.024 3  -7825045.475 4  23740856.893    23740860.605    23740857.879
        22.100          24.600
 -29178232.268 7 -22736274.512 7  19871175.927    19871176.814    19871176.381
        45.900          45.400
  -3343489.815 2  -2605312.315 2  25315798.086    25315798.411    25315797.676
        15.100          12.600
 -20085927.855 6 -15651366.205 6  21405653.856    21405653.951    21405653.961
        40.800          39.300
   -364770.523 1   -284231.587 2  25232765.292    25232767.218    25232765.183
        11.000          13.900
 -23284520.095 6 -18143777.838 6  21193840.622    21193841.219    21193841.424
        41.900          40.400
 -17822257.256 5 -13887466.224 4  21987653.424    21987654.392    21987653.461
        34.100          29.000
  -2835548.398 3  -2209521.318 2  25092134.746    25092134.098    25092134.164
        18.600          17.000
  -1517633.596 2  -1182571.561 1  25233183.850    25233185.979    25233185.244
        13.900           9.000
  -9619081.655 3  -7495385.899 3  24105546.511    24105546.507    24105546.437
        22.600          19.900
 -17157457.913 5 -13369440.498 5  22420165.944    22420167.266    22420166.088
        33.600          30.200
 13 10  9  1 25 30.0000000  0 12G 5G24G26G21G28G 7G15G 9G19G17G18G 8
 -10459297.958 4  -8150091.937 4  23716645.573    23716646.872    23716646.073
        29.200          27.100
 -10139796.652 3  -7901133.705 4  23722275.578    23722279.851    23722276.573
        20.500          25.600
 -29143157.751 7 -22708943.719 7  19877850.221    19877851.311    19877850.655
        45.600          45.400
  -3297616.624    -2569567.025 1  25324527.608    25324529.457    25324527.819
         3.000          11.000
 -20066116.517 6 -15635928.796 6  21409424.008    21409423.824    21409423.985
        40.700          39.000
   -262457.468 2   -204507.218 1  25252235.407    25252236.982    25252236.387
        13.900          11.000
 -23341556.671 6 -18188221.913 6  21182987.057    21182987.619    21182987.802
        41.600          40.500
 -17727871.522 5 -13813918.907 4  22005614.805    22005615.385    22005614.676
        34.600          29.700
  -2784078.101 3  -2169414.452 2  25101928.774    25101928.947    25101927.802
        21.100          17.000
  -1612673.890 1  -1256628.912 2  25215097.689    25215100.397    25215098.556
        11.000          13.900
  -9694027.986 3  -7553785.641 2  24091284.660    24091285.679    24091285.208
        23.800          17.800
 -17076845.766 5 -13306625.844 4  22435505.960    22435507.239    22435505.940
        34.400          29.500
 13 10  9  1 26  0.0000000  0 12G 5G24G26G21G28G 7G15G 9G19G17G18G 8
 -10351653.273 4  -8066212.988 4  23737129.387    23737131.032    23737130.324
        28.400          27.100
 -10237301.437 3  -7977111.408 4  23703721.762    23703725.136    23703721.989
        22.100          25.300
 -29107545.507 7 -22681193.916 7  19884627.142    19884628.052    19884627.376
        45.600          45.100
  -3251382.095 2  -2533540.104 1  25333325.620    25333327.509    25333324.822
        12.600           9.000
 -20045792.358 6 -15620091.789 6  21413291.473    21413291.241    21413291.436
        40.600          38.900
   -160131.209 2   -124772.494 2  25271708.696    25271709.221    25271708.787
        12.600          17.800
 -23398203.554 6 -18232362.331 6  21172207.740    21172208.224    21172208.316
        41.900          40.700
 -17633247.903 5 -13740186.212 4  22023620.633    22023621.447    22023620.695
        34.500          28.800
  -2732089.792 3  -2128904.009 3  25111821.919    25111820.654    25111820.613
        20.500          18.600
  -1707672.557 2  -1330653.819 2  25197020.767    25197022.720    25197021.684
        15.100          17.800
  -9768617.536 3  -7611907.369 3  24077091.254    24077091.251    24077090.831
        23.000          18.600
 -16996019.375 5 -13243644.250 4  22450886.671    22450887.773    22450886.476
        34.000          29.000
 13 10  9  1 26 30.0000000  0 12G 5G24G26G21G28G 7G15G 9G19G17G18G 8
 -10243848.740 4  -7982209.481 4  23757643.703    23757645.351    23757644.659
        29.000          26.500
 -10334662.790 3  -8052977.348 4  23685193.989    23685197.688    23685194.283
        19.900          26.200
 -29071396.111 7 -22653025.554 7  19891505.890    19891507.024    19891506.459
        45.600          45.300
  -3204788.396 2  -2497233.293 2  25342192.174    25342193.512    25342191.440
        12.600          13.900
 -20024956.251 6 -15603855.855 6  21417256.521    21417256.183    21417256.455
        40.500          38.800
    -57792.626 2    -45028.166 1  25291182.088    25291184.059    25291182.962
        13.900          11.000
 -23454459.089 7 -18276197.814 6  21161502.597    21161503.022    21161503.239
        42.200          40.800
 -17538388.170 5 -13666269.547 4  22041671.711    22041672.755    22041671.595
        33.900          29.000
  -2679585.490 2  -2087991.685 3  25121812.672    25121812.166    25121812.474
        17.800          18.600
  -1802626.824 2  -1404644.155 2  25178952.236    25178953.290    25178952.780
        17.800          15.100
  -9842847.145 3  -7669748.693 3  24062966.589    24062966.558    24062965.802
        23.000          19.300
 -16914980.184 5 -13180496.845 4  22466307.992    22466309.087    22466307.814
        33.900          29.900
 13 10  9  1 27  0.0000000  0 12G 5G24G26G21G28G 7G15G 9G19G17G18G 8
 -10135887.319 4  -7898083.720 4  23778188.153    23778189.644    23778189.256
        29.000          27.900
 -10431880.013 3  -8128730.974 4  23666694.771    23666697.761    23666694.982
        22.100          25.900
 -29034710.198 7 -22624439.126 7  19898487.280    19898488.096    19898487.587
        45.700          45.200
  -3157837.670 1  -2460648.257 1  25351126.420    25351127.122    25351127.492
        11.000           6.500
 -20003609.169 6 -15587221.771 6  21421318.556    21421318.474    21421318.566
        40.400          38.700
     44557.253 2     34724.946 1  25310659.401    25310660.616    25310659.676
        15.100          11.000
 -23510321.438 7 -18319726.903 6  21150872.440    21150872.802    21150872.928
        42.100          40.600
 -17443294.066 5 -13592170.250 4  22059767.851    22059768.589    22059767.564
        33.500          29.000
  -2626566.360 3  -2046677.978 2  25131901.827    25131901.991    25131901.182
        18.600          17.800
  -1897533.985 1  -1478597.754 2  25160891.610    25160892.418    25160891.581
        11.000          12.600
  -9916714.724 3  -7727307.796 3  24048908.880    24048909.340    24048909.079
        23.800          18.600
 -16833729.693 5 -13117184.786 4  22481769.566    22481770.635    22481769.310
        33.400          29.500
 13 10  9  1 27 30.0000000  0 12G 5G24G26G21G28G 7G15G 9G19G17G18G 8
 -10027771.307 4  -7813837.495 4  23798762.390    23798763.199    23798763.155
        27.900          25.600
 -10528952.325 3  -8204371.697 4  23648221.760    23648225.510    23648222.224
        22.100          24.600
 -28997488.474 7 -22595435.186 7  19905570.320    19905571.193    19905570.560
        45.600          45.200
  -3110531.832 1  -2423786.552 1  25360128.123    25360130.294    25360128.892
         6.500           6.500
 -19981752.329 6 -15570190.463 6  21425477.814    21425477.652    21425477.785
        40.100          38.700
    146917.534 2    114486.147 2  25330137.322    25330139.384    25330137.115
        12.600          13.900
 -23565788.886 7 -18362948.264 6  21140316.967    21140317.699    21140317.795
        42.100          40.700
 -17347967.407 5 -13517889.737 4  22077907.873    22077908.876    22077907.953
        34.100          28.800
  -2573035.213 3  -2004965.765 2  25142089.146    25142089.298    25142088.357
        19.900          17.800
  -1992390.993 2  -1552512.284 2  25142840.559    25142841.390    25142840.897
        16.100          13.900
  -9990218.310 3  -7784583.394 3  24034920.765    24034922.107    24034921.625
        23.800          18.600
 -16752269.017 5 -13053708.937 4  22497271.811    22497272.152    22497271.214
        34.000          28.400
 13 10  9  1 28  0.0000000  0 12G 5G24G26G21G28G 7G15G 9G19G17G18G 8
  -9919503.924 4  -7729473.310 4  23819364.115    23819365.880    23819365.474
        26.800          26.800
 -10625878.477 3  -8279898.535 4  23629777.107    23629781.041    23629778.084
        21.600          26.800
 -28959731.520 7 -22566014.179 7  19912755.230    19912756.051    19912755.553
        45.600          45.200
  -3062873.270 1  -2386650.117 1  25369197.247    25369199.747    25369196.933
         9.000          11.000
 -19959386.700 6 -15552762.699 6  21429733.786    21429733.629    21429733.889
        40.600          38.900
    249287.171 1    194254.683 2  25349617.298    25349618.679    25349617.702
         9.000          13.900
 -23620859.775 6 -18405860.632 6  21129837.546    21129837.981    21129838.056
        41.900          41.000
 -17252410.237 5 -13443429.612 4  22096091.578    22096092.771    22096091.800
        34.400          28.800
  -2518992.294 3  -1962854.200 2  25152372.261    25152372.632    25152372.402
        20.500          16.100
  -2087195.176 2  -1626385.692 2  25124800.052    25124801.949    25124801.350
        17.000          13.900
 -10063355.713 3  -7841573.457 3  24021003.168    24021005.093    24021004.336
        23.800          21.600
 -16670599.704 5 -12990070.518 4  22512812.399    22512813.111    22512812.190
        33.100          29.000
 13 10  9  1 28 30.0000000  0 12G 5G24G26G21G28G 7G15G 9G19G17G18G 8
  -9811087.655 4  -7644993.139 4  23839995.364    23839997.151    23839996.280
        25.900          25.900
 -10722657.116 3  -8355310.411 4  23611360.625    23611364.790    23611361.497
        22.100          27.100
 -28921440.064 7 -22536176.683 7  19920041.919    19920042.767    19920042.266
        45.600          45.100
  -3014864.544 2  -2349240.903 2  25378334.014    25378334.759    25378335.311
        15.100          12.600
 -19936513.349 6 -15534939.300 6  21434086.360    21434086.403    21434086.466
        40.200          38.900
    351665.456 2    274029.997 2  25369100.107    25369100.889    25369101.322
        15.100          13.900
 -23675532.423 7 -18448462.673 6  21119433.355    21119434.064    21119434.259
        42.200          41.100
 -17156624.059 5 -13368791.034 4  22114319.361    22114320.216    22114319.301
        33.400          29.200
  -2464440.650 2  -1920346.275 2  25162753.617    25162753.378    25162752.897
        17.800          15.100
  -2181943.708 2  -1700215.686 2  25106769.819    25106772.074    25106770.620
        17.000          17.000
 -10136125.208 4  -7898277.180 2  24007156.221    24007156.743    24007156.468
        25.600          17.800
 -16588722.923 5 -12926270.424 4  22528392.275    22528394.040    22528392.412
        33.000          28.800
 13 10  9  1 29  0.0000000  0 12G 5G24G26G21G28G 7G15G 9G19G17G18G 8
  -9702525.572 4  -7560399.324 4  23860654.025    23860655.678    23860655.123
        26.500          24.900
 -10819287.303 3  -8430606.614 4  23592972.542    23592976.393    23592973.479
        22.600          25.900
 -28882614.786 7 -22505923.220 7  19927430.007    19927431.062    19927430.307
        45.600          45.200
  -2966506.654 1  -2311559.385    25387535.633    25387537.434    25387535.357
        11.000           3.000
 -19913133.548 6 -15516721.263 6  21438535.337    21438535.504    21438535.475
        40.300          38.800
    454051.618 1    353811.358 2  25388582.357    25388585.792    25388584.028
         9.000          12.600
 -23729805.049 7 -18490753.027 6  21109105.617    21109106.234    21109106.472
        42.300          41.100
 -17060610.771 5 -13293975.487 4  22132590.215    22132590.715    22132590.055
        33.800          28.800
  -2409382.432 3  -1877443.801 2  25173231.447    25173229.466    25173231.107
        18.600          17.000
  -2276633.688 2  -1774000.104 2  25088751.634    25088753.014    25088752.515
        16.100          16.100
 -10208523.997 4  -7954691.918 3  23993379.567    23993380.360    23993379.560
        24.600          20.500
 -16506640.025 5 -12862309.729 4  22544012.314    22544013.731    22544012.473
        32.700          28.800
 13 10  9  1 29 30.0000000  0 12G 5G24G26G21G28G 7G15G 9G19G17G18G 8
  -9593820.532 4  -7475694.123 4  23881339.962    23881341.255    23881340.468
        24.600          24.900
 -10915768.493 3  -8505786.704 4  23574613.314    23574616.854    23574613.870
        23.400          26.200
 -28843256.302 7 -22475254.275 7  19934919.651    19934920.661    19934919.975
        45.600          45.100
  -2917802.221 1  -2273607.837 2  25396803.492    25396805.990    25396803.521
        11.000          12.600
 -19889248.188 6 -15498109.292 6  21443080.637    21443080.651    21443080.851
        40.600          38.600
    556444.904 1    433598.329 1  25408068.756    25408069.416    25408068.578
        11.000          11.000
 -23783675.956 7 -18532730.348 6  21098854.248    21098854.940    21098855.113
        42.300          41.200
 -16964371.942 5 -13218984.190 4  22150903.512    22150904.585    22150903.689
        33.600          29.200
  -2353819.432 2  -1834148.014 2  25183804.113    25183803.276    25183803.459
        17.000          15.100
  -2371262.281 2  -1847736.654 2  25070743.633    25070745.956    25070744.226
        16.100          17.000
 -10280549.785 4  -8010815.868 3  23979673.188    23979674.419    23979673.543
        24.200          19.300
 -16424352.619 5 -12798189.661 4  22559671.098    22559672.513    22559671.288
        32.800          28.400
 13 10  9  1 30  0.0000000  0 12G 5G24G26G21G28G 7G15G 9G19G17G18G 8
  -9484974.279 4  -7390878.883 4  23902053.014    23902054.015    23902053.778
        27.100          25.900
 -11012099.741 3  -8580849.981 4  23556281.696    23556285.494    23556282.254
        23.800          26.500
 -28803365.372 7 -22444170.435 7  19942510.606    19942511.617    19942510.988
        45.600          45.100
  -2868753.412 1  -2235387.884 1  25406136.118    25406137.668    25406135.677
         9.000           9.000
 -19864858.533 6 -15479104.367 6  21447721.991    21447721.676    21447721.940
        40.400          38.600
    658844.447 1    513390.150 2  25427553.755    25427556.378    25427556.700
        11.000          13.900
 -23837143.584 7 -18574393.425 6  21088679.813    21088680.487    21088680.594
        42.000          41.200
 -16867909.505 5 -13143818.674 4  22169259.138    22169261.039    22169259.984
        33.900          29.200
  -2297753.490 3  -1790460.399 2  25194473.105    25194473.410    25194472.712
        20.500          17.000
  -2465826.736 2  -1921423.222 2  25052749.099    25052749.957    25052749.595
        17.000          12.600
 -10352200.929 4  -8066647.985 3  23966038.287    23966039.856    23966038.498
        24.600          19.300
 -16341861.980 5 -12733911.239 4  22575368.347    22575370.361    22575368.629
        33.000          29.500
 13 10  9  1 30 30.0000000  0 12G 5G24G26G21G28G 7G15G 9G19G17G18G 8
  -9375990.141 4  -7305956.187 4  23922792.314    23922793.560    23922793.062
        27.100          26.200
 -11108279.631 3  -8655795.286 4  23537978.596    23537983.137    23537979.968
        23.400          26.500
 -28762942.849 7 -22412672.367 7  19950202.728    19950203.689    19950203.178
        45.700          44.800
  -2819362.440    -2196901.288 1  25415533.745    25415536.528    25415533.803
         3.000           6.500
 -19839965.646 6 -15459707.298 6  21452459.132    21452458.703    21452458.907
        40.400          38.600
    761249.409 2    593186.215 2  25447040.754    25447041.755    25447041.691
        12.600          13.900
 -23890206.240 7 -18615740.946 6  21078582.277    21078582.988    21078583.169
        42.400          41.500
 -16771225.412 5 -13068480.434 4  22187657.871    22187659.226    22187658.225
        33.400          28.600
  -2241186.169 3  -1746381.986 2  25205237.505    25205237.388    25205237.129
        18.600          17.000
  -2560324.072 2  -1995057.513 2  25034767.198    25034767.828    25034767.465
        17.000          17.800
 -10423475.107 4  -8122186.292 3  23952476.668    23952476.653    23952476.336
        24.900          18.600
 -16259169.122 5 -12669475.252 4  22591104.316    22591106.181    22591104.783
        32.800          29.000
 13 10  9  1 31  0.0000000  0 12G 5G24G26G21G28G 7G15G 9G19G17G18G 8
  -9266870.888 4  -7220928.231 4  23943557.406    23943558.505    23943557.738
        27.400          26.800
 -11204307.362 4  -8730622.043 4  23519705.494    23519709.374    23519706.669
        25.300          27.400
 -28721989.346 7 -22380760.551 7  19957995.979    19957996.819    19957996.397
        45.600          44.900
  -2769631.670 2  -2158150.066 2  25424999.424    25424999.483    25424998.977
        13.900          12.600
 -19814570.673 6 -15439919.007 6  21457291.423    21457291.341    21457291.475
        40.500          38.600
    863658.552      672985.526 1  25466528.136    25466529.776    25466529.969
         3.000          11.000
 -23942862.284 7 -18656771.630 6  21068562.272    21068562.817    21068563.107
        42.100          41.500
 -16674321.255 5 -12992970.707 4  22206098.243    22206099.388    22206098.667
        33.800          28.100
  -2184120.017 3  -1701914.921 2  25216097.342    25216096.646    25216096.579
        19.900          13.900
  -2654751.418 2  -2068637.245 3  25016797.685    25016799.229    25016798.164
        17.000          21.100
 -10494370.373 3  -8177429.387 2  23938984.602    23938985.386    23938984.889
        23.800          16.100
 -16176275.458 5 -12604882.784 4  22606878.351    22606880.096    22606878.876
        32.700          28.600
 13 10  9  1 31 30.0000000  0 12G 5G24G26G21G28G 7G15G 9G19G17G18G 8
  -9157619.685 4  -7135797.440 4  23964347.991    23964348.106    23964347.813
        28.400          26.500
 -11300181.793 3  -8805329.331 4  23501461.107    23501465.048    23501461.769
        23.800          26.800
 -28680505.707 7 -22348435.639 7  19965890.084    19965891.057    19965890.488
        45.500          44.900
  -2719562.992 1  -2119135.465 1  25434525.668    25434529.666    25434528.197
        11.000           9.000
 -19788675.032 6 -15419740.575 6  21462219.068    21462219.016    21462219.159
        40.500          38.400
    966071.362 1    752787.680 1  25486017.335    25486018.178    25486018.571
         6.500           9.000
 -23995110.047 7 -18697484.166 6  21058619.816    21058620.309    21058620.580
        42.300          41.300
 -16577198.871 5 -12917290.939 4  22224579.744    22224580.926    22224579.977
        33.600          27.900
  -2126556.702 3  -1657060.403 2  25227049.802    25227050.926    25227051.354
        19.900          15.100
  -2749106.026 2  -2142160.278 3  24998842.020    24998844.582    24998843.270
        13.900          19.900
 -10564884.263 4  -8232375.233 2  23925566.543    23925566.784    23925566.790
        25.600          17.000
 -16093182.252 5 -12540134.831 4  22622690.771    22622692.377    22622690.954
        32.700          27.900
 13 10  9  1 32  0.0000000  0 12G 5G24G26G21G28G 7G15G 9G19G17G18G 8
  -9048238.985 4  -7050565.747 4  23985162.095    23985162.586    23985162.314
        27.600          25.600
 -11395901.926 3  -8879916.391 4  23483246.074    23483250.008    23483247.218
        23.000          27.400
 -28638492.625 7 -22315698.181 7  19973884.854    19973886.047    19973885.416
        45.800          45.100
  -2669158.766 2  -2079859.391 2  25444118.670    25444120.215    25444117.733
        15.100          12.600
 -19762279.683 6 -15399172.778 6  21467241.757    21467241.858    21467241.988
        40.500          38.600
   1068486.969 2    832592.026 2  25505506.808    25505507.948    25505507.583
        16.100          17.800
 -24046947.721 7 -18737877.158 6  21048755.391    21048755.933    21048756.246
        42.200          41.500
 -16479860.063 5 -12841442.532 4  22243102.896    22243104.098    22243102.959
        33.000          28.600
  -2068498.170 2  -1611819.989 2  25238098.512    25238098.542    25238098.195
        17.000          17.000
  -2843384.812 2  -2215624.217 3  24980901.771    24980904.093    24980902.078
        12.600          19.900
 -10635014.614 4  -8287022.123 2  23912220.465    23912222.289    23912220.807
        24.200          17.800
 -16009890.859 5 -12475232.447 4  22638541.298    22638541.950    22638541.117
        33.500          27.900
 13 10  9  1 32 30.0000000  0 12G 5G24G26G21G28G 7G15G 9G19G17G18G 8
  -8938730.694 4  -6965234.622 4  24006000.208    24006000.958    24006001.011
        25.900          24.600
 -11491466.778 4  -8954382.460 4  23465061.153    23465064.579    23465061.930
        24.600          26.200
 -28595950.943 7 -22282548.823 7  19981980.671    19981981.324    19981980.825
        45.600          44.800
  -2618421.059 1  -2040323.437 2  25453774.109    25453775.421    25453774.054
         9.000          12.600
 -19735385.945 6 -15378216.626 6  21472359.898    21472359.699    21472359.924
        40.300          38.400
   1170904.472 2    912397.838 2  25524996.949    25524997.592    25524996.523
        12.600          13.900
 -24098373.535 7 -18777949.211 6  21038969.528    21038970.098    21038970.369
        42.600          41.700
 -16382306.372 5 -12765426.685 4  22261666.923    22261667.980    22261666.995
        32.800          28.400
  -2009946.883 2  -1566195.554 2  25249240.304    25249241.138    25249240.659
        16.100          15.100
  -2937585.177 3  -2289027.080 2  24962976.195    24962977.500    24962977.063
        19.300          17.800
 -10704759.442 4  -8341368.772 3  23898948.665    23898949.521    23898949.261
        25.300          20.500
 -15926402.686 5 -12410176.715 4  22654427.999    22654429.352    22654428.209
        32.600          28.600
 13 10  9  1 33  0.0000000  0 12G 5G24G26G21G28G 7G15G 9G19G17G18G 8
  -8829098.137 4  -6879806.687 4  24026861.754    24026863.643    24026862.893
        26.200          25.300
 -11586875.317 3  -9028726.739 4  23446905.249    23446909.064    23446905.811
        22.100          27.100
 -28552881.451 7 -22248988.189 7  19990176.143    19990177.168    19990176.497
        45.600          44.800
  -2567351.899 1  -2000529.159 2  25463490.523    25463491.842    25463491.616
         6.500          12.600
 -19707994.939 6 -15356872.983 6  21477572.247    21477571.891    21477572.191
        40.600          38.300
   1273323.650 9    992205.047    25544486.290    25544486.529    25544487.897
        -3.000           3.000
 -24149386.246 7 -18817699.381 6  21029262.163    21029262.690    21029262.919
        42.500          41.800
 -16284539.763 5 -12689244.947 4  22280271.411    22280272.354    22280271.415
        33.200          27.400
  -1950905.153 2  -1520189.170 2  25260476.056    25260476.159    25260475.194
        17.000          13.900
  -3031704.071 3  -2362366.461 2  24945065.338    24945066.821    24945066.059
        19.300          17.800
 -10774117.000 4  -8395413.671 3  23885750.855    23885751.527    23885750.589
        25.600          20.500
 -15842718.954 5 -12344968.625 4  22670351.629    22670353.945    22670352.226
        32.700          28.400
 13 10  9  1 33 30.0000000  0 12G 5G24G26G21G28G 7G15G 9G19G17G18G 8
  -8719343.935 4  -6794283.955 4  24047747.272    24047749.530    24047748.551
        25.300          25.300
 -11682126.383 4  -9102948.281 4  23428779.976    23428783.046    23428780.519
        24.600          27.900
 -28509284.934 7 -22215016.886 7  19998472.049    19998473.257    19998472.691
        45.700          44.700
  -2515953.532 1  -1960478.368 1  25473273.028    25473273.686    25473273.356
         9.000           9.000
 -19680107.971 6 -15335142.879 6  21482878.602    21482878.392    21482878.624
        40.400          38.100
   1375744.042 1   1072013.144 1  25563975.249    25563977.182    25563974.230
         6.500           6.500
 -24199983.898 7 -18857126.120 6  21019633.853    21019634.207    21019634.505
        42.500          41.800
 -16186561.974 5 -12612898.611 4  22298915.601    22298916.626    22298916.101
        32.700          27.600
  -1891374.307 3  -1473801.496 2  25271805.847    25271804.904    25271804.745
        18.600          16.100
  -3125738.214 3  -2435639.819 3  24927171.820    24927172.654    24927172.499
        19.300          19.300
 -10843084.558 4  -8449154.515 3  23872627.273    23872626.841    23872627.025
        25.600          18.600
 -15758840.959 5 -12279609.124 4  22686312.953    22686315.329    22686313.845
        32.700          27.900
 13 10  9  1 34  0.0000000  0 11G 5G24G26G21G28G15G 9G19G17G18G 8
  -8609471.058 4  -6708668.752 4  24068656.631    24068657.613    24068656.991
        26.200          24.200
 -11777219.114 3  -9177046.465 4  23410683.730    23410687.835    23410684.692
        23.400          26.500
 -28465162.299 7 -22180635.620 7  20006868.603    20006869.510    20006869.088
        45.700          44.600
  -2464228.895 1  -1920173.387 1  25483115.443    25483116.467    25483116.270
         6.500           6.500
 -19651726.090 6 -15313027.137 6  21488279.887    21488279.443    21488279.767
        40.300          38.500
 -24250165.074 7 -18896228.328 7  21010084.564    21010085.062    21010085.316
        42.600          42.000
 -16088374.514 5 -12536388.920 4  22317600.457    22317601.484    22317600.519
        32.600          27.400
  -1831355.922 2  -1427033.604 2  25283225.912    25283226.297    25283225.122
        17.800          17.000
  -3219685.100 3  -2508845.175 3  24909295.061    24909295.828    24909295.068
        19.300          20.500
 -10911660.680 4  -8502590.436 3  23859577.705    23859577.613    23859577.351
        24.900          19.300
 -15674769.971 5 -12214099.244 4  22702311.289    22702313.478    22702311.850
        31.800          27.600
 13 10  9  1 34 30.0000000  0 11G 5G24G26G21G28G15G 9G19G17G18G 8
  -8499482.298 4  -6622963.248 3  24089586.319    24089587.747    24089586.852
        25.600          23.800
 -11872152.665 4  -9251020.614 4  23392618.159    23392622.358    23392619.375
        24.600          28.100
 -28420514.289 7 -22145844.968 7  20015364.853    20015365.867    20015365.183
        45.600          44.700
  -2412179.561 1  -1879615.401 1  25493019.808    25493021.344    25493021.097
         6.500          11.000
 -19622850.673 6 -15290526.803 6  21493774.840    21493774.391    21493774.741
        40.700          38.400
 -24299927.891 7 -18935004.548 7  21000615.012    21000615.448    21000615.734
        42.700          42.100
 -15989979.178 5 -12459717.238 4  22336324.657    22336325.489    22336324.842
        32.800          27.600
  -1770853.136 2  -1379888.470 2  25294739.567    25294738.519    25294739.043
        17.800          15.100
  -3313542.054 2  -2581980.457 3  24891434.029    24891435.608    24891434.230
        16.100          20.500
 -10979843.027 4  -8555719.606 3  23846602.384    23846603.601    23846602.175
        25.300          20.500
 -15590507.533 5 -12148440.216 4  22718346.402    22718348.173    22718346.735
        32.000          27.600
 13 10  9  1 35  0.0000000  0 11G 5G24G26G21G28G15G 9G19G17G18G 8
  -8389379.979 4  -6537169.247 3  24110537.625    24110539.431    24110538.750
        24.600          23.800
 -11966925.823 4  -9324869.772 4  23374584.336    23374587.347    23374585.075
        24.600          27.100
 -28375341.854 7 -22110645.675 7  20023960.875    20023961.926    20023961.317
        45.600          44.700
  -2359808.035 1  -1838806.353 2  25502985.984    25502986.911    25502986.486
         6.500          13.900
 -19593483.091 6 -15267642.964 6  21499362.675    21499362.809    21499362.901
        40.300          38.400
 -24349270.729 7 -18973453.517 7  20991224.692    20991225.831    20991226.021
        42.400          42.000
 -15891377.882 5 -12382885.071 4  22355087.952    22355088.740    22355087.997
        32.700          28.600
  -1709867.898 2  -1332367.329 2  25306343.706    25306342.771    25306343.758
        17.000          12.600
  -3407305.922 2  -2655043.184 3  24873590.821    24873592.691    24873591.493
        16.100          20.500
 -11047629.278 4  -8608540.043 3  23833702.296    23833703.264    23833702.454
        25.300          19.300
 -15506054.739 5 -12082632.844 4  22734417.768    22734418.827    22734417.771
        32.000          27.600
 13 10  9  1 35 30.0000000  0 11G 5G24G26G21G28G15G 9G19G17G18G 8
  -8279167.197 4  -6451289.182 3  24131510.503    24131512.383    24131511.527
        24.900          23.400
 -12061537.633 3  -9398593.206 4  23356580.033    23356583.461    23356580.132
        23.800          27.900
 -28329645.764 7 -22075038.342 7  20032656.320    20032657.431    20032656.825
        45.500          44.600
  -2307116.613 1  -1797748.071 9  25513013.140    25513013.324    25513011.034
         6.500          -3.000
 -19563624.541 6 -15244376.558 6  21505044.830    21505044.686    21505044.868
        40.200          38.100
 -24398192.085 7 -19011574.049 7  20981916.198    20981916.389    20981916.604
        42.600          42.300
 -15792572.086 5 -12305893.560 4  22373889.808    22373890.887    22373889.731
        32.300          26.800
  -1648402.949 3  -1284472.867 2  25318040.540    25318040.263    25318039.958
        18.600          12.600
  -3500973.810 2  -2728031.100 3  24855766.395    24855768.325    24855766.920
        17.000          19.300
 -11115017.495 4  -8661050.302 2  23820880.147    23820879.908    23820879.929
        25.300          17.000
 -15421412.998 5 -12016678.226 4  22750524.601    22750525.554    22750524.411
        32.000          27.400
 13 10  9  1 36  0.0000000  0 11G 5G24G26G21G28G15G 9G19G17G18G 8
  -8168846.499 4  -6365325.021 4  24152504.478    24152505.693    24152505.039
        25.300          24.200
 -12155987.034 4  -9472190.089 4  23338607.010    23338610.100    23338607.824
        25.600          27.100
 -28283426.979 7 -22039023.710 7  20041451.925    20041452.734    20041452.143
        45.600          44.600
  -2254107.090 1  -1756441.931 2  25523100.492    25523099.872    25523100.181
         9.000          12.600
 -19533276.401 6 -15220728.647 6  21510820.116    21510819.935    21510819.997
        40.200          38.400
 -24446690.435 7 -19049364.979 7  20972686.984    20972687.497    20972687.790
        42.800          42.300
 -15693563.594 5 -12228744.096 4  22392730.928    22392731.283    22392730.961
        32.600          27.400
  -1586459.070 3  -1236204.811 1  25329827.937    25329827.874    25329827.797
        19.300          11.000
  -3594543.083 3  -2800942.225 3  24837960.996    24837961.977    24837961.914
        18.600          19.900
 -11182005.637 4  -8713248.829 3  23808132.892    23808133.443    23808132.387
        26.500          19.900
 -15336583.777 5 -11950577.550 4  22766666.967    22766667.997    22766666.722
        31.500          27.400
 13 10  9  1 36 30.0000000  0 11G 5G24G26G21G28G15G 9G19G17G18G 8
  -8058420.154 4  -6279278.542 4  24173518.151    24173519.079    24173518.468
        24.200          24.900
 -12250273.018 4  -9545659.636 4  23320664.767    23320668.437    23320665.144
        24.600          27.600
 -28236686.398 7 -22002602.484 7  20050346.116    20050347.226    20050346.620
        45.500          44.500
  -2200781.945 1  -1714889.720 2  25533247.526    25533249.623    25533245.129
         6.500          13.900
 -19502439.822 6 -15196700.130 6  21516687.430    21516687.767    21516687.724
        40.200          38.100
 -24494764.110 7 -19086824.984 7  20963538.854    20963539.469    20963539.751
        42.800          42.600
 -15594354.318 5 -12151438.161 4  22411609.298    22411610.229    22411609.620
        32.100          27.900
  -1524040.043 3  -1187566.976 1  25341705.202    25341705.878    25341706.077
        20.500          11.000
  -3688010.564 3  -2873774.004 3  24820174.951    24820175.341    24820175.928
        20.500          19.300
 -11248591.950 4  -8765134.267 3  23795462.016    23795461.785    23795461.561
        24.900          19.300
 -15251568.199 5 -11884331.657 4  22782845.281    22782845.963    22782844.941
        31.800          27.100
 13 10  9  1 37  0.0000000  0 11G 5G24G26G21G28G15G 9G19G17G18G 8
  -7947891.433 3  -6193152.290 4  24194550.449    24194551.681    24194551.046
        23.800          24.200
 -12344394.656 4  -9619001.116 4  23302754.245    23302757.056    23302754.788
        26.200          27.600
 -28189424.901 7 -21965775.353 7  20059339.391    20059340.711    20059340.009
        45.400          44.400
  -2147143.456    -1673093.299 1  25543454.167    25543454.678    25543454.170
         3.000           6.500
 -19471116.186 6 -15172292.104 6  21522648.843    21522648.399    21522648.795
        40.400          37.900
 -24542411.412 7 -19123952.739 7  20954471.853    20954472.500    20954472.718
        42.900          42.600
 -15494945.823 5 -12073977.021 4  22430525.723    22430527.152    22430526.211
        31.600          27.400
  -1461146.200 3  -1138558.579 2  25353674.148    25353672.919    25353673.636
        19.900          13.900
  -3781373.472 3  -2946524.343 3  24802408.745    24802409.186    24802409.334
        22.600          18.600
 -11314773.975 3  -8816704.652 3  23782866.837    23782867.276    23782866.899
        23.800          18.600
 -15166367.500 5 -11817941.501 4  22799058.343    22799059.092    22799058.156
        31.500          25.900
 13 10  9  1 37 30.0000000  0 11G 5G24G26G21G28G15G 9G19G17G18G 8
  -7837262.879 3  -6106948.251 4  24215601.649    24215603.392    24215602.589
        23.400          24.200
 -12438351.214 4  -9692213.971 4  23284874.216    23284877.760    23284874.890
        24.600          27.400
 -28141643.530 7 -21928543.127 7  20068432.230    20068433.094    20068432.599
        45.500          44.100
  -2093194.073 1  -1631054.650 9  25553718.923    25553719.606    25553719.430
        11.000          -3.000
 -19439307.182 6 -15147505.867 6  21528701.945    21528701.472    21528701.863
        40.400          38.200
 -24589630.678 7 -19160746.957 7  20945486.318    20945486.905    20945487.138
        42.700          42.600
 -15395339.916 5 -11996362.049 4  22449480.279    22449481.381    22449480.760
        31.600          26.500
  -1397780.087 2  -1089181.991 1  25365733.160    25365731.855    25365731.931
        17.800          11.000
  -3874628.560 3  -3019190.650 3  24784662.554    24784664.067    24784663.211
        22.100          20.500
 -11380549.502 4  -8867958.176 3  23770351.005    23770351.461    23770351.078
        27.100          20.500
 -15080982.793 5 -11751407.968 4  22815306.212    22815307.189    22815306.129
        31.800          27.100
 13 10  9  1 38  0.0000000  0 11G 5G24G26G21G28G15G 9G19G17G18G 8
  -7726537.207 3  -6020668.542 3  24236671.959    24236673.708    24236673.412
        23.000          23.000
 -12532141.328 4  -9765297.120 4  23267027.215    23267030.310    23267027.422
        25.600          28.100
 -28093343.098 7 -21890906.431 7  20077623.403    20077624.405    20077623.755
        45.200          44.200
  -2038935.913 1  -1588775.394 9  25564043.708    25564046.311    25564043.379
         6.500          -3.000
 -19407013.687 6 -15122342.104 6  21534846.753    21534846.760    21534846.735
        40.400          38.100
 -24636420.298 7 -19197206.394 7  20936582.565    20936583.073    20936583.184
        42.800          42.700
 -15295538.380 5 -11918594.640 4  22468471.897    22468473.189    22468472.356
        31.800          27.900
  -1333945.644 2  -1039441.014 2  25377880.319    25377879.172    25377879.066
        16.100          16.100
  -3967773.330 3  -3091770.990 3  24766937.037    24766939.348    24766938.012
        19.300          20.500
 -11445917.030 4  -8918893.988 3  23757910.607    23757911.741    23757910.711
        25.600          19.300
 -14995415.712 5 -11684732.319 4  22831588.397    22831590.330    22831588.540
        31.100          27.600
 13 10  9  1 38 30.0000000  0 11G 5G24G26G21G28G15G 9G19G17G18G 8
  -7615717.146 4  -5934315.267 3  24257760.342    24257762.400    24257761.792
        24.900          23.800
 -12625763.799 4  -9838249.644 4  23249211.073    23249213.913    23249211.771
        25.300          27.900
 -28044524.517 7 -21852865.995 7  20086913.238    20086914.431    20086913.654
        45.400          44.400
  -1984371.436 1  -1546257.464 1  25574429.304    25574428.319    25574428.052
         6.500           6.500
 -19374237.327 6 -15096802.073 6  21541083.902    21541083.862    21541083.903
        40.200          37.900
 -24682778.824 7 -19233329.910 7  20927760.576    20927761.299    20927761.586
        42.900          42.700
 -15195542.638 5 -11840675.896 4  22487500.683    22487501.743    22487500.699
        30.800          25.300
  -1269643.580 2   -989335.506 2  25390115.827    25390115.348    25390115.217
        17.800          15.100
  -4060804.878 3  -3164263.085 3  24749234.141    24749235.922    24749235.220
        19.300          21.100
 -11510873.854 4  -8969509.643 3  23745550.643    23745551.342    23745550.613
        25.900          20.500
 -14909667.323 5 -11617915.404 4  22847906.258    22847907.584    22847906.245
        31.100          26.800
 13 10  9  1 39  0.0000000  0 11G 5G24G26G21G28G15G 9G19G17G18G 8
  -7504805.057 4  -5847890.279 3  24278866.598    24278868.811    24278868.070
        24.600          22.600
 -12719217.539 4  -9911070.698 4  23231427.484    23231430.704    23231428.327
        26.200          28.400
 -27995188.858 7 -21814422.635 7  20096301.886    20096302.596    20096302.147
        45.500          44.100
  -1929503.177 1  -1503502.716 1  25584869.941    25584869.793    25584869.858
         6.500           6.500
 -19340979.318 6 -15070886.739 6  21547413.167    21547412.691    21547412.961
        40.100          37.700
 -24728704.665 7 -19269116.275 7  20919021.494    20919021.847    20919022.206
        42.900          42.800
 -15095354.473 5 -11762607.233 4  22506565.813    22506566.869    22506565.970
        31.500          26.800
  -1204876.235 2   -938867.266 2  25402440.936    25402439.819    25402440.411
        15.100          15.100
  -4153720.226 3  -3236664.643 3  24731553.439    24731554.432    24731553.415
        19.900          21.600
 -11575419.194 4  -9019804.806 3  23733267.422    23733268.645    23733267.805
        25.600          20.500
 -14823738.950 5 -11550958.238 4  22864258.393    22864258.942    22864258.168
        31.500          26.200
 13 10  9  1 39 30.0000000  0 11G 5G24G26G21G28G15G 9G19G17G18G 8
  -7393803.876 3  -5761395.874 4  24299988.946    24299991.423    24299991.051
        23.400          24.600
 -12812501.996 4  -9983759.829 4  23213675.331    23213679.063    23213676.419
        25.600          28.400
 -27945337.132 7 -21775577.146 7  20105788.225    20105789.036    20105788.466
        45.400          44.200
  -1874333.028 1  -1460512.743    25595367.895    25595368.064    25595368.159
         6.500           3.000
 -19307241.178 6 -15044597.276 6  21553832.889    21553832.878    21553832.979
        40.000          37.700
 -24774196.185 7 -19304564.202 7  20910364.702    20910365.114    20910365.461
        43.200          42.800
 -14994975.477 5 -11684389.850 4  22525666.739    22525668.703    22525667.520
        31.800          26.800
  -1139645.760 2   -888038.019 1  25414852.988    25414852.276    25414852.407
        17.000           9.000
  -4246516.260 3  -3308973.224 3  24713894.991    24713896.259    24713895.293
        21.100          22.100
 -11639549.828 4  -9069776.692 3  23721064.334    23721064.597    23721064.099
        27.100          18.600
 -14737631.567 5 -11483861.563 4  22880643.857    22880644.803    22880643.763
        31.100          27.100
 13 10  9  1 40  0.0000000  0 11G 5G24G26G21G28G15G 9G19G17G18G 8
  -7282716.286 3  -5674834.131 3  24321129.522    24321130.450    24321130.453
        23.400          23.400
 -12905616.047 4 -10056316.191 4  23195956.171    23195960.373    23195957.438
        25.900          29.000
 -27894970.264 7 -21736330.251 7  20115372.500    20115373.695    20115373.013
        45.500          44.200
  -1818863.586 9  -1417289.600    25605921.855    25605924.685    25605922.154
        -3.000           3.000
 -19273024.271 6 -15017934.737 6  21560344.309    21560344.026    21560344.280
        40.200          37.700
 -24819251.836 7 -19339672.492 7  20901790.885    20901791.331    20901791.563
        43.000          43.100
 -14894407.343 5 -11606025.094 4  22544804.751    22544806.210    22544804.955
        31.500          26.800
  -1073955.797 2   -836851.283 2  25427353.154    25427353.511    25427352.854
        13.900          15.100
  -4339190.193 3  -3381186.680 3  24696259.300    24696260.480    24696259.699
        19.300          20.500
 -11703264.045 4  -9119424.040 3  23708940.644    23708940.299    23708940.413
        26.500          20.500
 -14651346.825 5 -11416626.714 4  22897063.110    22897064.366    22897063.193
        30.600          26.200
 13 10  9  1 40 30.0000000  0 11G 5G24G26G21G28G15G 9G19G17G18G 8
  -7171545.357 3  -5588207.450 4  24342284.658    24342285.909    24342285.069
        21.600          24.600
 -12998558.589 4 -10128738.890 4  23178270.823    23178273.507    23178271.332
        25.900          28.400
 -27844089.275 7 -21696682.737 7  20125054.815    20125055.908    20125055.381
        45.300          44.000
  -1763097.347    -1373835.211 9  25616533.426    25616535.761    25616529.598
         3.000          -3.000
 -19238330.314 6 -14990900.480 6  21566946.305    21566945.997    21566946.222
        40.100          37.600
 -24863870.205 7 -19374440.040 7  20893299.936    20893300.750    20893300.915
        42.800          43.100
 -14793651.749 5 -11527514.287 4  22563978.670    22563979.027    22563978.354
        30.800          25.300
  -1007807.850 2   -785307.689 2  25439941.355    25439941.492    25439940.484
        13.900          13.900
  -4431739.358 3  -3453302.887 3  24678647.777    24678649.571    24678647.626
        19.900          22.600
 -11766560.537 4  -9168745.945 3  23696895.352    23696895.077    23696894.783
        25.600          21.100
 -14564886.103 5 -11349254.728 4  22913515.351    22913517.441    22913516.121
        30.200          26.500
 13 10  9  1 41  0.0000000  0 11G 5G24G26G21G28G15G 9G19G17G18G 8
  -7060292.980 3  -5501517.333 3  24363454.787    24363456.694    24363455.593
        23.000          22.600
 -13091328.522 4 -10201027.130 4  23160617.233    23160619.920    23160617.759
        25.900          28.800
 -27792695.269 7 -21656635.475 7  20134834.798    20134835.840    20134835.221
        45.200          43.900
  -1707036.258 1  -1330151.136 9  25627203.715    25627201.268    25627201.313
        11.000          -3.000
 -19203160.322 6 -14963495.292 6  21573638.823    21573638.697    21573638.869
        40.000          37.600
 -24908049.507 7 -19408865.451 7  20884893.100    20884893.833    20884893.912
        43.000          43.400
 -14692710.390 5 -11448858.707 4  22583186.110    22583187.626    22583186.723
        30.100          26.500
   -941203.242 2   -733407.987 1  25452616.885    25452615.230    25452615.550
        16.100           9.000
  -4524160.300 3  -3525319.168 3  24661060.593    24661061.996    24661061.098
        21.600          21.600
 -11829436.862 4  -9217740.451 3  23684930.127    23684930.634    23684930.050
        26.800          20.500
 -14478250.451 5 -11281746.433 4  22930002.348    22930003.462    22930002.365
        31.000          26.200
 13 10  9  1 41 30.0000000  0 11G 5G24G26G21G28G15G 9G19G17G18G 8
  -6948962.979 3  -5414766.711 3  24384640.370    24384642.214    24384641.121
        22.100          23.800
 -13183924.919 4 -10273180.114 4  23142996.072    23142999.542    23142996.845
        25.900          29.000
 -27740789.250 7 -21616189.242 7  20144712.338    20144713.366    20144712.744
        45.300          44.000
  -1650683.107 1  -1286239.475 1  25637926.370    25637927.553    25637926.011
        11.000           9.000
 -19167515.811 6 -14935720.348 6  21580421.824    21580421.770    21580421.892
        40.200          37.600
 -24951788.316 7 -19442947.629 7  20876569.856    20876570.635    20876570.714
        43.000          43.400
 -14591585.000 5 -11370059.727 4  22602430.379    22602431.260    22602430.434
        30.400          26.800
   -874144.224 2   -681153.805 2  25465376.644    25465375.868    25465375.821
        16.100          15.100
  -4616450.473 3  -3597233.584 3  24643498.925    24643499.575    24643499.245
        22.600          21.600
 -11891890.890 4  -9266405.764 3  23673045.089    23673045.465    23673045.123
        25.900          19.900
 -14391441.022 4 -11214102.721 4  22946521.904    22946522.613    22946521.569
        29.900          25.300
 13 10  9  1 42  0.0000000  0 11G 5G24G26G21G28G15G 9G19G17G18G 8
  -6837557.262 3  -5327957.074 4  24405840.075    24405842.114    24405841.080
        21.100          24.200
 -13276347.017 4 -10345197.299 4  23125408.977    23125412.104    23125409.681
        27.600          28.600
 -27688372.186 7 -21575344.789 7  20154686.827    20154687.964    20154687.255
        45.100          43.800
  -1594039.603    -1242101.464 9  25648704.532    25648706.339    25648708.318
         3.000          -3.000
 -19131398.272 6 -14907576.802 6  21587294.814    21587294.669    21587294.792
        40.000          37.600
 -24995085.115 7 -19476685.383 7  20868330.982    20868331.394    20868331.622
        43.300          43.400
 -14490277.266 5 -11291118.682 4  22621709.017    22621709.639    22621708.636
        30.400          26.500
   -806633.495 2   -628547.533 2  25478222.989    25478222.693    25478223.268
        17.000          16.100
  -4708607.459 3  -3669044.217 3  24625962.002    24625963.317    24625962.529
        23.800          21.600
 -11953920.624 4  -9314740.492 3  23661241.256    23661241.614    23661241.407
        27.100          21.600
 -14304458.877 4 -11146324.427 4  22963073.884    22963074.877    22963073.428
        29.700          26.800
 13 10  9  1 42 30.0000000  0 11G 5G24G26G21G28G15G 9G19G17G18G 8
  -6726077.939 3  -5241090.102 3  24427053.864    24427055.829    24427054.708
        21.100          23.800
 -13368593.512 4 -10417077.630 4  23107854.953    23107858.636    23107855.937
        27.100          29.500
 -27635445.168 7 -21534102.974 7  20164758.818    20164759.670    20164758.991
        45.300          43.800
  -1537108.639 9  -1197739.533    25659537.694    25659539.742    25659536.947
        -3.000           3.000
 -19094809.336 6 -14879065.945 6  21594257.473    21594257.080    21594257.459
        39.800          37.200
 -25037938.448 7 -19510077.581 7  20860176.114    20860176.532    20860176.851
        43.100          43.300
 -14388788.575 5 -11212036.599 4  22641019.599    22641022.099    22641021.380
        30.400          25.300
   -738674.959 3   -575592.953 2  25491155.634    25491154.675    25491154.834
        18.600          12.600
  -4800627.290 3  -3740747.950 3  24608450.606    24608452.238    24608451.311
        21.600          19.300
 -12015524.335 4  -9362743.245 3  23649518.924    23649518.742    23649518.535
        27.100          21.100
 -14217305.469 5 -11078412.685 4  22979658.019    22979659.497    22979658.301
        30.400          25.900
 13 10  9  1 43  0.0000000  0 11G 5G24G26G21G28G15G 9G19G17G18G 8
  -6614528.203 3  -5154168.259 3  24448280.656    24448282.599    24448281.668
        21.100          21.600
 -13460663.548 4 -10488820.481 4  23090334.786    23090337.778    23090335.485
        27.600          28.600
 -27582009.302 7 -21492464.652 7  20174927.267    20174928.211    20174927.571
        45.300          43.800
  -1479892.515 2  -1153155.366    25670426.289    25670427.743    25670426.173
        15.100           3.000
 -19057750.386 6 -14850188.844 6  21601309.354    21601309.120    21601309.558
        40.600          37.200
 -25080346.518 7 -19543122.815 7  20852105.812    20852106.602    20852106.821
        43.200          43.600
 -14287120.795 4 -11132814.983 4  22660367.980    22660368.938    22660367.820
        29.900          26.200
   -670270.220 3   -522290.869 2  25504173.549    25504172.106    25504172.681
        18.600          12.600
  -4892507.348 3  -3812342.801 3  24590967.480    24590967.158    24590967.462
        20.500          21.600
 -12076699.831 4  -9410412.228 3  23637876.780    23637876.804    23637876.984
        26.800          19.900
 -14129981.998 5 -11010368.421 4  22996275.313    22996276.488    22996275.499
        30.100          25.900
 13 10  9  1 43 30.0000000  0 11G 5G24G26G21G28G15G 9G19G17G18G 8
  -6502911.441 3  -5067194.176 3  24469520.548    24469522.681    24469521.458
        21.100          20.500
 -13552556.140 4 -10560425.057 4  23072848.116    23072851.478    23072848.765
        27.100          29.900
 -27528065.665 7 -21450430.664 7  20185192.352    20185193.386    20185192.631
        45.000          43.800
  -1422393.231 2  -1108350.597 2  25681367.520    25681369.105    25681367.467
        12.600          12.600
 -19020222.781 6 -14820946.541 6  21608450.833    21608450.421    21608450.839
        40.000          37.100
 -25122308.010 7 -19575820.051 7  20844120.988    20844121.673    20844121.814
        43.200          43.600
 -14185275.638 5 -11053455.154 4  22679748.443    22679749.387    22679748.549
        30.200          25.600
   -601420.371 3   -468641.678 2  25517274.385    25517273.773    25517273.991
        19.900          15.100
  -4984245.163 3  -3883826.796 3  24573508.730    24573511.068    24573509.475
        18.600          22.100
 -12137445.658 4  -9457746.536 3  23626316.453    23626317.402    23626316.665
        26.800          21.100
 -14042489.716 4 -10942192.619 4  23012925.388    23012925.905    23012924.755
        29.700          25.900
 13 10  9  1 44  0.0000000  0 11G 5G24G26G21G28G15G 9G19G17G18G 8
  -6391229.421 3  -4980169.244 3  24490773.141    24490775.062    24490774.425
        21.100          21.600
 -13644270.296 4 -10631890.596 4  23055395.014    23055398.835    23055396.165
        27.100          28.800
 -27473615.336 7 -21408001.848 7  20195554.051    20195554.939    20195554.306
        45.200          43.800
  -1364613.682 1  -1063327.583    25692362.197    25692366.164    25692364.621
         6.500           3.000
 -18982228.040 6 -14791340.254 6  21615680.766    21615680.721    21615680.835
        39.700          36.700
 -25163821.202 7 -19608167.981 7  20836221.386    20836221.916    20836222.113
        43.300          43.700
 -14083254.596 4 -10973958.258 4  22699162.093    22699163.476    22699162.431
        29.700          24.200
   -532128.584 2   -414648.009 3  25530459.578    25530459.710    25530459.071
        13.900          18.600
  -5075837.473 3  -3955197.386 4  24556079.865    24556081.947    24556080.520
        20.500          24.200
 -12197759.863 4  -9504744.583 3  23614839.066    23614840.238    23614839.420
        26.500          20.500
 -13954829.785 4 -10873886.190 4  23029605.650    23029607.209    23029605.936
        29.500          26.500
 13 10  9  1 44 30.0000000  0 10G 5G24G26G28G15G 9G19G17G18G 8
  -6279484.718 3  -4893095.472 3  24512037.608    24512039.656    24512038.464
        21.100          20.500
 -13735804.655 4 -10703216.025 4  23037976.437    23037980.537    23037977.674
        27.100          29.900
 -27418659.467 7 -21365179.114 7  20206011.616    20206012.745    20206011.998
        45.000          43.400
 -18943767.927 6 -14761371.339 6  21622999.308    21622999.525    21622999.480
        40.000          37.600
 -25204884.728 7 -19640165.526 7  20828407.007    20828407.754    20828407.988
        43.300          43.800
 -13981059.348 4 -10894325.637 4  22718609.944    22718610.374    22718609.566
        29.700          25.300
   -462397.623 2   -360312.311 2  25543729.951    25543729.493    25543729.654
        17.000          13.900
  -5167281.354 3  -4026452.304 3  24538679.301    24538680.403    24538679.889
        22.100          22.100
 -12257640.398 4  -9551404.628 3  23603444.560    23603445.382    23603444.894
        27.600          21.100
 -13867003.424 5 -10805450.056 4  23046318.145    23046320.025    23046318.931
        30.200          25.300
 13 10  9  1 45  0.0000000  0 11G 5G24G26G28G22G15G 9G19G17G18G 8
  -6167680.622 3  -4805975.435 3  24533313.657    24533315.254    24533314.711
        22.100          23.800
 -13827158.351 4 -10774400.680 5  23020592.871    23020596.461    23020593.540
        28.400          30.400
 -27363199.255 7 -21321963.381 7  20216565.191    20216566.489    20216565.804
        45.100          43.600
 -18904843.765 6 -14731040.804 6  21630406.924    21630406.383    21630406.704
        40.000          37.200
   -179588.890     -139939.060 2  25823739.330    25823737.539    25823737.592
         3.000          12.600
 -25245497.306 7 -19671811.677 7  20820678.841    20820679.458    20820679.660
        43.400          43.800
 -13878691.458 4 -10814558.485 4  22738088.426    22738090.427    22738089.540
        29.500          25.300
   -392229.561 2   -305635.966 1  25557083.093    25557081.125    25557081.888
        16.100          11.000
  -5258573.877 3  -4097589.324 4  24521307.066    24521308.124    24521307.604
        23.800          24.900
 -12317085.108 4  -9597725.115 3  23592133.435    23592132.708    23592133.072
        28.600          19.300
 -13779011.992 4 -10736885.293 4  23063062.518    23063064.088    23063063.000
        29.500          24.900
 13 10  9  1 45 30.0000000  0 11G 5G24G26G28G22G15G 9G19G17G18G 8
  -6055819.550 3  -4718810.992 3  24554600.840    24554601.841    24554601.003
        23.000          23.000
 -13918330.393 4 -10845443.797 4  23003243.694    23003246.524    23003244.044
        27.600          29.700
 -27307235.723 7 -21278355.455 7  20227214.732    20227216.046    20227215.228
        44.900          43.500
 -18865457.131 6 -14700349.911 6  21637901.418    21637901.394    21637901.692
        40.200          36.800
   -272153.316 2   -212067.364 1  25806124.965    25806123.850    25806124.642
        12.600          11.000
 -25285657.154 7 -19703105.047 7  20813036.576    20813037.295    20813037.384
        43.400          43.900
 -13776152.558 5 -10734658.061 4  22757602.545    22757603.150    22757602.020
        30.400          25.300
   -321626.721 3   -250620.916 2  25570517.656    25570516.899    25570518.103
        19.300          13.900
  -5349712.098 3  -4168606.082 3  24503963.521    24503964.494    24503964.425
        22.100          22.100
 -12376092.036 4  -9643704.422 3  23580904.364    23580904.926    23580904.443
        27.600          20.500
 -13690856.648 5 -10668192.824 4  23079838.250    23079840.071    23079838.375
        30.200          25.600
 13 10  9  1 46  0.0000000  0 11G 5G24G26G28G22G15G 9G19G17G18G 8
  -5943903.907 3  -4631604.008 3  24575897.481    24575898.663    24575897.868
        19.300          22.100
 -14009320.114 4 -10916344.831 5  22985928.926    22985931.955    22985929.366
        27.400          30.200
 -27250770.059 7 -21234356.247 7  20237959.957    20237961.058    20237960.389
        45.000          43.400
 -18825609.554 6 -14669299.833 6  21645484.554    21645484.186    21645484.468
        39.800          36.900
   -364491.876 2   -284019.356 1  25788554.373    25788551.909    25788553.679
        13.900           9.000
 -25325362.903 7 -19734044.582 7  20805481.099    20805481.401    20805481.712
        43.400          43.900
 -13673444.101 4 -10654625.543 4  22777145.988    22777147.798    22777146.880
        29.900          24.900
   -250591.107 2   -195268.510 2  25584035.837    25584034.936    25584035.173
        17.800          17.000
  -5440693.223 3  -4239500.452 3  24486650.571    24486650.840    24486650.787
        23.000          23.000
 -12434660.003 4  -9689341.742 3  23569758.145    23569759.092    23569758.495
        27.600          19.300
 -13602538.771 4 -10599373.720 4  23096644.622    23096646.304    23096644.431
        28.800          25.900
 13 10  9  1 46 30.0000000  0 11G 5G24G26G28G22G15G 9G19G17G18G 8
  -5831937.455 2  -4544357.451 3  24597203.712    24597205.227    24597204.062
        17.000          22.100
 -14100126.125 4 -10987102.717 4  22968648.622    22968651.952    22968649.488
        28.600          29.700
 -27193803.513 7 -21189966.745 7  20248800.240    20248801.431    20248800.720
        45.000          43.400
 -18785302.628 6 -14637891.833 6  21653154.621    21653154.310    21653154.609
        39.800          36.500
   -456602.862 1   -355794.149 1  25771025.888    25771023.877    25771024.324
        11.000           9.000
 -25364613.182 7 -19764629.193 7  20798012.001    20798012.239    20798012.709
        43.500          43.900
 -13570567.973 4 -10574462.351 4  22796723.885    22796724.854    22796723.806
        29.000          25.900
   -179125.296 3   -139580.821 2  25597635.764    25597633.920    25597634.085
        20.500          13.900
  -5531514.382 3  -4310270.148 3  24469367.170    24469368.556    24469367.757
        23.400          21.600
 -12492787.061 4  -9734635.522 3  23558697.289    23558697.619    23558697.384
        27.900          21.100
 -13514059.326 4 -10530428.730 4  23113480.895    23113483.075    23113481.331
        28.600          25.300
 13 10  9  1 47  0.0000000  0 11G 5G24G26G28G22G15G 9G19G17G18G 8
  -5719921.310 3  -4457072.173 3  24618520.057    24618521.109    24618520.522
        20.500          21.600
 -14190747.742 4 -11057716.924 5  22951403.576    22951407.105    22951404.628
        29.000          30.200
 -27136337.132 7 -21145187.766 7  20259736.062    20259736.931    20259736.422
        45.100          43.100
 -18744537.912 6 -14606127.120 6  21660912.211    21660911.513    21660911.973
        39.800          36.800
   -548483.697 1   -427389.498 1  25753540.160    25753539.534    25753540.066
         9.000           6.500
 -25403406.506 7 -19794857.743 7  20790629.500    20790630.221    20790630.551
        43.500          44.100
 -13467525.683 4 -10494169.716 4  22816332.191    22816333.194    22816332.186
        28.600          25.300
   -107232.425 2    -83560.694 2  25611315.877    25611315.470    25611315.121
        16.100          12.600
  -5622172.570 3  -4380912.852 3  24452115.571    24452117.475    24452116.349
        21.100          23.000
 -12550471.081 4  -9779584.111 3  23547720.250    23547721.509    23547720.324
        27.600          20.500
 -13425419.794 4 -10461358.970 4  23130349.033    23130350.813    23130349.261
        28.400          24.900
 13 10  9  1 47 30.0000000  0 11G 5G24G26G28G22G15G 9G19G17G18G 8
  -5607858.663 3  -4369750.662 3  24639844.475    24639846.020    24639844.988
        21.600          22.600
 -14281183.582 4 -11128186.388 4  22934193.892    22934197.548    22934195.232
        28.400          29.500
 -27078372.168 7 -21100020.275 7  20270766.193    20270767.343    20270766.566
        44.600          43.200
 -18703317.164 6 -14574007.042 6  21668755.685    21668755.686    21668755.763
        39.800          36.700
   -640130.910 2   -498802.330 2  25736099.526    25736099.525    25736099.384
        15.100          13.900
 -25441741.322 7 -19824729.014 7  20783334.869    20783335.369    20783335.611
        43.700          44.200
 -13364318.947 4 -10413748.914 4  22835971.339    22835972.798    22835971.537
        28.400          24.600
    -34914.732 2    -27209.634 1  25625077.556    25625076.983    25625076.456
        16.100           6.500
  -5712664.811 3  -4451426.256 3  24434896.015    24434896.442    24434896.063
        19.900          20.500
 -12607710.129 4  -9824185.843 3  23536828.678    23536828.345    23536828.570
        27.900          21.600
 -13336621.211 4 -10392165.291 3  23147247.547    23147248.650    23147247.210
        29.500          23.000
 13 10  9  1 48  0.0000000  0 11G 5G24G26G28G22G15G 9G19G17G18G 8
  -5495752.631 3  -4282395.343 3  24661177.500    24661178.862    24661177.888
        18.600          21.600
 -14371432.906 4 -11198510.481 5  22917020.419    22917024.145    22917021.381
        28.100          31.300
 -27019909.807 7 -21054465.213 7  20281891.226    20281892.350    20281891.657
        44.800          43.200
 -18661641.916 6 -14541532.810 6  21676686.272    21676686.222    21676686.440
        39.800          36.700
   -731544.285 2   -570033.491 1  25718705.359    25718704.326    25718704.730
        16.100          11.000
 -25479616.155 7 -19854241.860 7  20776127.550    20776127.965    20776128.301
        43.600          44.300
 -13260949.186 4 -10333201.112 4  22855642.359    22855643.263    22855642.381
        29.200          24.200
     37826.011 2     29471.327 2  25638919.852    25638919.659    25638919.193
        13.900          12.600
  -5802988.261 3  -4521808.136 3  24417707.435    24417708.786    24417708.484
        22.100          22.600
 -12664502.219 4  -9868439.326 3  23526021.646    23526021.050    23526021.365
        27.600          18.600
 -13247664.937 4 -10322848.740 3  23164174.928    23164175.966    23164175.180
        28.800          23.800
 13 10  9  1 48 30.0000000  0 11G 5G24G26G28G22G15G 9G19G17G18G 8
  -5383605.069 3  -4195007.672 3  24682517.606    24682519.761    24682519.071
        19.900          21.100
 -14461494.515 4 -11268688.325 5  22899881.991    22899885.716    22899883.044
        28.800          30.100
 -26960951.308 7 -21008523.542 7  20293110.891    20293111.613    20293111.100
        44.800          42.700
 -18619513.673 6 -14508705.611 6  21684702.913    21684702.838    21684703.111
        39.800          36.500
   -822720.585 2   -641079.829 1  25701354.326    25701353.601    25701353.377
        15.100          11.000
 -25517029.679 7 -19883395.238 7  20769008.065    20769008.390    20769008.683
        43.600          44.400
 -13157417.994 4 -10252527.464 3  22875343.548    22875344.679    22875343.931
        29.500          23.000
    110986.850 2     86479.579 2  25652842.310    25652841.247    25652841.036
        17.000          12.600
  -5893140.034 3  -4592056.249 3  24400552.758    24400552.995    24400553.169
        21.100          22.100
 -12720846.354 4  -9912343.795 3  23515299.641    23515300.102    23515299.373
        27.100          21.600
 -13158551.947 4 -10253410.066 4  23181132.849    23181133.905    23181132.681
        29.000          24.200
 13 10  9  1 49  0.0000000  0 11G 5G24G26G28G22G15G 9G19G17G18G 8
  -5271419.092 3  -4107590.058 3  24703866.747    24703868.579    24703867.340
        22.100          22.100
 -14551367.454 4 -11338719.148 5  22882780.606    22882783.324    22882781.207
        29.700          30.100
 -26901497.916 7 -20962196.233 7  20304424.271    20304425.434    20304424.712
        44.600          43.000
 -18576933.904 6 -14475526.566 6  21692805.508    21692805.609    21692805.634
        39.600          36.700
   -913657.002 2   -711939.126 2  25684049.246    25684048.130    25684048.264
        16.100          15.100
 -25553980.484 7 -19912188.065 7  20761976.491    20761976.879    20761977.168
        43.600          44.400
 -13053726.891 4 -10171729.246 4  22895075.108    22895076.504    22895075.288
        29.000          25.900
    184565.447 2    143813.291 1  25666843.515    25666843.293    25666842.220
        15.100          11.000
  -5983116.985 3  -4662168.145 4  24383430.638    24383431.438    24383430.939
        23.000          24.200
 -12776740.312 4  -9955897.444 3  23504662.450    23504663.292    23504662.775
        28.600          22.600
 -13069283.263 4 -10183850.092 4  23198120.133    23198121.625    23198119.595
        28.100          25.900
