     2.10           OBSERVATION DATA    G (GPS)             RINEX VERSION / TYPE
teqc  2005Sep1                          20131008 00:15:19UTCPGM / RUN BY / DATE
OBSERVATION MODE: IGS-Net                                   COMMENT
WSRT Westerbork_Synth (WSRT)                                MARKER NAME
13506M005                                                   MARKER NUMBER
229                 AOA SNR-12 ACT       3.3.32.2N          REC # / TYPE / VERS
273                 AOAD/M_T        DUTD                    ANT # / TYPE
        0.3888        0.0000        0.0000                  ANTENNA: DELTA H/E/N
  3828735.6941  443305.1350  5064884.8236                   APPROX POSITION XYZ
  6.60450833  52.91461271  82.2809  LonLatAlt  RSW          COMMENT
Linux 2.4.20-8|Pentium IV|gcc|Linux|486/DX+                 COMMENT
HANS VAN DER MAREL  DUT/DEOS                                OBSERVER / AGENCY
     1     1                                                WAVELENGTH FACT L1/2
     7    L1    L2    C1    P2    P1    S1    S2            # / TYPES OF OBSERV
RUN BY HANS VAN DER MAREL                                   COMMENT
H.VANDERMAREL@TUDELFT.NL                                    COMMENT
    P1 =    P1  TurboRogue; =    Y1  Benchmark              COMMENT
    L1 = L1(CA)                                             COMMENT
    P2 =    P2  TurboRogue; =    Y2  Benchmark              COMMENT
    L2 = L2(P2) TurboRogue; = L2(Y2) Benchmark              COMMENT
 SNR is mapped to RINEX snr flag value [0-9]                COMMENT
  L1 & L2: min(max(int(snr_dBHz/6), 0), 9)                  COMMENT
  2013    10     7     0     0    0.0000000     GPS         TIME OF FIRST OBS
  2013    10     7    23    59   30.0000000     GPS         TIME OF LAST OBS
                                                            END OF HEADER
 13 10  7  0  0  0.0000000  0 12G 5G28G15G21G26G19G 7G10G 9G 3G27G 8
 -24819643.376 7 -19339968.612 7  20962728.711    20962729.057    20962729.417
        43.400          44.000
 -14634677.711 5 -11403642.267 4  22438622.757    22438622.727    22438622.731
        34.700          28.600
  -7789144.085 3  -6069458.597 3  24159260.914    24159262.362    24159262.376
        22.600          19.900
  -6257785.038 2  -4876193.987 2  25169561.205    25169562.219    25169560.491
        16.100          13.900
 -26253193.149 7 -20457024.450 6  20399463.822    20399464.545    20399464.149
        42.300          40.000
  -2569571.769 2  -2002262.661 2  25151674.115    25151672.859    25151673.693
        15.100          15.100
 -17215360.831 6 -13414558.789 5  21906153.063    21906152.992    21906153.707
        38.400          35.100
  -8535215.440 4  -6650801.398 3  23718154.235    23718155.868    23718153.656
        27.100          23.800
 -29523432.003 7 -23005264.950 7  19828245.171    19828245.633    19828245.428
        45.700          44.800
      7232.986 3      5636.619 2  24353045.336    24353045.783    24353045.722
        19.300          16.100
    -86338.376 1    -67277.307 3  25034562.977    25034567.162    25034564.652
        11.000          20.500
 -26771710.257 7 -20861066.911 7  20571912.251    20571912.802    20571912.319
        45.200          43.300
 13 10  7  0  0 30.0000000  0 12G 5G28G15G21G26G19G 7G10G 9G 3G27G 8
 -24785267.897 7 -19313182.539 7  20969269.968    20969270.407    20969270.869
        43.400          43.800
 -14707994.668 5 -11460772.351 4  22424670.794    22424670.859    22424670.803
        34.600          28.600
  -7889182.799 3  -6147410.803 3  24140224.036    24140225.469    24140225.071
        22.100          21.100
  -6297804.015 2  -4907377.612 2  25161946.563    25161945.964    25161946.253
        15.100          15.100
 -26313626.613 7 -20504115.458 6  20387963.547    20387964.477    20387964.026
        42.400          40.200
  -2621799.765 2  -2042959.789 2  25141735.410    25141734.354    25141735.601
        16.100          17.800
 -17138627.477 6 -13354766.574 5  21920755.262    21920754.946    21920755.880
        38.600          34.800
  -8422060.145 4  -6562628.446 3  23739686.134    23739688.006    23739686.184
        26.800          21.600
 -29506047.207 7 -22991718.351 7  19831553.394    19831553.865    19831553.708
        45.900          44.800
     12255.322 2      9550.130 2  24354000.302    24354001.911    24354000.919
        17.800          16.100
    -84125.599 2    -65553.100 2  25034983.707    25034987.512    25034985.799
        16.100          17.000
 -26755831.373 7 -20848693.758 7  20574933.951    20574934.523    20574933.922
        45.100          43.500
 13 10  7  0  1  0.0000000  0 12G 5G28G15G21G26G19G 7G10G 9G 3G27G 8
 -24750329.688 7 -19285957.977 7  20975918.501    20975919.011    20975919.284
        43.200          43.900
 -14780930.518 5 -11517605.460 4  22410791.175    22410791.593    22410791.366
        34.700          28.800
  -7989132.748 3  -6225293.857 3  24121204.637    24121205.931    24121205.124
        22.600          21.600
  -6337369.261 1  -4938207.655 2  25154417.946    25154417.053    25154416.865
        11.000          16.100
 -26373639.362 7 -20550878.631 6  20376543.272    20376544.315    20376543.984
        42.500          40.500
  -2673569.370 2  -2083299.705 2  25131884.179    25131882.872    25131883.879
        15.100          17.000
 -17061604.174 6 -13294748.424 5  21935412.528    21935412.036    21935412.971
        38.400          34.700
  -8308767.051 4  -6474348.146 3  23761245.477    23761247.261    23761245.161
        26.500          22.100
 -29488095.943 7 -22977730.353 7  19834969.656    19834969.888    19834969.758
        45.800          44.700
     17899.031 3     13947.878 2  24355074.316    24355075.334    24355074.987
        18.600          16.100
    -81350.484 2    -63390.636 2  25035510.748    25035514.926    25035513.544
        15.100          16.100
 -26739485.013 7 -20835956.330 7  20578044.970    20578045.310    20578044.674
        45.200          43.400
 13 10  7  0  1 30.0000000  0 12G 5G28G15G21G26G19G 7G10G 9G 3G27G 8
 -24714830.179 7 -19258296.037 7  20982674.102    20982674.345    20982674.890
        43.200          43.900
 -14853482.947 5 -11574139.799 4  22396985.317    22396985.356    22396985.337
        34.600          28.600
  -8088992.352 3  -6303106.489 3  24102202.826    24102202.826    24102203.233
        20.500          20.500
  -6376479.677 2  -4968683.289 2  25146974.731    25146974.591    25146975.185
        13.900          12.600
 -26433230.026 7 -20597312.915 6  20365203.914    20365204.539    20365204.243
        42.500          40.300
  -2724878.264 2  -2123280.634 2  25122120.888    25122118.800    25122119.850
        16.100          16.100
 -16984292.490 6 -13234505.544 5  21950123.861    21950124.173    21950124.778
        38.100          35.100
  -8195338.581 4  -6385962.347 3  23782829.757    23782831.929    23782829.718
        24.200          22.100
 -29469579.110 7 -22963301.650 7  19838492.896    19838493.474    19838493.280
        45.900          44.700
     24164.789 2     18830.304 2  24356266.276    24356268.657    24356267.156
        16.100          16.100
    -78012.986 2    -60789.998 2  25036148.952    25036150.515    25036149.173
        16.100          17.800
 -26722672.147 7 -20822855.394 7  20581243.884    20581244.578    20581243.935
        45.100          43.400
 13 10  7  0  2  0.0000000  0 12G 5G28G15G21G26G19G 7G10G 9G 3G27G 8
 -24678769.804 7 -19230197.061 7  20989535.531    20989536.406    20989536.732
        43.100          43.500
 -14925649.532 5 -11630373.510 4  22383252.442    22383252.173    22383252.462
        34.700          29.700
  -8188760.301 3  -6380847.697 3  24083217.828    24083217.498    24083217.959
        23.800          22.600
  -6415134.425 2  -4998803.876 1  25139618.182    25139618.338    25139619.174
        13.900           9.000
 -26492396.985 7 -20643417.030 6  20353944.808    20353945.329    20353945.177
        42.700          40.300
  -2775723.863 2  -2162900.582 2  25112444.117    25112442.929    25112444.064
        16.100          12.600
 -16906694.519 6 -13174039.622 5  21964890.058    21964890.689    21964890.952
        37.700          34.800
  -8081776.778 4  -6297472.673 3  23804440.473    23804442.228    23804440.118
        26.200          21.600
 -29450497.946 7 -22948433.210 7  19842124.052    19842124.563    19842124.311
        45.900          44.800
     31052.018 3     24196.937 2  24357576.129    24357579.028    24357577.914
        18.600          13.900
    -74113.093 2    -57751.158 2  25036890.532    25036892.632    25036891.105
        17.000          17.000
 -26705393.647 7 -20809391.627 7  20584532.013    20584532.493    20584531.934
        45.400          43.400
 13 10  7  0  2 30.0000000  0 12G 5G28G15G21G26G19G 7G10G 9G 3G27G 8
 -24642149.618 7 -19201661.870 7  20996504.685    20996505.018    20996505.458
        43.400          43.600
 -14997428.501 5 -11686305.161 5  22369593.288    22369593.591    22369593.189
        34.500          30.100
  -8288435.638 3  -6458516.757 3  24064249.416    24064249.547    24064249.965
        23.000          21.100
  -6453332.052 2  -5028568.247 2  25132349.321    25132349.891    25132349.816
        13.900          13.900
 -26551138.876 7 -20689189.929 6  20342766.578    20342767.194    20342767.038
        42.700          40.600
  -2826103.757 2  -2202157.614 2  25102857.612    25102856.385    25102857.103
        15.100          15.100
 -16828812.069 6 -13113352.007 5  21979710.350    21979710.988    21979711.390
        37.800          34.500
  -7968084.136 4  -6208881.028 3  23826075.729    23826077.374    23826075.344
        25.900          22.600
 -29430853.417 7 -22933125.780 7  19845862.061    19845862.734    19845862.512
        45.800          44.600
     38560.456 2     30047.689 2  24359005.921    24359007.217    24359006.717
        17.000          13.900
    -69650.744 2    -54274.036 2  25037739.442    25037742.017    25037739.232
        15.100          16.100
 -26687650.409 7 -20795565.726 7  20587908.169    20587909.002    20587908.351
        45.200          43.400
 13 10  7  0  3  0.0000000  0 12G 5G28G15G21G26G19G 7G10G 9G 3G27G 8
 -24604970.608 7 -19172691.230 7  21003579.810    21003580.081    21003580.330
        43.300          43.700
 -15068817.075 5 -11741932.602 5  22356008.673    22356009.083    22356008.681
        34.600          30.200
  -8388017.165 3  -6536112.707 3  24045299.197    24045300.192    24045299.733
        23.800          22.600
  -6491071.252 2  -5057975.375 1  25125168.887    25125168.351    25125168.458
        15.100           9.000
 -26609454.109 7 -20734630.365 6  20331669.560    20331670.254    20331669.966
        42.700          40.500
  -2876015.719 2  -2241050.024 2  25093360.904    25093358.665    25093360.235
        16.100          16.100
 -16750647.039 6 -13052444.199 5  21994584.978    21994585.143    21994585.658
        37.200          34.400
  -7854262.702 4  -6120189.021 3  23847735.526    23847736.818    23847734.990
        26.500          21.600
 -29410646.741 7 -22917380.320 7  19849707.588    19849707.915    19849707.752
        46.000          44.600
     46690.137 2     36382.501 2  24360553.244    24360554.600    24360553.316
        15.100          17.800
    -64625.804 2    -50358.506 2  25038695.243    25038697.513    25038695.835
        16.100          15.100
 -26669443.379 7 -20781378.427 7  20591373.142    20591373.791    20591373.040
        45.200          43.400
 13 10  7  0  3 30.0000000  0 12G 5G28G15G21G26G19G 7G10G 9G 3G27G 8
 -24567233.606 7 -19143285.783 7  21010760.605    21010761.055    21010761.568
        43.100          43.400
 -15139813.392 5 -11797254.389 4  22342498.812    22342498.370    22342498.610
        35.500          29.700
  -8487503.524 4  -6613634.506 3  24026367.342    24026368.054    24026368.663
        24.600          21.100
  -6528351.547 1  -5087024.971 2  25118074.375    25118073.218    25118074.184
        11.000          13.900
 -26667341.304 7 -20779737.264 6  20320654.182    20320654.665    20320654.426
        42.800          40.700
  -2925457.677 2  -2279576.223 2  25083951.510    25083949.258    25083951.279
        16.100          16.100
 -16672201.389 6 -12991317.726 5  22009512.368    22009513.083    22009513.273
        37.200          34.300
  -7740314.724 4  -6031398.411 3  23869419.168    23869420.435    23869418.844
        26.800          22.600
 -29389878.905 7 -22901197.587 7  19853659.513    19853659.954    19853659.671
        45.800          44.600
     55441.304 2     43201.613 2  24362218.902    24362220.808    24362218.686
        17.000          13.900
    -59038.457 2    -46004.761 3  25039758.650    25039761.564    25039759.097
        13.900          18.600
 -26650773.479 7 -20766830.451 7  20594925.997    20594926.428    20594925.907
        45.200          43.400
 13 10  7  0  4  0.0000000  0 12G 5G28G15G21G26G19G 7G10G 9G 3G27G 8
 -24528939.568 7 -19113446.295 7  21018047.708    21018048.206    21018048.558
        43.100          43.400
 -15210415.250 5 -11852268.810 4  22329063.404    22329063.239    22329063.302
        34.700          29.500
  -8586893.359 3  -6691081.111 3  24007453.418    24007454.883    24007455.252
        22.600          23.000
  -6565171.696 2  -5115716.001 2  25111066.858    25111066.867    25111067.638
        13.900          12.600
 -26724798.905 7 -20824509.416 6  20309720.235    20309720.895    20309720.566
        42.900          40.900
  -2974427.106 2  -2317734.211 2  25074634.065    25074631.196    25074632.605
        17.000          16.100
 -16593476.969 6 -12929974.037 5  22024493.605    22024493.796    22024494.259
        37.400          34.400
  -7626242.521 4  -5942511.009 4  23891126.004    23891127.829    23891125.581
        25.300          24.200
 -29368551.188 7 -22884578.582 7  19857718.033    19857718.577    19857718.302
        45.900          44.700
     64813.853 2     50504.884 2  24364002.862    24364003.954    24364002.099
        17.000          16.100
    -52888.617 1    -41212.673 2  25040929.258    25040931.798    25040929.330
        11.000          17.000
 -26631641.783 7 -20751922.636 7  20598566.419    20598566.898    20598566.426
        45.200          43.200
 13 10  7  0  4 30.0000000  0 12G 5G28G15G21G26G19G 7G10G 9G 3G27G 8
 -24490089.718 7 -19083173.701 7  21025440.935    21025441.102    21025441.471
        43.100          43.300
 -15280620.402 5 -11906974.105 4  22315703.838    22315703.590    22315703.626
        34.800          29.700
  -8686185.383 4  -6768451.460 3  23988558.599    23988559.719    23988560.622
        24.900          22.600
  -6601530.338 2  -5144047.392 1  25104148.649    25104148.898    25104148.326
        13.900           9.000
 -26781825.435 7 -20868945.668 6  20298868.441    20298869.057    20298868.767
        42.900          40.800
  -3022922.150 3  -2355522.552 2  25065404.502    25065402.921    25065403.365
        18.600          16.100
 -16514475.592 6 -12868414.530 5  22039527.525    22039527.213    22039528.010
        37.800          34.400
  -7512048.125 4  -5853528.395 3  23912856.368    23912858.116    23912855.691
        24.600          23.400
 -29346664.939 7 -22867524.361 7  19861882.772    19861883.429    19861883.066
        45.800          44.700
     74807.627 2     58292.239 2  24365903.702    24365905.193    24365904.010
        15.100          16.100
    -46176.384 2    -35982.348 3  25042206.804    25042209.289    25042207.690
        15.100          18.600
 -26612049.259 7 -20736655.733 7  20602294.774    20602295.305    20602294.703
        45.200          43.200
 13 10  7  0  5  0.0000000  0 12G 5G28G15G21G26G19G 7G10G 9G 3G27G 8
 -24450685.076 7 -19052468.801 7  21032939.358    21032939.536    21032940.001
        43.100          43.200
 -15350426.787 5 -11961368.675 4  22302420.358    22302420.146    22302420.296
        35.700          29.900
  -8785378.290 3  -6845744.603 3  23969684.485    23969685.062    23969685.228
        22.100          23.400
  -6637426.515 2  -5172018.389 2  25097317.340    25097317.888    25097317.906
        16.100          12.600
 -26838419.431 7 -20913044.886 6  20288098.868    20288099.537    20288099.303
        43.100          40.700
  -3070939.873 2  -2392938.939 2  25056266.515    25056266.112    25056266.008
        17.000          17.000
 -16435199.089 6 -12806640.641 5  22054612.935    22054612.962    22054613.719
        37.100          34.700
  -7397733.996 3  -5764452.494 4  23934609.072    23934611.801    23934609.086
        23.000          24.600
 -29324221.120 7 -22850035.667 7  19866153.805    19866154.219    19866154.014
        45.700          44.500
     85422.420 2     66563.522 2  24367924.648    24367925.054    24367924.207
        17.000          17.000
    -38901.880 2    -30313.921 2  25043590.970    25043592.939    25043591.610
        17.800          17.800
 -26591996.963 7 -20721030.567 7  20606110.543    20606111.230    20606110.535
        45.300          43.200
 13 10  7  0  5 30.0000000  0 12G 5G28G15G21G26G19G 7G10G 9G 3G27G 8
 -24410726.222 7 -19021332.051 7  21040543.039    21040543.509    21040543.918
        43.000          43.200
 -15419832.180 5 -12015450.791 4  22289212.352    22289212.611    22289212.528
        35.600          29.900
  -8884470.821 3  -6922959.533 3  23950826.961    23950827.262    23950827.551
        22.100          20.500
  -6672858.820 2  -5199627.980 1  25090575.341    25090575.115    25090576.200
        17.800           6.500
 -26894579.481 7 -20956805.953 6  20277412.029    20277412.603    20277412.382
        43.200          41.000
  -3118478.433 3  -2429981.950 2  25047220.570    25047219.497    25047219.763
        19.900          16.100
 -16355649.388 6 -12744653.853 5  22069750.636    22069750.948    22069751.395
        37.200          33.900
  -7283302.351 3  -5675285.029 3  23956384.583    23956387.109    23956384.517
        23.000          22.600
 -29301220.980 7 -22832113.481 7  19870530.570    19870531.097    19870530.797
        45.900          44.600
     96657.984 2     75318.526 2  24370062.267    24370063.261    24370062.077
        16.100          16.100
    -31065.155 3    -24207.402 2  25045082.225    25045084.167    25045082.414
        18.600          17.000
 -26571485.963 7 -20705047.970 7  20610013.474    20610014.305    20610013.592
        45.000          43.100
 13 10  7  0  6  0.0000000  0 12G 5G28G15G21G26G19G 7G10G 9G 3G27G 8
 -24370214.640 7 -18989764.602 7  21048252.293    21048252.643    21048253.056
        43.000          43.400
 -15488834.309 5 -12069218.664 5  22276081.670    22276081.796    22276081.610
        35.200          30.100
  -8983461.622 4  -7000095.199 3  23931990.640    23931990.826    23931990.615
        24.200          23.400
  -6707826.677 2  -5226875.654 2  25083921.215    25083921.358    25083921.059
        13.900          12.600
 -26950304.120 7 -21000227.749 6  20266807.707    20266808.556    20266808.289
        43.100          41.000
  -3165535.333 2  -2466649.665 2  25038265.714    25038264.910    25038264.307
        13.900          17.000
 -16275828.457 6 -12682455.735 5  22084940.157    22084940.491    22084940.934
        37.400          34.100
  -7168755.349 3  -5586027.663 3  23978182.660    23978184.628    23978182.428
        23.000          20.500
 -29277665.618 7 -22813758.650 7  19875013.125    19875013.622    19875013.245
        45.900          44.400
    108514.321 3     84557.212 2  24372318.666    24372319.497    24372319.079
        18.600          15.100
    -22666.385 2    -17662.898 2  25046680.234    25046682.741    25046680.480
        17.800          17.000
 -26550517.144 7 -20688708.629 7  20614003.936    20614004.609    20614003.836
        45.200          43.200
 13 10  7  0  6 30.0000000  0 12G 5G28G15G21G26G19G 7G10G 9G 3G27G 8
 -24329151.336 7 -18957767.246 7  21056066.290    21056066.729    21056067.044
        42.900          43.100
 -15557431.301 6 -12122670.848 5  22263028.323    22263028.166    22263028.345
        36.000          30.100
  -9082349.728 4  -7077150.815 3  23913173.056    23913172.273    23913172.959
        24.600          22.100
  -6742329.052 1  -5253760.612 2  25077356.870    25077355.546    25077355.842
        11.000          15.100
 -27005591.927 7 -21043309.155 6  20256286.762    20256287.629    20256287.383
        43.100          41.100
  -3212108.659 3  -2502940.541 2  25029402.352    25029401.979    25029402.715
        18.600          15.100
 -16195738.140 6 -12620047.705 5  22100180.828    22100181.070    22100181.598
        37.100          33.800
  -7054095.219 4  -5496682.124 3  24000001.720    24000003.589    24000001.599
        24.600          21.100
 -29253556.211 7 -22794972.098 7  19879600.930    19879601.390    19879601.052
        45.800          44.600
    120991.098 2     94279.384 2  24374692.347    24374694.207    24374693.406
        13.900          17.800
    -13705.745 2    -10680.570 2  25048384.596    25048388.141    25048385.369
        17.000          17.000
 -26529091.721 7 -20672013.494 7  20618080.936    20618081.775    20618080.954
        45.100          43.100
 13 10  7  0  7  0.0000000  0 12G 5G28G15G21G26G19G 7G10G 9G 3G27G 8
 -24287537.321 7 -18925340.753 7  21063985.224    21063985.564    21063986.134
        43.000          42.900
 -15625620.855 5 -12175805.555 5  22250052.124    22250052.371    22250052.241
        35.500          30.800
  -9181133.475 3  -7154125.138 3  23894374.077    23894374.582    23894374.881
        23.800          22.100
  -6776364.679 1  -5280281.861 2  25070879.028    25070878.033    25070879.745
        11.000          16.100
 -27060441.354 7 -21086048.967 6  20245849.767    20245850.192    20245850.043
        43.100          41.100
  -3258196.004 2  -2538852.757 2  25020633.505    25020631.808    25020633.451
        13.900          17.800
 -16115380.173 6 -12557431.127 5  22115472.422    22115472.736    22115473.098
        37.000          34.100
  -6939324.351 4  -5407250.287 3  24021842.559    24021844.198    24021842.360
        25.300          21.600
 -29228894.144 7 -22775754.900 7  19884293.633    19884294.373    19884293.976
        45.800          44.400
    134087.833 3    104484.619 2  24377184.908    24377186.179    24377184.986
        19.300          17.800
     -4183.411 2     -3260.553 3  25050196.937    25050200.201    25050197.700
        13.900          18.600
 -26507210.400 7 -20654963.111 7  20622245.125    20622245.624    20622244.948
        45.000          43.000
 13 10  7  0  7 30.0000000  0 12G 5G28G15G21G26G19G 7G10G 9G 3G27G 8
 -24245373.614 7 -18892485.937 7  21072008.642    21072009.229    21072009.401
        42.700          43.000
 -15693401.332 5 -12228621.492 5  22237154.136    22237153.940    22237153.980
        35.700          30.400
  -9279811.612 3  -7231017.187 3  23875595.959    23875596.632    23875597.187
        23.800          23.400
  -6809932.494 2  -5306438.592 2  25064491.124    25064490.718    25064491.208
        13.900          13.900
 -27114851.105 7 -21128446.169 6  20235496.016    20235496.456    20235496.185
        43.200          41.300
  -3303795.477 2  -2574384.756 3  25011956.388    25011954.611    25011956.121
        16.100          18.600
 -16034756.862 6 -12494607.779 5  22130815.167    22130814.636    22130815.571
        37.100          33.600
  -6824445.035 3  -5317733.964 3  24043703.444    24043705.130    24043702.632
        23.800          19.900
 -29203680.863 7 -22756108.187 7  19889091.604    19889092.271    19889092.029
        45.800          44.300
    147804.428 2    115172.907 2  24379794.321    24379796.162    24379794.412
        15.100          17.000
      5900.423 2      4596.959 2  25052116.381    25052118.473    25052117.532
        17.000          17.000
 -26484874.312 7 -20637558.370 7  20626495.275    20626496.009    20626495.264
        45.200          42.900
 13 10  7  0  8  0.0000000  0 12G 5G28G15G21G26G19G 7G10G 9G 3G27G 8
 -24202661.646 7 -18859203.912 7  21080137.026    21080137.014    21080137.464
        43.000          43.100
 -15760770.265 5 -12281116.750 5  22224334.081    22224334.022    22224334.046
        35.500          30.800
  -9378382.830 4  -7307825.907 3  23856837.835    23856839.612    23856839.309
        24.200          22.100
  -6843031.685 2  -5332230.170 2  25058193.308    25058191.813    25058192.841
        13.900          13.900
 -27168819.625 7 -21170499.561 6  20225225.848    20225226.625    20225226.257
        43.400          41.400
  -3348904.765 2  -2609534.825 2  25003371.383    25003370.434    25003371.617
        16.100          15.100
 -15953869.570 6 -12431578.728 5  22146207.698    22146206.959    22146208.032
        37.600          33.200
  -6709459.310 4  -5228134.726 3  24065583.963    24065586.000    24065583.498
        24.200          20.500
 -29177917.416 7 -22736032.776 7  19893994.298    19893994.917    19893994.640
        45.800          44.400
    162140.681 1    126344.007 2  24382522.873    24382523.782    24382523.178
        11.000          15.100
     16545.547 2     12891.857 2  25054142.243    25054145.018    25054142.322
        17.000          17.000
 -26462084.603 7 -20619800.152 7  20630831.956    20630832.782    20630831.984
        45.200          43.000
 13 10  7  0  8 30.0000000  0 12G 5G28G15G21G26G19G 7G10G 9G 3G27G 8
 -24159402.242 7 -18825495.301 7  21088368.811    21088368.972    21088369.441
        43.000          42.700
 -15827725.478 6 -12333289.632 5  22211593.110    22211593.097    22211593.035
        36.100          30.800
  -9476845.783 3  -7384550.247 3  23838101.628    23838102.408    23838102.472
        23.800          23.400
  -6875661.390 1  -5357655.899 2  25051982.919    25051982.754    25051982.611
         9.000          15.100
 -27222345.564 7 -21212208.080 6  20215040.358    20215040.955    20215040.595
        43.300          41.600
  -3393521.768 2  -2644301.335 2  24994882.394    24994879.349    24994881.191
        15.100          16.100
 -15872720.283 6 -12368345.524 5  22161649.355    22161649.332    22161650.012
        36.900          33.400
  -6594369.326 3  -5138454.253 3  24087484.543    24087486.904    24087484.406
        23.000          19.300
 -29151605.048 7 -22715529.627 7  19899001.597    19899001.997    19899001.692
        45.700          44.200
    177096.127 3    137997.610 2  24385368.760    24385370.216    24385369.393
        19.300          15.100
     27751.642 3     21623.850 2  25056274.019    25056277.366    25056274.689
        18.600          17.800
 -26438842.299 7 -20601689.262 7  20635255.110    20635255.560    20635254.961
        45.200          43.000
 13 10  7  0  9  0.0000000  0 12G 5G28G15G21G26G19G 7G10G 9G 3G27G 8
 -24115596.822 7 -18791361.234 7  21096704.622    21096704.938    21096705.308
        42.800          42.700
 -15894265.076 6 -12385138.653 5  22198931.150    22198931.068    22198931.048
        36.100          31.100
  -9575199.259 4  -7461189.298 3  23819385.876    23819386.047    23819386.244
        25.600          21.600
  -6907820.731 2  -5382715.133 2  25045863.192    25045863.075    25045863.049
        12.600          15.100
 -27275427.471 7 -21253570.599 6  20204939.330    20204939.699    20204939.489
        43.300          41.500
  -3437644.401 2  -2678682.582 3  24986486.022    24986483.949    24986484.812
        17.000          18.600
 -15791311.470 6 -12304910.104 5  22177140.815    22177140.970    22177141.564
        36.700          33.500
  -6479177.278 3  -5048694.238 3  24109405.865    24109406.971    24109405.263
        23.000          19.300
 -29124744.970 7 -22694599.694 7  19904112.858    19904113.233    19904112.952
        45.800          44.200
    192670.359 2    150133.361 3  24388331.995    24388334.020    24388332.381
        15.100          18.600
     39518.542 2     30792.874 3  25058513.634    25058515.988    25058514.842
        17.800          19.300
 -26415148.598 7 -20583226.639 7  20639763.691    20639764.226    20639763.651
        45.100          42.800
 13 10  7  0  9 30.0000000  0 12G 5G28G15G21G26G19G 7G10G 9G 3G27G 8
 -24071246.493 7 -18756802.555 7  21105144.291    21105144.482    21105144.986
        42.900          42.600
 -15960386.926 5 -12436662.150 5  22186348.108    22186348.632    22186348.048
        35.400          31.300
  -9673441.907 4  -7537741.971 3  23800691.237    23800691.519    23800691.758
        24.600          22.100
  -6939508.645 2  -5407407.012 2  25039833.814    25039833.257    25039833.351
        17.000          13.900
 -27328063.843 7 -21294585.953 6  20194922.544    20194923.299    20194923.042
        43.300          41.500
  -3481270.365 3  -2712676.752 2  24978183.746    24978182.131    24978183.041
        18.600          17.800
 -15709643.958 6 -12241273.094 5  22192681.656    22192681.644    22192682.411
        37.300          33.600
  -6363885.390 3  -4958856.409 3  24131344.808    24131345.848    24131344.199
        22.600          18.600
 -29097338.502 7 -22673244.004 7  19909327.906    19909328.534    19909328.186
        45.600          44.100
    208863.220 3    162751.186 2  24391413.696    24391415.679    24391414.072
        18.600          15.100
     51845.879 2     40398.589 3  25060859.112    25060861.979    25060860.178
        15.100          18.600
 -26391004.512 7 -20564413.063 7  20644358.238    20644358.625    20644358.247
        45.300          42.600
 13 10  7  0 10  0.0000000  0 12G 5G28G15G21G26G19G 7G10G 9G 3G27G 8
 -24026352.226 7 -18721820.027 7  21113687.480    21113687.699    21113688.095
        43.000          42.600
 -16026089.150 5 -12487858.665 5  22173845.154    22173845.627    22173845.343
        35.900          31.100
  -9771572.462 4  -7614207.317 3  23782017.597    23782017.183    23782018.068
        24.600          23.400
  -6970724.014 2  -5431730.662 2  25033892.910    25033892.566    25033893.180
        15.100          13.900
 -27380253.364 7 -21335253.106 6  20184991.382    20184991.861    20184991.760
        43.400          41.600
  -3524397.833 3  -2746282.553 3  24969977.638    24969974.619    24969977.173
        18.600          18.600
 -15627720.048 6 -12177436.288 5  22208271.147    22208271.240    22208271.848
        36.400          33.200
  -6248496.106 3  -4868942.700 3  24153302.649    24153304.253    24153301.951
        22.100          22.100
 -29069387.134 7 -22651463.716 7  19914646.679    19914647.570    19914647.178
        45.700          44.100
    225673.800 2    175850.350 2  24394612.565    24394614.050    24394613.417
        13.900          13.900
     64733.327 2     50440.777 2  25063311.437    25063313.905    25063312.037
        13.900          17.800
 -26366410.925 7 -20545249.225 7  20649038.333    20649038.757    20649038.242
        45.200          42.800
 13 10  7  0 10 30.0000000  0 12G 5G28G15G21G26G19G 7G10G 9G 3G27G 8
 -23980915.496 7 -18686414.799 7  21122333.522    21122334.161    21122334.299
        42.700          42.800
 -16091369.527 6 -12538726.476 5  22161423.248    22161422.914    22161423.276
        36.500          30.800
  -9869589.353 4  -7690584.111 3  23763365.081    23763365.963    23763366.313
        24.900          23.400
  -7001466.181 2  -5455685.589 1  25028043.372    25028043.576    25028043.382
        12.600           9.000
 -27431994.609 7 -21375570.955 6  20175145.072    20175145.864    20175145.683
        43.400          41.500
  -3567024.499 2  -2779498.132 3  24961864.384    24961863.850    24961864.135
        15.100          18.600
 -15545541.957 6 -12113401.423 5  22223909.091    22223909.220    22223909.816
        36.500          33.200
  -6133011.713 3  -4778954.908 3  24175278.695    24175280.334    24175278.086
        23.400          19.300
 -29040892.166 7 -22629259.845 7  19920069.424    19920069.941    19920069.567
        45.700          44.100
    243102.110 3    189430.836 2  24397929.660    24397930.717    24397929.640
        18.600          12.600
     78180.574 2     60919.138 3  25065870.758    25065873.355    25065871.430
        17.000          19.300
 -26341369.020 7 -20525736.053 7  20653803.448    20653804.186    20653803.459
        45.300          42.800
 13 10  7  0 11  0.0000000  0 12G 5G28G15G21G26G19G 7G10G 9G 3G27G 8
 -23934937.433 7 -18650587.760 7  21131082.864    21131083.381    21131083.581
        42.700          42.600
 -16156226.218 6 -12589264.148 5  22149081.273    22149081.437    22149081.281
        36.200          32.000
  -9967491.558 4  -7766871.518 3  23744734.605    23744735.437    23744735.944
        26.800          23.000
  -7031733.940 2  -5479270.854 2  25022283.741    25022284.137    25022282.782
        12.600          13.900
 -27483286.148 7 -21415538.388 6  20165385.251    20165385.466    20165385.313
        43.700          41.900
  -3609148.529 2  -2812322.020 2  24953849.050    24953846.892    24953848.323
        16.100          13.900
 -15463111.257 6 -12049169.716 5  22239594.966    22239595.436    22239595.802
        36.500          33.200
  -6017434.347 3  -4688894.633 3  24197272.130    24197274.112    24197271.843
        23.400          22.100
 -29011855.066 7 -22606633.535 7  19925594.881    19925595.462    19925595.159
        45.700          43.900
    261147.457 2    203492.140 2  24401363.038    24401363.741    24401363.597
        17.800          15.100
     92187.251 2     71833.447 3  25068536.367    25068538.589    25068537.187
        16.100          18.600
 -26315880.119 7 -20505874.566 7  20658653.922    20658654.486    20658653.898
        45.300          42.700
 13 10  7  0 11 30.0000000  0 12G 5G28G15G21G26G19G 7G10G 9G 3G27G 8
 -23888419.403 7 -18614339.952 7  21139935.073    21139935.432    21139935.827
        42.700          42.400
 -16220657.565 6 -12639470.377 5  22136820.073    22136820.538    22136820.217
        36.200          31.600
 -10065277.645 4  -7843068.436 3  23726126.524    23726127.739    23726127.908
        25.300          23.800
  -7061526.945 2  -5502486.178 2  25016615.035    25016614.545    25016614.499
        16.100          16.100
 -27534126.672 7 -21455154.385 6  20155710.011    20155710.824    20155710.609
        43.700          41.800
  -3650767.795 2  -2844752.570 3  24945929.689    24945927.928    24945928.796
        17.800          19.900
 -15380429.593 6 -11984742.465 5  22255328.577    22255329.318    22255329.756
        36.400          33.400
  -5901766.296 3  -4598763.725 3  24219283.098    24219285.200    24219282.761
        22.600          19.900
 -28982276.900 7 -22583585.610 7  19931223.535    19931224.064    19931223.740
        45.800          43.800
    279809.415 2    218033.933 2  24404913.991    24404916.243    24404914.914
        17.000          15.100
    106752.984 2     83183.376 2  25071307.916    25071310.493    25071308.523
        16.100          16.100
 -26289945.296 7 -20485665.613 7  20663589.244    20663589.721    20663589.169
        45.300          42.800
 13 10  7  0 12  0.0000000  0 12G 5G28G15G21G26G19G 7G10G 9G 3G27G 8
 -23841362.833 7 -18577672.516 7  21148889.341    21148890.183    21148890.316
        42.500          42.600
 -16284661.012 6 -12689343.173 5  22124640.659    22124640.881    22124640.858
        36.500          31.600
 -10162945.937 4  -7919173.593 3  23707541.204    23707541.352    23707541.792
        24.900          22.600
  -7090844.395 2  -5525330.914 2  25011034.078    25011034.590    25011035.667
        13.900          12.600
 -27584514.683 7 -21494417.766 7  20146121.799    20146122.335    20146122.049
        43.600          42.000
  -3691880.360 2  -2876788.356 2  24938104.401    24938104.037    24938104.467
        16.100          16.100
 -15297499.121 6 -11920121.327 5  22271109.917    22271110.235    22271110.934
        36.400          32.700
  -5786009.686 3  -4508563.803 3  24241310.555    24241313.128    24241310.416
        23.000          22.100
 -28952159.007 7 -22560117.121 7  19936954.934    19936955.293    19936955.023
        45.700          43.800
    299087.769 2    233056.008 2  24408583.247    24408584.875    24408583.678
        17.000          17.000
    121877.255 2     94968.572 2  25074186.598    25074188.162    25074186.112
        17.000          17.000
 -26263565.551 7 -20465109.969 7  20668609.061    20668609.675    20668609.084
        45.400          42.700
 13 10  7  0 12 30.0000000  0 12G 5G28G15G21G26G19G 7G10G 9G 3G27G 8
 -23793768.844 7 -18540586.308 7  21157946.665    21157946.938    21157947.224
        42.700          42.400
 -16348234.694 6 -12738881.099 5  22112543.127    22112543.044    22112543.279
        36.500          31.500
 -10260495.431 4  -7995186.160 3  23688978.781    23688978.595    23688979.085
        26.200          23.800
  -7119685.321 2  -5547804.358 2  25005545.659    25005546.631    25005546.361
        12.600          12.600
 -27634448.803 7 -21533327.469 6  20136619.236    20136620.138    20136619.808
        43.800          41.800
  -3732484.267 2  -2908427.746 2  24930378.391    24930376.947    24930379.257
        17.800          15.100
 -15214321.511 6 -11855307.614 5  22286937.787    22286938.305    22286939.027
        36.100          32.300
  -5670166.605 3  -4418296.489 3  24263354.838    24263357.076    24263355.190
        21.600          20.500
 -28921503.019 7 -22536229.338 7  19942788.160    19942788.913    19942788.597
        45.700          43.800
    318981.516 2    248557.654 2  24412369.658    24412369.721    24412368.981
        15.100          12.600
    137559.754 2    107188.733 2  25077171.264    25077172.870    25077171.155
        17.800          15.100
 -26236742.013 7 -20444208.504 7  20673713.373    20673713.938    20673713.392
        45.200          42.500
 13 10  7  0 13  0.0000000  0 12G 5G28G15G21G26G19G 7G10G 9G 3G27G 8
 -23745639.043 7 -18503082.580 7  21167105.334    21167105.633    21167106.026
        42.800          42.200
 -16411376.750 6 -12788082.689 5  22100527.504    22100527.521    22100527.536
        36.500          31.600
 -10357924.511 4  -8071104.910 3  23670437.794    23670438.438    23670438.953
        25.600          23.800
  -7148048.724 2  -5569905.695 2  25000149.749    25000149.424    25000149.922
        17.000          15.100
 -27683927.648 7 -21571882.408 6  20127203.872    20127204.603    20127204.327
        43.700          41.900
  -3772577.342 2  -2939669.094 3  24922750.078    24922748.320    24922749.817
        17.800          19.300
 -15130898.545 6 -11790302.714 5  22302813.145    22302813.184    22302814.102
        36.400          32.700
  -5554239.569 3  -4327963.763 3  24285415.164    24285417.195    24285415.045
        21.600          22.600
 -28890310.068 7 -22511923.142 7  19948724.172    19948724.732    19948724.398
        45.700          43.800
    339490.255 2    264538.469 2  24416272.133    24416272.867    24416271.681
        15.100          15.100
    153799.899 2    119843.390 2  25080260.246    25080262.719    25080261.186
        17.000          17.000
 -26209475.889 7 -20422962.174 7  20678902.119    20678902.458    20678902.016
        45.200          42.600
 13 10  7  0 13 30.0000000  0 12G 5G28G15G21G26G19G 7G10G 9G 3G27G 8
 -23696974.158 7 -18465161.907 7  21176365.775    21176366.425    21176366.545
        42.600          42.100
 -16474085.337 6 -12836946.502 5  22088594.266    22088594.567    22088594.463
        36.300          32.000
 -10455232.095 4  -8146928.989 4  23651920.098    23651921.882    23651921.830
        25.900          25.300
  -7175933.747 2  -5591634.299 2  24994844.160    24994843.519    24994843.949
        15.100          17.800
 -27732949.923 7 -21610081.584 7  20117875.474    20117875.972    20117875.718
        43.800          42.000
  -3812157.748 2  -2970510.955 3  24915216.727    24915216.398    24915216.336
        17.000          18.600
 -15047232.201 6 -11725108.174 5  22318734.203    22318734.551    22318735.284
        36.300          32.700
  -5438230.630 3  -4237567.200 3  24307491.110    24307492.731    24307491.259
        23.400          19.300
 -28858581.664 7 -22487199.711 7  19954761.737    19954762.574    19954762.083
        45.600          43.800
    360613.256 2    280997.955 2  24420290.367    24420290.976    24420290.952
        17.000          13.900
    170597.212 2    132932.212 3  25083457.140    25083459.776    25083457.794
        17.000          20.500
 -26181768.387 7 -20401371.912 7  20684174.657    20684175.100    20684174.552
        45.300          42.600
 13 10  7  0 14  0.0000000  0 12G 5G28G15G21G26G19G 7G10G 9G 3G27G 8
 -23647775.701 7 -18426825.465 7  21185728.165    21185728.482    21185728.876
        42.700          42.200
 -16536358.242 6 -12885470.832 5  22076744.738    22076744.266    22076744.667
        37.000          31.300
 -10552416.579 4  -8222657.151 3  23633427.353    23633427.632    23633428.531
        27.600          23.000
  -7203339.591 2  -5612989.471 2  24989628.645    24989627.752    24989628.008
        16.100          13.900
 -27781514.273 7 -21647923.928 7  20108634.184    20108634.441    20108634.376
        43.800          42.000
  -3851223.723 2  -3000951.921 2  24907784.335    24907781.251    24907783.082
        17.800          17.000
 -14963324.227 6 -11659725.354 5  22334701.589    22334701.701    22334702.410
        36.300          32.700
  -5322142.073 3  -4147108.598 3  24329582.223    24329583.926    24329581.691
        22.100          19.300
 -28826319.267 7 -22462060.176 7  19960901.228    19960901.903    19960901.402
        45.600          43.700
    382349.941 2    297935.638 2  24424426.365    24424428.895    24424427.541
        17.800          15.100
    187951.228 3    146454.812 2  25086760.074    25086761.836    25086759.974
        19.300          17.000
 -26153620.729 7 -20379438.671 7  20689530.753    20689531.339    20689530.816
        45.200          42.500
 13 10  7  0 14 30.0000000  0 12G 5G28G15G21G26G19G 7G10G 9G 3G27G 8
 -23598045.356 7 -18388074.564 7  21195191.024    21195191.873    21195192.175
        42.600          42.100
 -16598193.957 6 -12933654.489 5  22064977.156    22064977.522    22064977.310
        36.900          32.000
 -10649476.659 4  -8298288.351 4  23614957.356    23614958.222    23614958.157
        26.200          24.200
  -7230265.665 2  -5633970.848 2  24984504.697    24984504.030    24984504.526
        16.100          16.100
 -27829619.256 7 -21685408.334 7  20099479.723    20099480.367    20099480.239
        43.900          42.100
  -3889772.941 3  -3030990.289 2  24900448.000    24900446.435    24900448.364
        20.500          17.000
 -14879176.438 5 -11594155.681 5  22350714.660    22350714.560    22350715.303
        35.800          32.400
  -5205975.990 3  -4056589.613 3  24351687.999    24351689.836    24351687.649
        21.100          19.300
 -28793524.423 7 -22436505.747 7  19967141.618    19967142.551    19967142.028
        45.600          43.700
    404699.706 2    315351.049 2  24428680.731    24428681.502    24428680.252
        17.800          13.900
    205861.422 2    160410.777 3  25090167.846    25090169.882    25090168.149
        15.100          18.600
 -26125033.998 7 -20357163.297 7  20694970.803    20694971.251    20694970.723
        45.200          42.400
 13 10  7  0 15  0.0000000  0 12G 5G28G15G21G26G19G 7G10G 9G 3G27G 8
 -23547784.479 7 -18348910.265 6  21204755.699    21204756.274    21204756.635
        42.600          41.900
 -16659590.397 6 -12981495.848 5  22053294.325    22053294.161    22053294.141
        36.500          32.100
 -10746410.917 4  -8373821.519 3  23596511.040    23596511.660    23596511.971
        25.600          23.000
  -7256711.438 2  -5654577.941 2  24979472.420    24979471.401    24979472.243
        17.000          15.100
 -27877263.514 7 -21722533.723 7  20090413.804    20090414.001    20090413.876
        44.000          42.300
  -3927803.930 3  -3060624.793 2  24893211.057    24893208.674    24893209.993
        19.900          17.000
 -14794790.797 5 -11528400.633 5  22366772.436    22366772.586    22366773.353
        35.900          32.100
  -5089734.759 3  -3966012.033 2  24373807.762    24373809.013    24373807.181
        18.600          16.100
 -28760198.288 7 -22410537.336 7  19973483.694    19973484.262    19973483.900
        45.600          43.700
    427661.959 3    333243.701 3  24433050.728    24433051.858    24433050.840
        18.600          18.600
    224327.204 2    174799.664 3  25093680.985    25093683.354    25093681.429
        17.000          18.600
 -26096009.310 7 -20334546.656 7  20700493.846    20700494.531    20700493.820
        45.200          42.400
 13 10  7  0 15 30.0000000  0 12G 5G28G15G21G26G19G 7G10G 9G 3G27G 8
 -23496994.340 7 -18309333.549 6  21214420.905    21214421.267    21214421.627
        42.700          41.900
 -16720545.538 6 -13028993.346 5  22041694.914    22041694.507    22041694.796
        36.700          32.100
 -10843218.025 4  -8449255.618 4  23578089.301    23578090.346    23578090.254
        26.500          25.300
  -7282676.068 2  -5674810.126 2  24974531.490    24974531.076    24974530.551
        17.000          15.100
 -27924445.772 7 -21759299.121 7  20081434.945    20081435.556    20081435.416
        44.000          42.200
  -3965314.902 3  -3089854.118 3  24886073.351    24886071.229    24886071.957
        19.300          18.600
 -14710169.223 5 -11462461.759 5  22382876.016    22382875.671    22382876.112
        35.700          32.300
  -4973420.533 3  -3875377.601 2  24395940.819    24395943.589    24395940.718
        19.300          17.000
 -28726342.452 7 -22384156.165 7  19979926.261    19979926.788    19979926.481
        45.700          43.600
    451235.917 3    351613.018 2  24437536.158    24437536.688    24437536.521
        18.600          16.100
    243347.982 2    189621.052 3  25097300.296    25097304.367    25097301.055
        15.100          18.600
 -26066547.713 7 -20311589.562 7  20706099.999    20706100.905    20706100.158
        45.200          42.400
 13 10  7  0 16  0.0000000  0 12G 5G28G15G21G26G19G 7G10G 9G 3G27G 8
 -23445676.362 7 -18269345.530 7  21224186.391    21224186.871    21224187.133
        42.700          42.000
 -16781057.741 6 -13076145.696 5  22030179.866    22030179.622    22030179.744
        36.900          32.100
 -10939896.648 4  -8524589.600 3  23559691.706    23559692.388    23559693.341
        26.800          23.800
  -7308158.833 2  -5694666.802 2  24969681.288    24969681.873    24969681.276
        16.100          12.600
 -27971164.656 7 -21795703.441 7  20072544.737    20072545.272    20072545.047
        44.000          42.300
  -4002303.596 3  -3118676.450 3  24879033.893    24879031.803    24879033.560
        18.600          18.600
 -14625313.219 5 -11396340.216 5  22399023.354    22399023.166    22399023.752
        35.900          32.100
  -4857035.505 3  -3784687.980 2  24418089.102    24418090.299    24418088.451
        19.300          16.100
 -28691958.594 7 -22357363.546 7  19986469.229    19986469.867    19986469.519
        45.600          43.700
    475420.947 2    370458.506 2  24442138.654    24442139.422    24442139.144
        15.100          16.100
    262923.270 3    204874.508 3  25101025.925    25101029.286    25101026.754
        18.600          19.900
 -26036650.412 7 -20288292.962 7  20711789.511    20711790.148    20711789.597
        45.200          42.300
 13 10  7  0 16 30.0000000  0 12G 5G28G15G21G26G19G 7G10G 9G 3G27G 8
 -23393832.126 7 -18228947.448 6  21234052.008    21234052.566    21234052.805
        42.700          41.800
 -16841125.206 6 -13122951.498 5  22018749.066    22018749.328    22018749.267
        37.500          32.700
 -11036445.342 4  -8599822.315 4  23541319.921    23541320.035    23541320.485
        26.200          24.200
  -7333158.988 2  -5714147.419 1  24964923.994    24964924.344    24964924.119
        16.100          11.000
 -28017418.872 7 -21831745.686 7  20063742.621    20063743.345    20063743.192
        44.000          42.300
  -4038768.576 2  -3147090.710 2  24872094.175    24872093.515    24872093.892
        16.100          16.100
 -14540224.870 5 -11330037.616 5  22415214.981    22415215.072    22415215.553
        35.900          32.300
  -4740581.675 3  -3693944.759 3  24440249.313    24440251.567    24440248.896
        21.600          19.300
 -28657048.073 7 -22330160.542 7  19993112.523    19993113.010    19993112.781
        45.600          43.400
    500215.561 2    389778.941 2  24446856.965    24446858.118    24446856.642
        17.000          17.800
    283052.310 2    220559.482 2  25104855.529    25104858.817    25104856.616
        12.600          17.000
 -26006318.530 7 -20264657.727 7  20717561.536    20717562.077    20717561.579
        45.200          42.400
 13 10  7  0 17  0.0000000  0 12G 5G28G15G21G26G19G 7G10G 9G 3G27G 8
 -23341463.143 7 -18188140.466 6  21244017.456    21244017.964    21244018.286
        42.700          41.700
 -16900745.716 6 -13169409.019 5  22007403.571    22007403.747    22007403.583
        36.500          32.700
 -11132862.712 4  -8674952.736 4  23522972.094    23522972.720    23522972.946
        27.100          24.900
  -7357676.149 2  -5733251.708 2  24960258.163    24960258.801    24960259.438
        17.800          12.600
 -28063206.992 7 -21867424.731 7  20055029.687    20055030.107    20055030.067
        44.200          42.600
  -4074707.772 2  -3175095.253 3  24865254.850    24865254.212    24865255.448
        16.100          18.600
 -14454905.914 5 -11263555.350 5  22431451.046    22431450.535    22431451.214
        35.900          31.800
  -4624061.333 3  -3603149.712 3  24462421.777    24462424.651    24462421.961
        19.900          21.100
 -28621612.374 7 -22302548.313 7  19999855.717    19999856.172    19999855.941
        45.700          43.400
    525619.390 2    409574.109 2  24451690.609    24451691.978    24451690.787
        15.100          15.100
    303734.557 2    236675.491 2  25108792.844    25108793.793    25108792.329
        17.000          16.100
 -25975553.570 7 -20240685.032 7  20723415.965    20723416.489    20723415.869
        45.100          42.300
 13 10  7  0 17 30.0000000  0 12G 5G28G15G21G26G19G 7G10G 9G 3G27G 8
 -23288570.886 7 -18146925.736 6  21254082.604    21254083.139    21254083.415
        42.500          41.500
 -16959917.953 6 -13215517.242 5  21996143.963    21996143.819    21996143.717
        37.200          32.600
 -11229147.329 4  -8749979.690 4  23504650.129    23504649.987    23504650.912
        28.600          24.900
  -7381709.371 2  -5751978.893 2  24955685.460    24955684.717    24955684.830
        15.100          16.100
 -28108527.777 7 -21902739.630 7  20046405.321    20046405.842    20046405.773
        44.300          42.400
  -4110119.137 3  -3202688.504 3  24858517.644    24858516.544    24858516.884
        19.300          21.100
 -14369357.879 5 -11196894.553 5  22447729.614    22447729.828    22447730.317
        35.300          31.600
  -4507476.927 3  -3512304.740 3  24484606.724    24484609.940    24484607.113
        22.100          19.300
 -28585652.836 7 -22274527.894 7  20006698.646    20006699.119    20006698.820
        45.500          43.400
    551631.932 2    429843.632 2  24456640.098    24456642.017    24456640.393
        13.900          15.100
    324969.322 2    253222.055 2  25112832.890    25112835.621    25112833.838
        15.100          16.100
 -25944356.439 7 -20216375.581 7  20729352.544    20729353.160    20729352.542
        45.000          42.300
 13 10  7  0 18  0.0000000  0 12G 5G28G15G21G26G19G 7G10G 9G 3G27G 8
 -23235156.570 7 -18105304.210 6  21264246.849    21264247.638    21264247.725
        42.400          41.600
 -17018639.824 6 -13261274.522 5  21984969.347    21984969.503    21984969.347
        37.600          33.400
 -11325297.623 4  -8824901.959 4  23486353.233    23486353.627    23486353.729
        27.900          25.300
  -7405257.896 2  -5770328.381 2  24951203.891    24951203.510    24951203.839
        15.100          13.900
 -28153379.859 7 -21937689.295 7  20037870.203    20037870.807    20037870.660
        44.200          42.600
  -4145001.401 3  -3229869.467 3  24851880.198    24851877.705    24851879.165
        20.500          18.600
 -14283582.816 5 -11130056.862 5  22464051.893    22464052.383    22464052.991
        35.500          31.600
  -4390830.589 3  -3421411.506 3  24506804.732    24506806.655    24506804.505
        19.300          19.900
 -28549171.344 7 -22246100.762 7  20013640.859    20013641.249    20013641.020
        45.600          43.300
    578251.870 2    450586.478 2  24461706.426    24461708.308    24461706.532
        16.100          13.900
    346755.888 2    270198.583 2  25116979.011    25116981.938    25116979.564
        15.100          15.100
 -25912728.868 7 -20191730.718 7  20735370.994    20735371.777    20735371.070
        45.100          42.500
 13 10  7  0 18 30.0000000  0 12G 5G28G15G21G26G19G 7G10G 9G 3G27G 8
 -23181221.764 7 -18063277.110 6  21274510.651    21274510.728    21274511.264
        42.400          41.400
 -17076909.315 6 -13306679.305 5  21973880.889    21973880.991    21973880.933
        37.400          33.400
 -11421312.362 4  -8899718.647 4  23468081.828    23468081.955    23468082.337
        27.100          24.900
  -7428321.482 2  -5788300.017 2  24946815.451    24946815.150    24946815.712
        16.100          12.600
 -28197762.011 7 -21972272.787 7  20029424.892    20029425.232    20029425.086
        44.200          42.700
  -4179352.724 3  -3256636.688 3  24845343.120    24845341.012    24845342.276
        19.300          18.600
 -14197582.565 5 -11063043.692 5  22480417.196    22480417.661    22480418.043
        35.100          31.500
  -4274124.505 3  -3330471.726 3  24529012.739    24529014.833    24529012.808
        22.600          18.600
 -28512169.149 7 -22217267.883 7  20020682.045    20020682.627    20020682.288
        45.400          43.400
    605478.884 2    471802.332 2  24466887.561    24466888.310    24466888.070
        15.100          12.600
    369093.530 2    287604.505 3  25121229.514    25121232.843    25121230.654
        15.100          21.100
 -25880671.634 7 -20166751.055 7  20741471.471    20741472.024    20741471.317
        45.000          42.300
 13 10  7  0 19  0.0000000  0 12G 5G28G15G21G26G19G 7G10G 9G 3G27G 8
 -23126768.256 7 -18020845.824 6  21284872.700    21284873.172    21284873.524
        42.600          41.500
 -17134724.877 6 -13351730.375 5  21962878.885    21962878.744    21962878.922
        37.000          32.800
 -11517190.140 4  -8974428.572 4  23449837.671    23449837.492    23449838.262
        28.800          25.900
  -7450899.601 2  -5805893.362 1  24942519.348    24942517.962    24942519.297
        15.100          11.000
 -28241672.964 7 -22006489.110 7  20021068.254    20021069.290    20021068.968
        44.300          42.600
  -4213171.414 3  -3282988.922 3  24838906.099    24838906.055    24838906.042
        20.500          18.600
 -14111358.890 5 -10995856.432 5  22496825.034    22496825.266    22496825.861
        35.200          31.100
  -4157360.913 3  -3239487.116 3  24551231.983    24551234.559    24551231.625
        20.500          20.500
 -28474647.759 7 -22188030.436 7  20027821.956    20027822.786    20027822.330
        45.700          43.400
    633311.628 2    493490.174 2  24472183.803    24472184.931    24472183.428
        17.000          12.600
    391981.475 2    305439.207 2  25125584.645    25125587.279    25125586.227
        16.100          16.100
 -25848186.003 7 -20141437.573 7  20747652.943    20747653.729    20747653.073
        44.900          42.300
 13 10  7  0 19 30.0000000  0 12G 5G28G15G21G26G19G 7G10G 9G 3G27G 8
 -23071797.409 7 -17978011.416 6  21295333.247    21295333.754    21295333.992
        42.600          41.300
 -17192084.869 6 -13396426.464 5  21951963.801    21951963.733    21951963.875
        37.700          33.400
 -11612929.447 4  -9049030.599 4  23431618.274    23431618.433    23431619.409
        27.400          24.900
  -7472991.246 1  -5823107.646 2  24938315.202    24938313.976    24938315.533
        11.000          13.900
 -28285111.277 7 -22040337.143 7  20012802.598    20012803.221    20012802.921
        44.300          42.800
  -4246455.728 3  -3308924.706 2  24832573.464    24832571.456    24832572.444
        18.600          17.000
 -14024913.457 5 -10928496.371 5  22513274.739    22513275.672    22513275.928
        34.700          31.600
  -4040541.785 3  -3148459.281 3  24573462.126    24573464.813    24573462.254
        19.900          19.900
 -28436608.823 7 -22158389.705 7  20035060.512    20035061.337    20035060.942
        45.600          43.300
    661749.342 2    515649.441 2  24477594.433    24477596.640    24477595.075
        13.900          13.900
    415419.033 2    323702.208 2  25130045.125    25130047.744    25130046.135
        17.000          17.800
 -25815273.320 7 -20115791.326 7  20753916.168    20753916.811    20753916.169
        45.100          42.100
 13 10  7  0 20  0.0000000  0 12G 5G28G15G21G26G19G 7G10G 9G 3G27G 8
 -23016310.931 7 -17934775.221 6  21305892.036    21305892.357    21305892.774
        42.500          41.100
 -17248987.327 6 -13440766.019 5  21941135.602    21941135.657    21941135.590
        37.600          33.800
 -11708528.873 4  -9123523.659 4  23413426.375    23413426.620    23413427.309
        28.400          25.900
  -7494596.153 2  -5839942.585 2  24934202.858    24934203.150    24934203.396
        16.100          13.900
 -28328075.758 7 -22073815.958 7  20004626.461    20004627.331    20004627.025
        44.500          42.800
  -4279203.763 3  -3334442.625 2  24826341.979    24826339.673    24826341.157
        19.300          17.000
 -13938248.252 5 -10860965.058 5  22529767.132    22529767.489    22529767.902
        35.200          31.000
  -3923669.560 3  -3057390.029 2  24595703.246    24595704.743    24595702.563
        20.500          17.800
 -28398053.524 7 -22128346.615 7  20042397.462    20042398.225    20042397.811
        45.600          43.400
    690791.176 2    538279.471 2  24483121.462    24483122.746    24483121.930
        17.800          12.600
    439405.481 2    342392.931 2  25134610.350    25134612.662    25134609.934
        16.100          17.800
 -25781934.888 7 -20089813.329 7  20760260.058    20760260.970    20760260.154
        45.000          42.100
 13 10  7  0 20 30.0000000  0 12G 5G28G15G21G26G19G 7G10G 9G 3G27G 8
 -22960310.369 7 -17891138.435 6  21316548.681    21316548.967    21316549.398
        42.600          41.000
 -17305430.749 6 -13484747.888 5  21930394.753    21930394.665    21930394.471
        37.300          33.800
 -11803986.868 4  -9197906.490 4  23395261.496    23395261.758    23395262.304
        29.000          25.600
  -7515713.716 2  -5856397.828 2  24930185.926    24930184.768    24930185.500
        15.100          16.100
 -28370565.163 7 -22106924.577 7  19996541.394    19996541.846    19996541.626
        44.400          42.900
  -4311413.907 3  -3359541.423 3  24820212.570    24820211.246    24820211.868
        18.600          19.300
 -13851364.976 5 -10793263.820 5  22546300.396    22546300.729    22546301.336
        35.100          31.100
  -3806746.341 3  -2966281.044 3  24617953.062    24617954.973    24617952.626
        19.900          19.900
 -28358983.903 7 -22097902.757 7  20049832.216    20049832.718    20049832.457
        45.400          43.000
    720435.910 3    561379.262 2  24488764.300    24488764.096    24488764.108
        18.600          12.600
    463939.946 2    361510.717 2  25139278.735    25139280.913    25139278.878
        17.000          15.100
 -25748171.474 7 -20063504.181 6  20766685.302    20766685.855    20766685.176
        44.800          41.900
 13 10  7  0 21  0.0000000  0 12G 5G28G15G21G26G19G 7G10G 9G 3G27G 8
 -22903797.428 7 -17847102.402 6  21327302.585    21327303.382    21327303.406
        42.300          41.400
 -17361413.209 6 -13528370.569 5  21919741.428    21919741.660    21919741.502
        37.500          33.200
 -11899302.146 4  -9272178.101 4  23377123.688    23377123.691    23377124.394
        28.600          25.600
  -7536343.387 2  -5872472.912 2  24926259.553    24926258.781    24926259.418
        17.000          17.000
 -28412578.184 7 -22139661.993 7  19988546.163    19988547.056    19988546.763
        44.300          42.800
  -4343084.603 3  -3384219.893 2  24814185.898    24814183.315    24814184.770
        21.600          17.800
 -13764265.266 5 -10725393.933 5  22562875.424    22562875.369    22562875.874
        34.700          31.000
  -3689774.340 3  -2875134.050 2  24640211.520    24640213.582    24640211.513
        18.600          17.800
 -28319401.430 7 -22067059.274 7  20057364.284    20057364.966    20057364.694
        45.300          43.000
    750682.822 2    584948.277 2  24494519.975    24494519.672    24494519.815
        16.100          13.900
    489021.598 2    381054.887 2  25144051.650    25144054.064    25144052.492
        17.000          17.800
 -25713984.602 7 -20036865.059 7  20773190.662    20773191.356    20773190.698
        44.900          42.000
 13 10  7  0 21 30.0000000  0 12G 5G28G15G21G26G19G 7G10G 9G 3G27G 8
 -22846773.572 7 -17802668.250 6  21338153.906    21338154.385    21338154.669
        42.500          40.800
 -17416933.236 6 -13571632.913 5  21909176.240    21909176.331    21909176.343
        37.700          33.600
 -11994473.208 4  -9346337.353 4  23359012.392    23359013.029    23359013.232
        27.900          25.900
  -7556484.540 2  -5888167.292 2  24922426.851    24922426.034    24922426.626
        13.900          15.100
 -28454113.519 7 -22172027.189 7  19980642.379    19980643.076    19980642.881
        44.300          43.000
  -4374214.367 2  -3408476.841 2  24808261.507    24808259.564    24808260.733
        17.000          17.800
 -13676951.226 5 -10657357.039 5  22579490.333    22579490.418    22579491.428
        34.800          30.800
  -3572755.696 3  -2783950.714 2  24662479.776    24662481.217    24662478.918
        21.100          17.000
 -28279307.527 7 -22035817.274 7  20064994.180    20064994.721    20064994.427
        45.500          43.000
    781530.965 2    608985.791 2  24500390.082    24500390.348    24500389.200
        13.900          12.600
    514649.609 2    401024.741 2  25148927.861    25148930.741    25148927.759
        17.000          17.000
 -25679375.814 7 -20009897.172 7  20779776.644    20779777.246    20779776.678
        45.100          42.100
 13 10  7  0 22  0.0000000  0 12G 5G28G15G21G26G19G 7G10G 9G 3G27G 8
 -22789240.414 6 -17757837.233 6  21349102.246    21349102.553    21349102.886
        41.900          40.600
 -17471988.853 6 -13614533.380 5  21898699.752    21898699.623    21898699.841
        38.000          33.400
 -12089498.591 4  -9420383.106 4  23340930.885    23340930.189    23340930.766
        28.800          25.900
  -7576137.068 2  -5903480.944 2  24918686.714    24918686.188    24918686.380
        13.900          16.100
 -28495170.025 7 -22204019.269 7  19972829.879    19972830.274    19972830.158
        44.400          43.100
  -4404801.605 2  -3432311.044 2  24802440.930    24802439.074    24802440.526
        13.900          17.000
 -13589424.369 5 -10589154.309 5  22596145.973    22596146.326    22596146.960
        34.800          30.400
  -3455692.399 2  -2692732.583 3  24684755.903    24684757.717    24684755.351
        17.000          18.600
 -28238703.922 7 -22004178.100 7  20072720.839    20072721.263    20072721.104
        45.300          43.100
    812978.909 2    633490.690 2  24506374.106    24506374.475    24506374.274
        17.800          12.600
    540823.056 3    421419.624 2  25153909.267    25153911.543    25153909.445
        18.600          16.100
 -25644346.105 7 -19982601.295 6  20786442.669    20786443.183    20786442.606
        44.800          41.900
 13 10  7  0 22 30.0000000  0 12G 5G28G15G21G26G19G 7G10G 9G 3G27G 8
 -22731199.737 7 -17712610.752 6  21360147.116    21360147.524    21360147.809
        42.300          40.900
 -17526578.368 6 -13657070.650 5  21888311.551    21888311.631    21888311.577
        37.700          33.800
 -12184377.020 5  -9494314.306 4  23322876.527    23322875.751    23322876.829
        30.200          25.900
  -7595300.354 3  -5918413.370 2  24915041.112    24915039.700    24915040.639
        18.600          15.100
 -28535746.369 7 -22235637.193 7  19965108.189    19965108.895    19965108.736
        44.500          43.100
  -4434844.556 3  -3455721.140 3  24796723.494    24796722.321    24796722.796
        19.300          18.600
 -13501686.449 5 -10520787.113 5  22612841.471    22612842.349    22612842.855
        34.100          30.600
  -3338586.647 2  -2601481.388 2  24707039.813    24707042.134    24707039.839
        17.000          17.000
 -28197592.368 7 -21972143.125 7  20080544.089    20080544.552    20080544.328
        45.500          42.900
    845025.465 2    658461.971 2  24512472.414    24512472.918    24512472.605
        17.000          15.100
    567541.007 2    442238.785 2  25158992.167    25158995.674    25158994.226
        17.000          16.100
 -25608896.909 7 -19954978.545 6  20793188.676    20793188.914    20793188.425
        44.900          41.900
 13 10  7  0 23  0.0000000  0 12G 5G28G15G21G26G19G 7G10G 9G 3G27G 8
 -22672653.011 7 -17666989.949 6  21371288.047    21371288.610    21371288.770
        42.000          41.000
 -17580700.416 6 -13699243.653 5  21878012.343    21878012.689    21878012.322
        37.700          34.100
 -12279106.846 4  -9568129.714 4  23304848.762    23304848.968    23304849.147
        27.900          26.500
  -7613974.138 2  -5932964.362 2  24911487.138    24911486.625    24911487.436
        17.000          12.600
 -28575841.321 7 -22266880.008 7  19957478.733    19957479.001    19957478.920
        44.600          43.200
  -4464341.840 2  -3478706.026 3  24791110.383    24791109.469    24791110.507
        17.800          19.900
 -13413739.181 5 -10452256.795 5  22629577.870    22629578.429    22629578.836
        34.400          31.100
  -3221440.938 2  -2510199.035 2  24729332.540    24729334.523    24729331.883
        17.800          15.100
 -28155974.312 7 -21939713.470 7  20088463.686    20088464.272    20088464.008
        45.400          43.000
    877669.827 2    683899.109 2  24518683.255    24518684.500    24518683.746
        12.600          13.900
    594802.631 2    463481.622 2  25164181.141    25164183.099    25164182.065
        13.900          17.800
 -25573029.304 7 -19927029.759 6  20800013.986    20800014.338    20800013.828
        44.800          41.800
 13 10  7  0 23 30.0000000  0 12G 5G28G15G21G26G19G 7G10G 9G 3G27G 8
 -22613602.102 7 -17620976.275 6  21382525.165    21382525.636    21382525.798
        42.100          40.600
 -17634353.148 6 -13741050.959 5  21867803.097    21867802.798    21867803.036
        38.000          33.900
 -12373686.534 4  -9641828.186 4  23286850.611    23286851.931    23286851.578
        29.000          27.400
  -7632157.607 2  -5947133.306 2  24908026.823    24908025.385    24908027.041
        17.000          15.100
 -28615453.628 7 -22297746.738 7  19949940.438    19949941.001    19949940.881
        44.500          43.200
  -4493291.454 3  -3501264.177 2  24785601.944    24785600.171    24785601.238
        18.600          17.000
 -13325584.463 5 -10383564.832 5  22646353.468    22646353.883    22646353.910
        34.600          31.100
  -3104257.420 3  -2418887.199 3  24751631.770    24751633.971    24751631.475
        20.500          18.600
 -28113851.369 7 -21906890.401 7  20096479.669    20096479.911    20096479.775
        45.400          42.800
    910911.232 2    709801.532 2  24525009.282    24525010.236    24525009.572
        17.000          13.900
    622607.033 2    485147.392 1  25169471.857    25169474.000    25169472.944
        16.100          11.000
 -25536744.990 7 -19898756.270 6  20806918.582    20806919.052    20806918.460
        44.900          41.800
 13 10  7  0 24  0.0000000  0 12G 5G28G15G21G26G19G 7G10G 9G 3G27G 8
 -22554048.531 7 -17574570.918 6  21393858.014    21393858.145    21393858.593
        42.200          40.500
 -17687535.080 6 -13782491.416 5  21857682.725    21857682.405    21857682.733
        38.100          33.800
 -12468114.913 5  -9715408.712 4  23268882.579    23268881.678    23268883.261
        30.100          25.600
  -7649850.473 2  -5960919.953 1  24904660.065    24904659.274    24904660.904
        16.100          11.000
 -28654582.205 7 -22328236.535 7  19942494.783    19942495.080    19942494.936
        44.500          43.300
  -4521692.607 2  -3523394.963 2  24780196.972    24780195.767    24780196.453
        16.100          17.800
 -13237224.074 5 -10314712.606 5  22663168.095    22663168.016    22663168.530
        34.500          30.800
  -2987038.435 2  -2327547.756 2  24773937.585    24773939.885    24773937.466
        16.100          17.800
 -28071225.438 7 -21873675.395 7  20104590.740    20104591.434    20104591.091
        45.200          42.700
    944748.037 2    736167.856 2  24531447.480    24531448.836    24531448.422
        13.900          12.600
    650953.244 2    507235.334 3  25174866.182    25174868.548    25174867.207
        17.000          18.600
 -25500044.947 7 -19870158.839 6  20813902.266    20813902.783    20813902.238
        44.900          41.600
 13 10  7  0 24 30.0000000  0 12G 5G28G15G21G26G19G 7G10G 9G 3G27G 8
 -22493994.076 7 -17527775.258 6  21405286.026    21405286.278    21405286.634
        42.100          40.300
 -17740244.748 6 -13823563.868 5  21847652.330    21847652.189    21847652.324
        38.100          34.000
 -12562390.243 4  -9788869.968 4  23250942.145    23250942.638    23250942.695
        29.700          26.800
  -7667052.378 2  -5974324.026 2  24901386.754    24901385.959    24901386.841
        15.100          15.100
 -28693225.699 7 -22358348.349 7  19935140.606    19935141.490    19935141.294
        44.600          43.200
  -4549543.548 3  -3545096.946 2  24774897.299    24774895.520    24774897.067
        19.300          17.800
 -13148659.850 5 -10245701.540 5  22680021.305    22680021.055    22680021.812
        34.100          30.100
  -2869785.958 2  -2236182.221 3  24796250.560    24796252.982    24796249.976
        17.800          18.600
 -28028097.876 7 -21840069.506 7  20112797.771    20112798.415    20112798.011
        45.300          42.900
    979178.918 2    762997.123 2  24537999.148    24538001.065    24537998.987
        17.000          16.100
    679840.212 2    529744.652 2  25180362.585    25180365.476    25180363.412
        13.900          17.000
 -25462930.365 7 -19841238.386 6  20820965.086    20820965.392    20820964.915
        44.900          41.600
 13 10  7  0 25  0.0000000  0 12G 5G28G15G21G26G19G 7G10G 9G 3G27G 8
 -22433440.832 6 -17480590.936 6  21416808.613    21416809.267    21416809.363
        41.900          40.500
 -17792480.213 6 -13864266.810 5  21837712.619    21837712.316    21837712.317
        38.000          34.800
 -12656511.090 4  -9862210.883 4  23233030.685    23233031.324    23233031.547
        28.100          26.500
  -7683763.220 2  -5987345.455 2  24898207.223    24898206.540    24898206.833
        17.000          17.000
 -28731382.968 7 -22388081.278 7  19927879.863    19927880.315    19927880.196
        44.600          43.400
  -4576842.357 3  -3566368.769 3  24769702.490    24769701.456    24769701.744
        19.300          21.100
 -13059893.171 5 -10176532.717 5  22696913.279    22696913.010    22696913.422
        33.900          31.000
  -2752502.173 3  -2144792.233 2  24818568.284    24818570.570    24818568.348
        19.900          16.100
 -27984470.347 7 -21806074.035 7  20121099.718    20121100.423    20121100.043
        45.300          42.800
   1014203.054 2    790288.680 2  24544665.417    24544666.488    24544665.401
        17.800          17.800
    709266.959 2    552674.568 2  25185963.008    25185965.208    25185963.228
        15.100          16.100
 -25425402.831 7 -19811996.155 6  20828106.119    20828106.683    20828106.171
        44.800          41.600
 13 10  7  0 25 30.0000000  0 12G 5G28G15G21G26G19G 7G10G 9G 3G27G 8
 -22372390.145 6 -17433018.995 6  21428426.645    21428426.749    21428427.015
        41.900          40.000
 -17844240.153 6 -13904599.208 5  21827862.493    21827862.680    21827862.490
        38.200          34.600
 -12750475.943 4  -9935430.239 4  23215150.019    23215150.370    23215151.130
        29.900          25.900
  -7699982.404 2  -5999983.788 1  24895119.725    24895119.979    24895119.237
        12.600          11.000
 -28769052.801 7 -22417434.398 7  19920711.612    19920711.934    19920711.908
        44.700          43.400
  -4603588.080 3  -3587209.595 2  24764613.518    24764611.760    24764612.621
        19.300          17.800
 -12970925.927 5 -10107207.620 5  22713842.581    22713842.720    22713843.156
        33.500          30.800
  -2635189.255 3  -2053379.579 3  24840890.890    24840894.558    24840891.239
        18.600          18.600
 -27940344.733 7 -21771690.443 7  20129496.657    20129497.292    20129496.899
        45.200          42.600
   1049819.297 2    818041.568 2  24551443.387    24551443.856    24551443.857
        17.000          13.900
    739232.430 2    576024.241 3  25191666.214    25191667.299    25191665.938
        17.800          18.600
 -25387463.473 7 -19782433.022 6  20835325.734    20835326.385    20835325.764
        44.800          41.300
 13 10  7  0 26  0.0000000  0 12G 5G28G15G21G26G19G 7G10G 9G 3G27G 8
 -22310843.964 7 -17385060.948 6  21440138.270    21440138.527    21440138.944
        42.000          40.200
 -17895522.829 6 -13944559.726 5  21818103.672    21818103.676    21818103.804
        38.200          34.300
 -12844283.506 5 -10008527.017 4  23197300.080    23197299.512    23197300.658
        30.400          26.500
  -7715709.680 2  -6012238.810 2  24892127.720    24892127.225    24892127.116
        13.900          12.600
 -28806234.008 7 -22446406.759 7  19913635.801    19913636.687    19913636.489
        44.700          43.400
  -4629779.328 2  -3607618.370 2  24759628.942    24759626.885    24759628.300
        17.800          16.100
 -12881760.029 5 -10037727.697 4  22730810.091    22730810.365    22730811.175
        33.800          29.500
  -2517849.294 2  -1961945.877 2  24863221.092    24863223.728    24863220.819
        17.000          15.100
 -27895722.559 7 -21736919.921 7  20137988.098    20137988.606    20137988.266
        45.300          42.600
   1086025.946 2    846254.484 1  24558333.384    24558333.920    24558333.182
        17.800          11.000
    769735.606 3    599792.903 3  25197471.227    25197472.654    25197470.946
        19.300          19.300
 -25349113.779 7 -19752550.140 6  20842623.283    20842624.100    20842623.371
        44.700          41.400
 13 10  7  0 26 30.0000000  0 12G 5G28G15G21G26G19G 7G10G 9G 3G27G 8
 -22248804.023 7 -17336718.159 6  21451943.982    21451944.500    21451944.825
        42.000          40.100
 -17946326.704 6 -13984147.146 5  21808436.040    21808435.847    21808435.945
        37.900          34.300
 -12937932.020 4 -10081499.847 4  23179478.399    23179478.829    23179479.108
        29.700          27.100
  -7730944.556 2  -6024110.119 2  24889229.507    24889228.191    24889228.612
        16.100          13.900
 -28842925.391 7 -22474997.451 7  19906654.288    19906654.531    19906654.441
        44.800          43.500
  -4655414.459 3  -3627593.801 3  24754751.810    24754749.813    24754750.447
        19.300          19.300
 -12792397.084 5  -9968094.252 5  22747815.267    22747815.823    22747816.342
        33.400          30.800
  -2400484.357 2  -1870492.673 2  24885555.615    24885557.147    24885555.400
        17.000          16.100
 -27850605.460 7 -21701763.745 7  20146573.373    20146573.992    20146573.728
        45.300          42.400
   1122821.807 2    874926.567 2  24565335.164    24565335.764    24565335.147
        16.100          12.600
    800775.448 2    623979.784 3  25203377.528    25203379.390    25203377.037
        12.600          19.300
 -25310355.123 7 -19722348.589 6  20849998.828    20849999.572    20849998.899
        44.700          41.200
 13 10  7  0 27  0.0000000  0 12G 5G28G15G21G26G19G 7G10G 9G 3G27G 8
 -22186272.282 6 -17287992.155 6  21463843.306    21463843.820    21463843.980
        41.600          39.800
 -17996650.259 6 -14023360.285 5  21798860.030    21798859.714    21798859.934
        38.300          34.500
 -13031420.047 5 -10154347.661 4  23161688.405    23161688.918    23161689.060
        30.400          26.500
  -7745686.185 2  -6035597.114 2  24886423.679    24886422.547    24886423.376
        13.900          16.100
 -28879125.870 7 -22503205.613 7  19899765.123    19899765.794    19899765.739
        44.900          43.400
  -4680492.404 2  -3647135.044 2  24749977.921    24749977.855    24749977.889
        17.000          17.800
 -12702838.978 5  -9898308.734 4  22764858.047    22764857.984    22764858.709
        33.600          29.700
  -2283096.936 2  -1779021.958 3  24907893.506    24907896.009    24907893.171
        17.800          18.600
 -27804995.156 7 -21666223.254 7  20155252.555    20155253.312    20155253.016
        45.300          42.300
   1160205.772 2    904056.939 2  24572448.660    24572449.820    24572449.075
        13.900          13.900
    832350.895 2    648584.027 2  25209384.663    25209387.466    25209385.489
        15.100          17.800
 -25271188.551 7 -19691829.185 6  20857452.388    20857452.627    20857452.196
        44.600          41.200
 13 10  7  0 27 30.0000000  0 12G 5G28G15G21G26G19G 7G10G 9G 3G27G 8
 -22123250.165 6 -17238884.031 6  21475836.197    21475836.647    21475836.898
        41.900          39.800
 -18046492.248 6 -14062198.185 5  21789375.122    21789375.181    21789375.193
        38.100          34.800
 -13124746.408 5 -10227069.459 4  23143929.844    23143929.075    23143930.247
        31.600          25.900
  -7759935.622 3  -6046700.552 2  24883711.452    24883710.921    24883711.997
        19.300          17.000
 -28914834.243 7 -22531030.315 7  19892970.724    19892970.686    19892970.748
        44.900          43.600
  -4705011.606 3  -3666240.931 2  24745312.397    24745310.648    24745311.955
        19.900          17.800
 -12613087.238 5  -9828372.333 4  22781937.135    22781937.488    22781937.842
        33.400          29.200
  -2165689.037 2  -1687535.331 2  24930234.660    24930237.408    24930234.684
        17.000          17.000
 -27758893.385 7 -21630299.795 7  20164025.532    20164026.200    20164025.906
        45.000          42.300
   1198176.540 2    933644.515 2  24579674.163    24579675.609    24579674.251
        13.900          12.600
    864460.789 2    673604.695 2  25215495.793    25215497.515    25215495.581
        17.800          17.000
 -25231615.575 7 -19660993.104 6  20864982.440    20864983.093    20864982.615
        44.600          41.100
 13 10  7  0 28  0.0000000  0 12G 5G28G15G21G26G19G 7G10G 9G 3G27G 8
 -22059739.629 6 -17189395.325 6  21487921.884    21487922.263    21487922.554
        41.900          39.700
 -18095850.992 6 -14100659.535 5  21779982.627    21779982.482    21779982.562
        38.200          34.900
 -13217909.362 5 -10299663.950 4  23126200.394    23126200.972    23126201.250
        30.200          26.800
  -7773692.354 2  -6057420.088 1  24881093.968    24881092.891    24881094.095
        15.100           6.500
 -28950049.312 7 -22558470.632 7  19886269.013    19886269.503    19886269.445
        45.000          43.800
  -4728970.580 3  -3684910.266 2  24740754.390    24740751.223    24740753.540
        21.100          17.800
 -12523143.574 5  -9758286.387 5  22799052.997    22799053.008    22799053.464
        33.200          30.100
  -2048262.931 2  -1596034.466 2  24952580.578    24952582.838    24952580.066
        13.900          17.800
 -27712301.971 7 -21593994.801 7  20172891.414    20172892.385    20172891.870
        44.900          42.200
   1236732.917 2    963688.404 1  24587012.232    24587012.258    24587011.944
        16.100          11.000
    897104.039 3    699040.991 2  25221707.895    25221709.790    25221708.187
        18.600          16.100
 -25191637.619 7 -19629841.452 6  20872589.976    20872590.707    20872590.107
        44.600          41.100
 13 10  7  0 28 30.0000000  0 12G 5G28G15G21G26G19G 7G10G 9G 3G27G 8
 -21995742.794 6 -17139527.681 6  21500099.918    21500100.363    21500100.767
        41.900          39.500
 -18144725.055 6 -14138743.207 5  21770682.395    21770682.051    21770682.363
        38.700          34.900
 -13310907.288 5 -10372129.858 4  23108503.011    23108503.516    23108504.255
        30.400          25.600
  -7786955.391 2  -6067754.918 1  24878570.164    24878568.888    24878569.813
        17.800          11.000
 -28984769.968 7 -22585525.683 7  19879661.683    19879662.458    19879662.299
        44.800          43.700
  -4752368.156 3  -3703142.144 2  24736300.673    24736299.298    24736300.987
        21.100          17.000
 -12433009.626 5  -9688052.159 4  22816205.026    22816204.741    22816205.414
        33.500          29.200
  -1930820.582 2  -1504520.951 3  24974929.928    24974931.392    24974928.993
        17.800          19.300
 -27665222.537 7 -21557309.528 7  20181850.821    20181851.321    20181850.944
        45.100          42.300
   1275873.370 2    994187.454 2  24594460.242    24594461.224    24594460.501
        15.100          16.100
    930279.423 2    724891.874 2  25228021.335    25228022.596    25228020.919
        15.100          17.800
 -25151255.911 7 -19598375.189 6  20880274.445    20880275.200    20880274.460
        44.600          41.200
 13 10  7  0 29  0.0000000  0 12G 5G28G15G21G26G19G 7G10G 9G 3G27G 8
 -21931261.455 6 -17089282.502 6  21512370.209    21512371.020    21512371.014
        41.400          39.900
 -18193112.810 6 -14176447.936 5  21761474.060    21761474.167    21761474.085
        38.400          34.800
 -13403738.667 5 -10444465.976 4  23090837.866    23090838.672    23090839.091
        31.100          26.800
  -7799725.018 2  -6077705.286 2  24876139.805    24876139.562    24876140.033
        16.100          16.100
 -29018995.108 7 -22612194.624 7  19873149.312    19873149.670    19873149.524
        44.800          43.800
  -4775203.448 3  -3720935.879 2  24731955.919    24731954.323    24731955.694
        20.500          17.000
 -12342687.222 5  -9617671.089 4  22833392.864    22833392.919    22833393.184
        33.200          29.000
  -1813364.215 2  -1412996.519 2  24997281.305    24997283.411    24997280.164
        17.000          17.800
 -27617656.866 7 -21520245.372 7  20190902.007    20190902.829    20190902.299
        45.000          42.100
   1315596.356 2   1025140.465 2  24602018.290    24602019.972    24602018.159
        13.900          13.900
    963985.872 2    751156.635 2  25234434.300    25234437.158    25234435.361
        17.800          17.000
 -25110471.700 7 -19566595.285 6  20888035.544    20888036.169    20888035.454
        44.600          41.100
 13 10  7  0 29 30.0000000  0 12G 5G28G15G21G26G19G 7G10G 9G 3G27G 8
 -21866297.016 6 -17038660.890 6  21524732.771    21524733.352    21524733.469
        41.700          39.500
 -18241013.150 6 -14213772.862 5  21752359.014    21752358.980    21752359.113
        38.300          35.100
 -13496402.136 5 -10516671.237 4  23073204.797    23073205.029    23073205.831
        30.600          25.900
  -7812000.984 2  -6087270.976 1  24873802.708    24873802.918    24873803.724
        12.600          11.000
 -29052723.554 7 -22638476.531 7  19866730.895    19866731.325    19866731.281
        45.100          44.000
  -4797474.761 3  -3738290.154 3  24727717.536    24727716.685    24727716.876
        21.100          19.300
 -12252178.106 5  -9547144.546 4  22850616.330    22850616.425    22850616.734
        33.100          29.700
  -1695896.056 2  -1321462.893 2  25019634.532    25019636.515    25019633.993
        13.900          17.800
 -27569606.572 7 -21482803.595 6  20200045.858    20200046.275    20200046.103
        45.100          41.800
   1355900.599 3   1056546.396 1  24609687.799    24609688.931    24609687.514
        18.600          11.000
    998222.092 2    777834.216 2  25240949.659    25240951.555    25240950.444
        13.900          16.100
 -25069286.203 7 -19534502.695 6  20895872.706    20895873.438    20895872.761
        44.500          40.900
 13 10  7  0 30  0.0000000  0 12G 5G28G15G21G26G19G 7G10G 9G 3G27G 8
 -21800851.913 6 -16987664.723 6  21537186.579    21537186.921    21537187.455
        41.800          39.200
 -18288424.238 6 -14250716.559 5  21743337.033    21743336.956    21743337.054
        38.700          34.800
 -13588895.921 5 -10588744.304 4  23055603.052    23055604.259    23055604.710
        30.400          27.400
  -7823783.086 2  -6096451.827 2  24871561.962    24871561.017    24871561.848
        12.600          13.900
 -29085954.168 7 -22664370.511 7  19860407.140    19860407.807    19860407.677
        45.000          44.000
  -4819180.683 2  -3755203.848 3  24723587.090    24723586.248    24723587.579
        17.000          20.500
 -12161483.930 5  -9476473.770 4  22867874.786    22867875.346    22867875.531
        33.500          29.500
  -1578418.114 2  -1229921.637 3  25041989.640    25041991.771    25041989.089
        12.600          19.300
 -27521073.594 7 -21444985.693 7  20209281.417    20209281.811    20209281.646
        44.900          42.000
   1396784.629 2   1088404.062 2  24617467.002    24617468.885    24617467.889
        13.900          12.600
   1032986.936 2    804923.669 2  25247564.711    25247567.477    25247565.777
        16.100          17.000
 -25027700.998 7 -19502098.643 6  20903786.196    20903786.894    20903786.185
        44.400          40.700
 13 10  7  0 30 30.0000000  0 12G 5G28G15G21G26G19G 7G10G 9G 3G27G 8
 -21734927.875 6 -16936295.365 6  21549731.228    21549731.973    21549732.071
        41.400          39.300
 -18335345.027 6 -14287278.209 5  21734408.033    21734408.237    21734408.129
        38.400          35.100
 -13681218.844 5 -10660684.220 4  23038035.790    23038035.684    23038036.581
        31.300          26.800
  -7835070.377 2  -6105247.116 2  24869413.921    24869412.919    24869413.549
        16.100          16.100
 -29118685.871 7 -22689875.733 7  19854178.690    19854179.143    19854178.943
        44.800          43.900
  -4840320.177 3  -3771676.202 3  24719564.733    24719563.018    24719563.689
        20.500          18.600
 -12070606.416 5  -9405660.154 4  22885168.151    22885168.630    22885168.810
        32.800          29.500
  -1460932.632 1  -1138374.534 2  25064346.332    25064348.636    25064345.853
         6.500          16.100
 -27472059.743 7 -21406793.089 6  20218608.343    20218608.901    20218608.668
        45.100          41.900
   1438247.004 2   1120712.381 2  24625357.953    24625359.019    24625358.657
        17.000          12.600
   1068279.171 2    832424.114 2  25254280.228    25254283.101    25254280.538
        16.100          16.100
 -24985717.593 7 -19469384.308 6  20911775.374    20911776.025    20911775.325
        44.300          41.000
 13 10  7  0 31  0.0000000  0 12G 5G28G15G21G26G19G 7G10G 9G 3G27G 8
 -21668526.970 6 -16884554.422 6  21562367.050    21562367.609    21562367.884
        41.300          39.200
 -18381774.081 6 -14323456.681 6  21725572.903    21725573.082    21725572.999
        38.600          36.000
 -13773369.048 5 -10732489.559 4  23020500.191    23020500.001    23020500.735
        30.600          27.100
  -7845864.082 2  -6113657.783 2  24867358.656    24867359.465    24867358.797
        15.100          15.100
 -29150917.575 7 -22714991.350 7  19848044.756    19848045.579    19848045.405
        45.000          43.900
  -4860892.354 3  -3787706.462 2  24715648.182    24715648.121    24715647.920
        19.900          15.100
 -11979547.296 5  -9334705.016 4  22902496.243    22902496.132    22902496.894
        33.000          29.000
  -1343441.833 2  -1046823.277 2  25086703.541    25086706.353    25086703.655
        15.100          13.900
 -27422566.352 7 -21368226.812 6  20228026.563    20228027.132    20228026.825
        44.800          41.800
   1480286.308 2   1153470.259 2  24633358.502    24633358.743    24633358.670
        15.100          16.100
   1104097.520 1    860334.506 2  25261096.985    25261099.678    25261097.394
         9.000          16.100
 -24943337.104 7 -19436360.558 6  20919840.066    20919840.666    20919840.237
        44.500          40.800
 13 10  7  0 31 30.0000000  0 12G 5G28G15G21G26G19G 7G10G 9G 3G27G 8
 -21601651.018 6 -16832443.314 6  21575093.155    21575093.951    21575094.005
        41.400          39.400
 -18427709.811 6 -14359250.740 5  21716831.965    21716832.019    21716831.847
        38.400          35.900
 -13865345.074 5 -10804159.178 4  23002997.404    23002997.690    23002998.318
        31.300          28.400
  -7856163.751 2  -6121683.533 2  24865399.585    24865398.938    24865399.583
        13.900          17.000
 -29182648.207 7 -22739716.513 7  19842006.844    19842007.530    19842007.200
        44.900          44.000
  -4880896.040 2  -3803293.715 2  24711842.916    24711841.373    24711842.406
        17.000          16.100
 -11888308.164 5  -9263609.588 4  22919857.885    22919858.316    22919859.110
        32.800          28.100
  -1225947.654 2   -955269.370 2  25109061.560    25109064.774    25109061.706
        15.100          17.000
 -27372595.408 7 -21329288.421 6  20237535.847    20237536.325    20237536.044
        44.600          41.600
   1522900.884 2   1186676.365 2  24641467.952    24641468.597    24641467.665
        17.000          16.100
   1140440.682 2    888653.796 2  25268012.326    25268015.632    25268013.274
        16.100          17.000
 -24900560.975 7 -19403028.510 6  20927980.218    20927980.810    20927980.343
        44.600          40.900
 13 10  7  0 32  0.0000000  0 12G 5G28G15G21G26G19G 7G10G 9G 3G27G 8
 -21534301.420 6 -16779963.131 6  21587909.420    21587910.038    21587910.172
        41.500          39.000
 -18473150.846 6 -14394659.324 5  21708184.591    21708184.492    21708184.569
        38.600          35.500
 -13957145.503 5 -10875691.973 4  22985529.202    22985528.568    22985529.646
        31.500          27.900
  -7865969.135 2  -6129324.056 2  24863534.790    24863534.468    24863534.787
        16.100          17.000
 -29213876.707 7 -22764050.408 7  19836064.369    19836065.005    19836064.689
        45.100          44.100
  -4900330.134 3  -3818437.173 3  24708145.568    24708143.481    24708145.129
        20.500          18.600
 -11796890.704 5  -9192375.220 4  22937254.447    22937254.836    22937255.211
        32.400          29.200
  -1108452.255 2   -863714.508 3  25131420.435    25131423.450    25131420.645
        13.900          18.600
 -27322148.559 7 -21289979.196 6  20247135.304    20247136.095    20247135.769
        45.000          41.600
   1566089.236 2   1220329.612 2  24649685.685    24649686.808    24649686.268
        15.100          12.600
   1177307.392 2    917381.042 3  25275028.296    25275030.778    25275028.732
        17.000          18.600
 -24857390.689 7 -19369389.333 6  20936195.367    20936195.961    20936195.303
        44.300          40.700
 13 10  7  0 32 30.0000000  0 12G 5G28G15G21G26G19G 7G10G 9G 3G27G 8
 -21466481.037 6 -16727116.103 6  21600815.047    21600815.665    21600815.986
        41.200          38.800
 -18518096.197 6 -14429681.662 5  21699631.749    21699631.443    21699631.879
        38.600          34.900
 -14048768.880 5 -10947086.780 4  22968093.490    22968093.360    22968094.161
        31.000          27.600
  -7875279.809 3  -6136579.175 2  24861762.739    24861761.798    24861762.925
        18.600          15.100
 -29244602.028 7 -22787992.217 7  19830217.430    19830218.140    19830217.877
        45.200          44.100
  -4919192.964 3  -3833135.520 3  24704556.104    24704553.933    24704555.872
        20.500          18.600
 -11705296.512 5  -9121003.163 4  22954684.604    22954684.741    22954685.017
        32.700          29.200
   -990957.671 2   -772160.299 3  25153779.591    25153781.284    25153779.140
        16.100          18.600
 -27271227.800 7 -21250300.685 6  20256825.564    20256825.989    20256825.641
        44.800          41.600
   1609849.646 2   1254428.664 2  24658013.483    24658014.703    24658012.986
        15.100          12.600
   1214696.299 2    946515.239 2  25282143.376    25282145.620    25282143.612
        17.000          15.100
 -24813827.604 7 -19335444.074 6  20944485.174    20944485.730    20944485.159
        44.400          40.800
 13 10  7  0 33  0.0000000  0 12G 5G28G15G21G26G19G 7G10G 9G 3G27G 8
 -21398191.355 6 -16673903.386 6  21613810.269    21613810.930    21613811.068
        41.400          38.600
 -18562544.441 6 -14464316.652 6  21691173.621    21691173.567    21691173.610
        38.900          36.000
 -14140213.420 5 -11018342.277 4  22950691.266    22950692.550    22950692.550
        31.000          27.900
  -7884095.943 2  -6143448.878 2  24860084.352    24860085.078    24860083.926
        16.100          16.100
 -29274823.054 7 -22811541.065 7  19824466.696    19824467.216    19824466.938
        45.100          44.200
  -4937483.603 3  -3847387.978 3  24701075.239    24701073.960    24701074.770
        20.500          18.600
 -11613527.303 5  -9049494.719 4  22972147.167    22972147.547    22972147.933
        32.000          28.400
   -873466.236 2   -680608.508 2  25176137.361    25176139.263    25176137.461
        12.600          12.600
 -27219834.907 7 -21210254.278 6  20266604.975    20266605.886    20266605.398
        44.800          41.800
   1654180.937 1   1288972.496 2  24666449.554    24666450.239    24666449.336
         9.000          12.600
   1252606.141 2    976055.307 2  25289356.444    25289359.914    25289357.362
        15.100          16.100
 -24769873.034 7 -19301193.761 6  20952849.530    20952849.960    20952849.455
        44.300          40.500
 13 10  7  0 33 30.0000000  0 12G 5G28G15G21G26G19G 7G10G 9G 3G27G 8
 -21329434.373 6 -16620326.536 6  21626894.728    21626895.089    21626895.278
        41.400          38.900
 -18606494.330 6 -14498563.306 6  21682810.376    21682810.328    21682810.299
        38.900          36.100
 -14231477.716 5 -11089457.289 4  22933324.512    22933324.826    22933325.519
        32.000          27.600
  -7892417.679 2  -6149933.326 2  24858501.166    24858500.686    24858501.023
        16.100          12.600
 -29304538.738 7 -22834696.146 7  19818812.030    19818812.446    19818812.290
        45.000          44.200
  -4955201.282 3  -3861193.940 3  24697702.529    24697702.222    24697702.055
        19.300          18.600
 -11521584.986 5  -8977851.372 4  22989643.625    22989643.434    22989644.464
        32.400          27.900
   -755980.236 2   -589060.978 2  25198493.874    25198496.261    25198493.663
        16.100          16.100
 -27167971.533 7 -21169841.267 6  20276474.699    20276475.054    20276474.774
        44.700          41.500
   1699081.168 2   1323959.663 1  24674992.891    24674993.667    24674993.766
        13.900          11.000
   1291035.573 2   1006000.256 2  25296669.322    25296672.685    25296669.856
        13.900          16.100
 -24725528.412 7 -19266639.513 6  20961287.804    20961288.472    20961287.783
        44.300          40.500
 13 10  7  0 34  0.0000000  0 12G 5G28G15G21G26G19G 7G10G 9G 3G27G 8
 -21260212.150 6 -16566387.170 6  21640066.994    21640067.717    21640067.579
        41.200          39.100
 -18649944.269 6 -14532420.390 6  21674542.193    21674541.887    21674542.014
        38.700          36.300
 -14322560.097 5 -11160430.550 4  22915992.197    22915993.105    22915993.270
        32.300          27.600
  -7900244.757 2  -6156032.380 1  24857010.773    24857011.261    24857010.995
        16.100          11.000
 -29333748.013 7 -22857456.618 7  19813253.665    19813254.139    19813253.980
        45.300          44.200
  -4972344.899 3  -3874552.587 3  24694441.687    24694439.352    24694440.690
        19.300          19.900
 -11429470.984 5  -8906074.237 4  23007172.461    23007172.174    23007173.153
        32.700          28.800
   -638501.556 2   -497519.161 2  25220848.321    25220851.437    25220848.885
        15.100          16.100
 -27115639.453 7 -21129063.031 6  20286433.108    20286433.447    20286433.243
        44.900          41.400
   1744548.967 2   1359389.108 1  24683646.437    24683646.856    24683646.482
        13.900          11.000
   1329983.206 2   1036349.028 2  25304082.477    25304084.682    25304082.950
        13.900          17.000
 -24680795.154 7 -19231782.435 6  20969800.198    20969800.878    20969800.291
        44.300          40.300
 13 10  7  0 34 30.0000000  0 11G 5G28G15G21G26G19G 7G10G 9G27G 8
 -21190526.752 6 -16512086.886 6  21653327.884    21653328.096    21653328.369
        41.400          38.400
 -18692893.197 6 -14565887.073 6  21666369.014    21666368.970    21666368.943
        39.000          36.100
 -14413459.107 5 -11231260.928 4  22898694.053    22898695.308    22898695.386
        31.600          28.400
  -7907577.239 2  -6161745.997 2  24855616.028    24855616.012    24855616.167
        13.900          17.000
 -29362449.878 7 -22879821.707 7  19807791.896    19807792.461    19807792.237
        45.200          44.400
  -4988913.290 3  -3887463.021 3  24691287.894    24691286.693    24691287.487
        19.900          21.600
 -11337186.979 5  -8834164.644 4  23024733.190    23024733.516    23024733.391
        31.500          29.000
   -521032.332 2   -405984.671 2  25243202.128    25243204.899    25243202.904
        16.100          12.600
 -27062840.601 7 -21087921.067 6  20296480.063    20296480.822    20296480.412
        44.600          41.400
   1369447.736 2   1067100.626 2  25311592.632    25311594.697    25311592.330
        17.000          17.000
 -24635674.464 7 -19196623.461 6  20978386.433    20978387.157    20978386.490
        44.200          40.400
 13 10  7  0 35  0.0000000  0 11G 5G28G15G21G26G19G 7G10G 9G27G 8
 -21120380.429 6 -16457427.429 6  21666676.181    21666676.668    21666676.984
        41.400          38.500
 -18735339.987 6 -14598962.486 6  21658291.499    21658291.651    21658291.747
        39.100          36.300
 -14504173.366 5 -11301947.359 4  22881432.602    22881433.138    22881433.115
        32.100          28.400
  -7914415.308 2  -6167074.365 2  24854315.407    24854314.425    24854314.908
        16.100          17.000
 -29390643.408 7 -22901790.688 7  19802426.625    19802427.412    19802427.151
        45.100          44.300
  -5004905.599 3  -3899924.527 2  24688245.448    24688242.981    24688245.709
        20.500          17.800
 -11244734.515 5  -8762123.803 4  23042326.527    23042326.891    23042327.086
        31.500          29.200
   -403574.627 2   -314459.147 1  25265554.277    25265556.969    25265553.765
        12.600          11.000
 -27009576.821 7 -21046416.830 6  20306616.047    20306616.559    20306616.122
        44.500          41.200
   1409427.642 2   1098253.766 3  25319199.729    25319202.052    25319198.937
        16.100          18.600
 -24590167.852 7 -19161163.769 6  20987046.167    20987046.910    20987046.182
        44.000          40.500
 13 10  7  0 35 30.0000000  0 11G 5G28G15G21G26G19G 7G10G 9G27G 8
 -21049775.232 6 -16402410.412 6  21680111.561    21680112.571    21680112.454
        41.000          38.600
 -18777283.116 6 -14631645.445 5  21650310.186    21650309.913    21650310.062
        38.900          35.900
 -14594700.645 5 -11372488.078 4  22864205.804    22864205.974    22864206.644
        32.300          27.900
  -7920758.828 2  -6172017.395 2  24853106.532    24853107.621    24853107.863
        16.100          12.600
 -29418327.511 7 -22923362.717 7  19797158.710    19797159.215    19797159.004
        45.300          44.400
  -5020320.997 3  -3911936.532 3  24685311.781    24685309.040    24685311.509
        20.500          18.600
 -11152115.451 5  -8689953.121 4  23059951.986    23059951.418    23059952.035
        31.800          29.000
   -286130.431 2   -222944.184 2  25287903.764    25287905.675    25287902.385
        13.900          15.100
 -26955849.823 7 -21004551.643 6  20316839.877    20316840.441    20316840.068
        44.400          41.000
   1449921.493 1   1129807.405 2  25326905.411    25326907.919    25326905.241
         9.000          17.000
 -24544276.711 7 -19125404.441 6  20995778.956    20995779.593    20995778.871
        44.100          40.400
 13 10  7  0 36  0.0000000  0 11G 5G28G15G21G26G19G 7G10G 9G27G 8
 -20978712.826 6 -16347037.137 6  21693634.594    21693635.148    21693635.307
        41.200          38.400
 -18818721.620 6 -14663935.169 6  21642424.536    21642424.521    21642424.469
        38.400          36.000
 -14685039.553 5 -11442882.016 4  22847014.464    22847014.759    22847015.588
        31.800          28.600
  -7926608.252 2  -6176575.401 2  24851994.099    24851994.453    24851993.975
        16.100          16.100
 -29445501.172 7 -22944536.998 7  19791987.435    19791988.185    19791987.979
        45.200          44.500
  -5035158.273 3  -3923498.063 3  24682489.000    24682486.224    24682487.315
        19.300          19.300
 -11059331.309 5  -8617653.814 4  23077607.689    23077607.809    23077608.042
        31.300          28.400
   -168702.096 1   -131441.577 1  25310249.733    25310251.541    25310248.067
         9.000          11.000
 -26901661.653 7 -20962327.100 6  20327151.614    20327152.076    20327151.858
        44.700          41.200
   1490927.878 1   1161760.424 2  25334708.675    25334710.842    25334708.873
         6.500          12.600
 -24498002.663 7 -19089346.746 6  21004584.585    21004585.341    21004584.599
        44.000          40.500
 13 10  7  0 36 30.0000000  0 11G 5G28G15G21G26G19G 7G10G 9G27G 8
 -20907195.175 6 -16291309.121 6  21707244.019    21707244.624    21707244.681
        41.000          38.600
 -18859654.176 6 -14695830.659 6  21634635.397    21634635.594    21634635.468
        39.300          36.500
 -14775188.762 5 -11513128.152 4  22829859.638    22829859.856    22829860.553
        32.000          27.900
  -7931963.092 2  -6180748.006 2  24850976.826    24850975.141    24850976.897
        13.900          15.100
 -29472163.476 7 -22965312.816 7  19786914.148    19786914.537    19786914.388
        45.100          44.300
  -5049416.514 2  -3934608.387 3  24679774.111    24679773.892    24679773.360
        17.800          18.600
 -10966383.709 5  -8545227.144 4  23095294.461    23095295.272    23095295.450
        31.100          28.400
    -51291.619 2    -39952.877 1  25332591.787    25332593.669    25332590.911
        12.600          11.000
 -26847014.072 7 -20919744.572 6  20337550.717    20337551.139    20337550.989
        44.600          41.000
   1532445.131 2   1194111.504 2  25342609.058    25342610.834    25342609.545
        17.800          12.600
 -24451347.088 7 -19052991.756 6  21013462.987    21013463.543    21013462.830
        44.000          40.500
 13 10  7  0 37  0.0000000  0 11G 5G28G15G21G26G19G 7G10G 9G27G 8
 -20835224.498 6 -16235228.096 6  21720939.718    21720940.137    21720940.250
        40.700          38.400
 -18900079.537 6 -14727330.929 6  21626942.774    21626942.850    21626942.731
        39.200          36.500
 -14865146.823 5 -11583225.333 4  22812741.962    22812741.319    22812742.302
        32.600          28.600
  -7936823.476 2  -6184535.335 2  24850050.302    24850050.529    24850050.656
        15.100          16.100
 -29498313.336 7 -22985689.331 7  19781937.975    19781938.435    19781938.265
        45.200          44.400
  -5063095.015 3  -3945266.936 3  24677171.494    24677171.539    24677169.845
        18.600          19.300
 -10873274.105 5  -8472674.224 4  23113012.776    23113013.466    23113013.748
        31.000          28.100
     66098.613 2     51520.058 2  25354930.916    25354932.398    25354930.378
        16.100          15.100
 -26791909.061 7 -20876805.605 6  20348036.786    20348037.423    20348037.162
        44.400          41.200
   1574471.987 2   1226859.594 1  25350606.001    25350608.716    25350606.710
        17.000           9.000
 -24404311.174 7 -19016340.398 6  21022413.341    21022414.180    21022413.339
        43.800          40.300
 13 10  7  0 37 30.0000000  0 11G 5G28G15G21G26G19G 7G10G 9G27G 8
 -20762802.987 6 -16178795.774 6  21734720.805    21734721.519    21734721.528
        40.700          38.100
 -18939996.660 6 -14758435.170 6  21619346.603    21619346.584    21619346.672
        39.200          36.300
 -14954911.855 5 -11653172.095 4  22795659.214    22795660.040    22795660.586
        32.000          28.400
  -7941189.854 2  -6187937.701 2  24849218.365    24849219.002    24849218.221
        12.600          17.000
 -29523949.923 7 -23005665.894 7  19777059.284    19777059.948    19777059.721
        45.300          44.600
  -5076192.751 3  -3955472.934 3  24674678.712    24674678.240    24674678.253
        18.600          19.900
 -10780004.247 5  -8399996.451 4  23130761.825    23130762.156    23130762.340
        31.300          27.600
    183466.682 2    142975.719 1  25377266.140    25377267.279    25377265.040
        13.900          11.000
 -26736348.277 7 -20833511.493 6  20358609.740    20358610.193    20358609.984
        44.500          41.000
   1617006.879 2   1260003.630 2  25358700.198    25358703.380    25358701.134
        15.100          15.100
 -24356896.529 7 -18979393.927 6  21031436.234    21031436.876    21031436.193
        43.700          40.200
 13 10  7  0 38  0.0000000  0 11G 5G28G15G21G26G19G 7G10G 9G27G 8
 -20689932.861 6 -16122013.877 6  21748587.786    21748588.152    21748588.525
        41.100          37.800
 -18979404.512 6 -14789142.575 6  21611847.493    21611847.574    21611847.614
        39.100          36.200
 -15044482.378 5 -11722967.307 4  22778614.440    22778615.250    22778615.814
        32.700          28.600
  -7945062.242 2  -6190955.157 2  24848481.970    24848482.564    24848482.595
        16.100          13.900
 -29549072.226 7 -23025241.714 7  19772278.598    19772279.298    19772279.130
        45.300          44.400
  -5088708.882 3  -3965225.736 3  24672297.146    24672297.636    24672297.875
        19.900          22.100
 -10686575.905 5  -8327195.165 4  23148540.690    23148540.730    23148541.138
        31.300          27.400
    300810.376 2    234412.375 2  25399596.072    25399596.531    25399594.884
        12.600          12.600
 -26680333.505 7 -20789863.629 6  20369269.104    20369269.508    20369269.193
        44.400          41.000
   1660048.268 2   1293542.286 2  25366891.043    25366894.022    25366892.049
        12.600          16.100
 -24309104.494 7 -18942153.381 6  21040530.620    21040531.371    21040530.645
        43.800          40.000
 13 10  7  0 38 30.0000000  0 11G 5G28G15G21G26G19G 7G10G 9G27G 8
 -20616616.293 6 -16064884.110 6  21762539.177    21762540.103    21762539.923
        40.300          38.200
 -19018301.682 6 -14819452.047 6  21604445.709    21604445.697    21604445.742
        39.200          36.700
 -15133856.763 5 -11792609.672 4  22761607.972    22761607.744    22761608.566
        32.800          29.000
  -7948440.805 2  -6193587.817 2  24847839.947    24847839.669    24847839.572
        13.900          13.900
 -29573679.293 7 -23044416.050 7  19767596.340    19767596.722    19767596.636
        45.300          44.600
  -5100642.622 3  -3974524.728 3  24670028.131    24670026.386    24670027.480
        22.100          21.100
 -10592990.830 5  -8254271.748 4  23166349.460    23166349.402    23166349.820
        31.300          27.400
    418128.021 2    325828.722 2  25421919.767    25421921.629    25421919.281
        17.000          12.600
 -26623866.562 7 -20745863.413 6  20380014.328    20380014.889    20380014.501
        44.200          41.000
   1703594.712 2   1327474.561 2  25375178.063    25375180.286    25375177.594
        15.100          17.000
 -24260936.502 7 -18904619.884 6  21049696.496    21049697.356    21049696.684
        43.600          39.900
 13 10  7  0 39  0.0000000  0 11G 5G28G15G21G26G19G 7G10G 9G27G 8
 -20542855.502 6 -16007408.194 6  21776575.735    21776576.047    21776576.275
        40.900          37.900
 -19056687.486 6 -14849363.052 6  21597141.064    21597141.289    21597141.254
        39.300          36.800
 -15223033.426 5 -11862097.970 4  22744638.253    22744638.058    22744638.630
        33.200          29.200
  -7951325.682 2  -6195835.788 2  24847291.011    24847289.902    24847290.800
        16.100          15.100
 -29597770.121 7 -23063188.125 7  19763011.899    19763012.517    19763012.236
        45.200          44.800
  -5111993.256 3  -3983369.360 3  24667868.290    24667865.275    24667867.754
        23.400          19.900
 -10499250.423 5  -8181227.290 4  23184187.395    23184187.399    23184188.249
        31.100          26.800
    535417.344 2    417223.002 2  25444238.512    25444240.681    25444237.718
        15.100          12.600
 -26566949.418 7 -20701512.398 6  20390845.332    20390845.817    20390845.415
        44.100          40.900
   1747644.548 2   1361799.044 2  25383559.940    25383562.984    25383560.000
        13.900          15.100
 -24212394.112 7 -18866794.650 6  21058934.104    21058934.741    21058934.093
        43.800          40.000
 13 10  7  0 39 30.0000000  0 11G 5G28G15G21G26G19G 7G10G 9G27G 8
 -20468652.058 6 -15949587.350 6  21790696.276    21790696.892    21790696.861
        40.900          38.300
 -19094560.845 6 -14878874.747 6  21589934.554    21589934.210    21589934.316
        39.300          37.200
 -15312010.596 5 -11931430.823 4  22727706.293    22727706.128    22727706.815
        33.500          29.000
  -7953717.313 1  -6197699.384 1  24846835.159    24846834.543    24846835.159
        11.000          11.000
 -29621343.968 7 -23081557.359 7  19758525.844    19758526.658    19758526.183
        45.200          44.700
  -5122759.986 3  -3991759.039 2  24665819.780    24665816.451    24665819.588
        23.800          17.000
 -10405356.219 5  -8108062.996 4  23202055.154    23202055.000    23202055.776
        31.300          27.100
    652675.971 1    508593.424 1  25466551.451    25466554.390    25466552.272
         6.500           6.500
 -26509583.915 7 -20656812.011 6  20401761.540    20401762.182    20401761.705
        44.200          40.700
   1792196.165 2   1396514.503 2  25392038.424    25392041.382    25392038.525
        17.800          17.800
 -24163478.712 7 -18828678.757 6  21068242.468    21068243.021    21068242.482
        43.600          39.800
 13 10  7  0 40  0.0000000  0 12G 5G28G15G21G26G19G 7G10G 9G18G27G 8
 -20394008.293 6 -15891423.406 6  21804900.538    21804900.900    21804901.152
        40.900          37.700
 -19131920.520 6 -14907986.166 6  21582824.933    21582824.753    21582824.903
        39.500          37.100
 -15400786.834 5 -12000607.090 4  22710812.315    22710812.506    22710813.401
        33.500          29.200
  -7955615.552 2  -6199178.570 1  24846474.196    24846472.849    24846475.090
        15.100          11.000
 -29644399.721 7 -23099522.883 7  19754138.439    19754139.222    19754138.786
        45.400          44.600
  -5132942.060 3  -3999693.107 3  24663881.475    24663879.169    24663881.098
        21.600          18.600
 -10311309.749 5  -8034780.054 4  23219951.457    23219951.768    23219952.306
        31.100          28.400
    769902.111 1    599938.474 1  25488858.150    25488862.043    25488857.058
         9.000          11.000
 -26451771.973 7 -20611763.749 6  20412762.965    20412763.485    20412763.046
        44.000          40.500
   -213556.191 1   -166406.559 1  25923992.852    25923993.624    25923993.913
         9.000           6.500
   1837248.085 2   1431619.862 2  25400610.576    25400614.090    25400612.075
        12.600          15.100
 -24114191.808 7 -18790273.379 6  21077621.527    21077622.023    21077621.378
        43.400          39.900
 13 10  7  0 40 30.0000000  0 12G 5G28G15G21G26G19G 7G10G 9G18G27G 8
 -20318926.718 6 -15832918.306 6  21819187.563    21819188.498    21819188.440
        40.100          37.200
 -19168765.319 6 -14936696.386 6  21575813.451    21575813.498    21575813.482
        39.400          36.800
 -15489360.578 5 -12069625.577 4  22693957.088    22693957.918    22693957.984
        33.200          29.500
  -7957020.732 2  -6200273.512 1  24846207.787    24846206.097    24846206.928
        13.900          11.000
 -29666936.621 7 -23117084.107 7  19749849.966    19749850.523    19749850.279
        45.300          44.800
  -5142538.571 3  -4007170.913 2  24662055.108    24662051.173    24662053.985
        19.900          13.900
 -10217112.651 5  -7961379.739 4  23237876.658    23237876.896    23237877.208
        31.000          27.100
    887093.557 1    691256.510 2  25511159.770    25511162.245    25511159.766
        11.000          17.000
 -26393515.499 7 -20566369.098 6  20423848.402    20423849.307    20423848.726
        43.900          40.600
   -313484.047 2   -244272.403 1  25904978.518    25904976.974    25904978.670
        15.100          11.000
   1882798.714 2   1467113.830 2  25409277.940    25409282.260    25409279.802
        12.600          16.100
 -24064534.649 7 -18751579.493 6  21087070.647    21087071.518    21087070.764
        43.600          39.700
 13 10  7  0 41  0.0000000  0 12G 5G28G15G21G26G19G 7G10G 9G18G27G 8
 -20243409.735 6 -15774073.934 6  21833558.070    21833558.792    21833559.025
        40.800          37.300
 -19205094.332 6 -14965004.694 6  21568900.193    21568900.154    21568900.188
        39.400          36.500
 -15577729.993 5 -12138484.844 4  22677140.777    22677141.489    22677141.941
        32.800          29.200
  -7957933.006 2  -6200984.376 1  24846035.475    24846031.975    24846034.741
        13.900           9.000
 -29688953.720 7 -23134240.288 7  19745659.979    19745660.745    19745660.536
        45.400          44.900
  -5151549.065 2  -4014192.123 2  24660337.906    24660336.580    24660337.357
        17.800          17.800
 -10122766.568 5  -7887863.321 4  23255829.689    23255830.674    23255830.503
        30.600          27.900
   1004247.929 1    782545.615 1  25533453.682    25533457.019    25533453.662
        11.000           9.000
 -26334816.306 7 -20520629.470 6  20435018.431    20435019.446    20435018.749
        43.800          40.500
   -413297.490 2   -322048.973 2  25885985.321    25885983.188    25885984.380
        12.600          13.900
   1928846.252 2   1502994.989 2  25418041.318    25418044.555    25418042.296
        15.100          12.600
 -24014508.599 7 -18712598.159 6  21096590.209    21096591.205    21096590.264
        43.500          39.700
 13 10  7  0 41 30.0000000  0 11G 5G28G15G21G26G19G 7G10G 9G18G 8
 -20167459.176 6 -15714891.695 6  21848011.031    21848011.755    21848012.082
        40.600          37.200
 -19240906.657 6 -14992910.392 6  21562085.377    21562085.370    21562085.422
        39.500          37.200
 -15665893.634 5 -12207183.773 4  22660364.195    22660364.725    22660365.090
        33.900          29.200
  -7958352.882 2  -6201311.558 2  24845954.631    24845953.515    24845954.508
        17.800          13.900
 -29710450.142 7 -23150990.748 7  19741569.392    19741570.131    19741569.904
        45.500          44.900
  -5159972.939 3  -4020756.139 2  24658733.622    24658733.318    24658734.082
        19.300          15.100
 -10028272.799 4  -7814231.837 4  23273811.228    23273812.278    23273812.002
        29.900          27.600
   1121363.546 2    873804.540 2  25555740.824    25555743.046    25555739.975
        12.600          16.100
 -26275676.268 7 -20474546.334 6  20446272.371    20446273.263    20446272.738
        43.800          40.300
   -512993.517 2   -399734.133 1  25867012.650    25867012.551    25867012.600
        12.600           6.500
 -23964115.156 7 -18673330.545 6  21106180.023    21106180.630    21106179.965
        43.400          39.400
 13 10  7  0 42  0.0000000  0 11G 5G28G15G21G26G19G 7G10G 9G18G 8
 -20091077.181 6 -15655373.283 6  21862546.135    21862547.116    21862546.969
        40.300          37.700
 -19276201.163 6 -15020412.589 6  21555369.252    21555369.323    21555369.193
        39.700          37.500
 -15753849.860 5 -12275721.077 5  22643626.807    22643626.901    22643627.501
        33.500          30.200
  -7958280.732 3  -6201255.351 2  24845968.111    24845967.478    24845967.951
        18.600          16.100
 -29731425.041 7 -23167334.825 7  19737578.315    19737578.714    19737578.554
        45.500          44.900
  -5167809.392 2  -4026862.416 3  24657244.149    24657243.212    24657243.996
        16.100          19.900
  -9933633.340 5  -7740486.835 4  23291820.683    23291821.087    23291821.622
        30.400          26.800
   1238438.256 2    965031.577 2  25578019.969    25578021.315    25578019.557
        12.600          15.100
 -26216097.274 7 -20428121.146 6  20457610.104    20457610.745    20457610.411
        44.100          40.200
   -612570.185 9   -477326.303 9  25848063.832    25848062.073    25848061.592
        -3.000          -3.000
 -23913355.871 7 -18633777.856 6  21115838.899    21115839.792    21115839.115
        43.400          39.400
 13 10  7  0 42 30.0000000  0 11G 5G28G15G21G26G19G 7G10G 9G18G 8
 -20014265.752 6 -15595520.252 6  21877162.606    21877163.631    21877163.811
        40.200          37.000
 -19310976.912 6 -15047510.559 6  21548751.506    21548751.432    21548751.413
        39.500          37.500
 -15841597.044 5 -12344095.491 4  22626928.938    22626929.240    22626929.619
        33.900          29.900
  -7957716.771 2  -6200815.934 1  24846075.298    24846074.811    24846074.603
        17.000          11.000
 -29751877.510 7 -23183271.820 7  19733686.298    19733686.717    19733686.642
        45.400          44.800
  -5175057.827 3  -4032510.566 2  24655866.525    24655864.701    24655865.895
        20.500          17.800
  -9838849.554 5  -7666629.365 4  23309858.303    23309857.777    23309858.615
        30.100          25.900
   1355469.993 2   1056225.148 2  25600290.115    25600291.303    25600289.520
        17.000          17.000
 -26156081.197 7 -20381355.379 6  20469030.725    20469031.482    20469031.127
        43.800          40.400
   -712025.163 1   -554823.651 9  25829137.965    25829137.768    25829138.029
         9.000          -3.000
 -23862232.311 7 -18593941.317 6  21125567.426    21125568.413    21125567.598
        43.200          39.400
 13 10  7  0 43  0.0000000  0 11G 5G28G15G21G26G19G 7G10G 9G18G 8
 -19937027.298 6 -15535334.469 6  21891860.926    21891861.721    21891861.762
        40.200          37.100
 -19345233.053 6 -15074203.644 6  21542232.965    21542232.483    21542232.931
        39.800          36.900
 -15929133.453 5 -12412305.677 5  22610270.998    22610271.581    22610272.232
        34.100          30.100
  -7956661.343 2  -6199993.527 2  24846276.930    24846275.319    24846276.026
        17.000          13.900
 -29771806.814 7 -23198801.148 7  19729893.903    19729894.285    19729894.237
        45.300          44.800
  -5181717.720 3  -4037700.060 3  24654599.273    24654598.152    24654599.397
        23.400          20.500
  -9743922.942 5  -7592660.583 4  23327921.971    23327921.687    23327922.555
        30.600          27.100
   1472456.985 2   1147383.834 2  25622552.082    25622553.644    25622551.262
        16.100          15.100
 -26095629.904 7 -20334250.482 6  20480534.171    20480534.981    20480534.513
        43.700          40.000
   -811356.590 1   -632224.714 1  25810235.274    25810234.569    25810234.937
         6.500          11.000
 -23810745.986 7 -18553822.111 6  21135365.211    21135365.944    21135365.170
        43.200          39.500
 13 10  7  0 43 30.0000000  0 11G 5G28G15G21G26G19G 7G10G 9G18G 8
 -19859364.436 6 -15474817.974 6  21906639.749    21906640.349    21906640.618
        40.500          37.200
 -19378968.598 6 -15100491.076 6  21535812.976    21535812.879    21535812.990
        39.500          36.800
 -16016457.523 5 -12480350.384 4  22593654.651    22593654.422    22593654.928
        34.400          29.700
  -7955114.797 2  -6198788.434 2  24846569.654    24846569.971    24846569.466
        13.900          16.100
 -29791212.094 7 -23213922.145 7  19726201.079    19726201.660    19726201.470
        45.300          45.000
  -5187788.439 3  -4042430.465 3  24653444.181    24653442.960    24653444.474
        22.100          20.500
  -9648855.095 5  -7518581.758 4  23346011.715    23346012.728    23346013.128
        30.200          26.800
   1589396.993 2   1238505.943 2  25644804.967    25644806.516    25644804.852
        16.100          12.600
 -26034745.319 7 -20286807.951 6  20492120.247    20492120.881    20492120.553
        43.800          39.700
   -910562.010 2   -709527.627 1  25791357.079    25791358.148    25791357.280
        13.900          11.000
 -23758898.134 7 -18513421.193 6  21145231.501    21145232.135    21145231.528
        43.200          39.300
 13 10  7  0 44  0.0000000  0 11G 5G28G15G21G26G19G 7G10G 9G18G 8
 -19781278.935 6 -15413972.153 6  21921499.060    21921499.567    21921499.869
        40.300          36.500
 -19412182.638 6 -15126372.128 6  21529492.660    21529492.665    21529492.592
        39.500          37.700
 -16103567.486 5 -12548228.270 5  22577077.676    22577077.889    22577078.400
        34.000          30.100
  -7953077.341 2  -6197200.833 2  24846957.514    24846958.344    24846957.868
        12.600          12.600
 -29810092.404 7 -23228634.080 7  19722608.226    19722608.923    19722608.686
        45.600          45.100
  -5193269.351 3  -4046701.316 3  24652401.684    24652399.882    24652401.409
        23.400          21.600
  -9553647.862 4  -7444394.329 4  23364129.743    23364130.527    23364130.169
        29.200          26.800
   1706287.835 2   1329589.733 2  25667047.966    25667049.525    25667046.901
        15.100          13.900
 -25973429.423 7 -20239029.332 6  20503788.495    20503789.051    20503788.701
        43.800          40.000
  -1009639.184 2   -786730.582 1  25772501.919    25772502.811    25772502.569
        13.900           9.000
 -23706690.220 7 -18472739.703 6  21155166.673    21155166.957    21155166.429
        43.100          38.900
 13 10  7  0 44 30.0000000  0 11G 5G28G15G21G26G19G 7G10G 9G18G 8
 -19702773.238 6 -15352798.904 6  21936437.993    21936439.068    21936438.943
        40.100          36.700
 -19444874.156 6 -15151846.018 6  21523271.689    21523271.664    21523271.722
        39.900          37.700
 -16190461.882 5 -12615938.180 5  22560542.157    22560542.504    22560542.916
        34.100          30.600
  -7950549.780 2  -6195231.287 2  24847439.118    24847438.681    24847438.773
        12.600          15.100
 -29828447.106 7 -23242936.449 7  19719115.370    19719116.117    19719115.903
        45.600          45.000
  -5198160.235 3  -4050512.350 3  24651470.054    24651469.480    24651470.040
        21.100          22.600
  -9458302.510 4  -7370099.259 4  23382273.369    23382273.951    23382274.213
        29.900          26.800
   1823127.509 2   1420633.655 1  25689281.721    25689283.424    25689281.121
        15.100           6.500
 -25911684.099 7 -20190916.097 6  20515537.662    20515538.854    20515538.139
        43.500          40.000
  -1108586.426 1   -863832.309 2  25753672.183    25753673.466    25753674.000
        11.000          12.600
 -23654123.856 7 -18431778.904 6  21165169.245    21165170.113    21165169.420
        43.200          39.100
 13 10  7  0 45  0.0000000  0 11G 5G28G15G21G26G19G 7G10G 9G18G 8
 -19623849.751 6 -15291300.108 6  21951456.728    21951457.472    21951457.400
        39.800          36.600
 -19477042.442 6 -15176912.203 6  21517150.119    21517149.946    21517150.114
        39.800          37.400
 -16277138.918 5 -12683478.713 5  22544048.371    22544048.363    22544048.815
        34.500          30.200
  -7947531.824 2  -6192879.657 2  24848013.118    24848012.568    24848012.413
        13.900          15.100
 -29846275.312 7 -23256828.553 7  19715723.048    19715723.447    19715723.352
        45.500          45.100
  -5202460.346 4  -4053863.090 3  24650652.577    24650650.870    24650651.694
        24.200          19.900
  -9362820.612 4  -7295697.797 4  23400442.909    23400443.517    23400443.716
        29.900          26.500
   1939914.264 1   1511636.330 2  25711505.171    25711507.311    25711505.593
        11.000          12.600
 -25849511.144 7 -20142469.645 6  20527369.140    20527369.834    20527369.393
        43.700          40.000
  -1207401.468 1   -940831.044 9  25734869.098    25734869.903    25734869.684
         9.000          -3.000
 -23601200.262 7 -18390539.740 6  21175240.242    21175241.177    21175240.363
        42.900          39.100
 13 10  7  0 45 30.0000000  0 11G 5G28G15G21G26G19G 7G10G 9G18G 8
 -19544510.670 6 -15229477.474 6  21966554.590    21966555.432    21966555.387
        40.200          37.200
 -19508686.585 6 -15201569.963 6  21511128.312    21511128.357    21511128.417
        39.300          37.500
 -16363596.902 5 -12750848.556 5  22527595.731    22527595.860    22527596.276
        34.300          30.600
  -7944024.389 2  -6190146.606 2  24848681.629    24848679.851    24848680.935
        16.100          12.600
 -29863576.267 7 -23270309.824 7  19712430.816    19712431.212    19712431.073
        45.600          45.100
  -5206169.255 3  -4056753.137 3  24649945.756    24649944.927    24649944.925
        21.600          19.900
  -9267203.802 4  -7221191.216 4  23418638.484    23418639.115    23418639.381
        29.700          26.500
   2056645.777 2   1602595.926 1  25733718.506    25733720.606    25733717.883
        12.600           9.000
 -25786912.822 7 -20093691.736 6  20539281.382    20539281.930    20539281.493
        43.200          39.600
  -1306082.086 2  -1017724.991    25716090.966    25716091.868    25716092.360
        12.600           3.000
 -23547920.878 7 -18349023.345 6  21185378.861    21185379.797    21185379.040
        42.700          38.900
 13 10  7  0 46  0.0000000  0 11G 5G28G15G21G26G19G 7G10G 9G18G 8
 -19464758.716 6 -15167333.119 6  21981730.674    21981731.613    21981731.574
        39.700          36.900
 -19539805.922 6 -15225818.782 6  21505206.865    21505206.691    21505206.825
        39.700          37.700
 -16449834.282 5 -12818046.507 5  22511185.134    22511185.619    22511185.994
        34.700          30.600
  -7940028.138 2  -6187032.662 2  24849442.339    24849440.688    24849442.202
        17.800          15.100
 -29880349.188 7 -23283379.632 7  19709238.995    19709239.345    19709239.319
        45.600          45.100
  -5209286.409 3  -4059182.040 2  24649351.086    24649350.493    24649349.432
        18.600          17.800
  -9171453.568 4  -7146580.668 4  23436859.519    23436859.620    23436859.785
        28.100          26.800
   2173320.019 2   1693510.914 2  25755921.418    25755923.366    25755921.137
        16.100          12.600
 -25723890.817 7 -20044583.693 6  20551274.037    20551274.520    20551274.313
        43.400          39.400
  -1404625.606 1  -1094512.111 1  25697339.173    25697340.347    25697339.768
        11.000           9.000
 -23494287.368 7 -18307231.001 6  21195585.207    21195585.843    21195585.288
        42.800          38.700
 13 10  7  0 46 30.0000000  0 11G 5G28G15G21G26G19G 7G10G 9G18G 8
 -19384595.267 6 -15104868.111 6  21996985.236    21996986.064    21996986.331
        40.000          36.400
 -19570399.731 6 -15249658.102 6  21499384.790    21499384.731    21499384.679
        39.700          37.400
 -16535849.194 5 -12885071.103 5  22494817.563    22494817.307    22494817.987
        34.900          30.100
  -7935543.284 2  -6183537.954 2  24850294.572    24850293.957    24850294.785
        17.800          13.900
 -29896593.259 7 -23296037.350 7  19706147.794    19706148.215    19706148.112
        45.600          45.100
  -5211811.718 2  -4061149.815 2  24648870.136    24648869.915    24648868.838
        17.000          16.100
  -9075571.079 4  -7071867.070 4  23455105.287    23455105.184    23455105.684
        29.700          26.200
   2289935.004 2   1784379.745 1  25778112.388    25778114.749    25778111.328
        12.600           6.500
 -25660447.096 7 -19995147.029 6  20563347.021    20563347.332    20563347.177
        43.300          39.400
  -1503030.247 2  -1171191.044 1  25678613.898    25678613.237    25678612.890
        12.600           9.000
 -23440301.201 7 -18265163.858 6  21205858.602    21205859.178    21205858.498
        42.700          38.900
 13 10  7  0 47  0.0000000  0 11G 5G28G15G21G26G19G 7G10G 9G18G 8
 -19304023.150 6 -15042084.664 6  22012317.761    22012318.599    22012318.666
        39.800          36.600
 -19600466.789 6 -15273086.962 6  21493663.305    21493663.071    21493663.235
        39.800          37.400
 -16621640.195 5 -12951921.218 5  22478491.583    22478491.877    22478492.368
        34.900          30.800
  -7930570.110 2  -6179662.776 2  24851240.456    24851240.514    24851241.254
        16.100          13.900
 -29912307.795 7 -23308282.444 7  19703157.309    19703157.868    19703157.654
        45.400          45.100
  -5213744.604 2  -4062655.934 2  24648502.598    24648501.032    24648502.580
        17.800          17.000
  -8979558.131 4  -6997051.805 4  23473376.225    23473375.831    23473376.353
        29.700          27.100
   2406488.902 1   1875200.951 2  25800291.537    25800292.966    25800291.862
         6.500          13.900
 -25596583.725 7 -19945383.364 6  20575499.647    20575500.265    20575499.860
        43.000          39.300
  -1601293.739 1  -1247759.999 1  25659915.383    25659915.216    25659914.708
         6.500          11.000
 -23385963.682 7 -18222822.942 6  21216198.572    21216199.220    21216198.646
        42.800          38.700
 13 10  7  0 47 30.0000000  0 11G 5G28G15G21G26G19G 7G10G 9G18G 8
 -19223044.727 6 -14978984.618 6  22027727.344    22027728.292    22027728.163
        39.100          36.400
 -19630006.609 6 -15296104.984 6  21488042.169    21488041.909    21488042.149
        40.200          37.600
 -16707205.522 5 -13018595.493 5  22462209.319    22462209.255    22462209.897
        34.900          31.000
  -7925109.186 2  -6175407.511 2  24852281.541    24852279.480    24852281.373
        17.800          13.900
 -29927492.034 7 -23320114.320 7  19700267.616    19700268.458    19700268.206
        45.500          45.100
  -5215084.865 3  -4063700.264 3  24648248.964    24648246.330    24648248.722
        19.900          19.300
  -8883416.315 4  -6922136.118 4  23491671.168    23491671.005    23491671.721
        28.400          26.200
   2522979.721 2   1965973.004 2  25822459.071    25822461.220    25822459.110
        13.900          12.600
 -25532302.534 7 -19895294.133 6  20587731.943    20587732.654    20587732.274
        43.300          39.400
  -1699413.913 1  -1324217.267 2  25641244.691    25641242.945    25641245.036
        11.000          12.600
 -23331276.561 7 -18180209.602 6  21226605.278    21226605.875    21226605.289
        42.500          38.400
 13 10  7  0 48  0.0000000  0 11G 5G28G15G21G26G19G 7G10G 9G18G 8
 -19141662.138 6 -14915569.637 6  22043214.499    22043214.819    22043215.019
        39.600          36.200
 -19659018.433 6 -15318711.588 6  21482521.293    21482521.183    21482521.205
        39.900          37.700
 -16792543.548 5 -13085092.642 5  22445969.570    22445970.212    22445970.706
        34.500          31.300
  -7919161.250 3  -6170772.775 2  24853413.089    24853411.888    24853412.053
        18.600          17.800
 -29942145.325 7 -23331532.470 7  19697479.788    19697479.990    19697479.883
        45.800          45.100
  -5215831.824 3  -4064282.291 3  24648108.196    24648104.477    24648107.517
        19.300          19.900
  -8787147.326 4  -6847121.344 4  23509990.319    23509990.353    23509990.796
        29.000          24.600
   2639405.479 1   2056694.383 1  25844613.493    25844615.871    25844613.323
        11.000          11.000
 -25467605.531 7 -19844880.887 6  20600043.593    20600044.084    20600043.725
        43.000          39.300
  -1797388.514 2  -1400561.096 1  25622599.736    25622598.958    25622599.702
        16.100          11.000
 -23276240.980 7 -18137324.741 6  21237078.398    21237078.806    21237078.204
        42.400          38.400
 13 10  7  0 48 30.0000000  0 12G 5G28G15G21G26G19G 7G10G 9G18G24G 8
 -19059878.002 6 -14851841.759 6  22058777.615    22058777.847    22058778.128
        39.700          36.600
 -19687501.426 6 -15340906.110 6  21477101.206    21477100.934    21477101.163
        40.200          38.000
 -16877652.474 5 -13151411.275 5  22429774.300    22429774.464    22429774.820
        34.700          31.300
  -7912726.505 2  -6165758.694 2  24854635.842    24854636.309    24854636.239
        12.600          17.000
 -29956266.924 7 -23342536.314 7  19694792.125    19694792.722    19694792.588
        45.600          45.100
  -5215985.324 3  -4064401.909 3  24648077.794    24648075.317    24648077.360
        20.500          19.300
  -8690752.260 4  -6772008.326 4  23528333.318    23528334.058    23528333.999
        27.900          26.200
   2755764.084 2   2147363.401 2  25866755.862    25866758.093    25866756.225
        16.100          12.600
 -25402494.478 7 -19794145.003 6  20612433.333    20612434.376    20612433.897
        43.000          39.100
  -1895214.911 1  -1476789.438 9  25603984.512    25603982.590    25603984.203
         6.500          -3.000
   -162895.428 1   -126931.059 2  25488751.134    25488756.067    25488752.286
         6.500          13.900
 -23220858.752 7 -18094169.764 6  21247617.107    21247617.625    21247617.095
        42.500          38.300
 13 10  7  0 49  0.0000000  0 12G 5G28G15G21G26G19G 7G10G 9G18G24G 8
 -18977694.406 6 -14787802.613 6  22074416.310    22074417.088    22074416.921
        39.500          36.500
 -19715454.807 6 -15362687.948 6  21471781.807    21471781.575    21471781.761
        40.100          37.700
 -16962530.777 5 -13217550.215 5  22413622.784    22413622.777    22413623.170
        35.300          31.300
  -7905805.676 2  -6160365.851 2  24855953.351    24855953.611    24855952.615
        12.600          15.100
 -29969856.062 7 -23353125.255 7  19692206.204    19692206.848    19692206.644
        45.800          45.300
  -5215545.290 3  -4064059.010 3  24648161.187    24648160.099    24648161.108
        21.600          19.900
  -8594232.715 4  -6696798.302 4  23546701.106    23546701.314    23546701.518
        28.800          25.300
   2872053.686 1                  25888885.231                    25888884.992
         6.500
 -25336971.400 7 -19743088.064 6  20624902.286    20624903.038    20624902.470
        43.100          39.100
  -1992891.436 1  -1552900.966    25585396.747    25585395.521    25585396.694
         6.500           3.000
   -269070.638 2   -209664.998 2  25468546.505    25468551.836    25468546.822
        12.600          12.600
 -23165131.286 7 -18050745.771 6  21258221.505    21258222.164    21258221.438
        42.400          38.200
 13 10  7  0 49 30.0000000  0 12G 5G28G15G21G26G19G 7G10G 9G18G24G 8
 -18895113.831 6 -14723454.151 6  22090130.670    22090131.382    22090131.593
        39.300          36.100
 -19742878.157 6 -15384056.778 6  21466563.205    21466562.997    21466563.241
        40.200          37.700
 -17047176.745 5 -13283508.095 5  22397514.786    22397515.024    22397515.445
        35.400          31.500
  -7898400.186 2  -6154595.377 2  24857363.461    24857361.832    24857363.412
        13.900          17.000
 -29982912.143 7 -23363298.825 7  19689721.623    19689722.480    19689722.161
        45.700          45.400
  -5214511.190 3  -4063253.217 3  24648358.016    24648356.583    24648357.827
        21.100          19.300
  -8497589.983 4  -6621492.289 4  23565090.870    23565091.905    23565091.688
        28.400          25.900
   2988272.513 1   2328538.827 1  25911000.117    25911004.181    25910999.563
         6.500           6.500
 -25271038.266 7 -19691711.609 6  20637449.138    20637449.648    20637449.171
        42.700          38.800
  -2090415.628 2  -1628893.853 9  25566839.760    25566837.255    25566839.350
        12.600          -3.000
   -375196.993 2   -292360.873 2  25448351.233    25448356.106    25448352.271
        12.600          13.900
 -23109060.017 7 -18007053.878 6  21268891.632    21268892.054    21268891.593
        42.300          38.200
 13 10  7  0 50  0.0000000  0 12G 5G28G15G21G26G19G 7G10G 9G18G24G 8
 -18812138.591 6 -14658798.132 5  22105920.334    22105921.080    22105921.309
        39.300          35.800
 -19769770.666 6 -15405011.974 6  21461445.868    21461445.734    21461445.816
        39.900          38.100
 -17131588.774 5 -13349283.688 5  22381451.844    22381451.919    22381452.335
        35.500          32.300
  -7890510.009 2  -6148447.173 2  24858865.592    24858863.211    24858865.826
        16.100          15.100
 -29995434.471 7 -23373056.481 7  19687339.091    19687339.577    19687339.305
        45.900          45.400
  -5212882.989 3  -4061984.460 3  24648667.885    24648666.381    24648667.916
        20.500          19.900
  -8400825.886 4  -6546091.716 4  23583504.537    23583505.256    23583505.604
        28.100          25.300
   3104418.512     2419042.152 2  25933101.885    25933103.630    25933100.563
         3.000          13.900
 -25204697.112 7 -19640017.208 6  20650073.245    20650073.829    20650073.444
        42.800          38.900
  -2187784.995 1  -1704766.052 1  25548309.090    25548309.095    25548309.263
        11.000          11.000
   -481273.078 2   -375017.520 1  25428165.411    25428169.102    25428166.179
        13.900          11.000
 -23052646.382 7 -17963095.200 6  21279626.364    21279627.285    21279626.629
        42.100          38.000
 13 10  7  0 50 30.0000000  0 12G 5G28G15G21G26G19G 7G10G 9G18G24G 8
 -18728771.258 6 -14593836.597 5  22121784.696    22121785.738    22121785.465
        39.200          35.800
 -19796131.732 6 -15425553.044 6  21456429.503    21456429.267    21456429.568
        40.200          38.100
 -17215764.964 5 -13414875.525 5  22365433.402    22365433.530    22365434.227
        35.700          31.800
  -7882135.572 2  -6141921.677 2  24860457.255    24860457.946    24860457.812
        12.600          17.000
 -30007422.365 7 -23382397.698 7  19685057.700    19685058.252    19685058.065
        45.700          45.300
  -5210660.340 3  -4060252.531 3  24649089.848    24649089.411    24649090.450
        19.300          19.900
  -8303941.777 4  -6470597.629 4  23601941.559    23601941.694    23601941.847
        27.100          26.200
   3220489.771 1   2509487.257 9  25955189.319    25955192.927    25955189.051
         9.000          -3.000
 -25137949.790 7 -19588006.313 6  20662774.933    20662775.514    20662775.054
        42.700          38.700
  -2284997.908 2  -1780516.343 1  25529809.823    25529809.516    25529809.459
        13.900           9.000
   -587297.936 1   -457634.252 2  25407990.033    25407993.582    25407990.891
        11.000          13.900
 -22995891.643 7 -17918870.738 6  21290426.825    21290427.528    21290426.680
        42.100          38.100
 13 10  7  0 51  0.0000000  0 11G 5G28G15G21G26G19G 7G 9G18G24G 8
 -18645014.264 6 -14528571.436 6  22137723.181    22137724.122    22137723.974
        39.300          36.300
 -19821960.660 6 -15445679.469 6  21451514.574    21451513.929    21451514.470
        40.300          37.700
 -17299703.713 5 -13480282.321 5  22349460.344    22349460.725    22349461.271
        35.600          31.800
  -7873277.484 2  -6135019.255 2  24862142.809    24862143.326    24862143.129
        12.600          12.600
 -30018875.120 7 -23391321.923 7  19682878.467    19682878.730    19682878.695
        45.700          45.300
  -5207843.086 3  -4058057.265 3  24649625.995    24649625.154    24649625.858
        19.300          21.100
  -8206939.214 4  -6395011.241 4  23620400.153    23620400.814    23620400.827
        27.400          25.300
 -25070798.184 7 -19535680.395 6  20675553.195    20675554.046    20675553.569
        42.500          38.700
  -2382051.525 2  -1856142.518 1  25511341.547    25511340.075    25511342.532
        13.900          11.000
   -693270.771 2   -540210.471 1  25387823.959    25387827.817    25387825.794
        12.600          11.000
 -22938797.525 7 -17874381.816 6  21301291.329    21301292.216    21301291.468
        42.100          37.800
 13 10  7  0 51 30.0000000  0 11G 5G28G15G21G26G19G 7G 9G18G24G 8
 -18560869.758 6 -14463004.319 5  22153735.380    22153736.258    22153736.190
        38.900          35.900
 -19847256.719 6 -15465390.673 6  21446700.854    21446700.452    21446700.670
        40.500          38.100
 -17383403.119 5 -13545502.620 5  22333532.641    22333533.131    22333533.528
        35.300          31.600
  -7863936.734 2  -6127740.779 2  24863921.313    24863920.319    24863921.747
        17.800          13.900
 -30029792.212 7 -23399828.748 7  19680800.687    19680801.256    19680801.191
        45.800          45.300
  -5204431.152 3  -4055398.565 3  24650276.025    24650275.104    24650276.378
        21.100          21.600
  -8109819.637 4  -6319333.660 4  23638881.617    23638881.517    23638882.421
        26.800          25.900
 -25003244.409 7 -19483041.094 6  20688408.354    20688409.091    20688408.777
        42.700          38.300
  -2478943.982 1  -1931643.043 1  25492903.814    25492903.113    25492904.148
        11.000           9.000
   -799190.454 1   -622745.265 2  25367667.611    25367672.774    25367668.646
         6.500          16.100
 -22881365.652 7 -17829629.715 6  21312220.299    21312221.233    21312220.367
        42.100          37.700
 13 10  7  0 52  0.0000000  0 11G 5G28G15G21G26G19G 7G 9G18G24G 8
 -18476340.283 6 -14397137.219 5  22169820.914    22169821.480    22169821.580
        39.000          35.500
 -19872019.291 6 -15484686.170 6  21441988.622    21441988.459    21441988.551
        40.500          38.300
 -17466861.796 5 -13610535.352 5  22317650.933    22317651.704    22317652.235
        35.800          32.300
  -7854113.440 2  -6120086.266 2  24865790.407    24865789.522    24865790.988
        16.100          15.100
 -30040173.015 7 -23407917.683 7  19678825.305    19678825.892    19678825.817
        45.700          45.400
  -5200424.269 3  -4052276.330 3  24651038.902    24651037.481    24651038.440
        19.300          19.900
  -8012584.500 4  -6243566.045 4  23657385.156    23657385.149    23657385.080
        26.500          24.600
 -24935290.634 7 -19430090.105 6  20701339.332    20701340.466    20701339.700
        42.500          38.600
  -2575672.526 2  -2007015.934 1  25474498.441    25474496.508    25474497.317
        12.600           9.000
   -905056.096 1   -705237.906 2  25347521.674    25347526.900    25347521.753
         9.000          13.900
 -22823597.316 7 -17784615.429 6  21323213.522    21323214.050    21323213.390
        42.000          37.600
 13 10  7  0 52 30.0000000  0 11G 5G28G15G21G26G19G 7G 9G18G24G 8
 -18391428.418 6 -14330972.157 5  22185979.055    22185979.963    22185979.826
        38.900          35.600
 -19896248.225 6 -15503565.851 6  21437377.994    21437377.775    21437377.922
        40.300          38.400
 -17550078.382 6 -13675379.429 5  22301815.388    22301815.734    22301816.605
        36.400          32.100
  -7843809.021 2  -6112056.862 2  24867751.695    24867750.862    24867751.123
        16.100          16.100
 -30050016.816 7 -23415588.181 7  19676952.256    19676952.722    19676952.577
        45.900          45.300
  -5195822.504 3  -4048690.514 3  24651913.931    24651912.412    24651913.874
        21.100          19.900
  -7915235.103 4  -6167709.380 4  23675910.247    23675909.680    23675910.346
        27.400          24.900
 -24866938.552 7 -19376828.755 6  20714346.449    20714347.411    20714346.855
        42.700          38.300
  -2672235.268 2  -2082259.634 1  25456122.343    25456120.809    25456121.886
        13.900          11.000
  -1010866.135 9   -787687.253 2  25327387.391    25327391.955    25327388.638
        -3.000          13.900
 -22765493.927 6 -17739340.069 6  21334270.065    21334270.673    21334270.009
        41.900          37.700
 13 10  7  0 53  0.0000000  0 11G 5G28G15G21G26G19G 7G 9G18G24G 8
 -18306136.349 6 -14264510.839 5  22202209.466    22202210.509    22202210.330
        38.400          35.500
 -19919942.676 6 -15522029.047 6  21432868.788    21432868.968    21432868.880
        40.200          38.400
 -17633050.442 6 -13740032.978 5  22286025.950    22286027.121    22286027.380
        36.400          32.400
  -7833023.986 2  -6103652.950 2  24869803.490    24869802.866    24869803.064
        12.600          13.900
 -30059323.120 7 -23422839.845 7  19675181.243    19675181.771    19675181.647
        45.700          45.500
  -5190625.667 3  -4044641.007 2  24652904.364    24652901.518    24652904.266
        21.600          17.000
  -7817773.143 4  -6091765.007 4  23694456.528    23694456.141    23694456.755
        27.600          25.600
 -24798189.887 7 -19323258.372 6  20727429.100    20727429.720    20727429.355
        42.500          38.300
  -2768630.036 1  -2157372.402 2  25437779.351    25437777.268    25437778.968
        11.000          12.600
  -1116619.848 2   -870092.694 1  25307262.753    25307266.701    25307263.540
        12.600           9.000
 -22707057.157 7 -17693804.929 6  21345390.342    21345391.034    21345390.336
        42.000          37.900
 13 10  7  0 53 30.0000000  0 12G 5G28G15G21G26G19G 7G 3G 9G18G24G 8
 -18220466.466 6 -14197755.113 5  22218512.251    22218512.741    22218513.004
        38.800          35.300
 -19943102.104 6 -15540075.343 6  21428461.654    21428461.624    21428461.725
        40.000          38.400
 -17715776.308 6 -13804494.676 5  22270283.812    22270284.684    22270285.005
        36.200          32.300
  -7821758.553 1  -6094874.718 2  24871946.784    24871947.324    24871947.376
         9.000          16.100
 -30068091.332 7 -23429672.217 7  19673512.813    19673513.236    19673513.159
        45.700          45.400
  -5184833.912 3  -4040127.944 3  24654005.377    24654004.225    24654005.266
        19.900          19.300
  -7720199.907 4  -6015733.936 4  23713023.662    23713023.749    23713024.344
        26.200          25.300
    140461.537 1    109450.659 1  25101585.284    25101586.438    25101584.932
        11.000          11.000
 -24729046.803 7 -19269380.647 6  20740586.597    20740587.148    20740586.762
        42.200          38.100
  -2864854.530 1  -2232352.508 1  25419469.194    25419466.490    25419468.515
        11.000           9.000
  -1222316.557 1   -952453.730 2  25287149.796    25287153.595    25287150.262
         9.000          17.000
 -22648288.305 6 -17648011.022 6  21356573.383    21356574.417    21356573.622
        41.800          37.500
 13 10  7  0 54  0.0000000  0 12G 5G28G15G21G26G19G 7G 3G 9G18G24G 8
 -18134421.533 6 -14130707.140 5  22234885.698    22234886.610    22234886.564
        38.600          35.400
 -19965725.927 6 -15557704.283 6  21424156.800    21424156.460    21424156.673
        40.500          38.400
 -17798254.337 6 -13868763.262 5  22254588.607    22254589.736    22254589.964
        36.100          32.100
  -7810014.304 2  -6085723.358 2  24874182.492    24874181.767    24874182.736
        13.900          12.600
 -30076320.830 7 -23436084.814 7  19671946.788    19671947.233    19671947.166
        45.700          45.500
  -5178447.023 3  -4035151.138 3  24655221.060    24655219.386    24655220.261
        21.100          21.100
  -7622516.847 4  -5939617.287 4  23731611.281    23731612.775    23731612.649
        25.900          25.600
    207066.834 3    161350.849 1  25114258.749    25114260.736    25114259.787
        18.600          11.000
 -24659511.225 7 -19215197.083 6  20753818.679    20753819.423    20753818.956
        42.400          38.000
  -2960906.218 2  -2307197.941 2  25401190.434    25401189.158    25401189.637
        15.100          12.600
  -1327954.732 1  -1034769.122 2  25267047.725    25267051.957    25267048.621
        11.000          17.000
 -22589189.214 6 -17601959.787 6  21367819.753    21367820.515    21367819.793
        41.600          37.400
 13 10  7  0 54 30.0000000  0 12G 5G28G15G21G26G19G 7G 3G 9G18G24G 8
 -18048003.784 6 -14063368.666 5  22251330.740    22251331.620    22251331.454
        38.800          35.200
 -19987813.880 6 -15574915.668 6  21419953.431    21419953.265    21419953.352
        40.300          38.300
 -17880483.179 6 -13932837.664 5  22238941.842    22238941.768    22238942.418
        36.200          32.600
  -7797791.493 2  -6076199.133 2  24876509.334    24876507.711    24876509.374
        12.600          17.000
 -30084011.096 7 -23442077.234 7  19670483.163    19670483.765    19670483.703
        45.700          45.600
  -5171465.015 3  -4029710.620 3  24656548.166    24656547.722    24656547.984
        18.600          19.900
  -7524725.376 4  -5863416.177 4  23750221.070    23750221.809    23750222.018
        26.500          25.300
    274156.019 2    213628.137 1  25127025.108    25127027.078    25127025.475
        12.600           9.000
 -24589585.038 6 -19160709.146 6  20767125.332    20767125.967    20767125.397
        41.900          37.700
  -3056783.034 2  -2381907.126 1  25382944.862    25382944.645    25382944.135
        16.100           9.000
  -1433533.462 2  -1117038.247 2  25246956.665    25246961.176    25246957.060
        16.100          15.100
 -22529761.179 6 -17555652.229 6  21379128.583    21379129.263    21379128.487
        41.300          37.300
 13 10  7  0 55  0.0000000  0 12G 5G28G15G21G26G19G 7G 3G 9G18G24G 8
 -17961215.281 6 -13995741.288 5  22267845.949    22267846.700    22267846.661
        38.100          35.200
 -20009365.360 6 -15591709.011 6  21415852.485    21415852.005    21415852.378
        40.600          38.200
 -17962460.889 6 -13996716.387 5  22223341.840    22223342.181    22223342.655
        36.700          32.400
  -7785091.091 2  -6066302.688 2  24878926.250    24878925.340    24878926.210
        12.600          15.100
 -30091161.576 7 -23447649.034 7  19669122.579    19669123.126    19669122.938
        45.600          45.400
  -5163887.932 2  -4023806.355 3  24657990.743    24657990.058    24657990.409
        17.800          19.900
  -7426827.032 4  -5787131.761 4  23768850.874    23768850.892    23768851.753
        26.800          25.300
    341727.308 2    266281.055 1  25139884.376    25139885.658    25139884.121
        13.900          11.000
 -24519270.325 7 -19105918.470 6  20780505.790    20780506.370    20780505.932
        42.100          38.100
  -3152482.668 1  -2456478.246 1  25364733.557    25364732.954    25364733.687
        11.000           6.500
  -1539051.563 1  -1199260.086 3  25226877.261    25226882.153    25226878.245
         9.000          18.600
 -22470005.388 6 -17509089.277 6  21390499.857    21390500.330    21390499.820
        41.400          37.400
 13 10  7  0 55 30.0000000  0 12G 5G28G15G21G26G19G 7G 3G 9G18G24G 8
 -17874059.004 6 -13927827.336 5  22284431.539    22284432.229    22284432.052
        38.400          35.200
 -20030379.723 6 -15608083.835 6  21411853.353    21411853.178    21411853.485
        40.500          38.300
 -18044185.790 6 -14060398.123 5  22207790.053    22207790.497    22207790.821
        36.500          33.100
  -7771914.036 2  -6056034.899 2  24881431.607    24881432.956    24881431.399
        12.600          15.100
 -30097771.738 7 -23452799.808 7  19667864.687    19667865.322    19667865.073
        45.700          45.500
  -5155715.730 3  -4017438.401 3  24659545.657    24659544.400    24659545.522
        18.600          19.300
  -7328823.094 4  -5710765.083 3  23787499.620    23787500.290    23787501.008
        25.900          23.000
    409778.385 1    319307.859 1  25152834.914    25152835.334    25152834.120
         6.500           6.500
 -24448569.116 7 -19050826.619 6  20793959.921    20793960.502    20793960.028
        42.100          38.000
  -3248002.968 2  -2530909.631 1  25346557.921    25346556.444    25346557.397
        12.600           9.000
  -1644508.091 9  -1281434.004 2  25206809.283    25206813.987    25206809.885
        -3.000          12.600
 -22409923.534 6 -17462272.253 6  21401932.963    21401933.457    21401932.969
        41.800          37.000
 13 10  7  0 56  0.0000000  0 12G 5G28G15G21G26G19G 7G 3G 9G18G24G 8
 -17786537.558 6 -13859628.840 5  22301086.323    22301086.817    22301086.897
        38.200          34.900
 -20050856.616 6 -15624039.839 6  21407956.865    21407956.741    21407956.772
        40.500          38.500
 -18125656.091 6 -14123881.455 5  22192286.683    22192286.956    22192287.566
        36.500          32.700
  -7758261.217 2  -6045396.353 2  24884029.109    24884030.501    24884028.865
        12.600          13.900
 -30103841.045 7 -23457529.143 7  19666710.050    19666710.374    19666710.206
        45.900          45.600
  -5146948.683 3  -4010606.904 3  24661215.433    24661212.313    24661214.472
        19.900          19.300
  -7230714.873 3  -5634317.140 3  23806169.157    23806169.812    23806170.072
        23.800          23.000
    478306.284 2    372706.189 9  25165874.308    25165874.843    25165874.699
        13.900          -3.000
 -24377483.468 6 -18995435.214 6  20807486.782    20807487.535    20807487.110
        41.900          37.400
  -3343341.386 2  -2605199.296 2  25328415.211    25328413.404    25328414.871
        15.100          12.600
  -1749902.206 1  -1363559.240 2  25186752.639    25186757.093    25186752.836
        11.000          15.100
 -22349517.127 6 -17415202.328 6  21413427.604    21413428.542    21413427.733
        41.200          37.200
 13 10  7  0 56 30.0000000  0 12G 5G28G15G21G26G19G 7G 3G 9G18G24G 8
 -17698653.271 6 -13791147.598 5  22317810.100    22317810.397    22317810.777
        38.100          34.100
 -20070795.801 6 -15639576.851 6  21404162.758    21404162.143    21404162.516
        40.500          38.500
 -18206870.091 6 -14187165.068 5  22176832.135    22176832.203    22176832.994
        36.500          32.800
  -7744132.726 2  -6034387.154 2  24886719.900    24886718.198    24886720.035
        17.000          16.100
 -30109369.025 7 -23461836.663 7  19665658.192    19665658.363    19665658.297
        45.800          45.600
  -5137586.681 3  -4003311.827 3  24662996.128    24662993.827    24662995.225
        19.300          19.300
  -7132503.985 4  -5557789.216 4  23824858.408    23824858.852    23824858.848
        25.300          24.200
    547308.902 9    426474.358 1  25179004.822    25179008.223    25179007.359
        -3.000           9.000
 -24306015.163 6 -18939745.638 6  20821086.630    20821087.553    20821087.026
        41.600          37.700
  -3438495.940 2  -2679345.676 1  25310307.461    25310306.480    25310307.168
        13.900           9.000
  -1855232.484 1  -1445634.784 1  25166708.978    25166714.125    25166708.729
         9.000           9.000
 -22288787.705 6 -17367880.710 6  21424984.239    21424985.238    21424984.280
        41.300          37.200
 13 10  7  0 57  0.0000000  0 12G 5G28G15G21G26G19G 7G 3G 9G18G24G 8
 -17610408.313 6 -13722385.317 5  22334602.348    22334603.417    22334603.194
        38.200          35.200
 -20090196.963 6 -15654694.635 6  21400470.125    21400470.384    21400470.450
        40.700          38.700
 -18287826.038 6 -14250247.628 5  22161427.074    22161426.897    22161427.598
        37.200          32.600
  -7729530.437 2  -6023008.742 2  24889500.351    24889496.352    24889499.512
        16.100          12.600
 -30114355.252 7 -23465722.038 7  19664708.990    19664709.493    19664709.351
        45.900          45.500
  -5127629.972 3  -3995553.338 3  24664891.533    24664889.059    24664890.817
        21.600          19.900
  -7034191.772 4  -5481182.320 3  23843566.581    23843567.297    23843567.302
        24.200          23.400
    616784.001 1    480610.770 1  25192225.212    25192228.356    25192226.979
         9.000           6.500
 -24234166.411 7 -18883759.607 6  20834759.184    20834759.965    20834759.621
        42.000          37.500
  -3533463.920    -2753346.658 2  25292237.316    25292234.693    25292235.960
         3.000          13.900
  -1960498.043 2  -1527659.827 2  25146678.941    25146683.063    25146678.623
        12.600          17.000
 -22227736.943 6 -17320308.691 6  21436601.949    21436602.744    21436601.927
        41.200          37.200
 13 10  7  0 57 30.0000000  0 12G 5G28G15G21G26G19G 7G 3G 9G18G24G 8
 -17521805.434 6 -13653344.149 5  22351462.720    22351464.124    22351463.775
        37.700          34.900
 -20109059.499 6 -15669392.700 6  21396881.028    21396881.059    21396881.031
        40.500          38.900
 -18368522.225 6 -14313127.761 5  22146070.936    22146070.651    22146071.569
        37.000          32.600
  -7714454.786 2  -6011261.465 2  24892367.784    24892366.727    24892367.631
        17.800          16.100
 -30118799.097 7 -23469184.778 7  19663863.085    19663864.019    19663863.658
        45.800          45.700
  -5117078.716 3  -3987331.567 3  24666897.952    24666896.470    24666897.854
        19.300          18.600
  -6935779.564 4  -5404497.513 3  23862294.111    23862294.043    23862294.983
        25.900          23.800
    686728.945 2    535113.240 2  25205535.581    25205538.735    25205535.786
        16.100          16.100
 -24161939.070 6 -18827478.565 6  20848503.663    20848504.319    20848503.984
        41.800          37.100
  -3628243.100 2  -2827200.536 2  25274200.362    25274198.751    25274199.892
        13.900          13.900
  -2065697.846 2  -1609633.689 3  25126658.996    25126663.638    25126660.066
        12.600          19.300
 -22166366.170 6 -17272487.316 6  21448280.451    21448281.090    21448280.331
        41.100          36.600
 13 10  7  0 58  0.0000000  0 12G 5G28G15G21G26G19G 7G 3G 9G18G24G 8
 -17432847.455 6 -13584026.269 5  22368391.102    22368392.010    22368392.133
        37.900          34.300
 -20127383.041 6 -15683670.772 6  21393394.293    21393394.102    21393394.171
        40.200          38.900
 -18448956.889 6 -14375804.105 5  22130764.673    22130764.606    22130765.216
        36.800          32.700
  -7698906.849 2  -5999146.225 3  24895323.569    24895326.073    24895323.565
        13.900          19.300
 -30122700.203 7 -23472224.601 7  19663121.080    19663121.697    19663121.355
        45.700          45.800
  -5105932.909 3  -3978646.477 3  24669018.948    24669017.456    24669018.233
        19.300          18.600
  -6837268.998 3  -5327736.053 4  23881040.659    23881040.445    23881040.606
        23.800          24.900
    757140.792 2    589979.514 2  25218934.517    25218936.611    25218935.470
        12.600          12.600
 -24089334.951 6 -18770903.933 6  20862319.988    20862320.509    20862320.052
        41.600          37.200
  -3722831.336 1  -2900905.632 1  25256200.561    25256198.645    25256199.442
         6.500           6.500
  -2170831.103 2  -1691555.717 2  25106653.547    25106657.458    25106654.120
        15.100          17.800
 -22104676.796 6 -17224417.678 6  21460019.707    21460020.299    21460019.648
        41.000          36.800
 13 10  7  0 58 30.0000000  0 12G 5G28G15G21G26G19G 7G 3G 9G18G24G 8
 -17343536.496 6 -13514433.343 5  22385386.537    22385387.165    22385387.274
        37.600          34.000
 -20145167.441 6 -15697528.737 6  21390010.122    21390009.784    21390009.960
        40.500          38.800
 -18529128.411 6 -14438275.409 5  22115508.708    22115508.551    22115509.267
        36.600          33.000
  -7682887.259 2  -5986663.498 2  24898373.278    24898373.679    24898373.879
        12.600          16.100
 -30126058.069 7 -23474841.123 7  19662481.977    19662482.699    19662482.424
        45.900          45.700
  -5094192.878 3  -3969498.381 3  24671253.474    24671251.933    24671252.946
        20.500          18.600
  -6738661.364 3  -5250898.957 4  23899805.037    23899804.834    23899805.360
        23.800          24.200
    828017.795 2    645208.327 1  25232422.354    25232423.698    25232423.093
        12.600          11.000
 -24016356.181 6 -18714037.368 6  20876206.930    20876207.906    20876207.323
        41.500          37.300
  -3817226.257 2  -2974460.092 2  25238238.672    25238237.012    25238237.580
        16.100          13.900
  -2275896.018 1  -1773424.468 2  25086659.846    25086664.407    25086661.237
         9.000          17.800
 -22042670.353 6 -17176100.975 6  21471819.213    21471819.689    21471819.060
        41.100          36.500
 13 10  7  0 59  0.0000000  0 12G 5G28G15G21G26G19G 7G 3G 9G18G24G 8
 -17253875.346 6 -13444567.530 5  22402448.375    22402449.614    22402449.187
        37.500          34.600
 -20162412.136 6 -15710966.149 6  21386728.301    21386728.221    21386728.288
        40.500          38.900
 -18609034.886 6 -14500540.183 5  22100302.660    22100302.946    22100303.569
        37.200          33.200
  -7666397.045 3  -5973813.979 1  24901513.721    24901509.790    24901513.129
        19.900          11.000
 -30128872.298 7 -23477034.032 7  19661946.589    19661947.085    19661946.976
        45.800          45.600
  -5081859.175 2  -3959887.689 2  24673601.118    24673598.559    24673599.555
        17.800          17.800
  -6639957.821 4  -5173987.150 3  23918586.964    23918587.742    23918587.584
        25.300          23.400
    899357.400 2    700797.579 2  25245998.204    25245999.206    25245997.728
        13.900          12.600
 -23943004.626 6 -18656880.321 6  20890165.265    20890166.252    20890165.561
        41.100          36.500
  -3911425.617 2  -3047862.172 1  25220311.734    25220310.501    25220311.316
        13.900           6.500
  -2380892.182 2  -1855239.620 2  25066679.223    25066683.755    25066680.889
        13.900          17.000
 -21980348.374 6 -17127538.398 6  21483678.797    21483678.861    21483678.640
        41.200          36.300
 13 10  7  0 59 30.0000000  0 12G 5G28G15G21G26G19G 7G 3G 9G18G24G 8
 -17163866.249 6 -13374430.603 5  22419576.472    22419577.615    22419577.551
        37.700          34.700
 -20179117.056 6 -15723982.956 6  21383549.364    21383549.443    21383549.541
        40.600          38.900
 -18688674.760 6 -14562597.218 5  22085147.733    22085147.898    22085148.646
        37.100          33.200
  -7649437.469 2  -5960598.705 2  24904739.911    24904738.438    24904740.268
        13.900          13.900
 -30131142.455 7 -23478802.988 7  19661514.542    19661515.125    19661514.989
        45.900          45.700
  -5068931.856 3  -3949814.437 3  24676060.907    24676059.356    24676059.955
        19.900          21.600
  -6541159.779 4  -5097001.668 4  23937387.545    23937388.729    23937388.056
        24.200          24.200
    971157.020 2    756745.285 1  25259662.616    25259663.049    25259660.951
        13.900          11.000
 -23869282.412 6 -18599434.450 6  20904194.300    20904195.232    20904194.534
        41.200          36.900
  -4005427.202 2  -3121110.139 1  25202423.004    25202422.389    25202424.185
        15.100          11.000
  -2485818.485 1  -1937000.352 2  25046711.709    25046717.708    25046712.708
        11.000          15.100
 -21917712.468 6 -17078731.196 6  21495597.477    21495598.298    21495597.670
        41.000          36.500
 13 10  7  1  0  0.0000000  0 12G 5G28G15G21G26G19G 7G 3G 9G18G24G 8
 -17073511.529 6 -13304024.354 5  22436770.577    22436771.380    22436771.257
        37.600          34.100
 -20195281.843 6 -15736578.878 6  21380473.627    21380473.291    21380473.662
        40.700          38.800
 -18768046.026 6 -14624444.954 5  22070044.351    22070043.963    22070044.931
        37.700          33.400
  -7632009.336 1  -5947018.357 2  24908053.503    24908054.594    24908054.038
        11.000          12.600
 -30132868.199 7 -23480147.725 7  19661186.145    19661186.656    19661186.531
        46.000          45.600
  -5055411.050 2  -3939278.712 3  24678632.148    24678632.227    24678631.876
        17.800          19.300
  -6442268.818 3  -5019943.783 3  23956205.960    23956207.044    23956206.951
        23.400          23.400
   1043413.970 2    813049.370 2  25273411.719    25273412.820    25273411.382
        16.100          12.600
 -23795191.402 6 -18541701.208 6  20918293.572    20918294.192    20918293.618
        41.400          36.800
  -4099228.464 2  -3194202.009 2  25184573.749    25184572.549    25184573.573
        13.900          12.600
  -2590673.485 1  -2018705.475 3  25026759.251    25026763.636    25026761.546
        11.000          18.600
 -21854763.608 6 -17029680.148 6  21507576.394    21507577.282    21507576.377
        40.800          36.300
 13 10  7  1  0 30.0000000  0 12G 5G28G15G21G26G19G 7G 3G 9G18G24G 8
 -16982814.368 6 -13233351.267 5  22454029.562    22454030.641    22454030.452
        37.400          34.300
 -20210906.328 6 -15748753.790 6  21377500.354    21377499.916    21377500.271
        40.700          38.900
 -18847147.217 6 -14686082.221 5  22054991.548    22054991.306    22054992.374
        37.700          33.200
  -7614113.439 2  -5933073.554 2  24911460.427    24911462.042    24911459.976
        15.100          17.000
 -30134049.074 7 -23481067.895 7  19660961.523    19660961.864    19660961.827
        45.700          45.700
  -5041297.058 3  -3928280.783 3  24681319.363    24681317.819    24681318.986
        19.300          20.500
  -6343286.248 4  -4942814.541 4  23975042.429    23975042.929    23975042.625
        24.600          24.200
   1116126.067 1    869708.165 1  25287247.713    25287249.918    25287247.712
         9.000           6.500
 -23720733.682 6 -18483682.213 6  20932462.226    20932463.008    20932462.501
        41.200          36.900
  -4192827.276 2  -3267136.122 1  25166763.167    25166761.782    25166761.599
        12.600          11.000
  -2695456.330 2  -2100354.418 2  25006820.094    25006824.273    25006821.879
        15.100          17.800
 -21791503.616 6 -16980386.653 6  21519613.937    21519615.112    21519614.262
        40.700          36.200
 13 10  7  1  1  0.0000000  0 12G 5G28G15G21G26G19G 7G 3G 9G18G24G 8
 -16891777.034 6 -13162413.122 5  22471353.625    22471354.432    22471354.204
        37.000          34.100
 -20225990.267 6 -15760507.498 6  21374629.685    21374629.799    21374629.753
        40.500          39.100
 -18925976.453 6 -14747507.590 5  22039990.769    22039990.810    22039991.452
        37.800          33.500
  -7595750.827 2  -5918765.082 2  24914956.046    24914954.671    24914955.074
        15.100          15.100
 -30134684.679 7 -23481563.174 7  19660840.545    19660841.011    19660840.834
        45.900          45.600
  -5026590.262 3  -3916820.930 3  24684119.187    24684117.387    24684118.277
        21.100          21.100
  -6244213.355 3  -4865614.887 4  23993894.805    23993895.632    23993895.229
        23.400          24.200
   1189290.530 2    926719.301 9  25301171.112    25301172.177    25301171.149
        13.900          -3.000
 -23645911.182 6 -18425378.975 6  20946700.557    20946701.070    20946700.821
        41.100          36.300
  -4286221.572 2  -3339910.903 2  25148990.699    25148989.751    25148989.720
        12.600          15.100
  -2800166.173 2  -2181946.461 2  24986894.172    24986899.083    24986894.683
        16.100          17.800
 -21727934.034 6 -16930851.922 6  21531711.451    21531711.996    21531711.182
        40.600          36.200
 13 10  7  1  1 30.0000000  0 12G 5G28G15G21G26G19G 7G 3G 9G18G24G 8
 -16800402.009 6 -13091211.832 5  22488741.807    22488742.705    22488742.438
        37.200          34.000
 -20240533.383 6 -15771839.784 6  21371862.136    21371862.386    21371862.344
        40.800          39.200
 -19004531.863 6 -14808719.591 5  22025042.218    22025042.217    22025042.987
        37.700          33.200
  -7576923.042 2  -5904094.093 2  24918537.996    24918537.677    24918537.860
        12.600          13.900
 -30134774.690 7 -23481633.314 7  19660823.626    19660823.836    19660823.754
        45.900          45.600
  -5011290.957 3  -3904899.393 3  24687030.886    24687027.987    24687029.724
        18.600          20.500
  -6145051.307 3  -4788345.790 3  24012764.835    24012765.611    24012765.465
        23.000          22.600
   1262905.753 2    984081.744 1  25315179.402    25315180.576    25315180.127
        16.100           9.000
 -23570725.877 6 -18366793.031 6  20961007.692    20961008.361    20961007.927
        41.000          36.200
  -4379408.792 2  -3412524.246 2  25131256.687    25131255.925    25131256.842
        13.900          16.100
  -2904801.530 2  -2263480.456 3  24966983.038    24966987.632    24966983.519
        13.900          19.900
 -21664056.183 6 -16881076.983 6  21543866.760    21543867.567    21543866.728
        40.600          36.200
 13 10  7  1  2  0.0000000  0 11G 5G28G15G21G26G19G 7G 9G18G24G 8
 -16708691.887 6 -13019749.423 5  22506193.640    22506194.170    22506194.165
        37.200          33.400
 -20254535.501 6 -15782750.512 6  21369197.820    21369197.503    21369197.868
        40.700          38.900
 -19082811.717 6 -14869716.866 5  22010145.994    22010146.149    22010146.730
        37.800          33.500
  -7557630.769 2  -5889061.135 2  24922209.309    24922208.684    24922209.471
        17.800          12.600
 -30134318.660 7 -23481277.970 7  19660910.091    19660910.662    19660910.438
        45.800          45.700
  -4995399.707 3  -3892516.583 2  24690053.593    24690051.865    24690053.417
        21.100          17.800
  -6045801.808 3  -4711008.545 3  24031651.412    24031652.120    24031651.877
        23.800          22.600
 -23495179.720 6 -18307925.908 6  20975383.687    20975384.332    20975384.118
        41.200          36.400
  -4472386.527 2  -3484974.467 2  25113563.768    25113562.766    25113564.088
        17.000          12.600
  -3009361.684 2  -2344955.848 2  24947085.507    24947090.001    24947086.208
        12.600          17.000
 -21599871.784 6 -16831063.171 6  21556080.673    21556081.387    21556080.698
        40.600          36.100
 13 10  7  1  2 30.0000000  0 11G 5G28G15G21G26G19G 7G 9G18G24G 8
 -16616649.399 6 -12948028.029 5  22523709.155    22523709.369    22523709.527
        37.300          33.500
 -20267996.522 6 -15793239.606 6  21366636.325    21366635.882    21366636.255
        40.700          38.400
 -19160814.252 6 -14930498.050 5  21995302.917    21995302.832    21995303.352
        37.600          34.100
  -7537875.159 2  -5873667.161 2  24925969.365    24925967.687    24925969.856
        15.100          17.800
 -30133316.359 7 -23480496.964 7  19661100.859    19661101.357    19661101.223
        45.900          45.800
  -4978916.656 3  -3879672.642 3  24693189.406    24693189.253    24693188.978
        19.900          22.600
  -5946465.910 3  -4633603.972 3  24050554.007    24050554.175    24050554.826
        21.600          21.100
 -23419274.800 6 -18248779.226 6  20989828.325    20989828.758    20989828.426
        41.100          36.600
  -4565152.362 2  -3557259.524 2  25095910.424    25095910.531    25095911.181
        13.900          16.100
  -3113845.524 2  -2426371.785 2  24927202.292    24927206.920    24927204.124
        16.100          17.800
 -21535382.178 6 -16780811.531 5  21568352.758    21568353.372    21568352.603
        40.300          35.900
 13 10  7  1  3  0.0000000  0 11G 5G28G15G21G26G19G 7G 9G18G24G 8
 -16524276.858 6 -12876049.458 5  22541286.828    22541287.836    22541287.312
        37.000          33.900
 -20280916.177 6 -15803306.854 6  21364177.974    21364177.626    21364177.902
        40.900          38.900
 -19238537.923 6 -14991061.936 5  21980512.534    21980512.434    21980512.966
        37.700          33.600
  -7517657.355 2  -5857913.039 2  24929816.023    24929816.825    24929815.363
        16.100          15.100
 -30131767.422 7 -23479290.002 7  19661395.827    19661396.110    19661396.107
        46.100          45.800
  -4961842.663 3  -3866368.230 3  24696438.996    24696437.692    24696438.628
        19.900          21.600
  -5847045.074 3  -4556133.217 3  24069473.599    24069473.747    24069473.717
        21.600          23.000
 -23343012.906 6 -18189354.388 6  21004340.387    21004340.957    21004340.532
        40.900          36.000
  -4657704.258 2  -3629377.879 2  25078297.345    25078298.509    25078298.552
        13.900          12.600
  -3218251.752 1  -2507727.216 3  24907335.418    24907339.356    24907335.765
        11.000          18.600
 -21470588.913 6 -16730323.284 5  21580682.140    21580683.153    21580682.149
        40.300          35.600
 13 10  7  1  3 30.0000000  0 11G 5G28G15G21G26G19G 7G 9G18G24G 8
 -16431577.074 6 -12803815.885 5  22558927.198    22558927.507    22558927.684
        36.700          33.200
 -20293294.352 6 -15812952.173 6  21361822.593    21361822.075    21361822.363
        40.900          39.100
 -19315980.811 6 -15051407.034 5  21965775.525    21965775.536    21965776.120
        37.800          34.000
  -7496978.288 2  -5841799.527 2  24933751.077    24933751.611    24933750.741
        17.000          12.600
 -30129671.580 7 -23477656.881 7  19661794.766    19661795.103    19661794.965
        45.900          46.000
  -4944178.061 3  -3852603.589 3  24699800.716    24699798.731    24699800.627
        22.600          20.500
  -5747540.647 3  -4478597.325 3  24088408.705    24088408.952    24088409.187
        23.000          21.600
 -23266395.876 6 -18129652.811 6  21018919.790    21018920.624    21018920.188
        40.700          36.300
  -4750039.855 2  -3701327.675 2  25060727.619    25060727.584    25060728.124
        15.100          16.100
  -3322579.730 2  -2589021.702 3  24887482.733    24887487.443    24887483.414
        15.100          20.500
 -21405493.606 6 -16679599.675 5  21593069.393    21593070.183    21593069.531
        40.000          35.200
 13 10  7  1  4  0.0000000  0 11G 5G28G15G21G26G19G 7G 9G18G24G 8
 -16338552.524 6 -12731329.253 5  22576628.858    22576629.787    22576629.496
        36.600          34.000
 -20305130.787 6 -15822175.356 6  21359569.918    21359569.450    21359569.981
        40.900          38.900
 -19393141.440 6 -15111532.190 5  21951092.215    21951092.356    21951093.005
        38.100          33.800
  -7475838.936 2  -5825327.322 2  24937774.169    24937773.248    24937773.837
        13.900          13.900
 -30127028.498 7 -23475597.342 7  19662297.492    19662298.066    19662297.796
        45.800          45.900
  -4925923.129 3  -3838378.931 3  24703275.111    24703272.748    24703274.306
        22.600          19.300
  -5647953.951 3  -4400997.305 3  24107359.394    24107359.866    24107360.446
        23.000          23.000
 -23189426.011 6 -18069676.303 6  21033566.627    21033567.834    21033566.935
        40.900          36.100
  -4842156.795 1  -3773107.093 2  25043199.257    25043198.672    25043199.392
        11.000          15.100
  -3426828.177 2  -2670254.219 2  24867643.379    24867648.282    24867645.107
        16.100          13.900
 -21340097.941 6 -16628642.021 5  21605514.083    21605514.667    21605513.999
        40.200          35.600
 13 10  7  1  4 30.0000000  0 11G 5G28G15G21G26G19G 7G 9G18G24G 8
 -16245205.818 6 -12658591.580 5  22594392.212    22594393.212    22594393.038
        37.000          33.500
 -20316425.493 6 -15830976.410 6  21357420.533    21357420.211    21357420.591
        40.900          39.000
 -19470017.575 6 -15171435.661 5  21936463.116    21936463.349    21936463.913
        38.200          34.300
  -7454241.007 2  -5808497.766 1  24941885.021    24941882.347    24941884.397
        17.000          11.000
 -30123837.867 7 -23473111.142 7  19662904.731    19662905.097    19662905.020
        45.900          45.800
  -4907078.480 3  -3823694.796 3  24706859.825    24706859.068    24706859.969
        19.900          19.300
  -5548286.136 3  -4323334.100 4  24126325.614    24126326.299    24126325.830
        21.600          24.200
 -23112105.187 6 -18009426.324 6  21048280.543    21048281.346    21048280.764
        40.700          36.000
  -4934052.717 2  -3844714.299 1  25025713.084    25025711.354    25025712.724
        17.000           9.000
  -3530995.981 2  -2751423.890 2  24847821.020    24847825.830    24847822.432
        15.100          13.900
 -21274403.003 6 -16577451.171 5  21618014.984    21618016.159    21618015.319
        40.000          35.400
 13 10  7  1  5  0.0000000  0 11G 5G28G15G21G26G19G 7G 9G18G24G 8
 -16151539.524 6 -12585604.889 5  22612216.201    22612217.195    22612216.911
        36.800          32.800
 -20327178.688 6 -15839355.509 6  21355374.149    21355374.057    21355374.145
        40.900          39.100
 -19546607.676 6 -15231116.252 5  21921888.113    21921888.628    21921889.335
        38.300          34.500
  -7432185.403 2  -5791311.575 2  24946081.827    24946080.325    24946081.662
        13.900          13.900
 -30120099.475 7 -23470198.111 7  19663616.190    19663616.433    19663616.431
        46.000          45.800
  -4887644.450 3  -3808551.392 3  24710558.125    24710556.942    24710558.309
        19.900          18.600
  -5448538.730 3  -4245608.875 3  24145307.091    24145307.196    24145307.611
        19.900          21.600
 -23034435.397 6 -17948904.411 5  21063060.383    21063061.259    21063060.693
        40.600          35.400
  -5025725.355 2  -3916147.480 1  25008265.596    25008266.838    25008265.548
        15.100           9.000
  -3635082.476 2  -2832530.189 3  24828014.263    24828018.724    24828015.469
        16.100          20.500
 -21208410.299 6 -16526028.289 5  21630573.209    21630574.089    21630573.192
        40.100          35.500
 13 10  7  1  5 30.0000000  0 11G 5G28G15G21G26G19G 7G 9G18G24G 8
 -16057556.454 6 -12512371.362 5  22630100.738    22630101.769    22630101.383
        36.500          33.100
 -20337390.062 6 -15847312.412 6  21353431.139    21353430.950    21353431.126
        40.900          39.100
 -19622910.132 6 -15290572.704 5  21907368.503    21907368.811    21907369.386
        38.400          34.600
  -7409673.392 2  -5773769.787 2  24950365.197    24950365.208    24950364.950
        13.900          15.100
 -30115813.069 7 -23466858.056 7  19664431.778    19664432.127    19664432.055
        46.000          45.900
  -4867622.077 3  -3792949.552 3  24714367.818    24714366.525    24714367.795
        19.900          18.600
  -5348712.918 3  -4167822.567 3  24164303.112    24164303.918    24164303.498
        21.100          23.800
 -22956418.539 6 -17888112.065 5  21077906.292    21077907.574    21077906.611
        40.300          35.600
  -5117172.209 2  -3987404.741 2  24990864.324    24990863.940    24990865.019
        16.100          12.600
  -3739086.068 2  -2913571.918 3  24808223.427    24808227.674    24808223.804
        16.100          21.100
 -21142121.370 6 -16474374.582 5  21643187.231    21643188.390    21643187.520
        39.800          35.100
 13 10  7  1  6  0.0000000  0 11G 5G28G15G21G26G19G 7G 9G18G24G 8
 -15963259.023 6 -12438892.872 5  22648045.264    22648045.721    22648045.929
        36.700          32.800
 -20347059.647 6 -15854847.139 6  21351591.214    21351590.773    21351591.027
        40.900          38.900
 -19698923.087 6 -15349803.570 5  21892904.109    21892903.792    21892904.728
        38.600          34.400
  -7386705.765 2  -5755872.920 2  24954736.421    24954735.188    24954736.352
        17.000          16.100
 -30110978.385 7 -23463090.777 7  19665351.539    19665352.217    19665352.062
        46.100          45.900
  -4847011.483 3  -3776889.352 2  24718288.711    24718287.635    24718289.366
        19.300          17.000
  -5248810.254 3  -4089976.378 3  24183315.098    24183314.358    24183314.726
        19.900          21.100
 -22878056.662 6 -17827050.874 5  21092818.223    21092819.136    21092818.426
        40.200          35.600
  -5208391.027 2  -4058484.333 2  24973506.672    24973506.093    24973507.073
        12.600          13.900
  -3843005.922 2  -2994548.347 3  24788448.162    24788452.894    24788448.694
        12.600          19.900
 -21075537.663 6 -16422491.185 5  21655857.967    21655859.095    21655857.935
        39.800          35.400
 13 10  7  1  6 30.0000000  0 11G 5G28G15G21G26G19G 7G 9G18G24G 8
 -15868649.786 6 -12365171.417 5  22666048.634    22666049.284    22666049.174
        36.200          32.800
 -20356187.407 6 -15861959.668 6  21349854.057    21349853.656    21349853.995
        40.700          39.000
 -19774644.482 6 -15408807.245 5  21878494.913    21878494.622    21878495.458
        38.700          34.300
  -7363284.141 2  -5737622.347 2  24959192.613    24959191.749    24959191.172
        15.100          15.100
 -30105595.237 7 -23458896.121 7  19666376.131    19666376.616    19666376.472
        46.000          45.700
  -4825813.397 3  -3760371.347 2  24722324.298    24722322.124    24722324.044
        20.500          17.000
  -5148831.605 3  -4012070.937 3  24202339.405    24202339.679    24202340.233
        23.000          21.600
 -22799351.605 6 -17765722.271 5  21107795.502    21107796.187    21107795.561
        40.200          35.400
  -5299379.570 2  -4129384.499 1  24956192.172    24956191.604    24956192.112
        17.000          11.000
  -3946840.879 2  -3075458.632 3  24768689.047    24768693.069    24768689.496
        12.600          18.600
 -21008660.685 6 -16370379.263 5  21668584.052    21668585.230    21668584.404
        39.800          35.200
 13 10  7  1  7  0.0000000  0 11G 5G28G15G21G26G19G 7G 9G18G24G 8
 -15773731.257 6 -12291208.969 5  22684110.880    22684112.177    22684111.725
        36.300          33.100
 -20364773.157 6 -15868649.851 6  21348220.195    21348219.919    21348220.134
        40.700          39.100
 -19850072.819 6 -15467582.574 5  21864140.908    21864141.048    21864141.969
        39.000          34.500
  -7339409.618 2  -5719018.821 1  24963735.336    24963734.775    24963735.296
        13.900           9.000
 -30099663.379 7 -23454273.897 7  19667504.987    19667505.383    19667505.241
        45.900          45.900
  -4804028.508 3  -3743396.092 2  24726470.396    24726468.103    24726468.748
        20.500          17.800
  -5048778.510 3  -3934107.499 3  24221378.247    24221379.296    24221379.128
        22.100          22.100
 -22720305.647 6 -17704128.027 5  21122837.179    21122838.256    21122837.447
        39.900          35.300
  -5390135.567 1  -4200103.429 2  24938922.042    24938921.030    24938921.594
         9.000          13.900
  -4050590.167 2  -3156302.165 3  24748946.888    24748949.872    24748947.613
        16.100          21.600
 -20941491.918 6 -16318039.965 5  21681366.300    21681367.071    21681366.284
        39.500          34.800
 13 10  7  1  7 30.0000000  0 11G 5G28G15G21G26G19G 7G 9G18G24G 8
 -15678506.406 6 -12217007.825 5  22702232.187    22702232.601    22702232.412
        36.500          32.800
 -20372817.191 6 -15874917.913 6  21346689.375    21346689.354    21346689.374
        40.900          39.600
 -19925206.381 6 -15526128.195 5  21849843.348    21849843.785    21849844.388
        38.900          34.800
  -7315083.453 2  -5700063.378 2  24968366.064    24968364.989    24968365.622
        15.100          13.900
 -30093182.636 7 -23449223.971 7  19668738.064    19668738.676    19668738.495
        46.000          46.000
  -4781657.587 3  -3725964.168 3  24730727.537    24730726.096    24730726.596
        19.900          21.100
  -4948652.135 3  -3856086.983 3  24240431.321    24240432.421    24240432.398
        21.100          23.000
 -22640920.631 6 -17642269.583 5  21137943.884    21137944.801    21137944.078
        40.200          35.500
  -5480656.681 2  -4270639.364 1  24921695.891    24921695.794    24921696.242
        17.000          11.000
  -4154252.664 2  -3237078.088 3  24729219.870    24729223.652    24729220.946
        17.800          19.300
 -20874032.748 6 -16265474.392 5  21694203.434    21694204.220    21694203.310
        39.500          35.100
 13 10  7  1  8  0.0000000  0 11G 5G28G15G21G26G19G 7G 9G18G24G 8
 -15582977.755 6 -12142569.937 5  22720410.634    22720411.204    22720410.909
        36.300          32.800
 -20380319.498 6 -15880763.853 6  21345261.796    21345261.686    21345261.805
        41.000          39.500
 -20000043.303 6 -15584442.673 5  21835602.220    21835602.839    21835603.308
        38.700          35.100
  -7290307.104 2  -5680757.179 2  24973080.709    24973079.580    24973080.808
        17.000          13.900
 -30086152.806 7 -23443746.187 7  19670075.821    19670076.417    19670076.264
        46.000          46.000
  -4758701.145 2  -3708076.035 3  24735095.712    24735094.295    24735095.580
        17.800          19.900
  -4848453.671 3  -3778010.289 3  24259498.501    24259500.061    24259499.422
        22.600          21.600
 -22561198.569 6 -17580148.510 5  21153114.434    21153115.243    21153114.587
        39.700          35.300
  -5570940.622 2  -4340990.458 2  24904516.106    24904515.157    24904515.658
        17.800          13.900
  -4257827.435 2  -3317785.653 3  24709509.976    24709513.940    24709510.408
        15.100          19.300
 -20806284.870 6 -16212683.847 5  21707095.272    21707096.075    21707095.359
        39.500          34.600
 13 10  7  1  8 30.0000000  0 11G 5G28G15G21G26G19G 7G 9G18G24G 8
 -15487147.997 5 -12067897.432 5  22738646.201    22738647.048    22738646.761
        35.900          32.400
 -20387280.132 6 -15886187.712 6  21343937.204    21343937.042    21343937.170
        40.700          39.300
 -20074581.703 6 -15642524.542 5  21821418.111    21821418.704    21821419.088
        39.000          35.200
  -7265081.756 2  -5661101.044 2  24977879.183    24977878.803    24977879.343
        12.600          17.000
 -30078573.763 7 -23437840.442 7  19671518.085    19671518.630    19671518.496
        45.900          45.800
  -4735159.880 3  -3689732.193 3  24739574.133    24739573.463    24739573.677
        20.500          20.500
  -4748184.706 3  -3699878.687 3  24278579.793    24278580.870    24278580.225
        20.500          23.000
 -22481141.379 6 -17517766.301 5  21168348.929    21168349.528    21168349.099
        40.000          34.900
  -5660984.936 3  -4411154.861 2  24887381.370    24887380.358    24887381.390
        20.500          15.100
  -4361313.265 2  -3398423.865 3  24689817.223    24689821.938    24689817.290
        16.100          22.100
 -20738249.759 6 -16159669.477 5  21720041.966    21720042.617    21720042.030
        39.600          34.700
 13 10  7  1  9  0.0000000  0 11G 5G28G15G21G26G19G 7G 9G18G24G 8
 -15391019.707 5 -11992992.309 5  22756938.256    22756939.618    22756939.430
        35.600          32.600
 -20393699.102 6 -15891189.495 6  21342715.775    21342715.624    21342715.730
        40.900          39.500
 -20148819.791 6 -15700372.398 5  21807291.131    21807291.667    21807292.084
        38.900          35.100
  -7239408.639 2  -5641096.085 2  24982764.367    24982765.139    24982765.290
        16.100          17.000
 -30070445.365 7 -23431506.631 7  19673064.876    19673065.417    19673065.236
        45.900          45.900
  -4711034.684 3  -3670933.337 3  24744165.452    24744164.017    24744165.395
        21.100          19.300
  -4647846.379 3  -3621692.986 3  24297673.776    24297674.318    24297674.763
        21.100          22.600
 -22400751.095 6 -17455124.529 5  21183646.482    21183647.554    21183646.980
        39.800          34.800
  -5750787.248 2  -4481130.649 1  24870292.392    24870291.121    24870291.577
        15.100           9.000
  -4464708.840 1  -3478991.773 3  24670141.058    24670146.176    24670141.835
        11.000          19.900
 -20669928.831 6 -16106432.396 5  21733043.195    21733043.731    21733043.108
        39.300          34.600
 13 10  7  1  9 30.0000000  0 11G 5G28G15G21G26G19G 7G 9G18G24G 8
 -15294595.125 6 -11917856.303 5  22775287.590    22775288.714    22775288.435
        36.000          32.300
 -20399576.673 6 -15895769.406 6  21341597.396    21341597.132    21341597.372
        41.000          39.400
 -20222755.903 6 -15757984.946 5  21793221.916    21793222.025    21793222.494
        39.200          35.400
  -7213289.244 2  -5620743.295 2  24987736.102    24987735.370    24987735.848
        15.100          13.900
 -30061767.420 7 -23424744.600 7  19674716.034    19674716.815    19674716.572
        46.100          46.000
  -4686326.298 3  -3651680.057 2  24748868.150    24748865.536    24748866.350
        19.300          17.800
  -4547440.067 3  -3543454.323 3  24316780.204    24316781.095    24316780.951
        19.900          21.100
 -22320029.653 6 -17392224.717 5  21199007.597    21199008.503    21199007.860
        39.600          35.200
  -5840345.307 3  -4550916.140 2  24853250.059    24853248.517    24853249.890
        19.900          13.900
  -4568013.310 2  -3559488.695 3  24650483.071    24650487.130    24650484.491
        16.100          18.600
 -20601323.290 6 -16052973.546 5  21746098.100    21746099.017    21746098.083
        39.100          34.400
 13 10  7  1 10  0.0000000  0 11G 5G28G15G21G26G19G 7G 9G18G24G 8
 -15197877.405 5 -11842491.888 5  22793692.351    22793693.353    22793693.013
        35.400          32.400
 -20404912.676 6 -15899927.324 6  21340581.954    21340581.658    21340581.910
        40.900          39.400
 -20296388.236 6 -15815360.783 5  21779210.274    21779210.301    21779210.828
        39.300          35.600
  -7186724.756 2  -5600043.705 2  24992791.789    24992790.401    24992791.134
        15.100          13.900
 -30052539.829 7 -23417554.273 7  19676472.157    19676472.796    19676472.595
        46.000          46.100
  -4661035.178 3  -3631972.667 3  24753681.112    24753678.442    24753679.685
        19.300          20.500
  -4446966.419 3  -3465163.224 3  24335900.209    24335900.959    24335900.290
        19.900          22.100
 -22238978.737 6 -17329068.173 5  21214430.897    21214431.684    21214431.215
        39.700          34.600
  -5929656.776 2  -4620509.477 2  24836253.870    24836254.340    24836254.061
        16.100          13.900
  -4671225.695 2  -3639913.883 3  24630842.444    24630846.491    24630844.230
        12.600          19.900
 -20532434.797 6 -15999294.210 5  21759206.919    21759208.100    21759207.197
        39.100          34.400
 13 10  7  1 10 30.0000000  0 11G 5G28G15G21G26G19G 7G 9G18G24G 8
 -15100869.311 5 -11766901.210 5  22812152.621    22812153.529    22812153.430
        35.600          32.600
 -20409707.454 6 -15903663.495 6  21339669.425    21339669.246    21339669.468
        41.000          39.400
 -20369714.873 6 -15872498.417 5  21765256.484    21765256.653    21765257.261
        39.400          35.600
  -7159716.631 2  -5578998.415 1  24997929.852    24997930.025    24997929.553
        15.100          11.000
 -30042762.503 7 -23409935.582 7  19678332.619    19678333.345    19678333.136
        46.300          46.000
  -4635162.334 3  -3611811.981 2  24758604.930    24758601.991    24758604.004
        21.600          17.800
  -4346427.298 3  -3386821.068 3  24355031.770    24355031.862    24355032.119
        20.500          21.100
 -22157600.537 6 -17265656.602 5  21229916.731    21229917.442    21229917.028
        39.300          34.300
  -6018719.261 2  -4689908.821 2  24819305.340    24819305.415    24819306.276
        17.800          12.600
  -4774344.975 2  -3720266.533 3  24611219.598    24611224.294    24611220.217
        17.000          21.600
 -20463264.904 6 -15945395.609 5  21772369.586    21772370.670    21772369.731
        38.700          34.700
 13 10  7  1 11  0.0000000  0 11G 5G28G15G21G26G19G 7G 9G18G24G 8
 -15003573.059 5 -11691085.975 5  22830667.410    22830668.390    22830668.143
        34.900          31.800
 -20413961.332 6 -15906978.193 6  21338860.089    21338859.700    21338860.014
        41.100          39.500
 -20442734.557 6 -15929396.868 5  21751361.002    21751361.352    21751362.113
        39.300          35.800
  -7132265.962 2  -5557608.322 2  25003155.125    25003153.153    25003154.993
        17.800          13.900
 -30032435.317 7 -23401888.430 7  19680297.906    19680298.523    19680298.386
        46.100          45.900
  -4608708.709 3  -3591198.773 3  24763638.496    24763636.511    24763637.959
        20.500          18.600
  -4245823.860 3  -3308428.799 3  24374176.478    24374176.364    24374176.685
        22.600          19.300
 -22075897.032 6 -17201991.538 5  21245464.424    21245465.247    21245464.949
        39.800          34.500
  -6107530.341 2  -4759112.243 2  24802405.654    24802405.451    24802405.875
        16.100          12.600
  -4877370.299 2  -3800545.941 3  24591614.768    24591618.821    24591615.051
        16.100          21.600
 -20393815.067 6 -15891278.861 5  21785585.895    21785586.367    21785585.950
        39.000          34.100
 13 10  7  1 11 30.0000000  0 11G 5G28G15G21G26G19G 7G 9G18G24G 8
 -14905991.614 5 -11615048.519 5  22849236.815    22849237.616    22849237.438
        35.600          32.000
 -20417674.496 6 -15909871.550 6  21338153.218    21338152.931    21338153.248
        41.000          39.200
 -20515445.012 6 -15986054.361 5  21737524.646    21737524.943    21737525.707
        39.500          35.700
  -7104374.770 1  -5535874.905 2  25008460.812    25008460.888    25008461.178
        11.000          13.900
 -30021558.238 7 -23393412.786 7  19682367.611    19682368.341    19682368.161
        45.900          45.900
  -4581675.040 3  -3570133.560 3  24768781.745    24768781.017    24768781.436
        18.600          20.500
  -4145157.446 2  -3229987.469 3  24393332.318    24393333.214    24393332.837
        15.100          21.600
 -21993870.058 6 -17138074.428 5  21261073.802    21261074.337    21261074.039
        39.500          34.500
  -6196087.870 2  -4828118.083 2  24785555.106    24785553.568    24785554.183
        15.100          15.100
  -4980300.349 2  -3880751.129 3  24572027.126    24572031.836    24572027.167
        16.100          21.100
 -20324086.934 6 -15836945.266 5  21798854.815    21798855.145    21798854.528
        38.600          34.000
 13 10  7  1 12  0.0000000  0 11G 5G28G15G21G26G19G 7G 9G18G24G 8
 -14808127.726 5 -11538790.983 5  22867859.223    22867860.398    22867860.079
        35.100          32.100
 -20420846.813 6 -15912343.477 6  21337549.475    21337549.402    21337549.537
        40.900          39.200
 -20587844.741 6 -16042469.728 6  21723747.242    21723747.706    21723748.351
        39.400          36.200
  -7076044.093 2  -5513799.076 1  25013852.855    25013852.677    25013852.087
        12.600          11.000
 -30010131.116 7 -23384508.542 7  19684542.257    19684542.886    19684542.714
        46.100          46.000
  -4554062.413 3  -3548617.269 3  24774037.214    24774035.543    24774035.806
        20.500          20.500
  -4044428.889 3  -3151497.724 3  24412500.150    24412501.495    24412500.753
        19.300          22.100
 -21911521.761 6 -17073906.939 5  21276744.208    21276744.797    21276744.306
        39.200          34.300
  -6284389.600 3  -4896924.586 2  24768750.292    24768750.443    24768750.633
        19.900          13.900
  -5083134.119 2  -3960881.291 3  24552459.555    24552463.567    24552460.649
        15.100          19.900
 -20254081.847 6 -15782395.857 5  21812176.153    21812176.811    21812176.030
        38.500          34.100
 13 10  7  1 12 30.0000000  0 11G 5G28G15G21G26G19G 7G 9G18G24G 8
 -14709983.549 5 -11462315.037 5  22886536.035    22886536.697    22886536.650
        35.300          31.100
 -20423478.442 6 -15914394.086 6  21337048.793    21337048.821    21337048.833
        41.000          39.700
 -20659931.614 6 -16098641.316 5  21710029.935    21710029.962    21710030.718
        39.400          35.800
  -7047275.196 2  -5491381.824 2  25019326.309    25019326.645    25019327.483
        12.600          15.100
 -29998154.030 7 -23375175.754 7  19686821.529    19686822.043    19686821.809
        46.100          46.000
  -4525871.426 3  -3526650.251 3  24779401.881    24779399.938    24779401.234
        22.100          18.600
  -3943639.685 3  -3072960.739 3  24431680.582    24431680.418    24431680.953
        19.900          21.600
 -21828854.061 6 -17009490.568 5  21292474.792    21292475.948    21292475.271
        38.900          34.300
  -6372433.276 2  -4965530.055 2  24751995.328    24751995.624    24751996.260
        16.100          15.100
  -5185870.350 3  -4040935.441 3  24532909.201    24532913.856    24532910.117
        18.600          23.400
 -20183801.271 6 -15727631.790 5  21825550.401    21825551.040    21825550.166
        38.500          33.800
 13 10  7  1 13  0.0000000  0 11G 5G28G15G21G26G19G 7G 9G18G24G 8
 -14611562.435 5 -11385623.287 5  22905264.564    22905265.822    22905265.252
        34.100          31.500
 -20425569.932 6 -15916023.805 6  21336650.909    21336650.654    21336650.964
        41.000          39.500
 -20731704.034 6 -16154567.869 5  21696371.375    21696372.253    21696372.917
        39.700          35.900
  -7018069.515 2  -5468624.165 2  25024885.331    25024884.945    25024886.054
        16.100          16.100
 -29985626.865 7 -23365414.332 7  19689205.318    19689205.850    19689205.718
        45.900          45.900
  -4497103.240 3  -3504233.502 3  24784877.105    24784874.254    24784875.932
        22.600          19.300
  -3842790.965 3  -2994377.371 3  24450870.111    24450871.443    24450871.152
        19.900          18.600
 -21745868.610 6 -16944826.595 5  21308267.379    21308267.451    21308267.287
        39.100          33.800
  -6460216.429 2  -5033932.517 2  24735291.322    24735290.706    24735292.077
        17.000          12.600
  -5288508.272 1  -4120912.989 3  24513377.909    24513381.551    24513378.534
         9.000          21.100
 -20113246.677 6 -15672654.194 5  21838976.367    21838977.019    21838976.319
        38.500          33.900
 13 10  7  1 13 30.0000000  0 11G 5G28G15G21G26G19G 7G 9G18G24G 8
 -14512866.645 5 -11308717.500 5  22924045.447    22924047.182    22924046.402
        34.800          31.800
 -20427121.585 6 -15917232.876 6  21336355.437    21336355.183    21336355.530
        40.900          39.300
 -20803160.546 6 -16210248.271 6  21682774.553    21682774.653    21682775.079
        39.500          36.400
  -6988428.987 1  -5445527.681 2  25030525.156    25030524.415    25030525.011
        11.000          13.900
 -29972549.677 7 -23355224.319 7  19691693.773    19691694.410    19691694.165
        46.000          46.000
  -4467758.735 3  -3481367.639 3  24790460.404    24790458.028    24790459.688
        19.900          19.300
  -3741883.950 3  -2915748.551 3  24470072.485    24470073.811    24470073.221
        19.900          19.900
 -21662567.578 6 -16879916.716 5  21324118.743    21324119.264    21324118.889
        39.000          34.100
  -6547736.802 3  -5102130.154 2  24718637.025    24718636.992    24718637.809
        18.600          13.900
  -5391046.896 2  -4200813.194 3  24493865.533    24493868.882    24493866.310
        17.000          20.500
 -20042419.406 6 -15617464.121 5  21852454.128    21852454.883    21852454.148
        38.400          33.400
 13 10  7  1 14  0.0000000  0 11G 5G28G15G21G26G19G 7G 9G18G24G 8
 -14413898.891 5 -11231599.810 5  22942878.602    22942879.843    22942879.412
        34.700          31.500
 -20428133.573 6 -15918021.430 6  21336163.189    21336162.770    21336163.092
        41.100          39.200
 -20874298.945 6 -16265680.776 6  21669237.425    21669237.459    21669237.922
        39.700          36.100
  -6958354.717 1  -5422093.206 2  25036245.756    25036246.766    25036245.741
        11.000          12.600
 -29958922.368 7 -23344605.640 7  19694287.108    19694287.619    19694287.419
        46.100          46.000
  -4437838.828 3  -3458053.408 2  24796153.883    24796151.126    24796152.648
        18.600          17.800
  -3640919.858 3  -2837075.265 3  24489285.747    24489286.129    24489286.012
        19.900          20.500
 -21578953.025 6 -16814762.538 5  21340029.842    21340030.480    21340030.146
        38.900          34.100
  -6634991.491 2  -5170120.828 2  24702033.035    24702032.147    24702033.282
        17.000          16.100
  -5493485.230 2  -4280635.223 3  24474371.494    24474375.678    24474372.947
        17.000          21.600
 -19971320.963 6 -15562062.748 5  21865983.833    21865984.438    21865983.842
        38.300          33.400
 13 10  7  1 14 30.0000000  0 11G 5G28G15G21G26G19G 7G 9G18G24G 8
 -14314661.829 5 -11154272.247 5  22961763.110    22961763.895    22961763.744
        34.900          31.800
 -20428606.027 6 -15918389.563 6  21336072.940    21336072.979    21336072.942
        40.900          39.500
 -20945117.314 6 -16320863.917 6  21655760.725    21655761.115    21655761.658
        39.800          36.200
  -6927847.710 2  -5398321.513 2  25042053.266    25042053.086    25042053.521
        12.600          15.100
 -29944744.928 7 -23333558.290 7  19696984.922    19696985.461    19696985.223
        46.000          45.900
  -4407344.376 2  -3434291.480 3  24801955.432    24801955.058    24801955.144
        17.000          22.100
  -3539899.670 2  -2758358.290 3  24508508.816    24508509.478    24508509.534
        16.100          20.500
 -21495026.817 6 -16749365.515 5  21356000.320    21356001.333    21356000.741
        38.500          33.200
  -6721978.796 2  -5237903.124 2  24685480.600    24685478.941    24685480.074
        17.800          15.100
  -5595821.759 2  -4360377.918 3  24454897.609    24454901.940    24454898.081
        13.900          22.600
 -19899952.912 6 -15506451.299 5  21879564.917    21879565.400    21879564.539
        37.800          33.200
 13 10  7  1 15  0.0000000  0 11G 5G28G15G21G26G19G 7G 9G18G24G 8
 -14215157.981 5 -11076736.813 5  22980698.048    22980698.891    22980698.664
        34.100          31.300
 -20428539.767 6 -15918337.912 6  21336085.493    21336085.441    21336085.603
        41.000          39.500
 -21015613.989 6 -16375796.387 6  21642345.414    21642345.923    21642346.584
        39.900          36.200
  -6896910.409 2  -5374214.556 2  25047940.127    25047940.897    25047939.613
        13.900          16.100
 -29930017.525 7 -23322082.398 7  19699787.577    19699788.075    19699787.852
        46.100          46.000
  -4376276.602 2  -3410082.846 3  24807867.892    24807867.460    24807867.787
        17.800          18.600
  -3438824.986 3  -2679598.834 2  24527742.591    24527743.062    24527743.487
        18.600          15.100
 -21410790.864 6 -16683727.127 5  21372030.250    21372030.756    21372030.361
        38.900          33.500
  -6808696.401 3  -5305475.226 2  24668979.436    24668977.119    24668978.878
        19.300          17.000
  -5698055.825 3  -4440040.765 3  24435442.965    24435447.089    24435444.474
        19.900          20.500
 -19828316.610 6 -15450630.818 5  21893196.701    21893197.263    21893196.544
        38.100          33.400
 13 10  7  1 15 30.0000000  0 11G 5G28G15G21G26G19G 7G 9G18G24G 8
 -14115390.779 5 -10998996.167 5  22999683.154    22999683.958    22999683.911
        34.600          31.000
 -20427934.632 6 -15917866.366 6  21336200.941    21336200.433    21336201.017
        41.300          39.300
 -21085787.251 6 -16430476.847 6  21628992.271    21628992.278    21628993.031
        40.000          36.600
  -6865543.962 2  -5349773.170 2  25053909.868    25053909.697    25053909.673
        16.100          17.000
 -29914740.146 7 -23310177.949 7  19702694.838    19702695.248    19702695.083
        46.100          46.000
  -4344636.572 3  -3385428.269 3  24813889.008    24813888.091    24813888.624
        19.900          19.300
  -3337696.684 3  -2600797.604 3  24546986.960    24546987.414    24546988.351
        19.900          19.900
 -21326247.184 6 -16617848.952 5  21388118.060    21388118.904    21388118.493
        38.400          33.100
  -6895141.721 2  -5372835.234 2  24652529.690    24652527.173    24652528.823
        17.000          12.600
  -5800186.474 2  -4519623.063 3  24416008.201    24416012.276    24416009.513
        15.100          22.100
 -19756413.490 6 -15394602.426 5  21906879.262    21906879.823    21906879.366
        38.000          32.600
 13 10  7  1 16  0.0000000  0 11G 5G28G15G21G26G19G 7G 9G18G24G 8
 -14015362.034 5 -10921051.716 5  23018717.570    23018718.923    23018718.636
        34.300          31.300
 -20426791.113 6 -15916975.309 6  21336418.320    21336418.046    21336418.254
        41.100          39.300
 -21155635.620 6 -16484904.150 6  21615701.011    21615700.637    21615701.390
        40.100          36.500
  -6833749.901 2  -5324998.595 1  25059960.470    25059959.617    25059960.235
        12.600          11.000
 -29898912.773 7 -23297844.939 7  19705706.595    19705707.082    19705706.917
        46.100          46.000
  -4312425.195 3  -3360328.510 3  24820018.807    24820017.609    24820018.050
        20.500          19.900
  -3236516.078 3  -2521955.590 3  24566242.203    24566242.121    24566242.446
        18.600          21.100
 -21241397.635 6 -16551732.436 5  21404265.175    21404265.219    21404264.977
        38.600          33.500
  -6981312.656 2  -5439981.406 2  24636131.177    24636130.487    24636130.550
        17.800          15.100
  -5902212.833 3  -4599124.084 3  24396593.160    24396597.274    24396593.808
        18.600          23.000
 -19684245.057 6 -15338367.291 5  21920612.275    21920613.142    21920612.352
        37.700          32.800
 13 10  7  1 16 30.0000000  0 11G 5G28G15G21G26G19G 7G 9G18G24G 8
 -13915074.847 5 -10842905.885 4  23037802.151    23037802.952    23037802.761
        34.500          29.900
 -20425109.777 6 -15915665.162 6  21336738.209    21336738.147    21336738.149
        40.900          39.300
 -21225157.086 6 -16539076.707 6  21602471.849    21602471.160    21602471.996
        40.400          36.700
  -6801529.825 2  -5299892.062 2  25066091.230    25066091.630    25066091.832
        15.100          12.600
 -29882535.516 7 -23285083.447 7  19708823.026    19708823.552    19708823.354
        46.000          45.900
  -4279643.753 3  -3334784.499 3  24826256.231    24826255.585    24826256.399
        21.100          18.600
  -3135284.441 2  -2443073.846 3  24585504.456    24585505.986    24585505.233
        15.100          22.100
 -21156244.196 6 -16485379.131 5  21420468.486    21420469.366    21420468.807
        38.300          33.500
  -7067206.648 3  -5506911.751 2  24619785.860    24619785.081    24619785.658
        20.500          16.100
  -6004133.146 2  -4678542.464 3  24377197.984    24377203.201    24377199.710
        17.800          23.400
 -19611812.898 6 -15281926.668 5  21934395.633    21934396.764    21934395.775
        38.000          33.100
 13 10  7  1 17  0.0000000  0 11G 5G28G15G21G26G19G 7G 9G18G24G 8
 -13814532.011 5 -10764560.840 5  23056934.371    23056935.717    23056935.273
        33.800          30.800
 -20422890.608 6 -15913935.927 6  21337160.736    21337160.425    21337160.697
        41.200          39.400
 -21294350.145 6 -16592993.375 6  21589304.434    21589304.243    21589304.944
        40.300          36.700
  -6768885.464 1  -5274454.902 1  25072303.734    25072302.471    25072303.124
        11.000           9.000
 -29865608.561 7 -23271893.618 7  19712043.929    19712044.629    19712044.389
        46.000          45.900
  -4246293.149 3  -3308796.984 2  24832603.124    24832601.070    24832602.822
        21.100          17.800
  -3034002.874 2  -2364153.193 3  24604776.945    24604779.049    24604778.370
        16.100          19.900
 -21070788.803 6 -16418790.536 5  21436730.045    21436731.026    21436730.405
        38.300          33.100
  -7152821.536 3  -5573624.665 2  24603494.012    24603493.186    24603493.442
        19.900          15.100
  -6105946.998 2  -4757877.875 3  24357823.281    24357828.263    24357824.989
        15.100          21.600
 -19539118.137 6 -15225281.413 5  21948228.676    21948229.995    21948229.092
        37.400          32.700
 13 10  7  1 17 30.0000000  0 11G 5G28G15G21G26G19G 7G 9G18G24G 8
 -13713736.189 5 -10686018.669 5  23076115.511    23076116.299    23076116.293
        34.100          30.100
 -20420134.485 6 -15911788.295 6  21337685.169    21337684.834    21337685.113
        41.200          39.500
 -21363212.408 6 -16646652.274 6  21576200.303    21576200.241    21576200.826
        40.300          36.900
  -6735818.038 2  -5248688.108 2  25078596.357    25078595.500    25078595.105
        15.100          13.900
 -29848131.837 7 -23258275.399 7  19715369.640    19715370.434    19715370.147
        46.100          46.000
  -4212374.661 3  -3282367.005 2  24839057.469    24839055.603    24839057.252
        19.900          16.100
  -2932672.457 2  -2285194.476 3  24624059.200    24624061.953    24624061.581
        17.800          19.900
 -20985033.436 6 -16351968.192 5  21453049.072    21453049.745    21453049.361
        38.100          32.700
  -7238154.919 2  -5640118.206 2  24587255.150    24587254.051    24587254.644
        17.800          12.600
  -6207652.844 2  -4837129.159 3  24338469.852    24338473.597    24338470.484
        15.100          22.100
 -19466162.425 6 -15168432.815 5  21962112.269    21962113.095    21962112.132
        37.300          33.200
 13 10  7  1 18  0.0000000  0 11G 5G28G15G21G26G19G 7G 9G18G24G 8
 -13612689.608 5 -10607281.098 5  23095343.911    23095344.950    23095344.697
        33.400          30.800
 -20416841.535 6 -15909222.351 6  21338311.896    21338311.430    21338311.815
        41.000          39.500
 -21431742.237 6 -16700052.139 6  21563159.205    21563159.308    21563159.963
        40.600          37.100
  -6702329.376 2  -5222593.037 2  25084968.264    25084968.440    25084967.626
        13.900          12.600
 -29830105.590 7 -23244228.978 7  19718799.955    19718800.748    19718800.430
        46.100          46.000
  -4177889.435 3  -3255495.397 3  24845620.245    24845618.008    24845619.436
        18.600          18.600
  -2831294.375 2  -2206198.612 3  24643352.835    24643353.357    24643353.419
        17.800          20.500
 -20898979.911 6 -16284913.515 5  21469424.587    21469425.301    21469424.954
        38.400          33.000
  -7323204.493 3  -5706390.599 2  24571071.061    24571070.899    24571070.588
        21.600          15.100
  -6309250.064 2  -4916295.774 3  24319136.978    24319140.168    24319137.588
        16.100          22.600
 -19392947.253 6 -15111382.044 5  21976044.781    21976045.533    21976044.686
        37.500          32.000
 13 10  7  1 18 30.0000000  0 11G 5G28G15G21G26G19G 7G 9G18G24G 8
 -13511395.573 5 -10528350.721 5  23114619.767    23114620.578    23114620.545
        34.100          31.000
 -20413012.354 6 -15906238.562 6  21339040.504    21339040.141    21339040.315
        41.000          39.400
 -21499938.000 6 -16753191.687 6  21550181.914    21550182.092    21550182.779
        40.400          36.800
  -6668421.045 1  -5196171.002 1  25091420.790    25091420.298    25091420.757
        11.000          11.000
 -29811529.896 7 -23229754.416 7  19722334.702    19722335.558    19722335.218
        45.900          45.900
  -4142838.645 3  -3228183.087 2  24852290.009    24852287.967    24852289.053
        18.600          16.100
  -2729869.844 3  -2127166.521 3  24662653.675    24662653.523    24662653.994
        19.300          19.300
 -20812630.095 6 -16217627.964 5  21485856.363    21485857.055    21485856.658
        38.200          32.600
  -7407967.803 3  -5772439.907 2  24554940.003    24554940.511    24554940.557
        19.300          15.100
  -6410737.722 2  -4995377.038 3  24299824.645    24299827.959    24299824.889
        16.100          21.600
 -19319474.101 6 -15054130.253 5  21990026.033    21990026.911    21990025.992
        37.000          32.800
 13 10  7  1 19  0.0000000  0 11G 5G28G15G21G26G19G 7G 9G18G24G 8
 -13409856.511 5 -10449229.395 5  23133941.814    23133942.815    23133942.639
        33.500          30.800
 -20408647.473 6 -15902837.345 6  21339871.011    21339870.750    21339870.977
        41.100          39.500
 -21567798.039 6 -16806069.636 6  21537268.465    21537268.701    21537269.443
        40.400          37.200
  -6634094.688 2  -5169423.208 2  25097952.079    25097953.616    25097953.621
        16.100          13.900
 -29792404.984 7 -23214851.895 7  19725974.211    19725974.959    19725974.600
        46.100          45.900
  -4107223.536 3  -3200431.043 3  24859067.911    24859065.879    24859067.359
        21.100          18.600
  -2628400.024 2  -2048099.191 2  24681961.683    24681962.779    24681962.750
        17.000          17.800
 -20725986.099 6 -16150113.181 5  21502344.480    21502345.217    21502344.581
        37.900          33.100
  -7492443.033 3  -5838264.739 3  24538864.716    24538865.844    24538865.108
        19.900          20.500
  -6512114.415 2  -5074371.821 3  24280532.740    24280536.204    24280533.385
        17.800          21.600
 -19245744.260 6 -14996678.452 5  22004056.618    22004057.440    22004056.780
        37.400          32.600
 13 10  7  1 19 30.0000000  0 11G 5G28G15G21G26G19G 7G 9G18G24G 8
 -13308075.644 5 -10369919.660 5  23153310.068    23153311.341    23153310.938
        33.100          30.200
 -20403747.287 6 -15899019.010 6  21340803.572    21340803.220    21340803.614
        41.400          39.700
 -21635320.455 6 -16858684.504 6  21524420.033    21524419.783    21524420.350
        40.500          37.200
  -6599351.691 2  -5142350.775 2  25104564.262    25104564.606    25104565.201
        13.900          15.100
 -29772730.936 7 -23199521.477 7  19729718.090    19729718.800    19729718.405
        46.100          45.900
  -4071045.074 3  -3172240.014 2  24865952.872    24865949.508    24865951.821
        19.300          17.800
  -2526885.974 2  -1968997.395 3  24701279.547    24701280.256    24701279.357
        15.100          18.600
 -20639049.785 6 -16082370.623 5  21518887.775    21518888.730    21518887.972
        37.600          32.800
  -7576627.470 3  -5903863.032 2  24522846.223    24522844.666    24522846.249
        20.500          15.100
  -6613379.361 2  -5153279.528 4  24261262.764    24261267.588    24261263.372
        17.000          24.200
 -19171759.342 6 -14939027.877 5  22018135.522    22018135.982    22018135.561
        37.300          32.100
 13 10  7  1 20  0.0000000  0 11G 5G28G15G21G26G19G 7G 9G18G24G 8
 -13206054.889 5 -10290422.995 4  23172724.429    23172725.205    23172725.001
        33.800          29.700
 -20398312.132 6 -15894783.818 6  21341837.864    21341837.456    21341837.640
        41.100          39.700
 -21702503.570 6 -16911034.967 6  21511635.212    21511635.200    21511635.812
        40.700          37.700
  -6564194.214 2  -5114955.345 2  25111254.322    25111254.439    25111254.111
        15.100          15.100
 -29752507.917 7 -23183763.285 7  19733566.613    19733566.983    19733566.829
        46.100          45.800
  -4034304.757 3  -3143611.206 2  24872943.456    24872941.676    24872943.218
        19.900          16.100
  -2425329.057 2  -1889862.165 3  24720604.153    24720606.090    24720605.846
        17.000          20.500
 -20551823.056 6 -16014401.765 5  21535486.280    21535487.197    21535486.517
        37.700          32.700
  -7660519.077 3  -5969233.094 3  24506882.055    24506881.401    24506882.080
        21.600          18.600
  -6714531.547 2  -5232099.359 3  24242013.640    24242017.919    24242014.420
        15.100          21.600
 -19097520.708 6 -14881179.613 5  22032262.371    22032263.073    22032262.373
        36.600          32.300
 13 10  7  1 20 30.0000000  0 11G 5G28G15G21G26G19G 7G 9G18G24G 8
 -13103797.383 5 -10210741.838 5  23192183.365    23192184.012    23192183.992
        33.200          30.100
 -20392342.875 6 -15890132.440 6  21342973.625    21342973.398    21342973.565
        41.100          39.500
 -21769345.509 6 -16963119.591 6  21498915.637    21498915.667    21498916.249
        40.900          37.600
  -6528623.801 2  -5087238.149 1  25118023.954    25118022.896    25118024.188
        17.000          11.000
 -29731736.106 7 -23167577.467 7  19737519.115    19737519.812    19737519.446
        46.100          45.900
  -3997004.124 3  -3114545.783 3  24880042.418    24880040.382    24880041.363
        22.100          19.900
  -2323730.000 2  -1810694.104 2  24739938.306    24739939.896    24739939.123
        16.100          17.800
 -20464307.839 6 -15946208.114 5  21552139.922    21552140.927    21552140.021
        37.200          32.300
  -7744115.237 3  -6034372.943 1  24490973.948    24490972.647    24490973.799
        18.600          11.000
  -6815570.008 3  -5310830.568 3  24222786.767    24222791.074    24222787.743
        18.600          21.600
 -19023029.707 6 -14823134.686 5  22046437.320    22046438.295    22046437.493
        36.600          32.100
 13 10  7  1 21  0.0000000  0 11G 5G28G15G21G26G19G 7G 9G18G24G 8
 -13001305.970 5 -10130878.418 4  23211685.996    23211687.654    23211686.915
        31.800          29.200
 -20385840.059 6 -15885065.303 6  21344211.352    21344210.904    21344211.189
        41.200          39.500
 -21835844.500 6 -17014936.981 6  21486261.206    21486261.300    21486261.885
        40.800          37.900
  -6492641.560 2  -5059200.063 1  25124871.494    25124869.521    25124870.605
        13.900           9.000
 -29710415.746 7 -23150964.205 7  19741576.347    19741576.958    19741576.657
        46.200          45.800
  -3959143.687 3  -3085044.132 2  24887245.136    24887244.637    24887245.658
        21.100          17.800
  -2222090.215 2  -1731494.351 2  24759280.630    24759280.975    24759281.173
        17.000          17.800
 -20376505.903 6 -15877791.044 5  21568848.120    21568848.869    21568848.310
        37.500          32.400
  -7827413.520 3  -6099280.704 2  24475122.645    24475123.136    24475122.538
        20.500          17.000
  -6916493.266 3  -5389472.049 3  24203582.121    24203585.701    24203583.008
        19.300          22.100
 -18948288.018 6 -14764894.425 5  22060660.424    22060661.493    22060660.414
        36.900          32.000
 13 10  7  1 21 30.0000000  0 11G 5G28G15G21G26G19G 7G 9G18G24G 8
 -12898583.398 5 -10050834.887 4  23231234.469    23231235.365    23231234.647
        32.700          29.900
 -20378803.956 6 -15879582.613 6  21345550.024    21345549.787    21345549.977
        41.500          39.500
 -21901998.697 6 -17066485.698 6  21473671.988    21473672.563    21473673.016
        40.900          37.700
  -6456249.799 2  -5030842.868 2  25131795.269    25131794.886    25131795.633
        13.900          13.900
 -29688547.094 7 -23133923.704 7  19745737.732    19745738.351    19745738.122
        46.100          45.800
  -3920725.302 2  -3055107.736 2  24894555.703    24894555.017    24894556.512
        17.800          16.100
  -2120410.865 2  -1652263.708 2  24778629.545    24778630.664    24778630.685
        17.800          17.800
 -20288419.405 6 -15809152.230 5  21585610.083    21585611.209    21585610.670
        37.400          32.600
  -7910411.724 3  -6163954.629 2  24459329.760    24459327.895    24459329.189
        22.100          15.100
  -7017300.507 3  -5468023.110 3  24184398.185    24184401.970    24184399.134
        18.600          22.100
 -18873297.021 6 -14706459.898 5  22074930.766    22074931.643    22074930.849
        36.500          32.000
 13 10  7  1 22  0.0000000  0 11G 5G28G15G21G26G19G 7G 9G18G24G 8
 -12795631.726 5  -9970612.818 4  23250825.596    23250826.321    23250826.046
        33.100          29.700
 -20371235.208 6 -15873684.876 6  21346990.299    21346990.087    21346990.358
        41.300          39.300
 -21967806.541 6 -17117764.529 6  21461149.070    21461149.732    21461150.254
        40.800          37.900
  -6419450.176 2  -5002167.890 1  25138798.507    25138799.401    25138798.896
        13.900          11.000
 -29666130.359 7 -23116456.129 7  19750003.369    19750004.239    19750003.905
        46.100          45.700
  -3881750.260 3  -3024737.550 3  24901972.758    24901971.260    24901973.202
        20.500          20.500
  -2018692.888 2  -1573002.939 3  24797985.939    24797986.638    24797987.177
        17.000          19.900
 -20200050.219 6 -15740293.147 5  21602426.589    21602427.292    21602426.747
        37.500          32.000
  -7993107.876 3  -6228393.158 2  24443591.273    24443591.916    24443591.643
        20.500          16.100
  -7117990.736 3  -5546482.976 3  24165237.150    24165241.567    24165238.396
        18.600          23.800
 -18798058.029 6 -14647832.135 5  22089248.443    22089249.130    22089248.463
        36.600          32.000
 13 10  7  1 22 30.0000000  0 11G 5G28G15G21G26G19G 7G 9G18G24G 8
 -12692454.031 5  -9890214.633 5  23270458.753    23270460.458    23270459.798
        32.700          30.200
 -20363134.458 6 -15867372.596 6  21348531.860    21348531.389    21348531.899
        41.200          39.600
 -22033266.074 6 -17168771.947 6  21448693.076    21448692.937    21448693.747
        41.000          37.800
  -6382244.567 1  -4973176.532 2  25145878.876    25145878.258    25145878.454
         6.500          13.900
 -29643165.774 7 -23098561.657 7  19754373.533    19754374.299    19754373.933
        46.100          45.800
  -3842219.859 3  -2993934.665 3  24909495.719    24909494.186    24909494.899
        18.600          21.100
  -1916937.490 2  -1493713.059 2  24817348.375    24817350.788    24817349.479
        17.000          17.800
 -20111400.105 6 -15671215.160 5  21619296.037    21619296.954    21619296.288
        36.500          32.300
  -8075499.523 3  -6292594.444 3  24427913.178    24427913.178    24427913.181
        22.100          18.600
  -7218563.087 3  -5624850.999 3  24146099.986    24146103.673    24146100.829
        18.600          21.600
 -18722572.254 6 -14589012.068 5  22103612.799    22103613.825    22103612.879
        36.600          31.600
 13 10  7  1 23  0.0000000  0 11G 5G28G15G21G26G19G 7G 9G18G24G 8
 -12589053.200 5  -9809642.582 4  23290135.483    23290136.971    23290136.507
        32.700          29.700
 -20354502.305 6 -15860646.227 6  21350174.459    21350173.995    21350174.387
        41.100          39.300
 -22098375.593 6 -17219506.636 6  21436302.833    21436303.110    21436303.919
        41.100          38.200
  -6344634.314 1  -4943869.867 1  25153035.368    25153035.648    25153035.080
        11.000           6.500
 -29619653.647 7 -23080240.522 7  19758848.060    19758848.423    19758848.273
        46.100          45.900
  -3802135.365 3  -2962699.990 3  24917124.212    24917121.195    24917123.557
        19.300          18.600
  -1815145.696 3  -1414394.861 3  24836719.112    24836720.420    24836720.657
        19.300          21.600
 -20022471.053 6 -15601919.819 5  21636218.992    21636219.616    21636219.023
        37.200          32.000
  -8157584.364 3  -6356556.646 3  24412294.988    24412292.596    24412294.468
        22.100          18.600
  -7319015.977 3  -5703125.936 4  24126984.466    24126988.399    24126985.376
        19.900          24.200
 -18646841.303 6 -14530000.958 5  22118023.701    22118024.957    22118023.970
        36.000          31.100
 13 10  7  1 23 30.0000000  0 11G 5G28G15G21G26G19G 7G 9G18G24G 8
 -12485431.884 5  -9728898.722 4  23309853.634    23309855.599    23309854.949
        32.300          29.900
 -20345339.493 6 -15853506.360 6  21351918.152    21351917.749    21351918.174
        41.300          39.300
 -22163133.305 6 -17269967.182 6  21423980.466    21423980.307    21423980.835
        41.200          38.100
  -6306621.483 1  -4914249.460 2  25160269.488    25160269.432    25160268.986
         9.000          13.900
 -29595594.209 7 -23061492.913 7  19763426.252    19763426.658    19763426.546
        46.100          45.700
  -3761498.527 3  -2931034.927 3  24924856.308    24924855.103    24924856.519
        20.500          18.600
  -1713318.814 2  -1335049.262 3  24856095.624    24856096.843    24856097.336
        15.100          19.300
 -19933264.976 6 -15532408.610 5  21653194.181    21653194.948    21653194.301
        36.700          31.800
  -8239360.082 3  -6420277.975 2  24396731.939    24396731.194    24396732.165
        21.100          16.100
  -7419348.848 3  -5781307.365 4  24107891.534    24107895.994    24107892.266
        19.900          24.200
 -18570866.614 6 -14470799.923 5  22132481.524    22132482.347    22132481.693
        36.100          31.100
 13 10  7  1 24  0.0000000  0 11G 5G28G15G21G26G19G 7G 9G18G24G 8
 -12381592.866 5  -9647985.234 4  23329614.440    23329615.059    23329614.991
        32.300          29.500
 -20335646.549 6 -15845953.407 6  21353762.397    21353762.206    21353762.514
        41.100          39.300
 -22227537.392 6 -17320152.179 6  21411724.540    21411724.641    21411725.094
        41.000          38.600
  -6268207.735 2  -4884316.698 2  25167579.591    25167579.307    25167579.090
        12.600          13.900
 -29570987.820 7 -23042319.112 7  19768108.515    19768109.250    19768108.785
        45.900          45.600
  -3720310.577 3  -2898940.423 3  24932694.901    24932692.888    24932694.390
        22.100          18.600
  -1611457.632 3  -1255676.976 2  24875479.113    24875480.656    24875479.846
        18.600          17.000
 -19843783.764 6 -15462683.009 5  21670221.792    21670222.714    21670222.138
        36.800          31.600
  -8320824.400 3  -6483756.665 2  24381228.859    24381228.761    24381229.840
        20.500          16.100
  -7519560.769 2  -5859394.517 4  24088821.565    24088825.485    24088822.171
        17.800          24.200
 -18494649.641 6 -14411410.087 5  22146985.570    22146986.125    22146985.432
        36.400          31.800
 13 10  7  1 24 30.0000000  0 11G 5G28G15G21G26G19G 7G 9G18G24G 8
 -12277539.324 5  -9566904.564 4  23349415.081    23349415.463    23349415.729
        32.000          28.600
 -20325424.458 6 -15837988.129 6  21355707.527    21355707.437    21355707.544
        41.100          39.500
 -22291586.160 6 -17370060.310 6  21399536.141    21399536.372    21399537.131
        41.300          38.400
  -6229394.999 1  -4854073.035 2  25174963.953    25174964.409    25174963.888
        11.000          12.600
 -29545834.779 7 -23022719.351 7  19772894.806    19772895.741    19772895.290
        46.100          45.600
  -3678572.711 3  -2866417.460 2  24940637.036    24940634.993    24940637.482
        19.300          17.000
  -1509563.580 2  -1176279.083 2  24894868.021    24894870.576    24894869.688
        15.100          13.900
 -19754029.166 6 -15392744.385 5  21687301.822    21687302.508    21687301.883
        36.800          32.100
  -8401974.919 3  -6546990.816 2  24365788.131    24365786.376    24365788.069
        23.000          15.100
  -7619650.589 3  -5937386.540 4  24069775.563    24069778.640    24069775.801
        18.600          24.200
 -18418191.775 5 -14351832.561 5  22161534.708    22161535.543    22161534.557
        35.900          31.500
 13 10  7  1 25  0.0000000  0 11G 5G28G15G21G26G19G 7G 9G18G24G 8
 -12173273.160 5  -9485658.221 4  23369255.945    23369257.210    23369256.782
        31.800          28.800
 -20314673.658 6 -15829610.874 6  21357753.389    21357753.190    21357753.467
        41.100          39.400
 -22355277.549 6 -17419689.956 6  21387416.251    21387416.230    21387417.017
        41.200          38.400
  -6190185.167 1  -4823519.924 1  25182424.843    25182426.146    25182425.841
        11.000          11.000
 -29520135.351 7 -23002693.830 7  19777785.067    19777786.258    19777785.807
        46.100          45.700
  -3636286.615 3  -2833467.245 2  24948683.746    24948681.415    24948683.415
        20.500          17.000
  -1407637.436 2  -1096856.098 2  24914265.570    24914267.052    24914265.830
        13.900          17.000
 -19664003.057 6 -15322594.191 5  21704433.097    21704433.721    21704433.321
        37.000          31.000
  -8482809.624 3  -6609978.878 2  24350404.771    24350404.458    24350404.895
        22.100          17.000
  -7719617.190 3  -6015282.561 4  24050753.133    24050755.863    24050753.481
        19.900          24.600
 -18341494.290 6 -14292068.312 5  22176129.696    22176130.854    22176129.745
        36.200          31.300
 13 10  7  1 25 30.0000000  0 12G 5G28G15G21G26G19G 7G17G 9G18G24G 8
 -12068797.391 5  -9404248.552 4  23389136.779    23389138.917    23389137.960
        31.800          29.000
 -20303394.618 6 -15820821.999 6  21359900.043    21359899.436    21359899.907
        41.100          39.200
 -22418610.076 6 -17469039.973 6  21375364.634    21375364.475    21375365.276
        41.300          38.600
  -6150579.762 1  -4792658.622 1  25189961.673    25189962.661    25189963.077
        11.000          11.000
 -29493889.896 7 -22982242.835 7  19782779.666    19782780.543    19782780.204
        46.100          45.700
  -3593453.727 3  -2800090.966 2  24956835.385    24956833.484    24956834.807
        18.600          17.000
  -1305680.404 2  -1017409.093 2  24933667.402    24933668.762    24933668.263
        16.100          12.600
   -146146.875 1   -113880.322 1  25510963.250    25510964.562    25510964.647
         9.000           6.500
 -19573707.323 6 -15252233.897 5  21721615.562    21721616.467    21721615.903
        36.000          31.000
  -8563325.746 3  -6672718.715 2  24335083.992    24335082.277    24335083.819
        22.600          13.900
  -7819459.719 3  -6093081.873 3  24031752.905    24031756.394    24031753.631
        20.500          22.600
 -18264558.892 5 -14232118.675 5  22190769.909    22190771.047    22190770.112
        35.700          31.300
 13 10  7  1 26  0.0000000  0 12G 5G28G15G21G26G19G 7G17G 9G18G24G 8
 -11964114.672 5  -9322677.625 4  23409057.305    23409059.003    23409058.285
        31.500          28.600
 -20291588.445 6 -15811622.378 6  21362146.661    21362146.069    21362146.540
        41.200          39.300
 -22481582.076 6 -17518109.056 6  21363381.172    21363381.392    21363382.109
        41.400          38.400
  -6110580.634    -4761490.486 1  25197574.350    25197573.714    25197573.964
         3.000          11.000
 -29467098.803 7 -22961366.666 7  19787878.021    19787878.657    19787878.422
        46.200          45.600
  -3550075.468 3  -2766289.736 2  24965090.085    24965087.957    24965088.632
        20.500          17.800
  -1203693.631 2   -937938.951 2  24953075.524    24953076.139    24953076.816
        15.100          16.100
   -241465.749     -188154.693 1  25492822.576    25492824.620    25492825.991
         3.000          11.000
 -19483144.058 6 -15181665.143 5  21738849.374    21738850.082    21738849.499
        36.200          31.600
  -8643521.517 3  -6735208.914 2  24319822.087    24319821.530    24319822.620
        23.000          12.600
  -7919176.770 3  -6170783.425 4  24012777.274    24012781.375    24012778.393
        20.500          24.600
 -18187386.962 6 -14171984.726 5  22205455.172    22205456.517    22205455.490
        36.300          31.100
 13 10  7  1 26 30.0000000  0 12G 5G28G15G21G26G19G 7G17G 9G18G24G 8
 -11859227.871 5  -9240947.675 4  23429017.019    23429018.303    23429017.683
        31.000          29.000
 -20279255.794 6 -15802012.505 6  21364493.295    21364492.964    21364493.347
        41.100          39.300
 -22544191.568 6 -17566895.667 6  21351467.079    21351467.233    21351467.797
        41.300          38.800
  -6070190.085 1  -4730017.368 2  25205260.699    25205260.517    25205260.011
         6.500          12.600
 -29439762.462 7 -22940065.628 7  19793080.099    19793080.716    19793080.372
        46.100          45.700
  -3506153.629 3  -2732064.946 3  24973448.449    24973445.689    24973446.703
        19.900          19.900
  -1101678.287 2   -858446.449 3  24972488.601    24972488.912    24972489.203
        17.800          19.300
   -336786.175 1   -262430.383 1  25474684.672    25474686.591    25474685.723
         9.000           9.000
 -19392314.922 6 -15110889.220 5  21756133.755    21756134.477    21756133.910
        36.400          31.500
  -8723394.398 3  -6797447.512 2  24304622.826    24304622.798    24304623.776
        23.400          17.800
  -8018767.808 3  -6248386.790 3  23993825.121    23993829.642    23993826.590
        19.300          23.800
 -18109979.713 5 -14111667.414 5  22220185.574    22220186.488    22220185.550
        35.900          30.800
 13 10  7  1 27  0.0000000  0 12G 5G28G15G21G26G19G 7G17G 9G18G24G 8
 -11754139.695 5  -9159060.817 4  23449014.700    23449015.803    23449015.433
        30.400          27.900
 -20266397.514 6 -15791993.058 6  21366940.156    21366939.890    21366940.159
        41.100          39.400
 -22606436.815 6 -17615398.450 6  21339621.780    21339622.335    21339623.054
        41.600          39.000
  -6029409.855 2  -4698240.538 2  25213021.002    25213021.018    25213020.881
        13.900          13.900
 -29411881.231 7 -22918340.001 7  19798385.448    19798386.158    19798385.900
        46.100          45.600
  -3461689.444 3  -2697417.555 2  24981908.320    24981906.861    24981907.515
        21.600          17.800
   -999635.065 2   -778932.334 2  24991905.711    24991906.627    24991906.899
        17.000          16.100
   -432105.212 2   -336704.992 2  25456547.135    25456548.001    25456547.053
        13.900          12.600
 -19301221.927 6 -15039907.685 5  21773468.141    21773468.990    21773468.353
        36.200          30.800
  -8802942.364 3  -6859432.945 2  24289486.062    24289484.941    24289485.625
        21.100          17.800
  -8118231.495 3  -6325890.903 3  23974897.598    23974902.165    23974898.902
        19.300          23.000
 -18032338.409 5 -14051167.711 5  22234960.491    22234961.110    22234960.274
        35.800          30.800
 13 10  7  1 27 30.0000000  0 12G 5G28G15G21G26G19G 7G17G 9G18G24G 8
 -11648853.715 5  -9077019.799 4  23469050.304    23469050.380    23469050.604
        31.000          27.100
 -20253014.276 6 -15781564.553 6  21369486.748    21369486.542    21369486.845
        41.200          39.300
 -22668316.213 6 -17663616.164 6  21327847.069    21327847.144    21327847.690
        41.600          38.900
  -5988241.579 1  -4666161.364 1  25220854.655    25220855.527    25220854.983
        11.000           9.000
 -29383455.431 7 -22896190.034 7  19803794.905    19803795.395    19803795.242
        46.200          45.600
  -3416684.764 2  -2662348.989 2  24990472.219    24990470.737    24990471.761
        17.800          12.600
   -897565.289 2   -699397.471 2  25011329.629    25011331.127    25011329.956
        16.100          17.800
   -527420.163 2   -410976.367 1  25438409.315    25438410.097    25438409.396
        15.100           9.000
 -19209867.019 6 -14968722.070 5  21790851.922    21790853.146    21790852.539
        36.300          30.400
  -8882162.994 3  -6921163.301 3  24274410.211    24274410.148    24274410.567
        21.100          19.300
  -8217566.749 3  -6403294.939 4  23955994.742    23955999.155    23955995.907
        18.600          24.900
 -17954464.612 5 -13990486.848 5  22249779.117    22249780.034    22249779.037
        35.600          30.400
 13 10  7  1 28  0.0000000  0 12G 5G28G15G21G26G19G 7G17G 9G18G24G 8
 -11543371.376 5  -8994825.778 4  23489122.875    23489123.615    23489123.411
        31.000          28.800
 -20239106.773 6 -15770727.529 6  21372133.247    21372132.955    21372133.310
        41.100          39.200
 -22729827.830 6 -17711547.293 6  21316141.396    21316141.889    21316142.474
        41.600          39.100
  -5946687.035 2  -4633781.228 2  25228761.437    25228763.351    25228762.260
        12.600          15.100
 -29354485.640 7 -22873616.178 7  19809307.321    19809308.399    19809307.936
        46.100          45.700
  -3371141.008 3  -2626860.348 3  24999139.668    24999137.865    24999139.460
        18.600          20.500
   -795469.677 2   -619842.472 2  25030756.418    25030758.925    25030757.899
        15.100          17.800
   -622728.142 2   -485242.330 2  25420273.379    25420273.568    25420273.138
        12.600          12.600
 -19118251.936 6 -14897333.718 5  21808285.916    21808286.965    21808286.397
        36.300          30.600
  -8961054.081 3  -6982636.854 2  24259398.383    24259397.365    24259398.993
        22.100          16.100
  -8316772.812 3  -6480598.331 4  23937117.352    23937120.451    23937118.028
        20.500          24.600
 -17876359.654 5 -13929625.864 5  22264641.620    22264643.095    22264641.942
        35.800          30.600
 13 10  7  1 28 30.0000000  0 12G 5G28G15G21G26G19G 7G17G 9G18G24G 8
 -11437695.627 5  -8912481.071 4  23509231.654    23509233.759    23509232.714
        30.800          29.000
 -20224675.720 6 -15759482.543 6  21374879.462    21374879.103    21374879.508
        41.100          39.300
 -22790970.212 6 -17759190.700 6  21304506.865    21304506.867    21304507.527
        41.700          39.200
  -5904748.258 1  -4601101.681    25236743.686    25236743.629    25236744.017
         9.000           3.000
 -29324972.232 7 -22850618.730 7  19814923.867    19814924.621    19814924.198
        46.100          45.600
  -3325060.016 3  -2590953.086 3  25007908.894    25007906.900    25007908.496
        19.900          19.300
   -693349.644 2   -540268.450 2  25050190.601    25050191.352    25050190.986
        17.800          17.000
   -718026.137 2   -559500.490 2  25402137.853    25402139.692    25402137.989
        13.900          13.900
 -19026378.535 5 -14825744.077 5  21825769.044    21825769.909    21825769.111
        35.700          30.400
  -9039612.949 3  -7043851.551 3  24244448.831    24244448.868    24244448.752
        21.600          19.900
  -8415848.445 3  -6557800.080 4  23918263.756    23918267.056    23918263.929
        19.900          24.600
 -17798024.768 5 -13868585.727 5  22279548.704    22279549.668    22279548.559
        35.400          30.800
 13 10  7  1 29  0.0000000  0 12G 5G28G15G21G26G19G 7G17G 9G18G24G 8
 -11331829.434 5  -8829987.961 4  23529377.635    23529379.152    23529378.597
        31.100          29.700
 -20209722.188 6 -15747830.428 6  21377725.131    21377724.738    21377725.098
        41.000          39.100
 -22851741.339 6 -17806544.828 6  21292942.359    21292942.470    21292943.125
        41.800          39.300
  -5862427.176 2  -4568124.196 1  25244796.945    25244796.387    25244796.258
        15.100           6.500
 -29294915.656 7 -22827198.029 7  19820643.625    19820644.181    19820643.825
        46.100          45.600
  -3278442.979 3  -2554628.145 2  25016779.071    25016777.468    25016779.112
        20.500          16.100
   -591206.228 2   -460676.194 3  25069628.659    25069629.292    25069628.726
        16.100          18.600
   -813312.022 2   -633749.236 2  25384005.949    25384006.999    25384007.117
        17.800          16.100
 -18934248.767 6 -14753954.674 5  21843300.722    21843301.709    21843301.059
        36.300          30.400
  -9117837.827 3  -7104806.000 2  24229563.585    24229562.159    24229563.333
        23.000          16.100
  -8514792.617 3  -6634899.399 4  23899435.397    23899438.903    23899435.926
        21.600          24.900
 -17719462.004 5 -13807368.005 5  22294498.920    22294499.602    22294498.726
        35.300          30.400
 13 10  7  1 29 30.0000000  0 12G 5G28G15G21G26G19G 7G17G 9G18G24G 8
 -11225775.563 5  -8747348.609 4  23549558.938    23549560.419    23549559.758
        30.200          28.600
 -20194247.009 6 -15735771.837 6  21380669.823    21380669.634    21380669.783
        41.100          39.300
 -22912139.553 6 -17853608.365 6  21281448.851    21281448.983    21281449.667
        41.600          39.500
  -5819725.863 1  -4534850.504 2  25252921.798    25252922.085    25252920.682
        11.000          12.600
 -29264316.327 7 -22803354.405 7  19826466.479    19826466.937    19826466.722
        46.100          45.500
  -3231291.555 2  -2517886.783 2  25025752.498    25025749.910    25025751.366
        17.000          16.100
   -489040.262 2   -381066.372 2  25089069.847    25089071.371    25089069.278
        13.900          17.800
   -908582.862 2   -707986.248 2  25365876.635    25365877.653    25365877.204
        15.100          15.100
 -18841864.270 6 -14681966.778 5  21860881.222    21860881.873    21860881.291
        36.100          30.600
  -9195726.349 3  -7165498.344 2  24214741.542    24214741.354    24214741.501
        23.000          16.100
  -8613604.679 3  -6711895.762 4  23880631.485    23880635.580    23880632.386
        19.900          25.300
 -17640672.538 5 -13745973.638 5  22309492.174    22309492.624    22309492.026
        35.100          30.200
 13 10  7  1 30  0.0000000  0 12G 5G28G15G21G26G19G 7G17G 9G18G24G 8
 -11119536.788 5  -8664565.165 4  23569776.102    23569776.590    23569776.381
        30.200          27.900
 -20178251.059 6 -15723307.450 6  21383713.657    21383713.379    21383713.713
        41.100          39.300
 -22972163.012 6 -17900379.889 6  21270026.816    21270026.890    21270027.466
        41.600          39.400
  -5776646.287 1  -4501282.009 2  25261119.364    25261119.356    25261120.323
        11.000          15.100
 -29233174.800 7 -22779088.289 7  19832392.310    19832393.027    19832392.719
        46.100          45.500
  -3183607.819 3  -2480730.582 2  25034826.635    25034824.165    25034826.083
        19.900          17.000
   -386852.757 2   -301439.732 2  25108514.448    25108515.940    25108514.888
        16.100          17.800
  -1003835.499 2   -782209.051 2  25347750.254    25347751.937    25347751.598
        12.600          17.000
 -18749227.090 5 -14609781.983 4  21878509.103    21878510.047    21878509.609
        35.700          29.700
  -9273276.304 3  -7225926.884 2  24199983.220    24199983.660    24199983.866
        22.600          17.800
  -8712283.218 3  -6788788.070 4  23861853.886    23861857.311    23861854.414
        19.900          24.600
 -17561657.526 5 -13684403.524 4  22324528.404    22324528.874    22324528.025
        34.700          29.700
 13 10  7  1 30 30.0000000  0 12G 5G28G15G21G26G19G 7G17G 9G18G24G 8
 -11013115.981 4  -8581639.878 4  23590026.609    23590027.912    23590027.505
        29.200          26.800
 -20161735.220 6 -15710437.954 6  21386856.688    21386856.205    21386856.726
        41.100          39.100
 -23031809.920 6 -17946857.999 6  21258676.231    21258676.487    21258677.072
        41.600          39.800
  -5733190.249 2  -4467420.202 1  25269390.467    25269388.607    25269390.685
        12.600           9.000
 -29201491.426 7 -22754399.956 7  19838421.261    19838422.193    19838421.884
        46.200          45.500
  -3135393.182 3  -2443160.742 2  25044001.432    25043999.117    25044000.425
        19.300          16.100
   -284644.791 2   -221797.159 2  25127964.108    25127964.643    25127965.256
        16.100          17.000
  -1099067.263 1   -856415.580 1  25329628.506    25329629.194    25329627.411
        11.000           6.500
 -18656339.040 5 -14537401.708 5  21896185.173    21896186.022    21896185.383
        35.700          30.100
  -9350485.338 3  -7286089.773 2  24185290.704    24185290.795    24185291.586
        23.000          15.100
  -8810827.385 3  -6865575.721 4  23843101.412    23843105.226    23843102.269
        21.100          25.300
 -17482418.176 5 -13622658.598 5  22339606.977    22339607.679    22339606.893
        35.200          30.400
 13 10  7  1 31  0.0000000  0 12G 5G28G15G21G26G19G 7G17G 9G18G24G 8
 -10906515.885 5  -8498574.893 4  23610312.235    23610313.455    23610312.785
        30.800          28.100
 -20144700.707 6 -15697164.293 6  21390097.998    21390097.842    21390098.217
        41.100          39.300
 -23091078.975 6 -17993041.677 6  21247397.674    21247397.980    21247398.569
        41.800          39.800
  -5689359.769 2  -4433266.581 2  25277731.730    25277730.436    25277730.338
        12.600          12.600
 -29169266.848 7 -22729289.906 7  19844553.694    19844554.188    19844554.083
        46.100          45.300
  -3086649.441 2  -2405178.645 3  25053276.075    25053275.291    25053274.951
        16.100          18.600
   -182417.236 2   -142139.337 3  25147417.654    25147419.119    25147417.973
        13.900          19.300
  -1194275.588 2   -930603.926 1  25311511.095    25311510.821    25311510.422
        13.900           9.000
 -18563202.032 5 -14464827.433 4  21913908.270    21913909.374    21913909.087
        35.700          29.900
  -9427351.185 3  -7345985.233 2  24170664.875    24170663.526    24170664.823
        23.000          16.100
  -8909235.871 3  -6942257.574 4  23824375.191    23824379.328    23824375.656
        21.100          26.200
 -17402956.316 5 -13560740.294 5  22354728.015    22354728.882    22354727.864
        34.900          30.200
 13 10  7  1 31 30.0000000  0 12G 5G28G15G21G26G19G 7G17G 9G18G24G 8
 -10799738.726 5  -8415371.929 4  23630631.012    23630632.414    23630632.064
        30.600          26.800
 -20127147.691 6 -15683486.610 6  21393438.293    21393437.978    21393438.513
        41.200          39.000
 -23149968.263 6 -18038929.434 6  21236192.000    21236191.754    21236192.357
        41.900          39.900
  -5645156.981 1  -4398822.861 2  25286142.902    25286141.561    25286142.084
        11.000          12.600
 -29136501.573 7 -22703758.532 7  19850788.696    19850789.416    19850788.999
        46.100          45.500
  -3037378.329 3  -2366785.597 2  25062652.416    25062650.119    25062651.932
        18.600          15.100
    -80171.178 2    -62467.122 2  25166875.047    25166875.199    25166875.292
        15.100          17.000
  -1289457.435 2  -1004771.653 2  25293398.642    25293397.761    25293397.606
        12.600          12.600
 -18469817.823 5 -14392060.533 4  21931678.798    21931680.109    21931679.545
        35.600          29.500
  -9503871.536 3  -7405611.448 2  24156103.863    24156102.624    24156103.623
        23.000          16.100
  -9007507.896 3  -7018833.128 4  23805674.754    23805677.482    23805674.931
        22.100          24.600
 -17323272.952 5 -13498649.383 4  22369891.121    22369892.040    22369891.025
        35.200          29.900
 13 10  7  1 32  0.0000000  0 12G 5G28G15G21G26G19G 7G17G 9G18G24G 8
 -10692787.870 5  -8332033.618 4  23650982.918    23650984.548    23650983.841
        30.100          26.800
 -20109077.380 6 -15669405.839 6  21396877.331    21396876.596    21396877.201
        41.100          39.100
 -23208475.552 6 -18084519.526 6  21225058.035    21225058.213    21225058.785
        41.900          40.000
  -5600583.656    -4364090.418 1  25294623.464    25294624.519    25294622.084
         3.000          11.000
 -29103196.124 7 -22677806.245 7  19857126.359    19857127.244    19857126.782
        46.100          45.500
  -2987581.698 2  -2327983.046 2  25072129.048    25072126.237    25072128.264
        17.800          16.100
     22092.190 2     17218.623 2  25186335.420    25186335.946    25186336.116
        15.100          17.000
  -1384610.129 2  -1078916.603 2  25275291.714    25275292.496    25275292.592
        13.900          12.600
 -18376188.142 5 -14319102.360 5  21949496.300    21949497.494    21949496.616
        35.300          30.600
  -9580044.614 3  -7464967.113 2  24141606.657    24141607.560    24141607.776
        22.100          17.800
  -9105642.408 3  -7095301.521 4  23787000.121    23787002.885    23787000.884
        19.300          25.600
 -17243369.573 5 -13436387.027 4  22385095.937    22385097.348    22385096.092
        34.800          29.700
 13 10  7  1 32 30.0000000  0 12G 5G28G15G21G26G19G 7G17G 9G18G24G 8
 -10585665.418 4  -8248561.599 4  23671367.659    23671369.394    23671368.515
        29.000          27.400
 -20090490.948 6 -15654922.895 6  21400413.943    21400413.557    21400413.900
        41.000          39.000
 -23266599.326 6 -18129810.772 6  21213997.361    21213997.487    21213998.158
        41.900          40.100
  -5555642.038 1  -4329070.991 2  25303175.509    25303174.480    25303175.701
         6.500          12.600
 -29069350.974 7 -22651433.414 7  19863566.992    19863567.642    19863567.391
        46.200          45.400
  -2937261.165 2  -2288772.251 2  25081703.755    25081702.155    25081702.806
        17.800          15.100
    124372.052 2     96917.202 3  25205797.498    25205799.120    25205798.669
        13.900          18.600
  -1479730.664 1  -1153036.552 2  25257190.985    25257191.515    25257190.499
         6.500          13.900
 -18282314.793 5 -14245954.318 4  21967359.792    21967360.958    21967359.976
        35.500          29.900
  -9655867.989 4  -7524050.253 3  24127178.891    24127178.848    24127179.721
        24.600          18.600
  -9203638.576 3  -7171662.128 4  23768351.921    23768355.353    23768352.707
        21.600          24.900
 -17163247.697 5 -13373954.426 4  22400343.053    22400343.919    22400342.844
        34.600          29.900
 13 10  7  1 33  0.0000000  0 12G 5G28G15G21G26G19G 7G17G 9G18G24G 8
 -10478374.500 4  -8164958.320 4  23691784.769    23691786.283    23691785.224
        28.600          26.500
 -20071389.169 6 -15640038.386 6  21404048.979    21404048.642    21404048.903
        41.200          39.400
 -23324338.074 6 -18174802.008 6  21203009.942    21203010.154    21203010.696
        41.900          39.800
  -5510334.026 1  -4293766.062 1  25311798.066    25311797.719    25311799.400
         9.000           9.000
 -29034966.750 7 -22624640.524 7  19870110.189    19870110.858    19870110.620
        46.300          45.400
  -2886418.241 2  -2249154.382 2  25091379.022    25091377.174    25091379.179
        17.000          17.000
    226667.278 2    176627.791 1  25225262.985    25225264.719    25225264.927
        16.100          11.000
  -1574816.273 1  -1227129.234 2  25239096.412    25239097.177    25239097.168
        11.000          12.600
 -18188199.712 5 -14172617.908 5  21985269.217    21985270.290    21985269.522
        35.100          30.200
  -9731338.995 3  -7582858.828 3  24112817.405    24112817.277    24112817.692
        23.400          18.600
  -9301495.137 3  -7247913.933 4  23749729.768    23749733.427    23749730.681
        21.100          24.600
 -17082908.316 5 -13311352.332 5  22415631.193    22415631.989    22415631.120
        34.900          30.400
 13 10  7  1 33 30.0000000  0 12G 5G28G15G21G26G19G 7G17G 9G18G24G 8
 -10370918.299 4  -8081226.225 4  23712233.103    23712234.498    23712233.600
        29.500          27.100
 -20051773.164 6 -15624753.175 6  21407781.811    21407781.444    21407781.858
        41.200          39.100
 -23381690.093 6 -18219491.883 6  21192096.110    21192096.421    21192097.025
        41.900          40.200
  -5464661.508 1  -4258177.135 1  25320489.820    25320489.081    25320489.573
        11.000          11.000
 -29000044.080 7 -22597428.062 7  19876755.707    19876756.452    19876756.137
        46.100          45.300
  -2835054.940 3  -2209131.016 3  25101153.410    25101152.186    25101152.633
        19.300          20.500
    328977.202 2    256349.791 1  25244731.421    25244733.508    25244733.295
        12.600           9.000
  -1669864.471 1  -1301192.751 2  25221008.300    25221010.225    25221009.901
        11.000          15.100
 -18093844.646 5 -14099094.503 4  22003224.320    22003225.533    22003224.901
        35.300          29.700
  -9806455.899 4  -7641391.447 2  24098523.974    24098522.296    24098523.713
        24.600          17.800
  -9399211.206 3  -7324056.280 4  23731135.272    23731138.948    23731135.895
        22.100          25.900
 -17002352.906 5 -13248581.897 5  22430960.644    22430961.120    22430960.269
        34.400          30.200
 13 10  7  1 34  0.0000000  0 12G 5G28G15G21G26G19G 7G17G 9G18G24G 8
 -10263298.776 4  -7997366.879 4  23732712.395    23732713.874    23732713.346
        28.600          27.600
 -20031643.914 6 -15609068.040 6  21411612.307    21411611.768    21411612.203
        41.200          39.100
 -23438653.757 7 -18263879.159 6  21181256.550    21181256.711    21181257.224
        42.200          40.400
  -5418626.766 1  -4222305.921 1  25329248.928    25329249.645    25329249.429
        11.000           9.000
 -28964583.529 7 -22569796.474 7  19883503.619    19883504.425    19883503.943
        46.100          45.400
  -2783173.301 2  -2168703.756 2  25111025.886    25111024.103    25111025.541
        17.800          17.000
    431300.716 1    336082.403 2  25264204.667    25264205.011    25264205.064
         6.500          12.600
  -1764871.881 1  -1375224.440 1  25202929.209    25202931.185    25202930.042
         9.000          11.000
 -17999251.466 5 -14025385.549 4  22021225.061    22021226.049    22021225.320
        34.900          29.900
  -9881216.707 3  -7699646.635 2  24084296.886    24084296.480    24084297.062
        23.800          17.000
  -9496785.549 3  -7400088.181 4  23712568.265    23712571.396    23712568.730
        22.600          26.200
 -16921582.961 5 -13185644.300 4  22446330.128    22446331.089    22446330.038
        34.500          29.500
 13 10  7  1 34 30.0000000  0 12G 5G28G15G21G26G19G 7G17G 9G18G24G 8
 -10155519.144 4  -7913382.773 4  23753222.251    23753223.692    23753222.838
        29.200          28.100
 -20011002.391 6 -15592983.726 6  21415540.136    21415539.631    21415540.085
        41.000          38.600
 -23495227.161 7 -18307962.328 6  21170491.107    21170491.212    21170491.800
        42.200          40.400
  -5372231.675 2  -4186153.917 1  25338078.126    25338078.818    25338077.062
        12.600           9.000
 -28928585.708 7 -22541746.237 7  19890353.595    19890354.532    19890354.124
        46.100          45.300
  -2730774.832 2  -2127873.835 2  25120997.425    25120995.442    25120996.771
        17.800          16.100
    533637.026 2    415824.991 2  25283678.597    25283679.140    25283679.432
        15.100          15.100
  -1859835.845 2  -1449222.327 2  25184858.910    25184859.945    25184858.737
        15.100          17.800
 -17904421.965 5 -13951492.453 4  22039269.920    22039271.425    22039270.300
        34.400          28.800
  -9955618.702 4  -7757622.188 2  24070139.355    24070137.926    24070138.845
        24.200          17.000
  -9594217.264 3  -7476008.941 4  23694027.149    23694030.450    23694027.425
        22.100          25.600
 -16840599.870 5 -13122540.623 4  22461740.145    22461741.697    22461740.459
        34.300          28.400
 13 10  7  1 35  0.0000000  0 12G 5G28G15G21G26G19G 7G17G 9G18G24G 8
 -10047581.634 4  -7829275.643 4  23773762.237    23773763.329    23773762.947
        29.500          27.100
 -19989849.667 6 -15576501.075 6  21419565.329    21419564.908    21419565.321
        41.000          38.900
 -23551408.410 7 -18351739.925 6  21159800.177    21159800.143    21159800.842
        42.300          40.500
  -5325478.499 1  -4149722.876 1  25346975.574    25346974.177    25346975.450
         9.000          11.000
 -28892051.221 7 -22513277.818 7  19897306.107    19897306.803    19897306.500
        46.100          45.200
  -2677861.758 2  -2086642.878 2  25131065.231    25131064.949    25131064.991
        15.100          15.100
    635984.734 2    495576.465 2  25303154.239    25303156.158    25303154.870
        16.100          13.900
  -1954753.721 1  -1523184.264 2  25166796.281    25166797.179    25166795.508
         9.000          15.100
 -17809357.979 5 -13877416.639 4  22057360.099    22057361.465    22057360.450
        34.300          29.200
 -10029660.205 3  -7815316.856 3  24056049.253    24056048.804    24056048.794
        23.000          18.600
  -9691505.681 3  -7551818.041 4  23675514.280    23675517.176    23675514.814
        22.600          25.600
 -16759405.046 5 -13059271.944 4  22477191.314    22477192.591    22477191.350
        33.900          29.000
 13 10  7  1 35 30.0000000  0 12G 5G28G15G21G26G19G 7G17G 9G18G24G 8
  -9939489.008 4  -7745047.644 4  23794331.632    23794332.675    23794332.443
        29.200          26.800
 -19968186.599 6 -15559620.750 6  21423687.685    21423687.253    21423687.595
        40.700          38.900
 -23607196.085 7 -18395210.842 6  21149184.342    21149184.153    21149184.812
        42.300          40.700
  -5278369.104 1  -4113014.268 1  25355939.961    25355938.622    25355940.219
         6.500          11.000
 -28854980.695 7 -22484391.706 7  19904360.373    19904361.096    19904360.715
        46.100          45.300
  -2624435.938 3  -2045012.421 2  25141232.903    25141231.787    25141232.463
        18.600          17.000
    738343.459 2    575336.514 2  25322632.291    25322634.443    25322632.061
        16.100          16.100
  -2049622.613 2  -1597108.093 2  25148743.489    25148744.184    25148743.622
        15.100          15.100
 -17714061.378 5 -13803159.571 4  22075494.655    22075496.027    22075495.099
        34.700          29.500
 -10103338.640 4  -7872728.625 2  24042029.418    24042027.279    24042029.088
        24.900          17.000
  -9788649.333 3  -7627514.350 4  23657027.752    23657031.091    23657028.428
        22.600          26.200
 -16677999.728 5 -12995839.261 4  22492683.226    22492683.500    22492682.814
        34.500          29.000
 13 10  7  1 36  0.0000000  0 12G 5G28G15G21G26G19G 7G17G 9G18G24G 8
  -9831244.547 4  -7660701.320 4  23814929.520    23814930.845    23814930.409
        28.100          26.500
 -19946014.407 6 -15542343.710 6  21427906.867    21427906.418    21427906.852
        41.200          38.700
 -23662588.303 7 -18438373.603 6  21138643.135    21138643.315    21138643.958
        42.400          40.500
  -5230905.610 1  -4076029.727 2  25364970.334    25364970.744    25364971.670
         9.000          12.600
 -28817374.773 7 -22455088.400 7  19911516.681    19911517.229    19911516.960
        46.200          45.000
  -2570498.849 3  -2002983.504 2  25151496.452    25151495.311    25151496.322
        19.300          17.000
    840712.073 1    655104.291 2  25342111.969    25342113.328    25342112.499
         6.500          12.600
  -2144439.983 3  -1670991.724 2  25130701.165    25130701.379    25130701.539
        19.300          16.100
 -17618533.743 5 -13728722.471 4  22093673.105    22093674.386    22093673.445
        34.400          29.000
 -10176651.916 4  -7929855.856 3  24028076.284    24028077.178    24028077.306
        24.600          19.900
  -9885647.391 3  -7703097.204 4  23638569.875    23638573.119    23638570.116
        23.000          26.500
 -16596385.156 5 -12932243.507 4  22508213.583    22508214.118    22508213.531
        33.900          28.600
 13 10  7  1 36 30.0000000  0 12G 5G28G15G21G26G19G 7G17G 9G18G24G 8
  -9722850.905 4  -7576238.785 4  23835555.121    23835557.653    23835556.688
        26.200          26.800
 -19923334.104 6 -15524670.741 6  21432222.680    21432222.369    21432222.797
        41.000          38.600
 -23717583.504 7 -18481227.003 6  21128178.224    21128178.067    21128178.637
        42.400          40.700
  -5183090.351 1  -4038771.147 2  25374070.946    25374070.509    25374070.181
         6.500          13.900
 -28779234.189 7 -22425368.474 7  19918774.659    19918775.155    19918774.939
        46.200          45.100
  -2516052.601 3  -1960557.889 2  25161857.142    25161855.503    25161857.489
        19.900          16.100
    943089.561 2    734878.934 2  25361595.000    25361595.549    25361596.435
        15.100          17.000
  -2239202.643 2  -1744832.755 2  25112666.971    25112669.402    25112668.036
        15.100          12.600
 -17522776.841 5 -13654106.723 4  22111895.376    22111896.378    22111895.360
        34.000          28.800
 -10249597.678 4  -7986696.703 3  24014196.326    24014195.746    24014196.821
        24.600          18.600
  -9982498.594 3  -7778565.619 4  23620139.239    23620142.889    23620139.765
        22.100          27.400
 -16514562.806 5 -12868485.856 4  22523783.108    22523784.680    22523783.404
        33.800          29.000
 13 10  7  1 37  0.0000000  0 12G 5G28G15G21G26G19G 7G17G 9G18G24G 8
  -9614310.408 4  -7491661.805 4  23856210.340    23856212.181    23856211.441
        27.400          25.600
 -19900146.780 6 -15506602.686 6  21436634.874    21436634.944    21436635.036
        41.000          39.100
 -23772179.989 7 -18523769.718 6  21117788.351    21117788.636    21117789.280
        42.600          40.700
  -5134924.837 1  -4001239.582 1  25383236.338    25383236.064    25383235.201
         9.000          11.000
 -28740559.627 7 -22395232.464 7  19926134.034    19926134.883    19926134.370
        46.200          45.200
  -2461098.978 3  -1917736.903 2  25172315.367    25172313.283    25172314.498
        19.900          17.800
   1045474.898 1    814659.759 2  25381078.322    25381078.269    25381078.733
         9.000          12.600
  -2333907.671 3  -1818628.856 2  25094646.292    25094647.221    25094646.256
        18.600          13.900
 -17426792.693 5 -13579313.898 4  22130160.750    22130161.261    22130160.705
        34.800          28.600
 -10322173.927 4  -8043249.619 3  24000385.037    24000384.456    24000385.432
        24.900          18.600
 -10079202.375 3  -7853919.171 4  23601737.433    23601740.891    23601737.937
        22.600          26.500
 -16432533.913 5 -12804567.265 4  22539392.602    22539394.211    22539392.950
        33.600          28.800
 13 10  7  1 37 30.0000000  0 12G 5G28G15G21G26G19G 7G17G 9G18G24G 8
  -9505626.139 4  -7406972.781 4  23876892.468    23876893.786    23876893.249
        25.900          25.600
 -19876453.714 6 -15488140.546 6  21441143.718    21441143.511    21441143.885
        41.000          38.900
 -23826376.043 7 -18566000.409 6  21107475.319    21107475.422    21107476.092
        42.300          40.800
  -5086411.967 1  -3963437.392 2  25392468.302    25392467.427    25392467.004
         9.000          12.600
 -28701351.691 7 -22364680.839 7  19933595.002    19933595.872    19933595.309
        46.100          45.300
  -2405639.903 2  -1874522.089 2  25182868.758    25182866.024    25182867.552
        17.000          15.100
   1147867.812 2    894446.450 1  25400562.500    25400562.843    25400561.938
        13.900           9.000
  -2428552.261 2  -1892377.854 2  25076635.162    25076636.884    25076635.829
        17.800          16.100
 -17330582.953 5 -13504345.284 4  22148468.841    22148469.459    22148468.825
        34.300          28.400
 -10394378.270 4  -8099512.738 2  23986645.360    23986644.683    23986645.583
        24.900          17.000
 -10175757.167 3  -7929156.627 4  23583363.214    23583367.029    23583363.957
        22.600          26.500
 -16350299.941 5 -12740488.861 4  22555042.028    22555042.692    22555041.817
        33.500          28.100
 13 10  7  1 38  0.0000000  0 12G 5G28G15G21G26G19G 7G17G 9G18G24G 8
  -9396800.609 4  -7322173.695 4  23897601.939    23897602.582    23897602.110
        27.400          25.600
 -19852256.042 6 -15469285.209 6  21445748.347    21445747.982    21445748.521
        41.000          38.700
 -23880169.921 7 -18607917.714 6  21097238.589    21097238.822    21097239.411
        42.500          40.900
  -5037553.845 2  -3925366.115 2  25401764.592    25401764.592    25401763.203
        12.600          13.900
 -28661611.182 7 -22333714.217 7  19941157.374    19941158.177    19941157.768
        46.200          45.100
  -2349677.697 3  -1830915.174 2  25193517.338    25193515.746    25193517.446
        19.300          17.000
   1250266.828 2    974237.959 2  25420048.751    25420049.363    25420048.228
        15.100          13.900
  -2523133.751 2  -1966077.694 2  25058637.045    25058638.272    25058637.317
        16.100          15.100
 -17234149.455 5 -13429202.313 4  22166819.053    22166820.549    22166819.511
        34.400          29.200
 -10466209.244 4  -8155484.920 3  23972975.770    23972976.309    23972976.659
        25.300          19.900
 -10272162.406 4  -8004277.545 4  23565018.399    23565021.608    23565019.023
        25.600          26.800
 -16267862.160 5 -12676251.644 4  22570728.950    22570730.501    22570729.238
        33.400          28.800
 13 10  7  1 38 30.0000000  0 12G 5G28G15G21G26G19G 7G17G 9G18G24G 8
  -9287836.900 4  -7237266.929 4  23918337.768    23918338.015    23918337.924
        28.100          27.100
 -19827554.721 6 -15450037.419 6  21450449.190    21450448.490    21450448.891
        41.000          38.600
 -23933560.004 7 -18649520.372 6  21087079.118    21087079.174    21087079.742
        42.600          41.000
  -4988352.399 1  -3887027.389 2  25411126.245    25411129.001    25411126.459
         6.500          12.600
 -28621338.822 7 -22302333.166 7  19948821.022    19948821.672    19948821.394
        46.100          44.900
  -2293214.093 2  -1786917.567 2  25204261.826    25204260.522    25204261.639
        17.800          17.800
   1352671.472     1054033.886 1  25439534.415    25439537.338    25439535.400
         3.000          11.000
  -2617648.942 2  -2039725.886 2  25040651.986    25040652.764    25040652.154
        17.000          13.900
 -17137493.769 5 -13353886.214 4  22185212.307    22185213.437    22185212.409
        34.000          28.800
 -10537664.196 4  -8211164.100 3  23959379.072    23959378.240    23959379.247
        26.200          21.100
 -10368416.660 3  -8079280.809 4  23546700.711    23546705.043    23546701.828
        23.000          26.200
 -16185221.938 5 -12611856.697 4  22586455.281    22586456.542    22586455.380
        34.100          29.500
 13 10  7  1 39  0.0000000  0 12G 5G28G15G21G26G19G 7G17G 9G18G24G 8
  -9178737.036 4  -7152254.080 4  23939098.512    23939099.414    23939098.717
        27.600          26.800
 -19802351.014 6 -15430398.162 6  21455245.198    21455244.757    21455245.114
        41.000          38.700
 -23986544.632 7 -18690807.090 6  21076996.220    21076996.514    21076997.182
        42.600          41.300
  -4938809.387 1  -3848422.481 1  25420553.624    25420556.208    25420554.482
        11.000           6.500
 -28580535.324 7 -22270538.245 7  19956585.541    19956586.330    19956586.004
        46.200          44.800
  -2236251.013 3  -1742530.772 2  25215102.308    25215099.794    25215101.120
        19.900          15.100
   1455081.147     1133833.642 2  25459023.564    25459023.577    25459022.522
         3.000          15.100
  -2712095.188 3  -2113320.361 3  25022678.494    25022680.302    25022679.355
        19.300          19.900
 -17040617.770 5 -13278398.434 4  22203647.510    22203648.225    22203647.451
        33.900          27.600
 -10608741.042 4  -8266548.669 3  23945853.916    23945853.006    23945853.743
        24.200          19.900
 -10464519.207 4  -8154165.866 4  23528413.646    23528417.094    23528414.601
        24.200          26.800
 -16102380.419 5 -12547304.880 4  22602219.486    22602220.380    22602219.586
        33.200          28.400
 13 10  7  1 39 30.0000000  0 12G 5G28G15G21G26G19G 7G17G 9G18G24G 8
  -9069504.204 4  -7067137.620 4  23959884.628    23959885.560    23959885.173
        28.100          26.200
 -19776645.930 6 -15410368.218 6  21460136.353    21460136.123    21460136.547
        41.100          38.600
 -24039122.013 7 -18731776.475 6  21066991.167    21066991.309    21066991.987
        42.600          41.300
  -4888927.462 1  -3809553.395 1  25430048.251    25430048.448    25430048.071
         9.000           9.000
 -28539201.442 7 -22238330.039 7  19964451.295    19964451.937    19964451.576
        46.100          44.900
  -2178790.576 2  -1697756.446 2  25226035.708    25226033.824    25226036.017
        16.100          12.600
   1557494.995 1   1213636.616 2  25478511.448    25478512.202    25478512.044
         9.000          16.100
  -2806469.453 2  -2186858.694 3  25004720.238    25004721.829    25004720.767
        17.000          22.100
 -16943523.277 5 -13202740.402 4  22222123.292    22222124.459    22222123.736
        34.000          28.100
 -10679437.774 4  -8321637.015 2  23932400.815    23932399.817    23932400.878
        25.600          17.000
 -10560469.205 3  -8228932.055 4  23510154.596    23510158.408    23510155.362
        23.000          27.600
 -16019339.292 5 -12482597.517 4  22618021.639    22618022.803    22618021.660
        32.800          27.900
 13 10  7  1 40  0.0000000  0 12G 5G28G15G21G26G19G 7G17G 9G18G24G 8
  -8960141.414 4  -6981919.888 4  23980696.075    23980696.827    23980696.028
        27.600          25.900
 -19750440.771 6 -15389948.603 6  21465123.115    21465122.794    21465123.153
        40.900          38.500
 -24091290.500 7 -18772427.242 6  21057063.714    21057063.860    21057064.515
        42.500          41.300
  -4838708.841 1  -3770422.114 2  25439603.573    25439605.967    25439603.047
         6.500          12.600
 -28497337.939 7 -22205709.141 7  19972417.547    19972418.528    19972418.079
        46.200          45.100
  -2120834.947 3  -1652596.208 2  25237065.016    25237062.455    25237064.511
        19.300          16.100
   1659911.507 2   1293441.693 2  25498001.153    25498001.943    25498000.815
        15.100          15.100
  -2900769.276 1  -2260339.039 3  24986774.837    24986776.747    24986775.727
         9.000          21.100
 -16846212.178 5 -13126913.583 4  22240641.093    22240642.223    22240641.227
        33.400          28.400
 -10749751.976 4  -8376427.313 3  23919019.770    23919019.432    23919019.935
        25.300          18.600
 -10656265.340 3  -8303578.342 4  23491925.259    23491928.885    23491926.126
        23.800          27.100
 -15936099.722 5 -12417735.534 4  22633861.974    22633862.776    22633861.912
        33.100          27.900
 13 10  7  1 40 30.0000000  0 12G 5G28G15G21G26G19G 7G17G 9G18G24G 8
  -8850650.657 4  -6896602.444 4  24001531.102    24001531.766    24001531.450
        26.800          26.200
 -19723736.562 6 -15369140.120 6  21470204.975    21470204.541    21470205.005
        40.800          38.500
 -24143048.473 7 -18812758.131 6  21047214.434    21047214.707    21047215.371
        42.700          41.400
  -4788155.625 1  -3731030.011 1  25449223.671    25449224.553    25449224.816
        11.000          11.000
 -28454945.650 7 -22172676.204 7  19980484.884    19980485.436    19980485.194
        46.300          44.800
  -2062385.987 3  -1607051.575 2  25248187.020    25248186.088    25248186.542
        19.900          17.800
   1762330.276 2   1373248.517 1  25517490.564    25517491.145    25517491.366
        12.600           9.000
  -2994991.736 3  -2333759.095 3  24968845.217    24968846.804    24968845.545
        18.600          18.600
 -16748686.116 5 -13050919.278 4  22259199.574    22259200.834    22259200.092
        33.800          28.600
 -10819681.737 4  -8430918.007 3  23905712.503    23905712.548    23905713.232
        25.600          19.300
 -10751906.774 4  -8378104.096 4  23473725.597    23473728.994    23473726.383
        24.900          27.900
 -15852662.956 5 -12352719.875 4  22649740.207    22649740.169    22649739.647
        32.800          28.100
 13 10  7  1 41  0.0000000  0 12G 5G28G15G21G26G19G 7G17G 9G18G24G 8
  -8741035.054 4  -6811187.719 4  24022389.697    24022391.045    24022390.523
        26.200          24.900
 -19696534.515 6 -15347943.717 6  21475381.230    21475380.878    21475381.365
        41.100          38.400
 -24194394.136 7 -18852767.734 6  21037443.765    21037443.987    21037444.708
        42.700          41.500
  -4737269.777 1  -3691378.706    25458907.586    25458907.933    25458907.125
         9.000           3.000
 -28412025.311 7 -22139231.793 7  19988652.171    19988652.892    19988652.469
        46.100          44.900
  -2003445.646 2  -1561124.083 2  25259403.297    25259401.686    25259402.865
        16.100          15.100
   1864750.878 1   1453056.837 1  25536981.139    25536981.933    25536981.714
         6.500           6.500
  -3089133.599 3  -2407116.379 2  24950930.649    24950931.602    24950930.594
        19.300          17.000
 -16650946.797 5 -12974758.789 4  22277798.899    22277800.158    22277799.004
        33.600          28.800
 -10889224.953 4  -8485107.546 3  23892478.787    23892478.584    23892479.065
        25.900          18.600
 -10847392.365 4  -8452508.399 4  23455555.627    23455558.533    23455555.938
        24.600          27.100
 -15769030.211 5 -12287551.533 4  22665653.648    22665655.029    22665653.704
        32.300          28.100
 13 10  7  1 41 30.0000000  0 12G 5G28G15G21G26G19G 7G17G 9G18G24G 8
  -8631297.448 4  -6725677.927 4  24043272.456    24043273.676    24043272.971
        25.900          24.900
 -19668836.028 6 -15326360.469 6  21480651.952    21480651.488    21480652.011
        40.600          38.500
 -24245326.000 7 -18892454.897 6  21027752.056    21027751.938    21027752.705
        42.800          41.700
  -4686053.597    -3651470.066 9  25468652.561    25468653.330    25468652.279
                        -3.000
 -28368577.780 7 -22105376.591 7  19996919.534    19996920.627    19996920.203
        46.000          44.700
  -1944015.993 2  -1514815.288 2  25270713.211    25270710.979    25270712.094
        17.000          16.100
   1967172.590 9   1532865.932 1  25556470.675    25556472.637    25556472.452
        -3.000           6.500
  -3183192.051 3  -2480408.670 3  24933031.987    24933032.405    24933032.987
        19.300          18.600
 -16552995.970 5 -12898433.477 4  22296438.756    22296439.054    22296438.852
        33.800          27.400
 -10958379.548 4  -8538994.222 2  23879320.455    23879319.348    23879320.013
        24.900          17.800
 -10942720.849 4  -8526790.287 4  23437415.134    23437418.086    23437415.346
        24.900          27.400
 -15685202.946 5 -12222231.600 4  22681605.531    22681606.884    22681605.606
        33.500          27.600
 13 10  7  1 42  0.0000000  0 11G 5G28G15G21G26G19G17G 9G18G24G 8
  -8521440.601 4  -6640075.217 4  24064177.733    24064178.832    24064178.390
        26.800          24.600
 -19640642.479 6 -15304391.457 6  21486016.999    21486016.587    21486017.068
        40.600          38.300
 -24295842.587 7 -18931818.469 6  21018138.908    21018138.981    21018139.737
        42.700          41.700
  -4634509.509 1  -3611305.827 2  25478462.837    25478462.291    25478461.885
         6.500          12.600
 -28324603.859 7 -22071111.211 7  20005287.705    20005288.545    20005288.281
        46.200          44.600
  -1884099.159 2  -1468126.880 2  25282115.012    25282113.772    25282114.332
        17.000          17.800
  -3277163.993 3  -2553633.550 2  24915150.887    24915150.758    24915150.628
        20.500          17.800
 -16454835.545 5 -12821944.846 4  22315117.946    22315118.870    22315118.005
        32.400          27.600
 -11027143.111 4  -8592576.228 3  23866234.688    23866233.165    23866234.961
        26.500          18.600
 -11037891.668 4  -8600949.334 4  23419304.220    23419307.676    23419305.215
        24.900          27.100
 -15601182.428 5 -12156761.075 4  22697593.944    22697595.432    22697594.199
        32.400          28.100
 13 10  7  1 42 30.0000000  0 11G 5G28G15G21G26G19G17G 9G18G24G 8
  -8411467.475 4  -6554381.893 4  24085105.220    24085106.071    24085105.600
        26.200          24.200
 -19611954.882 6 -15282037.487 6  21491476.526    21491475.855    21491476.362
        41.100          38.100
 -24345942.012 7 -18970856.974 6  21008605.386    21008605.382    21008606.123
        42.900          41.800
  -4582639.517 1  -3570887.705 1  25488333.477    25488332.454    25488331.623
         9.000           9.000
 -28280104.437 7 -22036436.347 7  20013755.898    20013756.614    20013756.233
        46.100          44.600
  -1823697.517 3  -1421060.708 2  25293609.424    25293606.498    25293608.340
        19.900          12.600
  -3371047.000 2  -2626789.123 3  24897284.655    24897285.744    24897285.071
        17.000          18.600
 -16356467.047 5 -12745294.092 4  22333837.489    22333837.972    22333837.389
        33.600          28.100
 -11095513.780 4  -8645852.075 2  23853223.736    23853223.423    23853223.650
        25.300          17.000
 -11132903.813 4  -8674984.736 4  23401224.094    23401227.605    23401224.826
        24.200          27.900
 -15516969.869 5 -12091140.924 4  22713619.690    22713620.543    22713619.304
        32.600          27.600
 13 10  7  1 43  0.0000000  0 11G 5G28G15G21G26G19G17G 9G18G24G 8
  -8301379.962 4  -6468599.440 4  24106053.417    24106055.004    24106054.608
        25.300          24.200
 -19582774.764 6 -15259299.723 6  21497028.929    21497028.650    21497028.927
        40.900          38.100
 -24395622.585 7 -19009569.108 6  20999151.266    20999151.429    20999152.056
        42.700          41.900
  -4530446.014 2  -3530217.451 1  25498264.952    25498264.311    25498265.867
        15.100          11.000
 -28235080.302 7 -22001352.617 7  20022323.780    20022324.513    20022324.153
        46.100          44.800
  -1762813.078 2  -1373618.322 2  25305194.411    25305192.126    25305193.955
        17.800          15.100
  -3464837.863 2  -2699872.900 3  24879435.589    24879438.042    24879436.604
        17.000          22.100
 -16257892.230 5 -12668482.553 4  22352595.662    22352596.158    22352595.491
        33.800          27.900
 -11163489.467 4  -8698820.122 3  23840288.077    23840287.913    23840288.349
        26.800          21.100
 -11227755.967 4  -8748895.457 4  23383174.119    23383177.484    23383175.237
        25.900          27.900
 -15432566.705 5 -12025372.244 4  22729681.424    22729681.918    22729681.008
        32.700          27.900
 13 10  7  1 43 30.0000000  0 11G 5G28G15G21G26G19G17G 9G18G24G 8
  -8191180.715 4  -6382729.927 4  24127024.009    24127025.361    24127024.429
        24.900          24.600
 -19553103.056 6 -15236178.902 6  21502675.145    21502674.863    21502675.341
        41.100          38.300
 -24444882.668 7 -19047953.586 7  20989776.864    20989777.583    20989778.222
        42.700          42.100
  -4477931.261 1  -3489296.929 1  25508257.911    25508256.828    25508257.615
        11.000           9.000
 -28189532.348 7 -21965860.719 7  20030990.925    20030991.843    20030991.474
        46.000          44.400
  -1701447.875 3  -1325801.336 2  25316872.383    25316869.716    25316872.007
        20.500          12.600
  -3558533.677 3  -2772882.578 3  24861606.416    24861608.152    24861606.848
        18.600          21.600
 -16159112.775 5 -12591511.566 4  22371391.941    22371393.129    22371392.039
        32.400          27.900
 -11231068.100 4  -8751478.795 3  23827428.290    23827427.335    23827428.574
        25.600          18.600
 -11322447.245 4  -8822680.846 4  23365155.238    23365158.571    23365155.924
        24.200          27.600
 -15347974.299 5 -11959456.095 4  22745778.830    22745779.446    22745778.483
        33.100          27.100
 13 10  7  1 44  0.0000000  0 11G 5G28G15G21G26G19G17G 9G18G24G 8
  -8080873.411 4  -6296776.203 4  24148014.885    24148016.179    24148015.199
        25.600          24.900
 -19522941.351 6 -15212676.276 6  21508415.224    21508414.540    21508415.046
        41.000          38.400
 -24493720.867 7 -19086009.325 7  20980483.981    20980483.996    20980484.609
        42.800          42.000
  -4425097.455 1  -3448127.707 2  25518311.120    25518312.445    25518310.319
         9.000          12.600
 -28143461.475 7 -21929961.354 7  20039758.099    20039758.911    20039758.391
        45.900          44.500
  -1639603.987 2  -1277611.346 2  25328640.248    25328638.826    25328640.381
        17.800          16.100
  -3652131.708 3  -2845816.078 3  24843796.381    24843796.442    24843796.564
        21.600          21.600
 -16060130.425 5 -12514382.487 4  22390228.127    22390228.790    22390228.071
        33.400          27.100
 -11298247.483 4  -8803826.377 3  23814645.599    23814644.316    23814645.419
        25.300          19.900
 -11416976.628 4  -8896340.060 4  23347166.755    23347169.664    23347167.309
        24.600          27.400
 -15263193.941 5 -11893393.493 4  22761911.431    22761912.496    22761911.272
        32.100          27.400
 13 10  7  1 44 30.0000000  0 11G 5G28G15G21G26G19G17G 9G18G24G 8
  -7970460.280 4  -6210740.029 4  24169026.466    24169027.179    24169026.570
        25.600          24.200
 -19492291.177 6 -15188793.016 6  21514247.079    21514247.050    21514247.238
        40.800          38.200
 -24542135.388 7 -19123734.923 7  20971270.928    20971271.042    20971271.699
        43.000          42.200
  -4371946.942 1  -3406711.809 1  25528426.982    25528426.185    25528426.169
        11.000           9.000
 -28096868.582 7 -21893655.216 7  20048624.613    20048625.369    20048625.020
        46.100          44.600
  -1577283.681 3  -1229050.138 2  25340498.681    25340497.955    25340499.034
        18.600          12.600
  -3745629.044 3  -2918671.120 3  24826003.288    24826004.364    24826004.176
        20.500          21.600
 -15960947.138 5 -12437096.811 4  22409102.137    22409102.658    22409102.178
        32.700          27.400
 -11365025.766 4  -8855861.379 3  23801938.838    23801937.085    23801937.992
        26.200          19.300
 -11511343.093 4  -8969872.347 4  23329209.582    23329212.730    23329210.297
        26.500          28.400
 -15178226.721 5 -11827185.291 4  22778080.426    22778081.249    22778080.326
        31.600          26.800
 13 10  7  1 45  0.0000000  0 11G 5G28G15G21G26G19G17G 9G18G24G 8
  -7859943.774 4  -6124623.299 4  24190056.132    24190057.173    24190056.766
        24.900          24.200
 -19461153.136 6 -15164529.600 6  21520172.661    21520172.388    21520172.752
        40.900          38.100
 -24590124.835 7 -19161129.290 7  20962138.897    20962138.986    20962139.620
        43.100          42.400
  -4318481.936    -3365050.768 9  25538601.162    25538599.884    25538600.978
         3.000          -3.000
 -28049754.565 7 -21856943.013 7  20057589.856    20057590.861    20057590.335
        45.800          44.500
  -1514489.004 3  -1180119.259 2  25352449.510    25352447.207    25352448.653
        19.900          15.100
  -3839022.709 3  -2991445.391 2  24808232.304    24808231.745    24808232.410
        23.000          17.800
 -15861564.525 5 -12359655.831 4  22428013.255    22428014.603    22428013.724
        32.400          27.100
 -11431400.768 4  -8907582.157 3  23789306.892    23789305.774    23789306.679
        25.900          21.100
 -11605545.893 4  -9043277.082 4  23311283.287    23311286.473    23311283.830
        25.900          28.400
 -15093074.060 5 -11760832.580 4  22794285.245    22794285.149    22794284.824
        32.600          27.100
 13 10  7  1 45 30.0000000  0 11G 5G28G15G21G26G19G17G 9G18G24G 8
  -7749326.780 3  -6038428.249 4  24211105.657    24211106.970    24211106.443
        23.800          24.600
 -19429528.739 6 -15139887.206 6  21526191.127    21526190.245    21526191.057
        41.200          37.800
 -24637687.443 7 -19198191.062 7  20953087.879    20953088.120    20953088.797
        43.100          42.400
  -4264704.760 1  -3323146.546 9  25548833.047    25548833.432    25548831.862
        11.000          -3.000
 -28002120.362 7 -21819825.470 7  20066654.393    20066655.283    20066654.860
        46.000          44.300
  -1451222.555 2  -1130820.749 2  25364488.887    25364486.645    25364488.379
        17.800          17.000
  -3932309.500 3  -3064136.402 3  24790479.788    24790480.342    24790480.490
        22.600          20.500
 -15761984.238 5 -12282060.814 4  22446962.713    22446964.005    22446963.436
        32.600          27.100
 -11497370.841 4  -8958987.390 3  23776753.218    23776752.457    23776752.927
        26.200          19.300
 -11699583.612 4  -9116553.195 4  23293388.846    23293391.436    23293388.896
        25.300          28.800
 -15007737.063 5 -11694336.219 4  22810523.544    22810524.317    22810523.416
        32.100          26.500
 13 10  7  1 46  0.0000000  0 11G 5G28G15G21G26G19G17G 9G18G24G 8
  -7638612.370 3  -5952157.315 4  24232172.809    24232175.197    24232174.434
        23.400          24.200
 -19397419.648 6 -15114867.133 6  21532300.965    21532300.412    21532300.916
        40.900          37.700
 -24684821.545 7 -19234918.928 7  20944118.585    20944118.724    20944119.348
        43.100          42.500
  -4210617.746 1  -3281000.900 1  25559125.158    25559126.756    25559124.610
         9.000           9.000
 -27953966.845 7 -21782303.260 7  20075817.847    20075818.519    20075818.145
        45.900          44.200
  -1387486.154 3  -1081156.032 2  25376617.669    25376614.903    25376616.984
        19.300          12.600
  -4025487.323 3  -3136742.468 3  24772747.851    24772749.586    24772748.787
        22.600          20.500
 -15662207.954 5 -12204313.076 4  22465949.827    22465951.000    22465950.245
        32.400          26.500
 -11562933.559 4  -9010075.247 3  23764277.052    23764276.353    23764277.118
        26.200          21.100
 -11793455.624 4  -9189700.173 4  23275525.206    23275528.276    23275525.710
        25.900          28.100
 -14922217.099 5 -11627697.307 4  22826796.858    22826798.330    22826796.976
        32.000          27.600
 13 10  7  1 46 30.0000000  0 11G 5G28G15G21G26G19G17G 9G18G24G 8
  -7527802.942 3  -5865812.333 3  24253259.813    24253261.461    24253260.959
        23.800          22.600
 -19364827.130 6 -15089470.359 6  21538502.693    21538502.544    21538502.830
        40.900          37.800
 -24731525.741 7 -19271311.804 7  20935231.134    20935231.153    20935231.708
        42.900          42.500
  -4156222.904 1  -3238615.330 9  25569476.955    25569476.806    25569477.005
         9.000          -3.000
 -27905295.006 7 -21744377.178 7  20085079.370    20085080.634    20085079.945
        45.700          44.100
  -1323281.892 2  -1031126.788 2  25388835.173    25388832.586    25388834.198
        16.100          16.100
  -4118552.713 3  -3209260.923 3  24755038.465    24755040.168    24755038.504
        21.100          23.000
 -15562237.232 5 -12126413.825 4  22484973.758    22484974.736    22484974.101
        32.000          27.400
 -11628087.113 4  -9060844.226 3  23751877.665    23751877.647    23751878.049
        25.300          18.600
 -11887160.652 4  -9262717.052 4  23257693.767    23257696.469    23257694.277
        26.800          28.600
 -14836515.562 5 -11560916.906 4  22843105.553    22843106.794    22843105.484
        31.600          27.400
 13 10  7  1 47  0.0000000  0 11G 5G28G15G21G26G19G17G 9G18G24G 8
  -7416901.189 4  -5779395.399 4  24274364.055    24274365.892    24274365.099
        24.600          24.200
 -19331752.406 6 -15063697.841 6  21544797.160    21544796.543    21544797.004
        40.600          37.900
 -24777798.169 7 -19307368.237 7  20926425.851    20926425.771    20926426.500
        43.100          42.500
  -4101522.774 1  -3195991.890 9  25579888.138    25579886.773    25579886.525
         9.000          -3.000
 -27856105.850 7 -21706047.981 7  20094440.372    20094440.987    20094440.627
        46.000          44.200
  -1258612.074 2   -980734.761 2  25401142.328    25401139.262    25401140.544
        16.100          12.600
  -4211502.647 3  -3281689.406 3  24737350.559    24737352.198    24737351.431
        19.900          20.500
 -15462073.894 5 -12048364.489 4  22504034.136    22504035.193    22504034.381
        32.300          26.800
 -11692829.190 4  -9111292.603 3  23739558.556    23739557.847    23739558.767
        27.100          19.300
 -11980697.490 4  -9335602.875 4  23239894.529    23239896.872    23239894.851
        27.600          28.100
 -14750633.803 5 -11493996.072 4  22859448.491    22859449.338    22859448.549
        31.100          27.100
 13 10  7  1 47 30.0000000  0 11G 5G28G15G21G26G19G17G 9G18G24G 8
  -7305909.472 3  -5692908.362 4  24295485.070    24295486.875    24295486.287
        23.000          24.600
 -19298197.303 6 -15037551.004 6  21551182.418    21551181.915    21551182.281
        40.700          38.000
 -24823637.287 7 -19343087.029 7  20917702.726    20917702.882    20917703.693
        43.200          42.400
  -4046519.578 1  -3153132.274 1  25590354.118    25590353.382    25590352.869
         9.000          11.000
 -27806400.342 7 -21667316.428 7  20103899.094    20103899.479    20103899.296
        45.900          44.000
  -1193479.145 2   -929981.903 2  25413535.947    25413533.320    25413535.191
        13.900          17.000
  -4304334.496 3  -3354025.882 3  24719686.029    24719686.514    24719686.293
        18.600          21.600
 -15361719.652 5 -11970166.388 4  22523131.159    22523132.012    22523131.268
        31.600          26.500
 -11757157.823 4  -9161418.805 3  23727316.398    23727316.377    23727316.630
        27.100          19.900
 -12074065.545 4  -9408357.171 4  23222126.344    23222129.927    23222127.189
        26.200          28.400
 -14664572.651 5 -11426935.446 4  22875825.607    22875826.181    22875825.591
        31.800          26.500
 13 10  7  1 48  0.0000000  0 10G 5G28G15G26G19G17G 9G18G24G 8
  -7194830.834 4  -5606353.602 3  24316623.785    24316624.210    24316623.961
        25.300          22.600
 -19264162.956 6 -15011030.725 6  21557658.713    21557658.352    21557658.806
        41.000          37.700
 -24869041.771 7 -19378467.144 7  20909062.402    20909062.760    20909063.479
        43.300          42.700
 -27756179.500 7 -21628183.324 7  20113455.464    20113456.454    20113455.862
        45.800          44.100
  -1127885.261 2   -878869.853 2  25426017.456    25426016.022    25426016.873
        15.100          15.100
  -4397045.217 2  -3426267.989 3  24702043.247    24702043.916    24702043.714
        17.000          20.500
 -15261175.967 5 -11891820.688 4  22542263.356    22542265.078    22542263.880
        31.800          27.100
 -11821070.882 4  -9211221.173 3  23715155.653    23715153.949    23715155.376
        26.500          19.900
 -12167263.618 4  -9480979.007 4  23204391.118    23204395.073    23204392.276
        26.500          28.600
 -14578333.770 5 -11359736.333 4  22892236.145    22892237.149    22892236.066
        31.300          26.500
 13 10  7  1 48 30.0000000  0 10G 5G28G15G26G19G17G 9G18G24G 8
  -7083667.846 3  -5519733.097 3  24337777.327    24337778.001    24337777.173
        22.600          23.000
 -19229650.696 6 -14984138.050 6  21564226.407    21564225.666    21564226.365
        40.800          37.600
 -24914009.960 7 -19413507.288 7  20900505.312    20900505.538    20900506.198
        43.100          42.800
 -27705444.243 7 -21588649.376 7  20123110.168    20123111.012    20123110.665
        46.000          44.000
  -1061832.834 2   -827400.521 2  25438587.268    25438585.388    25438586.513
        17.000          12.600
  -4489632.032 3  -3498413.511 3  24684423.501    24684425.988    24684424.250
        20.500          21.100
 -15160444.429 5 -11813328.598 4  22561432.208    22561433.573    22561432.732
        31.600          25.600
 -11884566.525 4  -9260698.305 3  23703073.020    23703071.516    23703072.601
        27.100          20.500
 -12260290.887 4  -9553467.746 4  23186688.849    23186692.213    23186690.141
        26.800          29.000
 -14491918.126 5 -11292399.474 4  22908680.207    22908681.635    22908680.411
        30.800          26.800
