     2.11           OBSERVATION DATA    G (GPS)             RINEX VERSION / TYPE
teqc  2019Feb25     Salamtina Y.M.      20230920 03:20:34UTCPGM / RUN BY / DATE
OBSERVATION MODE: Permanent                                 COMMENT
CHUM Chumysh (CHUM)                                         MARKER NAME
25601M001                                                   MARKER NUMBER
4549261325          TRIMBLE NETRS        1.3-2              REC # / TYPE / VERS
237                 AOAD/M_T        NONE                    ANT # / TYPE
        0.0900        0.0000        0.0000                  ANTENNA: DELTA H/E/N
  1228950.3076  4508080.0132  4327868.5436                  APPROX POSITION XYZ
  74.75110460  42.99850160  716.3386  LonLatAlt  S/W        COMMENT
ANT ADDED FROM RCV_ANT.txt                                  COMMENT
Linux 2.6.32-573.12.1.x86_64|x86_64|gcc|Linux 64|=+         COMMENT
BIT 2 OF LLI FLAGS DATA COLLECTED UNDER A/S CONDITION       COMMENT
Konovalov S.M.      RS_RAS                                  OBSERVER / AGENCY
     1     1                                                WAVELENGTH FACT L1/2
     7    L1    L2    C1    P1    P2    S1    S2            # / TYPES OF OBSERV
    30.0000                                                 INTERVAL
    18                                                      LEAP SECONDS
TIME: 2023.01.09                                            COMMENT
TOUR: cont                                                  COMMENT
RSET: RAS02                                                 COMMENT
ASET: DS24                                                  COMMENT
OPER: skon (Konovalov S.M.)                                 COMMENT
SOUR: chum202301090000d.dat                                 COMMENT
SUPP: chum202301090000d.eph                                 COMMENT
SUPP: chum202301090000d.ion                                 COMMENT
SUPP: chum202301090000d.mes                                 COMMENT
Forced Modulo Decimation to 30 seconds                      COMMENT
 SNR is mapped to RINEX snr flag value [0-9]                COMMENT
  L1 & L2: min(max(int(snr_dBHz/6), 0), 9)                  COMMENT
  2023     1     9     0     0    0.0000000     GPS         TIME OF FIRST OBS
  2023     1     9    23    59   30.0000000     GPS         TIME OF LAST OBS
                                                            END OF HEADER
 23  1  9  0  0  0.0000000  0 11G27G23G08G22G24G21G10G18G31G01G32
  -9519450.63046  -7122122.14345  23807070.8364                   23807063.4064
        36.2504         34.0004
 -11956988.80547 -11712906.11046  21768427.4304                   21768416.4264
        45.5004         37.7504
  -9809247.52447  -7598973.17446  23621572.9614                   23621564.7704
        43.5004         38.5004
 -16263257.28747  -8407372.89545  22105155.8914                   22105144.6524
        44.7504         31.2504
 -12734325.27846 -10525438.28846  22696770.8134                   22696761.2154
        40.0004         41.0004
 -10042293.50646  -7307903.57044  23734338.0864                   23734326.1454
        41.0004         26.0004
 -27650830.34549 -21435072.32849  20520383.0784                   20520373.5984
        54.0004         55.0004
 -11542395.51246  -8531118.74344  24092388.8674                   24092377.9224
        38.5004         24.0004
  -2178932.34645  -1638871.28445  25061847.3204                   25061836.9024
        34.0004         31.5004
   -908708.95255   -565733.79353  25304619.8914                   25304609.8834
        32.2504         18.2504
 -24433187.27148 -20383244.17349  20690651.7274                   20690642.5984
        51.7504         54.7504
 23  1  9  0  0 30.0000000  0 11G27G23G08G22G24G21G10G18G31G01G32
  -9433665.56546  -7055276.68545  23823396.4614                   23823388.8554
        37.5004         34.0004
 -11895676.90647 -11665130.60246  21780094.8914                   21780084.0044
        45.2504         38.2504
  -9766730.11547  -7565842.74146  23629663.8594                   23629655.0234
        43.2504         38.0004
 -16336007.50147  -8464061.35645  22091311.1484                   22091300.0274
        44.5004         31.2504
 -12671879.40746 -10476779.16945  22708653.2424                   22708644.8164
        38.5004         34.0004
 -10118746.85346  -7367477.56944  23719789.4694                   23719777.6454
        41.5004         26.0004
 -27645233.03848 -21430710.79649  20521448.3284                   20521438.7304
        52.7504         54.7504
 -11429729.62646  -8443327.17344  24113828.1094                   24113817.3984
        39.0004         25.0004
  -2297617.22346  -1731352.98445  25039264.3284                   25039251.9184
        37.2504         30.5004
  -1021440.90815                  25283166.875
        30.000
 -24461697.49248 -20405459.91949  20685226.4694                   20685217.0474
        51.5004         54.7504
 23  1  9  0  1  0.0000000  0 11G27G23G08G22G24G21G10G18G31G01G32
  -9347669.34546  -6988266.66645  23839760.5864                   23839752.9224
        37.7504         34.0004
 -11834127.32947 -11617169.89546  21791807.2504                   21791796.5984
        45.0004         37.5004
  -9723759.40847  -7532359.09746  23637840.4454                   23637832.3714
        42.7504         37.7504
 -16408452.66247  -8520512.10545  22077525.5634                   22077515.0274
        44.5004         30.0004
 -12608897.98346 -10427702.74544  22720639.0234                   22720629.8364
        40.0004         29.7504
 -10194959.31747  -7426863.91144  23705287.1884                   23705274.6024
        42.0004         27.0004
 -27639344.62248 -21426122.42049  20522568.6484                   20522559.5204
        53.0004         54.7504
 -11316927.15146  -8355429.10744  24135292.9534                   24135283.0044
        39.2504         24.5004
  -2416366.17545  -1823884.70445  25016664.9774                   25016654.5594
        33.7504         30.2504
  -1134097.36545   -647171.17852  25261729.2734                   25261720.4384
        32.7504         17.2504
 -24489793.00048 -20427352.50549  20679880.2114                   20679870.9064
        51.2504         54.7504
 23  1  9  0  1 30.0000000  0 11G27G23G08G22G24G21G10G18G31G01G32
  -9261462.70546  -6921092.68445  23856166.1334                   23856157.3554
        37.7504         34.5004
 -11772338.12947 -11569022.47746  21803564.9534                   21803554.4184
        45.2504         37.7504
  -9680335.90947  -7498522.64046  23646104.1484                   23646095.8404
        43.7504         38.2504
 -16480589.79447  -8576722.84245  22063797.1484                   22063786.9064
        44.2504         30.7504
 -12545381.01546 -10378208.99245  22732724.8754                   22732716.3914
        39.2504         30.0004
 -10270927.01847  -7486059.50344  23690830.9304                   23690818.2854
        42.5004         26.0004
 -27633162.09248 -21421304.86449  20523745.1024                   20523736.0904
        52.2504         54.7504
 -11203987.85046  -8267424.47044  24156785.3594                   24156774.2974
        39.5004         24.0004
  -2535174.37946  -1916462.52445  24994058.3284                   24994046.2114
        36.7504         31.5004
                                  25240306.3054                   25240299.6954
        28.0004         15.5004
 -24517471.71848 -20448920.32449  20674612.6804                   20674603.4924
        51.2504         55.0004
 23  1  9  0  2  0.0000000  0 11G27G23G08G22G24G21G10G18G31G01G32
  -9175052.54046  -6853760.10445  23872608.7814                   23872600.5904
        37.5004         34.5004
 -11710313.15847 -11520691.33446  21815368.9534                   21815358.0084
        46.0004         37.0004
  -9636465.47347  -7464337.89346  23654452.6334                   23654444.1484
        43.2504         38.2504
 -16552421.51847  -8632695.58645  22050129.2344                   22050118.3484
        44.5004         31.2504
 -12481334.31946 -10328302.46944  22744912.0784                   22744904.2974
        38.0004         29.7504
 -10346651.17647  -7545065.30944  23676422.5704                   23676409.5744
        43.0004         27.0004
 -27626688.83048 -21416260.75949  20524976.9064                   20524968.0704
        52.5004         54.7504
 -11090917.54846  -8179317.73044  24178301.5234                   24178291.1644
        39.2504         24.5004
  -2654042.62846  -2009087.17545  24971438.9694                   24971426.7344
        36.2504         32.5004
  -1359180.11755   -794142.19853  25218899.2974                   25218890.0514
        32.5004         19.2504
 -24544737.50148 -20470166.37749  20669424.7034                   20669415.3404
        51.5004         54.7504
 23  1  9  0  2 30.0000000  0 10G27G23G08G22G24G21G10G18G31G32
  -9088437.89946  -6786268.20845  23889090.3754                   23889082.8874
        37.5004         34.0004
 -11648048.71447 -11472173.58846  21827217.0004                   21827206.2894
        45.0004         37.2504
  -9592145.70847  -7429803.04246  23662886.5704                   23662878.8484
        43.0004         38.2504
 -16623943.29747  -8688426.81945  22036518.9694                   22036508.3754
        44.0004         31.5004
 -12416756.08146 -10277981.76844  22757201.1094                   22757193.0354
        38.2504         29.5004
 -10422126.14546  -7603876.97144  23662057.6414                   23662045.4654
        40.7504         26.2504
 -27619920.31848 -21410986.60249  20526265.0784                   20526255.8324
        52.2504         54.7504
 -10977714.55046  -8091107.58943  24199842.8284                   24199833.0554
        38.5004         22.7504
  -2772964.76046  -2101753.79645  24948810.2894                   24948796.5314
        37.5004         32.0004
 -24571586.60448 -20491087.73949  20664315.3524                   20664305.8134
        51.7504         55.0004
 23  1  9  0  3  0.0000000  0 11G27G23G08G22G24G21G10G18G31G01G32
  -9001625.58946  -6718622.27445  23905612.8444                   23905603.0704
        39.0004         34.7504
 -11585548.64847 -11423472.24746  21839110.0704                   21839099.4184
        44.7504         37.2504
  -9547382.82447  -7394922.90946  23671403.8054                   23671395.8484
        42.0004         37.2504
 -16695157.85547  -8743918.66545  22022967.9384                   22022956.7584
        44.5004         30.7504
 -12351652.26646 -10227251.51244  22769591.4304                   22769581.8324
        39.7504         28.5004
 -10497353.77347  -7662495.89444  23647743.6954                   23647730.5824
        42.5004         28.0004
 -27612859.33248 -21405484.53749  20527608.4694                   20527599.0474
        51.5004         55.0004
 -10864384.41046  -8002798.38243  24221408.2814                   24221398.8014
        38.0004         22.5004
  -2891941.16845  -2194462.76345  24926165.1094                   24926156.4494
        33.0004         31.5004
  -1583926.27655   -867869.84252  25176132.3284                   25176124.4884
        31.7504         17.2504
 -24598022.78848 -20511687.35249  20659284.5864                   20659275.1644
        51.5004         54.7504
 23  1  9  0  3 30.0000000  0 11G27G23G08G22G24G21G10G18G31G01G32
  -8914616.11146  -6650822.71445  23922168.6094                   23922160.2424
        37.0004         33.7504
 -11522810.61847 -11374585.50046  21851048.4924                   21851038.0164
        44.5004         36.7504
  -9502176.52047  -7359697.23746  23680006.4304                   23679997.8284
        42.0004         37.0004
 -16766061.93847  -8799168.58145  22009474.6884                   22009463.9184
        44.5004         31.2504
 -12286022.53546 -10176111.46244  22782078.0164                   22782070.7034
        37.5004         29.5004
 -10572328.83546  -7720918.02144  23633475.4064                   23633464.1684
        41.5004         26.5004
 -27605503.25748 -21399752.52749  20529008.1954                   20528999.1844
        52.0004         54.7504
 -10750926.80346  -7914389.88143  24242999.3674                   24242989.7114
        39.5004         22.7504
  -3010966.69745  -2287209.98445  24903518.1954                   24903506.6644
        35.5004         31.7504
  -1696167.60355   -955330.62352  25154773.0864                   25154766.1254
        32.0004         16.7504
 -24624043.73848 -20531963.40649  20654333.0784                   20654323.2464
        51.5004         54.7504
 23  1  9  0  4  0.0000000  0 10G27G23G08G22G24G21G10G18G31G32
  -8827412.45546  -6582871.81645  23938764.6724                   23938754.8404
        38.5004         34.2504
 -11459834.66047 -11325513.32946  21863033.1094                   21863022.5744
        45.2504         36.7504
  -9456528.77247  -7324127.58446  23688693.0784                   23688684.4774
        42.2504         37.5004
 -16836654.68747  -8854175.89945  21996041.2274                   21996030.8094
        44.2504         31.2504
 -12219868.98246 -10124563.24044  22794669.3284                   22794659.3794
        39.7504         29.2504
 -10647049.58346  -7779141.93144  23619256.5234                   23619243.8794
        41.5004         26.2504
 -27597850.87248 -21393789.63349  20530464.5704                   20530455.5594
        51.5004         55.0004
 -10637343.66946  -7825883.52744  24264614.4144                   24264603.6454
        39.5004         24.7504
  -3130038.65346  -2379993.32545  24880859.7894                   24880847.4964
        37.2504         32.5004
 -24649649.45648 -20551915.88849  20649460.3674                   20649451.1214
        51.5004         55.0004
 23  1  9  0  4 30.0000000  0 11G27G23G08G22G24G21G10G18G31G01G32
  -8740020.64746  -6514774.31345  23955394.3364                   23955385.3244
        38.0004         34.0004
 -11396624.06147 -11276258.31946  21875061.4454                   21875050.7934
        44.7504         37.0004
  -9410444.79447  -7288218.00546  23697462.9454                   23697454.6374
        42.0004         36.5004
 -16906938.08447  -8908942.15445  21982666.7344                   21982656.1994
        43.5004         31.0004
 -12153196.82746 -10072610.88944  22807354.5234                   22807346.5664
        38.0004         28.5004
 -10721516.67447  -7837168.26344  23605087.3054                   23605074.6604
        42.5004         27.0004
 -27589904.96648 -21387598.02449  20531976.8444                   20531967.5984
        53.7504         54.7504
 -10523639.98146  -7737283.25544  24286250.1564                   24286240.4414
        38.5004         24.2504
  -3249157.16045  -2472812.98245  24858190.3204                   24858179.9614
        35.2504         32.5004
                                  25112108.1484                   25112099.6644
        31.2504         16.2504
 -24674843.11148 -20571547.28849  20644666.2734                   20644656.7934
        52.0004         54.7504
 23  1  9  0  5  0.0000000  0 11G27G23G08G22G24G21G10G18G31G01G32
  -8652441.18046  -6446530.60445  23972058.0164                   23972050.6454
        36.2504         34.0004
 -11333176.32747 -11226818.54346  21887134.6954                   21887124.2774
        44.5004         36.7504
  -9363923.71646  -7251967.82846  23706315.0554                   23706308.1524
        41.5004         36.5004
 -16976908.87047  -8963464.80745  21969352.0394                   21969341.0354
        44.2504         32.2504
 -12086005.67146 -10020254.16444  22820141.7274                   22820132.4224
        38.7504         28.0004
 -10795725.87346  -7894993.57644  23590963.6804                   23590953.2624
        40.7504         26.5004
 -27581662.33648 -21381175.18949  20533545.6094                   20533536.0124
        52.5004         54.7504
 -10409815.40046  -7648588.76043  24307910.7114                   24307900.8204
        39.0004         23.0004
  -3368316.58645  -2565664.57745  24835516.9454                   24835505.2384
        35.7504         32.7504
                                  25090800.3054                   25090794.5164
        32.5004         17.2504
 -24699622.37848 -20590855.79049  20639950.9454                   20639941.5824
        51.5004         54.7504
 23  1  9  0  5 30.0000000  0 11G27G23G08G22G24G21G10G18G31G01G32
  -8564678.48246  -6378144.10545  23988759.6094                   23988751.1844
        37.0004         34.2504
 -11269493.10347 -11177195.27246  21899254.1094                   21899243.2234
        44.7504         36.5004
  -9316969.45346  -7215380.14546  23715250.0084                   23715243.5164
        41.0004         36.7504
 -17046567.63847  -9017744.35545  21956095.9924                   21956085.5164
        44.0004         30.7504
 -12018299.25846  -9967495.91044  22833025.2424                   22833016.5234
        38.0004         28.0004
 -10869676.37846  -7952617.33844  23576893.0234                   23576879.6764
        41.7504         27.2504
 -27573123.68548 -21374521.69849  20535170.2114                   20535160.7894
        51.5004         54.7504
 -10295873.28646  -7559802.69943  24329594.4064                   24329583.9304
        39.2504         23.0004
  -3487515.99946  -2658547.27745  24812833.6024                   24812822.4804
        36.2504         32.2504
                                  25069514.1564                   25069506.7854
        30.2504         14.7504
 -24723988.78448 -20609842.59349  20635314.1884                   20635304.6484
        51.5004         55.0004
 23  1  9  0  6  0.0000000  0 11G27G23G08G22G24G21G10G18G31G01G32
  -8476735.31246  -6309616.97145  24005494.7734                   24005486.6414
        36.2504         33.5004
 -11205574.14747 -11127388.29846  21911418.1414                   21911406.4924
        45.2504         36.5004
  -9269583.70046  -7178456.20046  23724267.0474                   23724259.5004
        41.7504         36.5004
 -17115913.08847  -9071779.73745  21942900.7584                   21942889.3444
        44.7504         31.5004
 -11950079.47846  -9914337.62544  22846007.8444                   22845998.7734
        38.5004         27.0004
 -10943365.39346  -8010037.35144  23562869.8054                   23562858.2154
        41.0004         27.5004
 -27564287.86748 -21367636.64549  20536851.5314                   20536842.4614
        52.0004         54.7504
 -10181815.34146  -7470926.37443  24351298.2034                   24351287.4924
        39.5004         23.5004
  -3606751.99945  -2751458.50945  24790143.0704                   24790132.4774
        35.5004         32.2504
                                  25048243.9304                   25048238.1994
        29.5004         15.5004
 -24747942.14448 -20628507.53449  20630755.8204                   20630746.2814
        52.0004         55.0004
 23  1  9  0  6 30.0000000  0 11G27G23G08G22G24G21G10G18G31G01G32
  -8388616.55546  -6240953.05745  24022263.9534                   24022255.2344
        37.5004         32.5004
 -11141421.64647 -11077399.34646  21923624.5784                   21923614.1604
        44.2504         36.0004
  -9221771.05147  -7141199.60545  23733365.9454                   23733356.5824
        42.0004         35.7504
 -17184946.65047  -9125572.10845  21929763.4304                   21929752.3674
        44.2504         32.0004
 -11881350.48546  -9860782.56744  22859086.3594                   22859076.7624
        39.2504         28.2504
 -11016793.03646  -8067253.66344  23548896.4224                   23548885.0084
        41.5004         27.2504
 -27555156.68548 -21360521.43849  20538589.0474                   20538579.8014
        51.0004         54.7504
 -10067645.70046  -7381963.01543  24373022.9144                   24373014.0204
        38.7504         22.5004
  -3726023.62246  -2844397.50445  24767447.8204                   24767436.0554
        37.0004         33.5004
  -2367640.75755  -1421284.90452  25026997.0554                   25026987.5744
        31.2504         16.7504
 -24771484.62148 -20646852.30149  20626276.1334                   20626266.3014
        51.5004         54.7504
 23  1  9  0  7  0.0000000  0 10G27G23G08G22G24G21G10G18G31G32
  -8300320.23646  -6172150.73245  24039066.1564                   24039056.9694
        36.7504         32.5004
 -11077030.60347 -11027224.53346  21935878.1644                   21935867.5124
        45.0004         36.0004
  -9173528.23546  -7103607.79445  23742547.1254                   23742537.5274
        41.0004         35.7504
 -17253662.38047  -9179116.80345  21916687.3134                   21916676.9534
        44.5004         32.5004
 -11812109.47346  -9806828.50844  22872262.5394                   22872253.4104
        39.5004         28.5004
 -11089952.26946  -8124260.86444  23534974.3524                   23534962.4104
        41.2504         26.5004
 -27545723.96948 -21353171.26949  20540383.9144                   20540374.6684
        51.7504         55.0004
  -9953361.14546  -7292910.09243  24394772.2504                   24394761.1294
        39.2504         23.7504
  -3845323.07546  -2937358.13845  24744745.4454                   24744733.6214
        37.5004         33.2504
 -24794611.30248 -20664873.09449  20621874.9924                   20621865.4534
        52.0004         55.0004
 23  1  9  0  7 30.0000000  0 11G27G23G08G22G24G21G10G18G31G01G32
  -8211856.21046  -6103217.74845  24055900.1334                   24055891.5904
        36.5004         33.5004
 -11012408.14947 -10976869.36646  21948176.1414                   21948164.6684
        45.5004         36.5004
  -9124864.90746  -7065688.34446  23751806.4064                   23751799.7974
        41.5004         36.5004
 -17322065.87247  -9232418.20945  21903670.1174                   21903659.8164
        44.5004         31.7504
 -11742365.59046  -9752482.63444  22885533.8134                   22885525.0354
        37.7504         27.0004
 -11162847.81847  -8181062.56744  23521104.3134                   23521091.9614
        42.5004         27.2504
 -27535996.13548 -21345591.14449  20542235.0864                   20542225.8984
        50.7504         55.0004
  -9838970.77046  -7203774.72644  24416539.5944                   24416529.5274
        38.7504         25.0004
  -3964654.37046  -3030343.59445  24722038.0554                   24722025.9384
        37.5004         33.2504
  -2590636.40755  -1495656.31053  24984557.3754                   24984546.7814
        33.0004         19.0004
 -24817329.29948 -20682575.41249  20617551.9384                   20617542.1644
        51.5004         55.0004
 23  1  9  0  8  0.0000000  0 10G27G23G08G22G24G21G10G18G31G32
  -8123220.70546  -6034151.13445  24072766.8524                   24072757.4304
        37.0004         32.2504
 -10947547.57647 -10926328.67846  21960517.5634                   21960507.0864
        44.2504         36.0004
  -9075776.00646  -7027437.30346  23761147.9454                   23761141.6884
        41.0004         36.5004
 -17390150.16647  -9285470.88145  21890714.5314                   21890703.8204
        45.0004         32.7504
 -11672114.38846  -9697741.42344  22898902.1334                   22898893.2974
        38.5004         28.0004
 -11235470.92346  -8237651.99144  23507283.9064                   23507272.1994
        41.7504         28.5004
 -27525966.05648 -21337775.50249  20544143.7034                   20544134.7504
        51.5004         54.7504
  -9724469.67746  -7114553.09643  24438327.8134                   24438317.6884
        39.0004         22.7504
  -4084007.71346  -3123346.23345  24699324.8284                   24699314.2344
        37.5004         33.5004
 -24839631.95748 -20699954.09349  20613307.6334                   20613298.2704
        52.5004         55.0004
 23  1  9  0  8 30.0000000  0 11G27G23G08G22G24G21G10G18G31G01G32
  -8034423.72446  -5964958.70545  24089664.0944                   24089655.8444
        36.2504         32.0004
 -10882456.11747 -10875608.09046  21972904.3834                   21972893.8484
        45.0004         36.0004
  -9026270.82546  -6988861.85846  23770569.2894                   23770560.8634
        40.7504         36.0004
 -17457921.38747  -9338279.60545  21877818.3524                   21877807.4654
        45.5004         33.2504
 -11601365.16046  -9642612.16744  22912365.5864                   22912356.4574
        39.0004         26.5004
 -11307826.17447  -8294032.68344  23493515.2734                   23493502.3954
        42.0004         27.0004
 -27515639.76348 -21329729.04349  20546108.9384                   20546099.6914
        51.2504         54.7504
  -9609867.06546  -7025252.33944  24460135.2814                   24460126.2704
        38.0004         25.5004
  -4203387.37446  -3216369.38545  24676607.2814                   24676597.2154
        37.2504         34.0004
  -2813217.80215                  24942202.508
        32.500
 -24861526.62848 -20717014.84949  20609141.3594                   20609132.1724
        52.2504         54.7504
 23  1  9  0  9  0.0000000  0 11G27G23G08G22G24G21G10G18G31G01G32
  -7945463.37546  -5895638.98845  24106593.4144                   24106584.2274
        37.2504         32.2504
 -10817128.93547 -10824703.80745  21985336.1954                   21985325.1914
        45.2504         35.5004
  -8976346.87546  -6949960.07445  23780069.0944                   23780059.3794
        41.0004         34.7504
 -17525373.67447  -9390839.81445  21864982.2664                   21864971.9654
        45.2504         33.5004
 -11530115.25246  -9587092.74044  22925923.2504                   22925914.5904
        37.7504         26.2504
 -11379906.84647  -8350199.46144  23479799.5864                   23479786.6484
        42.7504         28.2504
 -27505011.93548 -21321447.62649  20548131.3054                   20548122.4104
        51.5004         54.7504
  -9495159.94146  -6935870.15743  24481964.5474                   24481954.1294
        38.5004         22.7504
  -4322785.45146  -3309406.86545  24653887.7664                   24653876.2344
        37.7504         34.5004
  -2924335.80455  -1589431.84452  24921055.5634                   24921048.9534
        30.0004         17.2504
 -24883008.43648 -20733753.91549  20605053.7584                   20605044.1024
        52.5004         54.7504
 23  1  9  0  9 30.0000000  0 11G27G23G08G22G24G21G10G18G31G01G32
  -7856343.51945  -5826194.95445  24123550.6804                   24123542.9574
        35.5004         31.2504
 -10751567.10147 -10773616.68046  21997811.5704                   21997800.9774
        45.5004         36.0004
  -8926006.80446  -6910734.05145  23789647.9924                   23789639.0394
        39.2504         34.5004
 -17592507.04847  -9443151.50745  21852207.4144                   21852196.5864
        46.0004         33.5004
 -11458367.84146  -9531185.68044  22939576.2974                   22939567.6954
        37.5004         26.0004
 -11451711.99647  -8406151.48844  23466134.9454                   23466122.9454
        42.2504         27.7504
 -27494082.66748 -21312931.31149  20550211.2504                   20550202.0044
        51.5004         55.0004
  -9380351.33046  -6846408.86143  24503810.6564                   24503801.4104
        37.5004         22.7504
  -4442199.92446  -3402457.14145  24631163.3134                   24631152.7194
        37.5004         34.0004
  -3035334.91655  -1658530.46252  24899934.6954                   24899924.9804
        32.5004         17.2504
 -24904078.61248 -20750172.22349  20601044.0634                   20601034.5824
        51.7504         54.7504
 23  1  9  0 10  0.0000000  0 11G27G23G08G22G24G21G10G18G31G01G32
  -7767069.80745  -5756631.05745  24140539.1954                   24140531.7074
        35.5004         31.0004
 -10685773.34447 -10722348.83445  22010332.0394                   22010321.2114
        45.0004         35.5004
  -8875255.78746  -6871187.82945  23799306.6414                   23799299.3874
        40.2504         35.5004
 -17659323.61647  -9495216.35645  21839492.4534                   21839481.9774
        46.0004         34.0004
 -11386127.99246  -9474894.86744  22953323.5634                   22953314.9024
        38.5004         26.2504
 -11523241.80847  -8461889.01644  23452523.6334                   23452510.1094
        42.0004         27.7504
 -27482853.96348 -21304181.67949  20552347.9694                   20552338.4884
        50.7504         54.7504
  -9265445.73346  -6756872.03443  24525676.1884                   24525667.5274
        36.7504         22.5004
  -4561630.32546  -3495519.79745  24608437.5634                   24608425.7384
        38.5004         34.2504
  -3146216.95745  -1744932.06142  24878834.0234                   24878826.4774
        31.0004         16.7504
 -24924739.93948 -20766271.94549  20597112.1564                   20597102.7344
        51.2504         55.0004
 23  1  9  0 10 30.0000000  0 11G27G23G08G22G24G21G10G18G31G01G32
  -7677643.05445  -5686947.89445  24157555.9064                   24157548.5354
        35.5004         31.5004
 -10619745.70847 -10670898.73146  22022896.6484                   22022885.9964
        45.5004         36.0004
  -8824093.98846  -6831321.52145  23809041.5784                   23809035.5554
        40.0004         35.5004
 -17725820.37847  -9547031.99945  21826838.5704                   21826828.0354
        46.0004         33.5004
 -11313395.78746  -9418220.44844  22967162.7974                   22967155.1334
        36.7504         25.5004
 -11594492.22547  -8517408.81444  23438963.8914                   23438952.0084
        42.0004         28.0004
 -27471322.86848 -21295196.41149  20554542.0164                   20554532.8284
        50.7504         55.0004
  -9150443.14346  -6667259.59844  24547562.5474                   24547551.4264
        38.2504         24.2504
  -4681071.93246  -3588591.21845  24585706.7424                   24585696.5594
        37.0004         34.7504
  -3256976.17255  -1831237.93052  24857757.7734                   24857749.8164
        31.7504         16.2504
 -24944990.55048 -20782051.63249  20593258.3914                   20593249.0274
        51.0004         54.7504
 23  1  9  0 11  0.0000000  0 11G27G23G08G22G24G21G10G18G31G01G32
  -7588067.81346  -5617149.02045  24174603.5004                   24174594.4884
        37.5004         32.0004
 -10553485.96547 -10619267.77545  22035505.1094                   22035494.4574
        46.0004         35.5004
  -8772525.24346  -6791138.13145  23818854.4064                   23818847.5044
        39.2504         34.7504
 -17791998.25347  -9598599.15245  21814245.6094                   21814234.4884
        46.5004         34.0004
 -11240175.20246  -9361165.42044  22981098.8054                   22981088.8554
        39.2504         26.7504
 -11665463.05247  -8572710.72444  23425458.6334                   23425446.8094
        43.0004         28.0004
 -27459490.48448 -21285976.36949  20556793.8834                   20556784.5204
        51.0004         54.7504
  -9035347.09146  -6577574.32943  24569462.3524                   24569453.6914
        36.2504         22.7504
  -4800523.29646  -3681670.20145  24562976.3834                   24562965.8484
        36.7504         34.5004
                                  24836703.9774                   24836697.6024
        31.5004         16.2504
 -24964832.26348 -20797512.70549  20589483.2734                   20589473.3244
        51.5004         54.7504
 23  1  9  0 11 30.0000000  0 11G27G23G08G22G24G21G10G18G31G01G32
  -7498345.82946  -5547235.80945  24191676.7974                   24191667.7274
        38.5004         32.2504
 -10486992.96447 -10567455.07645  22048158.6174                   22048148.1994
        46.0004         35.7504
  -8720550.50546  -6750638.34245  23828745.4844                   23828735.6524
        39.0004         33.5004
 -17857855.10947  -9649916.16545  21801712.8754                   21801702.4574
        46.0004         34.2504
 -11166467.35146  -9303730.71944  22995122.5944                   22995114.9884
        36.5004         26.2504
 -11736150.19446  -8627791.61844  23412007.2344                   23411995.3524
        41.5004         27.2504
 -27447355.10348 -21276520.23649  20559103.1884                   20559094.2934
        51.7504         54.7504
  -8920158.50746  -6487816.98143  24591382.6334                   24591373.4454
        37.7504         22.2504
  -4919980.47246  -3774753.68745  24540246.1564                   24540234.0984
        39.5004         35.5004
  -3478118.15955  -2003556.44652  24815677.1804                   24815668.2274
        34.0004         16.2504
 -24984264.08048 -20812654.36049  20585785.3284                   20585775.9064
        52.0004         55.2504
 23  1  9  0 12  0.0000000  0 11G27G23G08G22G24G21G10G18G31G01G32
  -7408481.91446  -5477212.00445  24208777.0944                   24208768.2584
        37.7504         31.0004
 -10420268.70447 -10515462.15946  22060855.8204                   22060845.3444
        46.5004         36.0004
  -8668174.35746  -6709825.74445  23838712.6954                   23838704.0354
        39.5004         35.0004
 -17923392.17047  -9700983.98645  21789242.2664                   21789231.0274
        46.5004         34.2504
 -11092276.41446  -9245919.61944  23009242.3284                   23009232.8484
        39.2504         26.5004
 -11806553.77747  -8682651.53944  23398610.4774                   23398598.2424
        42.5004         27.7504
 -27434917.72148 -21266828.77249  20561469.6024                   20561460.5904
        52.0004         54.7504
  -8804881.18046  -6397990.47343  24613318.2974                   24613309.7544
        37.5004         22.0004
  -5039441.91646  -3867840.54745  24517510.5474                   24517501.0084
        37.5004         35.2504
  -3588496.25845  -2089565.44942  24794671.0784                   24794663.4144
        32.2504         17.7504
 -25003288.07348 -20827478.23749  20582164.9304                   20582155.6254
        52.5004         55.0004
 23  1  9  0 12 30.0000000  0 11G27G23G08G22G24G21G10G18G31G01G32
  -7318477.69746  -5407078.87245  24225905.5164                   24225895.8014
        38.5004         32.5004
 -10353312.03347 -10463288.14545  22073597.6414                   22073586.6954
        45.5004         35.5004
  -8615397.47746  -6668700.92945  23848753.7664                   23848748.9184
        38.2504         34.2504
 -17988607.24647  -9751800.91745  21776832.3984                   21776820.8674
        46.0004         34.0004
 -11017603.48746  -9187732.90444  23023451.6724                   23023442.4264
        38.0004         26.0004
 -11876670.53147  -8737287.96244  23385267.1484                   23385255.2664
        42.5004         26.7504
 -27422176.49848 -21256900.54649  20563894.6024                   20563885.1804
        50.5004         55.0004
  -8689515.81346  -6308095.38043  24635272.1884                   24635263.4104
        36.5004         23.0004
  -5158903.48846  -3960927.47545  24494779.5784                   24494768.1644
        38.7504         35.5004
  -3698741.57245  -2175470.86842  24773692.8364                   24773684.8204
        33.2504         17.2504
 -25021903.21748 -20841983.53849  20578622.5864                   20578613.1644
        51.0004         55.0004
 23  1  9  0 13  0.0000000  0 11G27G23G08G22G24G21G10G18G31G01G32
  -7228336.90745  -5336839.33645  24243055.1174                   24243048.2734
        35.7504         32.5004
 -10286123.89847 -10410933.76645  22086382.9144                   22086372.2034
        46.0004         35.7504
  -8562222.57146  -6627265.98745  23858873.4144                   23858867.1564
        38.0004         33.5004
 -18053500.51047  -9802367.07045  21764483.3364                   21764472.1564
        46.7504         34.7504
 -10942451.59746  -9129172.99644  23037751.9224                   23037743.6134
        37.5004         26.0004
 -11946498.71946  -8791699.53444  23371979.2814                   23371967.3404
        41.2504         26.7504
 -27409131.45648 -21246735.58549  20566376.8134                   20566367.8014
        51.5004         54.7504
  -8574065.06446  -6218133.74243  24657242.6954                   24657232.1024
        37.0004         21.7504
  -5278363.07346  -4054012.90545  24472046.0864                   24472035.9614
        38.2504         35.5004
  -3808851.69145  -2261271.03543  24752740.3984                   24752731.0354
        34.0004         18.5004
 -25040110.50348 -20856171.02449  20575157.9384                   20575148.4574
        52.7504         55.0004
 23  1  9  0 13 30.0000000  0 11G27G23G08G22G24G21G10G18G31G01G32
  -7138062.26946  -5266495.47345  24260235.4304                   24260227.3554
        37.2504         32.2504
 -10218704.00947 -10358398.80346  22099212.9064                   22099201.6094
        46.0004         36.0004
  -8508652.48546  -6585523.09445  23869069.4844                   23869060.1214
        39.2504         33.5004
 -18118070.98547  -9852681.71645  21752195.8054                   21752184.9184
        46.5004         34.5004
 -10866823.00746  -9070241.62544  23052145.7584                   23052135.2234
        39.7504         26.0004
 -12016036.10347  -8845884.48044  23358747.1804                   23358735.0044
        42.0004         29.0004
 -27395781.65948 -21236333.14549  20568917.5554                   20568908.0744
        51.7504         54.7504
  -8458530.89246  -6128107.05943  24679227.9774                   24679218.2624
        37.5004         22.7504
  -5397817.16046  -4147094.02445  24449315.6804                   24449304.3834
        39.2504         35.7504
  -3918824.00045  -2346963.70743  24731811.8984                   24731804.4694
        33.0004         18.2504
 -25057909.96848 -20870040.73549  20571770.5554                   20571761.4844
        52.7504         55.0004
 23  1  9  0 14  0.0000000  0 11G27G23G08G22G24G21G10G18G31G01G32
  -7047421.05746  -5195865.97745  24277485.5634                   24277476.5514
        39.0004         32.7504
 -10150816.95247 -10305499.80745  22112130.7974                   22112120.4384
        45.7504         35.5004
  -8454453.50046  -6543290.10945  23879383.6954                   23879373.4534
        38.7504         33.7504
 -18182082.04647  -9902560.44745  21740015.3754                   21740003.7274
        47.5004         34.7504
 -10790484.37546  -9010756.99044  23066670.3054                   23066661.9384
        37.5004         26.2504
 -12085044.98647  -8899657.64744  23345615.8524                   23345603.0904
        42.5004         28.5004
 -27381890.58248 -21225508.92649  20571560.7344                   20571551.7234
        51.7504         54.7504
  -8342679.52946  -6037833.29243  24701275.4144                   24701263.3554
        38.2504         21.5004
  -5517027.34146  -4239985.07845  24426629.5944                   24426619.3524
        37.5004         35.0004
  -4028419.82945  -2432363.09642  24710957.5704                   24710948.6764
        34.0004         17.2504
 -25075066.28048 -20883409.28049  20568505.7034                   20568496.6334
        53.0004         54.7504
 23  1  9  0 14 30.0000000  0 11G27G23G08G22G24G21G10G18G31G01G32
  -6957125.89546  -5125506.15745  24294668.7894                   24294659.0164
        39.0004         32.5004
 -10083172.52847 -10252789.86845  22125003.0944                   22124992.7934
        46.0004         35.5004
  -8400337.43046  -6501121.74845  23889678.7424                   23889671.9574
        37.5004         33.2504
 -18246242.87347  -9952555.88745  21727805.2194                   21727794.0984
        46.5004         34.5004
 -10714147.82546  -8951273.94444  23081197.2664                   23081188.6644
        38.0004         26.0004
 -12154233.51447  -8953570.75744  23332448.9304                   23332436.8714
        42.0004         27.5004
 -27368167.65748 -21214815.74049  20574172.3364                   20574162.9734
        51.5004         54.7504
  -8227222.72446  -5947866.89043  24723244.6644                   24723234.8914
        37.7504         22.2504
  -5636700.47246  -4333236.88646  24403858.0864                   24403846.8484
        38.5004         36.7504
  -4138346.14345  -2518019.92642  24690036.9454                   24690030.4534
        32.0004         16.7504
 -25092289.30148 -20896829.81249  20565228.8054                   20565218.9734
        53.0004         54.7504
 23  1  9  0 15  0.0000000  0 11G27G23G08G22G24G21G10G18G31G01G32
  -6866470.55546  -5054865.64845  24311919.5084                   24311909.8524
        38.2504         32.2504
 -10015061.72647 -10199716.52046  22137964.4694                   22137953.4654
        46.2504         36.5004
  -8345597.59246  -6458467.40045  23900096.8444                   23900089.4144
        36.7504         33.0004
 -18309843.52247 -10002114.82145  21715702.8834                   21715691.7034
        45.5004         34.2504
 -10637106.57746  -8891241.80244  23095858.5314                   23095848.6414
        38.5004         27.0004
 -12222889.43147  -9007068.87744  23319385.7344                   23319371.9184
        43.0004         28.0004
 -27353902.92548 -21203700.36549  20576886.4614                   20576877.2734
        50.7504         54.7504
  -8111453.12546  -5857656.78343  24745274.8834                   24745263.9964
        37.0004         21.5004
  -5756124.05346  -4426294.23745  24381131.1094                   24381121.0434
        38.5004         35.5004
  -4247890.90445  -2603379.46043  24669193.8284                   24669185.1684
        35.5004         19.5004
 -25108870.20248 -20909749.98649  20562073.2664                   20562063.8444
        52.5004         54.7504
 23  1  9  0 15 30.0000000  0 11G27G23G08G22G24G21G10G18G31G01G32
  -6775692.88746  -4984129.84145  24329192.4924                   24329184.9454
        37.5004         33.5004
  -9946719.69147 -10146463.00345  22150969.2814                   22150958.8634
        46.0004         35.0004
  -8290471.54446  -6415512.05545  23910587.5704                   23910579.3204
        39.5004         33.5004
 -18373118.37447 -10051419.88245  21703662.0784                   21703650.6054
        45.2504         35.0004
 -10559598.01046  -8830845.51044  23110606.9144                   23110597.9614
        37.5004         27.0004
 -12291246.11346  -9060333.81244  23306375.9454                   23306364.9414
        41.2504         27.2504
 -27339330.43948 -21192345.18049  20579659.7274                   20579650.5394
        51.2504         54.7504
  -7995607.96346  -5767387.81943  24767318.8444                   24767308.7194
        37.0004         21.5004
  -5875530.33446  -4519338.11045  24358409.4384                   24358398.6094
        37.7504         35.2504
  -4357286.43545  -2688622.75043  24648374.2344                   24648367.6254
        32.5004         18.2504
 -25125044.27548 -20922353.14449  20558995.4224                   20558985.9414
        53.0004         55.0004
 23  1  9  0 16  0.0000000  0 11G27G23G08G22G24G21G10G18G31G01G32
  -6684798.41546  -4913303.02945  24346489.4384                   24346481.1294
        37.5004         33.5004
  -9878149.04647 -10093031.34945  22164017.7974                   22164007.3204
        46.0004         35.2504
  -8234963.65246  -6372259.13945  23921149.9694                   23921140.5474
        38.7504         32.2504
 -18436069.33347 -10100472.56545  21691682.6414                   21691671.5784
        46.5004         34.5004
 -10481627.11946  -8770088.97244  23125444.9304                   23125436.1524
        38.7504         25.5004
 -12359304.05847  -9113365.95444  23293425.8754                   23293413.2304
        42.2504         27.5004
 -27324452.20148 -21180751.74849  20582490.7274                   20582481.6564
        51.0004         55.0004
  -7879691.66446  -5677063.39343  24789377.8284                   24789367.1174
        37.2504         21.7504
  -5994918.67446  -4612368.01445  24335691.7034                   24335680.1724
        38.0004         35.7504
  -4466532.31746  -2773749.54343  24627588.9844                   24627578.7424
        36.5004         19.5004
 -25140814.30648 -20934641.46549  20555994.6254                   20555985.2624
        53.0004         55.0004
 23  1  9  0 16 30.0000000  0 11G27G23G08G22G24G21G10G18G31G01G32
  -6593788.46846  -4842386.20445  24363808.0084                   24363800.1094
        36.5004         33.0004
  -9809348.38047 -10039420.45545  22177110.5394                   22177099.3594
        46.2504         35.2504
  -8179075.55645  -6328709.99145  23931783.9924                   23931776.8554
        35.5004         32.0004
 -18498694.14447 -10149271.10945  21679765.1484                   21679754.4384
        45.7504         34.7504
 -10403194.73846  -8708972.83144  23140370.6414                   23140361.0434
        39.0004         25.5004
 -12427059.46147  -9166162.38044  23280532.1024                   23280519.2814
        42.5004         27.7504
 -27309266.22148 -21168918.51449  20585380.4144                   20585371.1684
        51.7504         55.5004
  -7763704.59446  -5586683.83443  24811448.6884                   24811438.9144
        36.0004         21.5004
  -6114284.48346  -4705380.36645  24312974.6254                   24312965.5554
        36.2504         34.5004
  -4575624.10745  -2858756.12943  24606825.8594                   24606820.0124
        32.0004         18.2504
 -25156179.09648 -20946614.02349  20553070.7504                   20553061.2114
        53.0004         55.0004
 23  1  9  0 17  0.0000000  0 11G27G23G08G22G24G21G10G18G31G01G32
  -6502666.80746  -4771382.35745  24381148.6884                   24381139.2664
        38.0004         33.0004
  -9740318.67147  -9985631.08645  22190245.9454                   22190235.3524
        45.7504         35.0004
  -8122810.08446  -6284866.81845  23942492.5704                   23942484.4964
        37.0004         33.0004
 -18560992.59747 -10197815.33445  21667910.7274                   21667899.6054
        46.0004         34.7504
 -10324304.18546  -8647499.68044  23155381.1564                   23155373.0824
        37.2504         26.2504
 -12494510.87347  -9218721.92844  23267696.4454                   23267684.2704
        42.5004         29.0004
 -27293772.53148 -21156845.50549  20588329.1644                   20588319.5664
        51.7504         55.0004
  -7647649.64846  -5496251.40843  24833533.1094                   24833522.6334
        36.0004         22.0004
  -6233624.96546  -4798372.96545  24290266.8594                   24290255.6804
        38.5004         35.0004
  -4684560.01145  -2943641.25843  24586098.3364                   24586089.5004
        34.7504         20.0004
 -25171139.82548 -20958271.72349  20550223.7584                   20550214.2774
        52.5004         55.0004
 23  1  9  0 17 30.0000000  0 11G27G23G08G22G24G21G10G18G31G01G32
  -6411436.99146  -4700294.22345  24398509.4774                   24398500.4064
        38.0004         32.7504
  -9671060.69547  -9931663.85245  22203425.5164                   22203415.0394
        45.5004         35.2504
  -8066170.18946  -6240731.85045  23953271.2274                   23953262.5664
        38.2504         32.2504
 -18622964.95847 -10246105.46445  21656117.2584                   21656106.3134
        45.5004         35.0004
 -10244958.56146  -8585671.91444  23170481.6564                   23170472.0004
        39.7504         26.2504
 -12561656.93247  -9271043.52544  23254919.0554                   23254906.8794
        42.2504         28.2504
 -27277971.17248 -21144532.75549  20591335.9384                   20591326.4574
        52.0004         55.0004
  -7531529.47145  -5405768.11043  24855629.6954                   24855620.2734
        35.5004         21.5004
  -6352938.42646  -4891344.51545  24267562.2274                   24267551.2234
        37.0004         34.5004
  -4793337.65545  -3028403.11343  24565396.5314                   24565389.6884
        33.5004         18.5004
 -25185697.38848 -20969615.26949  20547453.6094                   20547444.4804
        52.7504         54.7504
 23  1  9  0 18  0.0000000  0 11G27G23G08G22G24G21G10G18G31G01G32
  -6320101.04846  -4629123.36045  24415889.3754                   24415880.6564
        36.2504         32.5004
  -9601573.74847  -9877518.19745  22216648.8834                   22216638.1134
        46.0004         35.0004
  -8009157.48046  -6196306.37145  23964119.0704                   23964110.1764
        36.0004         31.5004
 -18684609.71647 -10294140.32245  21644387.1644                   21644375.9844
        46.0004         35.2504
 -10165159.43546  -8523490.76644  23185666.2504                   23185657.2384
        38.7504         26.7504
 -12628494.89547  -9323125.04144  23242200.0864                   23242187.1484
        43.2504         29.0004
 -27261860.43948 -21131978.93649  20594401.7504                   20594392.5634
        52.0004         55.2504
  -7415345.20946  -5315234.91743  24877740.7584                   24877729.3444
        37.0004         21.5004
  -6472221.09945  -4984292.05545  24244862.0084                   24244852.4694
        35.7504         34.2504
  -4901953.30546  -3113038.69143  24544730.8834                   24544721.4024
        36.2504         19.5004
 -25199851.33148 -20980644.31349  20544760.0004                   20544750.9304
        52.7504         55.0004
 23  1  9  0 18 30.0000000  0 11G27G23G08G22G24G21G10G18G31G01G32
  -6228662.83646  -4557872.83145  24433290.1484                   24433281.0204
        38.2504         32.5004
  -9531858.92347  -9823194.97545  22229915.4844                   22229904.0124
        46.5004         35.0004
  -7951774.97545  -6151592.74745  23975038.4924                   23975030.5944
        35.7504         32.2504
 -18745926.84947 -10341919.90145  21632718.5314                   21632707.4694
        45.5004         34.7504
 -10084910.27046  -8460958.93444  23200938.1884                   23200928.3554
        40.0004         27.2504
 -12695023.69047  -9374965.65444  23229540.4064                   23229527.9964
        43.0004         29.2504
 -27245440.61348 -21119184.26549  20597526.2274                   20597516.9804
        52.0004         55.0004
  -7299099.74945  -5224653.99043  24899859.5634                   24899850.1414
        35.0004         21.0004
  -6591470.32746  -5077213.54245  24222172.7734                   24222159.8364
        38.7504         34.7504
  -5010405.07345  -3197546.59542  24524090.4384                   24524083.0664
        34.7504         16.7504
 -25213602.90148 -20991359.82049  20542143.0944                   20542133.7894
        53.0004         54.7504
 23  1  9  0 19  0.0000000  0 11G27G23G08G22G24G21G10G18G31G01G32
  -6137125.25246  -4486544.89245  24450708.5704                   24450699.8524
        37.2504         31.7504
  -9461916.39047  -9768694.30745  22243224.4384                   22243213.6094
        46.0004         34.7504
  -7894025.57446  -6106593.25245  23986029.4144                   23986020.8134
        37.5004         32.7504
 -18806916.24047 -10389444.07745  21621113.0864                   21621101.7304
        46.5004         34.7504
 -10004213.51546  -8398078.36744  23216293.5084                   23216284.6724
        38.5004         26.7504
 -12761240.84847  -9426563.43444  23216939.8204                   23216927.4104
        43.5004         29.7504
 -27228711.05348 -21106148.25349  20600709.5004                   20600700.3134
        52.5004         54.7504
  -7182795.14745  -5134027.00343  24921991.4384                   24921982.0164
        34.5004         21.5004
  -6710683.32346  -5170106.78745  24199484.5554                   24199474.4884
        36.2504         34.5004
  -5118690.15646  -3281924.61743  24503486.3594                   24503477.9344
        37.2504         19.0004
 -25226952.46948 -21001762.06549  20539603.0634                   20539593.6414
        53.0004         54.7504
 23  1  9  0 19 30.0000000  0 11G27G23G08G22G24G21G10G18G31G01G32
  -6045491.89846  -4415142.26845  24468145.2114                   24468136.9024
        36.2504         32.2504
  -9391746.86347  -9714016.77445  22256577.2734                   22256567.0314
        45.5004         35.0004
  -7835912.41945  -6061310.25945  23997086.6174                   23997078.7194
        35.7504         31.5004
 -18867577.82947 -10436712.83545  21609569.6334                   21609558.4534
        46.2504         35.0004
  -9923072.29446  -8334851.43644  23231733.5944                   23231724.6994
        38.7504         26.2504
 -12827145.24347  -9477917.51444  23204397.7344                   23204385.4414
        42.5004         29.5004
 -27211672.18248 -21092871.20149  20603951.9224                   20603942.6174
        52.5004         54.7504
  -7066433.98945  -5043355.94943  24944135.4454                   24944124.2664
        35.2504         20.5004
  -6829857.58946  -5262969.85145  24176808.0864                   24176795.6764
        38.2504         34.5004
  -5226806.19545  -3366170.85743  24482909.9534                   24482903.3444
        34.7504         18.2504
 -25239901.01448 -21011851.83349  20537139.3204                   20537129.6054
        53.2504         54.7504
 23  1  9  0 20  0.0000000  0 11G27G23G08G22G24G21G10G18G31G01G32
  -5953764.75345  -4343666.61345  24485601.0864                   24485593.3054
        35.7504         31.5004
  -9321349.78547  -9659161.90745  22269973.9064                   22269962.7274
        46.5004         35.0004
  -7777436.82845  -6015744.93145  24008213.1024                   24008205.7894
        33.5004         31.0004
 -18927909.93547 -10483724.83945  21598088.3834                   21598077.5554
        46.5004         35.5004
  -9841488.30246  -8271279.49844  23247259.9454                   23247249.8204
        40.5004         26.7504
 -12892734.24647  -9529025.80644  23191917.8834                   23191905.0044
        44.2504         29.7504
 -27194321.99048 -21079351.57649  20607254.0474                   20607244.9184
        51.7504         55.0004
  -6950017.50945  -4952641.80943  24966289.5944                   24966278.5904
        35.7504         20.0004
  -6948989.40746  -5355799.83445  24154138.0004                   24154126.4104
        38.0004         35.5004
  -5334749.64346  -3450282.68343  24462371.7734                   24462362.2344
        37.7504         18.2504
 -25252448.16648 -21021628.82149  20534751.1094                   20534742.6844
        52.7504         55.0004
 23  1  9  0 20 30.0000000  0 11G27G23G08G22G24G21G10G18G31G01G32
  -5861947.92346  -4272121.04145  24503073.5394                   24503064.1174
        36.5004         31.7504
  -9250726.44747  -9604130.75545  22283412.7274                   22283401.8404
        45.7504         34.7504
  -7718602.49546  -5969899.99145  24019411.3594                   24019401.5864
        36.0004         31.2504
 -18987913.24547 -10530480.64545  21586670.2974                   21586659.1174
        45.7504         35.0004
  -9759465.27146  -8207365.45144  23262867.0554                   23262858.1604
        38.0004         25.5004
 -12958006.35447  -9579887.19345  23179496.6724                   23179484.3794
        44.2504         30.2504
 -27176661.30948 -21065590.01149  20610615.3444                   20610605.7464
        51.7504         55.0004
  -6833548.82945  -4861886.93943  24988451.3284                   24988441.2034
        35.2504         20.5004
  -7068076.79046  -5448595.21145  24131474.8754                   24131464.4574
        37.0004         34.2504
  -5442518.65245  -3534258.49443  24441862.6564                   24441855.2854
        35.7504         19.7504
 -25264595.45148 -21031094.23849  20532439.6024                   20532430.5904
        53.5004         54.7504
 23  1  9  0 21  0.0000000  0 11G27G23G08G22G24G21G10G18G31G01G32
  -5770043.74046  -4200507.39145  24520561.4144                   24520553.2814
        36.0004         32.7504
  -9179876.33547  -9548922.88445  22296894.8984                   22296884.1294
        45.7504         34.5004
  -7659411.68746  -5923777.30545  24030674.8284                   24030665.9924
        36.2504         31.2504
 -19047586.47847 -10576979.24445  21575314.5784                   21575304.1024
        46.5004         35.5004
  -9677005.07446  -8143110.74544  23278560.5394                   23278549.7114
        40.7504         25.5004
 -13022959.18747  -9630499.75144  23167135.9384                   23167123.0594
        43.7504         29.5004
 -27158688.61948 -21051585.32049  20614034.7584                   20614025.5124
        52.5004         54.7504
  -6717029.28846  -4771092.50743  25010625.3674                   25010613.5434
        37.2504         20.0004
  -7187115.84046  -5541352.93345  24108822.1254                   24108812.9384
        36.7504         35.5004
  -5550109.80846  -3618095.75843  24421388.7664                   24421380.5164
        38.5004         20.0004
 -25276342.59348 -21040247.86049  20530204.6334                   20530194.7424
        53.2504         54.7504
 23  1  9  0 21 30.0000000  0 11G27G23G08G22G24G21G10G18G31G01G32
  -5678056.52046  -4128829.07345  24538066.7584                   24538058.6844
        36.2504         31.7504
  -9108801.20647  -9493539.67845  22310420.4454                   22310409.6174
        45.7504         34.5004
  -7599867.86645  -5877379.53745  24042002.0084                   24041997.1024
        33.0004         31.0004
 -19106930.56247 -10623221.36045  21564022.2424                   21564010.4184
        46.7504         35.5004
  -9594111.70746  -8078518.49244  23294332.1254                   23294323.9924
        38.5004         26.5004
 -13087591.65247  -9680862.72045  23154838.2114                   23154824.6294
        45.0004         30.5004
 -27140404.82148 -21037338.20049  20617513.8524                   20617504.5474
        51.5004         55.2504
  -6600462.49946  -4680261.19743  25032809.2424                   25032796.0124
        37.5004         21.0004
  -7306105.23646  -5634071.89745  24086179.4924                   24086169.4264
        37.7504         35.0004
  -5657521.66246  -3701793.32743  24400948.2344                   24400940.1024
        36.2504         18.2504
 -25287691.53948 -21049091.18149  20528044.5234                   20528035.3954
        52.7504         55.0004
 23  1  9  0 22  0.0000000  0 11G27G23G08G22G24G21G10G18G31G01G32
  -5585987.36246  -4057086.88545  24555587.8134                   24555577.7464
        36.0004         30.2504
  -9037499.38847  -9437979.81645  22323988.5634                   22323977.6174
        45.5004         34.0004
  -7539971.81046  -5830707.32545  24053403.2424                   24053394.5824
        36.0004         31.5004
 -19165943.22647 -10669205.23445  21552791.9224                   21552781.2114
        46.2504         35.5004
  -9510785.94646  -8013589.35344  23310190.3594                   23310180.1764
        40.0004         25.7504
 -13151900.68947  -9730973.64745  23142598.0784                   23142587.1334
        43.5004         30.5004
 -27121807.62448 -21022846.88249  20621052.7114                   20621043.6994
        52.0004         55.2504
  -6483848.44045  -4589393.07843  25054995.1334                   25054986.7074
        33.2504         19.7504
  -7425039.91646  -5726748.28045  24063547.2034                   24063536.6094
        38.2504         35.7504
  -5764749.62146  -3785347.55443  24380545.8594                   24380536.0274
        39.0004         20.7504
 -25298640.96448 -21057623.19849  20525961.0784                   20525951.9494
        53.5004         54.7504
 23  1  9  0 22 30.0000000  0 11G27G23G08G22G24G21G10G18G31G01G32
  -5493841.04745  -3985284.57645  24573120.8134                   24573113.0314
        35.2504         30.7504
  -8965972.94147  -9382244.93145  22337599.1564                   22337588.7384
        45.2504         34.2504
  -7479727.90745  -5783764.04245  24064867.1094                   24064858.3324
        35.5004         31.0004
 -19224625.79847 -10714931.87345  21541625.0314                   21541614.2034
        47.5004         35.7504
  -9427032.23946  -7948326.71144  23326126.9064                   23326118.0124
        38.5004         26.0004
 -13215885.93547  -9780832.25145  23130423.5084                   23130410.8054
        44.5004         31.2504
 -27102898.07748 -21008112.16549  20624651.0634                   20624641.6994
        51.7504         55.0004
 -18970551.27956 -14319291.46853  25077199.2194                   25077187.5704
        38.5004         19.2504
  -7543918.65146  -5819381.06145  24040925.1174                   24040915.3444
        37.2504         35.5004
  -5871792.47046  -3868757.60543  24360174.4844                   24360166.0004
        38.2504         19.2504
 -25309193.03048 -21065845.57949  20523953.2584                   20523943.6604
        53.2504         55.0004
 23  1  9  0 23  0.0000000  0 11G27G23G08G22G24G21G10G18G31G01G32
  -5401619.31245  -3913423.51045  24590669.2814                   24590662.0864
        34.0004         30.7504
  -8894220.92647  -9326334.29445  22351253.6414                   22351242.7544
        45.7504         34.0004
  -7419137.64645  -5736550.88345  24076396.1334                   24076388.3524
        34.0004         30.5004
 -19282976.59047 -10760400.00746  21530521.4844                   21530510.2464
        46.0004         36.2504
  -9342851.99546  -7882731.71944  23342146.6414                   23342137.5704
        39.0004         25.5004
 -13279544.07647  -9830435.99945  23118310.3364                   23118297.2234
        44.2504         31.0004
 -27083674.56648 -20993132.80649  20628309.2114                   20628300.3164
        51.7504         55.0004
 -18853851.74446 -14228356.62843  25099406.2664                   25099393.9734
        38.2504         19.2504
  -7662737.26246  -5911966.97645  24018316.0704                   24018304.4224
        38.5004         35.7504
  -5978646.32546  -3952020.36043  24339843.2194                   24339832.8014
        40.0004         19.7504
 -25319347.11848 -21073757.84049  20522021.1804                   20522011.6994
        53.5004         55.2504
 23  1  9  0 23 30.0000000  0 11G27G23G08G22G24G21G10G18G31G01G32
  -5309326.03145  -3841506.66444  24608233.5944                   24608225.1094
        35.7504         29.7504
  -8822244.54847  -9270248.80245  22364949.6564                   22364939.1214
        45.5004         34.5004
  -7358204.91745  -5689070.85345  24087991.5234                   24087983.7424
        34.2504         31.0004
 -19340996.03547 -10805609.93846  21519480.6884                   21519469.3914
        47.2504         36.0004
  -9258248.83546  -7816807.18044  23358246.8054                   23358237.0904
        40.5004         25.5004
 -13342874.13247  -9879784.06645  23106257.9924                   23106246.1684
        43.5004         30.5004
 -27064137.59848 -20977909.19749  20632027.0164                   20632017.6524
        51.2504         54.7504
 -18737112.65655 -14137391.08553  25121616.2974                   25121609.8054
        31.2504         19.5004
  -7781493.84746  -6004504.55246  23995717.3834                   23995705.9694
        38.5004         36.0004
  -6085309.19246  -4035134.28043  24319542.2894                   24319535.5044
        36.5004         19.5004
 -25329104.73048 -21081361.17249  20520164.1644                   20520154.6254
        53.0004         54.7504
 23  1  9  0 24  0.0000000  0 11G27G23G08G22G24G21G10G18G31G01G32
  -5216963.80745  -3769536.14544  24625808.8524                   24625801.7734
        35.2504         28.7504
  -8750043.73547  -9213988.44945  22378689.5314                   22378678.7034
        45.5004         34.5004
  -7296931.66345  -5641325.44745  24099650.5704                   24099643.4344
        33.7504         31.0004
 -19398683.18547 -10850560.94646  21508502.7974                   21508491.9694
        46.2504         36.0004
  -9173224.95746  -7750554.79743  23374424.4924                   23374415.8324
        38.2504         23.5004
 -13405873.36347  -9928874.36945  23094271.0164                   23094257.4924
        45.2504         31.5004
 -27044285.91148 -20962440.34549  20635804.3984                   20635795.2114
        50.5004         54.7504
                                  25143841.4064                   25143830.9884
        37.5004         18.2504
  -7900184.92246  -6096991.10045  23973128.8914                   23973119.3524
        37.0004         35.7504
  -6191777.92946  -4118096.93443  24299284.7504                   24299274.8014
        39.0004         20.7504
 -25338466.00148 -21088655.66349  20518382.8914                   20518373.3524
        52.7504         55.0004
 23  1  9  0 24 30.0000000  0 11G27G23G08G22G24G21G10G18G31G01G32
  -5124536.25246  -3697514.69144  24643398.9304                   24643389.0984
        36.2504         29.0004
  -8677619.36247  -9157553.88945  22392471.9844                   22392460.9804
        45.7504         34.0004
  -7235321.08745  -5593317.27445  24111376.0234                   24111368.1254
        34.5004         31.5004
 -19456038.40447 -10895253.30946  21497588.8134                   21497577.8674
        46.5004         36.0004
  -9087783.78946  -7683977.24644  23390684.5084                   23390675.2034
        39.0004         24.7504
 -13468541.15847  -9977706.41845  23082343.7974                   23082331.9144
        42.5004         31.5004
 -27024120.02248 -20946726.66849  20639642.1024                   20639632.9734
        50.7504         55.0004
 -18503524.57546 -13955374.41143  25166072.3444                   25166060.1094
        38.7504         20.7504
  -8018807.84746  -6189424.55346  23950558.6884                   23950546.9224
        39.7504         38.0004
  -6298050.26946  -4200906.54343  24279060.3914                   24279052.3754
        37.5004         21.5004
 -25347432.12148 -21095642.24049  20516676.5474                   20516667.0664
        52.2504         55.0004
 23  1  9  0 25  0.0000000  0 11G27G23G08G22G24G21G10G18G31G01G32
  -5032045.79545  -3625444.16944  24660997.1724                   24660989.9774
        33.7504         28.2504
  -8604971.18347  -9100944.93245  22406296.2894                   22406285.1094
        45.5004         34.7504
  -7173375.38245  -5545047.92845  24123163.8674                   24123155.5004
        34.5004         30.2504
 -19513060.69347 -10939686.24546  21486737.6884                   21486726.6844
        46.5004         36.2504
  -9001927.37146  -7617076.13844  23407021.6484                   23407013.1054
        37.5004         25.0004
 -13530875.12147 -10026278.29445  23070483.1094                   23070470.6994
        44.5004         31.2504
 -27003638.41848 -20930766.97449  20643539.5234                   20643530.5124
        51.2504         55.0004
 -18386679.70155 -13879247.50253  25188305.4774                   25188294.1804
        35.2504         19.5004
  -8137359.41246  -6281802.39546  23927997.9454                   23927987.1764
        38.5004         38.0004
  -6404122.94946  -4283560.62043  24258876.3524                   24258867.4574
        38.0004         21.0004
 -25356003.06248 -21102320.88549  20515045.5314                   20515036.1094
        52.7504         54.7504
 23  1  9  0 25 30.0000000  0 11G27G23G08G22G24G21G10G18G31G01G32
  -4939495.86045  -3553327.43044  24678610.6334                   24678601.6214
        35.2504         28.5004
  -8532099.98547  -9044162.18845  22420162.3284                   22420151.9694
        44.7504         34.0004
  -7111097.32445  -5496519.53745  24135014.7664                   24135006.2234
        33.5004         31.5004
 -19569749.99747 -10983859.70646  21475950.4224                   21475939.1844
        46.7504         37.0004
  -8915658.95246  -7549854.00044  23423438.1334                   23423429.2384
        38.0004         26.0004
 -13592873.17347 -10074588.46045  23058685.7424                   23058673.2734
        44.5004         31.5004
 -26982841.43548 -20914561.54049  20647497.2194                   20647488.1484
        51.0004         55.0004
 -18269803.88045 -13788175.34843  25210543.1174                   25210534.2234
        32.5004         19.0004
  -8255836.99946  -6374122.55946  23905451.6644                   23905441.2464
        38.7504         38.0004
  -6509993.47646  -4366057.10943  24238729.4694                   24238720.7504
        38.0004         22.0004
 -25364179.95548 -21108692.48249  20513489.1564                   20513480.3204
        52.7504         54.7504
 23  1  9  0 26  0.0000000  0 11G27G23G08G22G24G21G10G18G31G01G32
  -4846889.50945  -3481166.62444  24696232.3984                   24696223.2704
        34.7504         28.5004
  -8459006.18247  -8987205.98745  22434071.9694                   22434061.4344
        45.0004         33.2504
  -7048490.37145  -5447734.94745  24146928.6484                   24146920.5744
        33.7504         30.5004
 -19626106.15947 -11027773.58446  21465226.2974                   21465214.5904
        46.7504         36.7504
  -8828981.32046  -7482312.99244  23439932.6884                   23439923.6174
        39.2504         24.7504
 -13654533.71547 -10122635.61145  23046950.0164                   23046938.4264
        42.5004         30.2504
 -26961728.54748 -20898109.93749  20651514.6024                   20651505.7074
        50.5004         54.7504
 -18152899.49956 -13712526.14753  25232795.4144                   25232780.7194
        37.7504         22.5004
  -8374237.63946  -6466382.80046  23882922.0234                   23882910.8444
        40.0004         38.2504
  -6615659.20846  -4448394.08143  24218621.9384                   24218613.1604
        38.0004         22.0004
 -25371963.42448 -21114757.52049  20512007.9694                   20511998.8404
        52.5004         55.0004
 23  1  9  0 26 30.0000000  0 11G27G23G08G22G24G21G10G18G31G01G32
  -4754229.44145  -3408963.99744  24713864.9384                   24713857.2154
        34.2504         28.2504
  -8385689.84647  -8930076.38645  22448024.3284                   22448013.3834
        44.2504         34.0004
  -6985556.66445  -5398695.71145  24158904.3524                   24158896.3954
        34.2504         30.5004
 -19682128.63047 -11071427.44646  21454565.1484                   21454554.2624
        46.2504         36.7504
  -8741896.95146  -7414455.03744  23456504.4384                   23456495.2504
        38.0004         24.5004
 -13715854.58347 -10170418.09645  23035282.2034                   23035269.7934
        44.7504         30.5004
 -26940298.75948 -20881411.40449  20655592.3524                   20655583.5164
        50.5004         55.2504
                                  25255043.922
        37.500
  -8492558.03846  -6558580.50246  23860404.1484                   23860394.8444
        38.0004         38.2504
  -6721117.03046  -4530568.99943  24198553.5234                   24198545.5084
        37.5004         22.0004
 -25379353.91048 -21120516.35849  20510601.8284                   20510592.6414
        52.7504         54.7504
 23  1  9  0 27  0.0000000  0 11G27G23G08G22G24G21G10G18G31G01G32
  -4661519.66745  -3336722.64144  24731507.3914                   24731498.2034
        34.2504         26.0004
  -8312152.32047  -8872774.43245  22462018.0704                   22462006.8324
        45.5004         34.2504
  -6922299.92445  -5349404.73945  24170940.8444                   24170933.7074
        33.0004         31.0004
 -19737818.01747 -11114821.75246  21443967.8914                   21443956.7114
        46.5004         37.0004
  -8654409.63646  -7346283.09644  23473152.5234                   23473143.2194
        38.2504         25.0004
 -13776835.11347 -10217935.38845  23023678.5554                   23023666.5554
        44.7504         32.0004
 -26918552.99548 -20864466.65449  20659730.7274                   20659721.6564
        50.7504         55.0004
                                  25277299.3134                   25277290.4774
        35.0004         20.2504
  -8610796.07246  -6650713.99846  23837907.0234                   23837894.9064
        41.2504         39.2504
  -6826365.19146  -4612580.57443  24178526.6024                   24178517.5314
        38.2504         21.2504
 -25386353.02748 -21125970.21349  20509270.0084                   20509260.7624
        52.7504         55.0004
 23  1  9  0 27 30.0000000  0 11G27G23G08G22G24G21G10G18G31G01G32
  -4568761.43945  -3264443.52544  24749158.8284                   24749149.5234
        33.2504         27.0004
  -8238392.34847  -8815299.10545  22476052.9144                   22476042.3204
        45.0004         34.2504
  -6858720.95745  -5299862.74145  24183039.2894                   24183032.5634
        32.5004         31.7504
 -19793172.45147 -11157955.05246  21433434.3834                   21433422.9694
        46.7504         37.2504
  -8566520.44846  -7277798.01244  23489877.1564                   23489868.2624
        38.5004         25.0004
 -13837471.79847 -10265184.70645  23012138.2894                   23012126.7584
        43.0004         30.7504
 -26896488.90348 -20847273.85949  20663929.2814                   20663920.3874
        51.0004         55.0004
    709768.90056 -13505560.29952  25299561.1804                   25299549.1214
        36.5004         17.2504
  -8728947.30046  -6742779.89146  23815420.7344                   23815410.8444
        38.2504         39.5004
  -6931399.21046  -4694425.28443  24158538.4924                   24158530.0084
        37.5004         20.7504
 -25392959.73448 -21131118.29349  20508012.6254                   20508003.4384
        52.7504         55.0004
 23  1  9  0 28  0.0000000  0 11G27G23G08G22G24G21G10G18G31G01G32
  -4475960.15945  -3192130.84244  24766818.1024                   24766809.7934
        33.5004         27.5004
  -8164412.40747  -8757652.42545  22490131.2734                   22490120.6214
        45.0004         33.5004
  -6794825.20445  -5250073.84845  24195200.0474                   24195191.5044
        34.5004         31.5004
 -19848193.74347 -11200828.76846  21422964.6884                   21422953.1564
        46.5004         36.5004
  -8478234.47046  -7209003.72844  23506678.1804                   23506668.5824
        38.0004         24.5004
 -13897764.65547 -10312166.15245  23000667.0164                   23000653.4924
        45.5004         32.0004
 -26874108.56048 -20829834.63749  20668188.1724                   20668178.9844
        50.5004         55.0004
    826765.78845 -13414393.77142  25321822.7734                   25321813.2934
        31.2504         17.7504
  -8847011.09346  -6834777.61946  23792956.4614                   23792944.9304
        40.7504         40.2504
  -7036218.50246  -4776102.68043  24138593.3984                   24138583.4494
        38.5004         22.5004
 -25399176.93248 -21135962.85649  20506829.7034                   20506820.4574
        52.7504         55.0004
 23  1  9  0 28 30.0000000  0 11G27G23G08G22G24G21G10G18G31G01G32
  -4383116.13445  -3119784.89444  24784485.7114                   24784476.9344
        33.0004         25.7504
  -8090210.57247  -8699832.82845  22504251.8914                   22504241.2974
        45.2504         33.7504
  -6730612.90245  -5200038.29645  24207418.2114                   24207410.9574
        32.5004         31.0004
 -19902879.15447 -11243440.75246  21412557.6804                   21412546.6174
        46.5004         37.0004
  -8389551.87346  -7139900.44244  23523552.5634                   23523544.7814
        37.7504         24.7504
 -13957709.84147 -10358876.69645  22989258.0944                   22989246.6804
        43.5004         31.5004
 -26851408.62948 -20812146.38249  20672508.0164                   20672498.8874
        50.2504         54.7504
    943782.11245 -13337642.22553  25344091.3204                   25344080.3164
        35.5004         20.2504
  -8964981.64646  -6926702.72346  23770506.1564                   23770495.2114
        40.7504         40.0004
  -7140817.76045  -4857608.61343  24118685.9774                   24118679.1914
        35.0004         21.0004
 -25405002.88148 -21140502.55449  20505721.3284                   20505711.8484
        52.0004         54.7504
 23  1  9  0 29  0.0000000  0 11G27G23G08G22G24G21G10G18G31G01G32
  -4290233.86045  -3047409.09544  24802162.5394                   24802151.1844
        34.2504         27.7504
  -8015788.46447  -8641841.58845  22518413.6094                   22518403.2504
        44.5004         33.0004
  -6666087.87745  -5149759.10945  24219696.6644                   24219689.9384
        33.0004         30.2504
 -19957229.59647 -11285791.72546  21402214.8834                   21402203.6454
        47.0004         36.2504
  -8300476.95246  -7070491.39144  23540503.9534                   23540495.0004
        38.0004         25.7504
 -14017306.95447 -10405315.94945  22977917.7504                   22977905.8674
        44.5004         31.2504
 -26828390.21448 -20794209.95249  20676888.2584                   20676879.1294
        50.0004         55.0004
   1060814.10845 -13246448.63642  25366359.6414                   25366351.0394
        32.5004         17.2504
  -9082857.90246  -7018554.32046  23748075.8674                   23748064.3364
        41.2504         40.2504
  -7245195.52346  -4938941.99643  24098825.9304                   24098816.9774
        37.5004         22.5004
 -25410439.60448 -21144738.96349  20504686.5084                   20504677.2624
        51.2504         54.7504
 23  1  9  0 29 30.0000000  0 11G27G23G08G22G24G21G10G18G31G01G32
  -4197316.50545  -2975005.99344  24819841.3524                   24819833.5124
        31.7504         25.2504
  -7941146.78047  -8583679.24045  22532617.9844                   22532607.0984
        44.7504         34.0004
  -6601253.54145  -5099238.87945  24232034.0314                   24232027.2464
        32.5004         30.0004
 -20011245.13047 -11327881.72646  21391936.0864                   21391925.0824
        46.2504         36.7504
  -8211012.72846  -7000779.00544  23557528.9534                   23557519.5904
        38.5004         25.5004
 -14076554.15447 -10451482.62945  22966644.3984                   22966630.5234
        44.7504         32.0004
 -26805053.17548 -20776025.25749  20681329.1334                   20681319.7704
        51.5004         55.0004
                                  25388634.797
        35.250
  -9200636.55446  -7110329.89046  23725662.8674                   23725651.8054
        41.2504         40.0004
  -7349349.20845  -5020100.74043  24079005.0554                   24078997.2154
        35.7504         20.2504
 -25415488.04048 -21148672.80049  20503725.8444                   20503716.4224
        52.2504         55.0004
 23  1  9  0 30  0.0000000  0 11G27G23G08G22G24G21G10G18G31G01G32
  -4104367.15145  -2902577.91544  24837529.2424                   24837520.7584
        32.2504         25.0004
  -7866285.98447  -8525346.15445  22546863.0394                   22546852.1524
        44.5004         33.2504
  -6536112.56745  -5048479.67845  24244430.8914                   24244423.2274
        33.7504         32.0004
 -20064925.78347 -11369710.78746  21381721.0634                   21381709.8834
        46.7504         37.0004
  -8121162.14746  -6930765.57444  23574626.7584                   23574617.9804
        37.7504         24.0004
 -14135449.79747 -10497375.31445  22955435.0314                   22955423.8524
        43.0004         31.7504
 -26781397.12748 -20757591.97849  20685830.8674                   20685821.5634
        51.0004         55.0004
   1294914.99554 -13093928.59953  25410905.2584                   25410899.2934
        24.5004         20.2504
  -9318314.80147  -7202027.20546  23703270.2194                   23703258.7464
        42.0004         40.7504
  -7453276.20446  -5101082.82143  24059229.5004                   24059220.3134
        37.0004         20.7504
 -25420149.02048 -21152304.73949  20502838.9694                   20502829.3134
        52.2504         55.2504
 23  1  9  0 30 30.0000000  0 11G27G23G08G22G24G21G10G18G31G01G32
                                  24855221.3524                   24855213.8634
        31.2504         23.5004
  -7791204.46647  -8466841.11645  22561150.7734                   22561140.0634
        44.2504         33.5004
  -6470665.76145  -4997482.21645  24256884.7894                   24256877.3594
        33.0004         30.5004
 -20118269.26947 -11411277.11446  21371570.1174                   21371559.1724
        47.5004         36.7504
  -8030926.01946  -6860451.73344  23591796.9844                   23591789.3794
        37.0004         24.5004
 -14193989.85147 -10542990.92145  22944296.6254                   22944284.1564
        45.5004         32.0004
 -26757419.73548 -20738908.29249  20690393.7114                   20690384.5234
        50.2504         55.2504
   1411982.60115                  25433184.188
        33.250
  -9435887.83846  -7293642.55346  23680895.5634                   23680884.9104
        40.7504         40.0004
  -7556971.67446  -5181884.53043  24039496.3204                   24039487.9534
        37.0004         20.0004
 -25424421.27948 -21155633.76949  20502025.9774                   20502016.2034
        52.5004         55.0004
 23  1  9  0 31  0.0000000  0 11G27G23G08G22G24G21G10G18G31G01G32
 -11795481.34245  -8895653.95144  24872922.1254                   24872913.5234
        33.5004         25.7504
  -7715905.57247  -8408166.65945  22575479.9454                   22575468.8834
        45.2504         33.0004
  -6404918.68545  -4946250.76945  24269394.9614                   24269388.2934
        32.5004         31.0004
 -20171278.17947 -11452582.74646  21361483.0004                   21361471.9384
        47.0004         36.5004
  -7940310.04346  -6789841.86844  23609041.3054                   23609032.7624
        38.0004         26.2504
 -14252176.36247 -10588331.06745  22933223.9694                   22933211.1484
        45.2504         32.5004
 -26733123.49148 -20719976.16949  20695016.7894                   20695007.8954
        50.2504         55.2504
                                  25455462.797
        28.250
  -9553355.69047  -7385175.92646  23658543.7894                   23658531.3204
        42.0004         40.0004
  -7660435.62646  -5262505.78743  24019806.8984                   24019799.2344
        36.0004         20.7504
 -25428308.39248 -21158662.68149  20501286.3594                   20501276.7624
        52.0004         55.0004
 23  1  9  0 31 30.0000000  0 10G27G23G08G22G24G21G10G31G01G32
 -11702452.03745  -8823163.55043  24890625.9694                   24890615.1414
        32.5004         23.7504
  -7640388.03647  -8349321.83345  22589849.2734                   22589839.4414
        44.2504         33.5004
  -6338872.82245  -4894786.48845  24281964.1954                   24281956.2384
        31.7504         31.2504
 -20223950.63147 -11493626.18446  21351459.7974                   21351448.8524
        46.5004         36.5004
  -7849315.49146  -6718937.00144  23626357.1094                   23626348.4494
        37.5004         24.5004
 -14310005.10947 -10633392.39845  22922218.6804                   22922206.6804
        44.5004         33.2504
 -26708506.17548 -20700793.84949  20699701.1564                   20699692.1454
        50.0004         54.7504
  -9670713.31547  -7476623.42546  23636210.7664                   23636199.3524
        42.0004         40.0004
  -7763663.60146  -5342943.15943  24000164.2344                   24000155.9264
        36.0004         19.5004
 -25431809.53548 -21161390.84549  20500619.8364                   20500610.4734
        52.0004         54.7504
 23  1  9  0 32  0.0000000  0 11G27G23G08G22G24G21G10G31G01G25G32
 -11609402.40655  -8750657.34954  24908331.4844                   24908323.1764
        33.0004         25.2504
  -7564652.81947  -8290307.39145  22604261.9224                   22604251.2114
        44.0004         33.7504
  -6272531.23145  -4843091.75845  24294588.9844                   24294580.9694
        33.0004         30.2504
 -20276287.04347 -11534407.77246  21341500.4384                   21341489.3754
        46.5004         37.2504
  -7757945.57946  -6647739.72243  23643743.9454                   23643735.3444
        37.0004         22.0004
 -14367474.64847 -10678173.85645  22911283.7344                   22911270.9144
        46.0004         33.0004
 -26683567.97548 -20681361.49449  20704446.6644                   20704437.9454
        50.7504         55.0004
  -9787958.48846  -7567983.27746  23613898.9304                   23613888.1024
        41.0004         40.0004
  -7866653.31345  -5423194.92243  23980564.8364                   23980557.0554
        35.2504         19.7504
    554553.17755    417945.50953  25410826.0084                   25410824.9104
        31.5004         21.5004
 -25434925.88848 -21163819.17449  20500027.2974                   20500017.9924
        52.5004         55.0004
 23  1  9  0 32 30.0000000  0 11G27G23G08G22G24G21G10G31G01G25G32
 -11516334.95655  -8678137.25954  24926041.2344                   24926034.1564
        33.2504         26.5004
  -7488699.80247  -8231123.25045  22618716.5944                   22618704.7114
        45.5004         33.2504
  -6205896.39145  -4791168.52645  24307269.6484                   24307261.4574
        32.5004         30.2504
 -20328286.66347 -11574926.93546  21331605.1884                   21331594.2424
        46.5004         36.5004
  -7666202.79346  -6576251.80644  23661201.6094                   23661193.0084
        37.2504         24.5004
 -14424583.02447 -10722673.89645  22900415.7584                   22900404.1684
        45.0004         32.7504
 -26658308.26148 -20661678.62549  20709253.7274                   20709244.7154
        50.5004         55.7504
  -9905087.77247  -7659252.82846  23591610.9454                   23591599.8834
        42.2504         40.7504
  -7969401.46845  -5503258.40943  23961014.2974                   23961004.3484
        35.7504         18.2504
                                  25394796.188
        38.000
 -25437657.80848 -21165947.93849  20499506.9924                   20499497.7464
        52.0004         55.0004
 23  1  9  0 33  0.0000000  0 11G27G23G08G22G24G21G10G31G01G25G32
 -11423252.86055  -8605605.73254  24943753.6724                   24943744.7194
        32.0004         24.2504
  -7412529.73447  -8171769.94845  22633210.1884                   22633199.5944
        45.0004         33.0004
  -6138971.45345  -4739019.24845  24320002.3524                   24319996.8554
        31.2504         30.5004
 -20379949.50547 -11615183.66646  21321773.7034                   21321763.1684
        46.2504         37.0004
  -7574090.20946  -6504475.76743  23678731.3984                   23678721.5664
        38.2504         22.7504
 -14481328.96647 -10766891.48145  22889617.3984                   22889604.8714
        45.0004         33.5004
 -26632726.26948 -20641744.60549  20714122.1094                   20714112.9224
        50.5004         55.0004
 -10022098.59147  -7750430.06146  23569343.9924                   23569332.5784
        42.2504         40.7504
  -8071905.52345  -5583131.72543  23941507.3364                   23941498.5004
        35.5004         20.2504
    509107.98455    361499.10153  25378775.3284                   25378767.0784
        30.5004         22.0004
 -25440006.27948 -21167777.91449  20499059.9224                   20499050.7934
        51.7504         55.0004
 23  1  9  0 33 30.0000000  0 11G27G23G08G22G24G21G10G31G01G25G32
 -11330159.28245  -8533065.27744  24961470.7034                   24961462.0434
        33.0004         26.5004
  -7336143.23547  -8112248.00545  22647745.9144                   22647735.4964
        44.0004         33.0004
  -6071759.74545  -4686646.50345  24332794.6094                   24332786.8874
        32.0004         30.0004
 -20431275.86247 -11655178.21046  21312006.6954                   21311995.9264
        46.5004         37.2504
  -7481610.95645  -6432414.00343  23696327.7034                   23696319.9224
        35.5004         22.5004
 -14537710.73147 -10810825.33345  22878888.5634                   22878875.9184
        45.7504         34.0004
 -26606822.33848 -20621559.72349  20719051.3444                   20719041.8054
        50.5004         54.7504
 -10138987.76747  -7841512.53046  23547101.1024                   23547089.8634
        42.0004         41.0004
  -8174162.86346  -5662812.75043  23922048.4454                   23922040.4304
        36.0004         18.5004
    424978.77755    295943.72153  25362764.7504                   25362758.4924
        31.2504         22.0004
 -25441972.29548 -21169309.87249  20498686.0394                   20498676.7344
        51.7504         54.7504
 23  1  9  0 34  0.0000000  0 11G27G23G08G22G24G21G10G12G31G01G32
 -11237056.73655  -8460517.87654  24979185.1644                   24979178.3794
        30.5004         25.5004
  -7259540.24847  -8052557.38745  22662322.6484                   22662312.2894
        44.2504         33.2504
  -6004263.30645  -4634051.89444  24345638.6094                   24345630.8874
        32.2504         29.5004
 -20482264.98847 -11694909.96246  21302303.7344                   21302292.6724
        45.7504         37.2504
  -7388767.33746  -6360068.32443  23713997.1254                   23713987.1764
        38.0004         22.7504
 -14593726.24747 -10854473.77945  22868228.7114                   22868217.1214
        45.0004         34.0004
 -26580595.46248 -20601123.20449  20724042.0554                   20724032.8674
        50.0004         54.7504
                                  25602800.664
        36.500
 -10255751.96047  -7932497.59646  23524881.2974                   23524869.5904
        42.5004         41.5004
  -8276170.10345  -5742298.92743  23902637.0554                   23902628.5124
        35.0004         19.5004
 -25443556.14848 -21170544.03749  20498384.9844                   20498375.1524
        52.2504         55.0004
 23  1  9  0 34 30.0000000  0 11G27G23G08G22G24G21G10G12G31G01G32
 -11143948.66145  -8387966.08144  24996905.6024                   24996894.8914
        33.5004         25.7504
  -7182721.75647  -7992698.84445  22676941.5474                   22676930.4264
        45.0004         32.2504
  -5936485.58545  -4581238.11544  24358535.0554                   24358528.3874
        30.5004         29.7504
 -20532917.19647 -11734379.19946  21292665.4144                   21292654.0594
        46.5004         37.0004
  -7295562.82246  -6287441.46043  23731733.0004                   23731723.5784
        36.5004         21.7504
 -14649374.06647 -10897835.68345  22857639.1094                   22857627.3444
        44.7504         33.7504
 -26554045.69948 -20580435.08949  20729094.4454                   20729085.1994
        51.2504         55.0004
    564163.66646    463180.41552  25589527.4534                   25589517.6214
        36.0004         15.5004
 -10372388.74546  -8023383.38946  23502684.2664                   23502675.0784
        41.0004         41.5004
  -8377925.21545  -5821588.55143  23883271.1094                   23883265.8484
        35.2504         19.2504
 -25444759.16848 -21171481.45049  20498155.9774                   20498146.2034
        53.0004         54.7504
 23  1  9  0 35  0.0000000  0 12G27G23G08G22G24G21G10G12G31G01G25G32
 -11050838.78545  -8315412.92744  25014620.5704                   25014615.1334
        30.7504         24.0004
  -7105688.97047  -7932673.31145  22691600.5004                   22691588.9694
        45.7504         32.2504
  -5868430.93445  -4528208.50745  24371485.5314                   24371478.9224
        30.5004         30.5004
 -20583233.03647 -11773586.31846  21283090.1724                   21283078.9344
        46.2504         37.0004
  -7202000.96246  -6214536.07843  23749535.7664                   23749528.0434
        36.5004         22.7504
 -14704653.26447 -10940910.38345  22847120.9144                   22847107.3324
        45.7504         34.0004
 -26527173.79448 -20559495.94949  20734208.0314                   20734198.8444
        50.2504         55.2504
    494658.02246    409020.22542  25576301.2814                   25576289.9264
        37.0004         16.2504
 -10488895.74946  -8114168.03346  23480515.0164                   23480503.7194
        41.5004         41.7504
  -8479425.72246  -5900679.86143  23863959.5634                   23863951.0784
        37.0004         20.5004
    594952.28956    213344.45655  25314808.2734                   25314799.9654
        36.7504         33.5004
 -25445582.89148 -21172123.31849  20497999.0784                   20497989.4804
        52.0004         55.0004
 23  1  9  0 35 30.0000000  0 12G27G23G08G22G24G21G10G12G31G01G25G32
 -10957726.87045  -8242858.16844  25032341.3984                   25032332.0944
        31.5004         24.5004
  -7028439.20947  -7872478.68445  22706299.4694                   22706289.6954
        44.2504         32.5004
  -5800098.29845  -4474962.33045  24384489.5784                   24384482.2074
        30.2504         30.0004
 -20633209.26747 -11812528.81846  21273580.7194                   21273569.1294
        47.2504         37.0004
  -7108081.61246  -6141352.21543  23767408.7274                   23767399.8914
        36.0004         22.5004
 -14759559.09247 -10983694.14445  22836671.5004                   22836659.6174
        44.7504         34.0004
 -26499975.90248 -20538302.79649  20739383.7814                   20739374.3014
        50.7504         55.5004
    425406.89346    355058.30542  25563122.1334                   25563111.8914
        36.2504         15.5004
 -10605267.09246  -8204846.97747  23458370.0634                   23458359.4104
        41.5004         42.0004
  -8580665.96845  -5979568.34943  23844692.6024                   23844685.3484
        35.5004         20.7504
                                  25298846.500
        38.500
 -25446025.03648 -21172467.83849  20497914.9224                   20497905.2074
        52.7504         54.7504
 23  1  9  0 36  0.0000000  0 12G27G23G08G22G24G21G10G12G31G01G25G32
 -10864618.77354  -8170306.36654  25050057.2974                   25050051.2154
        28.5004         26.2504
  -6950975.78147  -7812117.60245  22721041.0004                   22721031.1684
        45.0004         32.5004
 -10457753.36055  -8104303.95355  24397544.6414                   24397537.1524
        31.5004         30.0004
 -20682848.57847 -11851208.77146  21264133.9224                   21264123.0354
        46.0004         37.2504
  -7013810.47746  -6067894.17143  23785347.9384                   23785339.2194
        36.7504         22.0004
 -14814093.11347 -11026188.16945  22826294.3984                   22826282.6914
        45.5004         34.5004
 -26472454.71948 -20516857.72449  20744620.7734                   20744611.5274
        50.5004         55.0004
    356410.83745    301295.17643  25549990.4694                   25549982.2774
        32.7504         18.2504
 -10721502.50046  -8295419.98947  23436251.2034                   23436240.5514
        41.5004         42.5004
  -8681645.93546  -6058254.00043  23825477.6174                   23825469.4844
        37.2504         21.0004
                                  25282899.0394                   25282893.3674
        39.0004         27.7504
 -25446089.25348 -21172517.86749  20497902.8834                   20497893.2854
        52.0004         54.7504
 23  1  9  0 36 30.0000000  0 11G27G23G08G22G24G21G10G12G31G01G32
 -10771517.82945  -8097760.18444  25067774.5394                   25067767.8134
        30.0004         25.2504
  -6873299.60447  -7751590.71245  22735821.5234                   22735811.1054
        44.5004         31.5004
 -10388879.73955  -8050636.16354  24410651.2274                   24410643.8554
        31.2504         29.7504
 -20732151.18347 -11889626.34846  21254751.8834                   21254740.7034
        45.7504         36.7504
  -6919190.80146  -5994164.54543  23803354.1954                   23803344.8914
        37.2504         22.2504
 -14868253.57547 -11068391.12545  22815988.6484                   22815975.7114
        46.0004         33.7504
 -26444610.14148 -20495160.65349  20749919.3914                   20749909.9694
        50.5004         55.2504
    287672.54146    247732.89443  25536913.7274                   25536902.0204
        38.5004         19.2504
 -10837599.31546  -8385885.01047  23414158.2974                   23414148.0554
        41.2504         42.5004
  -8782363.08946  -6136734.90645  23806312.1884                   23806302.7664
        37.0004         32.5004
 -25445776.77948 -21172274.37149  20497962.0084                   20497952.5864
        52.0004         54.7504
 23  1  9  0 37  0.0000000  0 11G27G23G08G22G24G21G10G12G31G01G32
 -10678426.11945  -8025221.18544  25085490.5864                   25085481.3404
        31.5004         25.5004
  -6795410.31447  -7690897.80145  22750644.1884                   22750633.1254
        44.5004         32.2504
                                  24423807.1884                   24423800.6374
        29.2504         29.0004
 -20781116.67147 -11927781.25046  21245434.5704                   21245423.0984
        47.0004         37.5004
  -6824224.80846  -5920165.11443  23821425.0314                   23821416.0784
        36.5004         21.5004
 -14922037.95747 -11110301.02545  22805752.9774                   22805740.8594
        44.2504         33.5004
 -26416441.14748 -20473210.79149  20755279.8204                   20755270.6914
        50.2504         54.7504
    219195.23745    194374.08643  25523879.8674                   25523872.5554
        33.5004         18.5004
 -10953554.11946  -8476239.36547  23392094.1804                   23392082.6484
        41.7504         42.7504
  -8882813.99046  -6215008.34545  23787195.7274                   23787188.8834
        36.7504         33.0004
 -25445087.69348 -21171737.42349  20498093.1484                   20498083.5514
        52.0004         54.7504
 23  1  9  0 37 30.0000000  0 12G27G23G08G22G24G21G10G12G31G01G25G32
                                  25103202.8914                   25103195.4614
        30.5004         25.7504
  -6717304.94047  -7630036.45845  22765507.4614                   22765495.6954
        44.7504         31.7504
 -10250331.97745  -7942676.92545  24437015.8364                   24437008.6994
        32.0004         30.7504
 -20829741.15447 -11965670.44946  21236181.7034                   21236170.4654
        46.5004         37.2504
  -6728911.79146  -5845895.22743  23839563.3754                   23839553.3094
        36.7504         22.2504
 -14975441.25547 -11151913.96645  22795590.3834                   22795578.8524
        45.0004         34.0004
 -26387943.86648 -20451005.11949  20760702.7194                   20760693.5314
        50.5004         54.7504
    150986.07645    141224.00243  25510901.4924                   25510892.0124
        35.5004         19.5004
 -11069359.95647  -8566477.66047  23370057.1414                   23370045.5514
        42.5004         43.0004
  -8982992.26146  -6293069.29945  23768134.6094                   23768124.7194
        38.5004         33.5004
    652325.87755    153672.66954  25235138.8444                   25235128.3674
        30.0004         28.0004
 -25444019.32448 -21170904.92049  20498296.3364                   20498287.1484
        52.0004         54.7504
 23  1  9  0 38  0.0000000  0 12G27G23G08G22G24G21G10G12G31G01G25G32
 -10492277.52345  -7880170.28744  25120913.1414                   25120904.8914
        31.7504         25.5004
  -6638989.72147  -7569011.63145  22780409.7424                   22780399.5004
        45.0004         32.2504
 -10180665.99255  -7888391.78554  24450271.6094                   24450264.4734
        30.2504         29.5004
 -20878030.37747 -12003298.39346  21226992.2194                   21226981.1564
        46.7504         37.2504
  -6633260.51645  -5771361.76343  23857764.4844                   23857755.2974
        35.7504         22.0004
 -15028467.74347 -11193233.30545  22785500.3984                   22785488.0474
        45.5004         33.5004
 -26359123.79748 -20428547.93049  20766187.1414                   20766177.7774
        51.2504         55.0004
     83041.85446     88280.62442  25497972.6644                   25497962.3634
        37.5004         17.7504
 -11185019.91847  -8656602.26747  23348047.0784                   23348035.6644
        42.2504         42.7504
  -9082900.74046  -6370920.11145  23749120.7894                   23749112.4804
        36.2504         33.7504
    568827.88556    102305.91155  25219249.2734                   25219239.5594
        36.5004         30.2504
 -25442578.27248 -21169782.01249  20498570.7734                   20498561.3524
        52.5004         55.0004
 23  1  9  0 38 30.0000000  0 12G27G23G08G22G24G21G10G12G31G01G25G32
                                  25138621.5474                   25138612.0084
        33.2504         25.7504
  -6560459.56147  -7507819.31445  22795353.7734                   22795343.1804
        44.2504         32.5004
 -11686158.76655  -9061503.05554  24463578.8834                   24463571.9224
        31.0004         29.7504
 -20925978.65947 -12040660.66246  21217868.1414                   21217856.6094
        47.0004         37.5004
  -6537268.35346  -5696562.70843  23876032.5474                   23876022.0124
        36.7504         21.5004
 -15081110.20347 -11234253.40445  22775482.6954                   22775470.6954
        45.0004         34.0004
 -26329975.11748 -20405834.67149  20771733.8444                   20771724.7154
        50.5004         54.7504
     15371.55446     35550.57943  25485097.9454                   25485084.3054
        39.7504         18.5004
 -11300525.22846  -8746606.37847  23326066.4304                   23326056.1294
        41.5004         42.5004
  -9182531.16346  -6448554.15845  23730162.5314                   23730153.8714
        38.0004         33.7504
  -1090003.52555  -1190289.97654  25203372.8364                   25203365.4064
        32.0004         24.2504
 -25440759.88548 -21168365.08049  20498916.6094                   20498907.3634
        52.5004         54.7504
 23  1  9  0 39  0.0000000  0 12G27G23G08G22G24G21G10G12G31G01G25G32
                                  25156324.6484                   25156314.7584
        33.0004         25.5004
  -6481719.46947  -7446463.42045  22810337.2504                   22810327.1254
        44.0004         31.5004
 -11615977.85345  -9006816.65345  24476935.7424                   24476927.2584
        32.5004         31.0004
 -20973590.46247 -12077760.74446  21208807.0784                   21208796.6024
        46.5004         37.0004
  -6440942.51946  -5621503.59843  23894361.6414                   23894351.9844
        36.2504         21.0004
 -15133372.15647 -11274976.97345  22765537.2034                   22765525.4384
        45.2504         33.0004
 -26300501.49248 -20382868.22249  20777341.9924                   20777333.1564
        50.7504         54.7504
    -52026.34046    -16967.33143  25472269.1564                   25472258.7974
        36.0004         18.2504
 -11415877.25547  -8836491.04447  23304116.3364                   23304105.3914
        42.2504         43.0004
  -9281885.02246  -6525972.77745  23711256.6954                   23711247.5084
        38.5004         33.5004
  -1173327.63945  -1255217.72344  25187516.0004                   25187510.4454
        31.7504         27.0004
 -25438569.44148 -21166658.24449  20499333.6414                   20499324.3364
        53.0004         54.7504
 23  1  9  0 39 30.0000000  0 12G27G23G08G22G24G21G10G12G31G01G25G32
 -11788615.72255  -8890303.84454  25174022.2344                   25174012.2274
        31.7504         26.2504
  -6402771.38247  -7384945.43245  22825361.4924                   22825350.1374
        44.5004         31.0004
 -11545547.75845  -8951936.10444  24490336.2664                   24490329.4804
        31.7504         29.7504
 -21020867.31347 -12114599.81646  21199811.1954                   21199799.8404
        46.5004         36.7504
  -6344287.57045  -5546188.08743  23912753.5784                   23912744.8594
        35.7504         22.2504
 -15185252.47047 -11315403.19545  22755665.8054                   22755653.0434
        46.0004         33.5004
 -26270704.76048 -20359649.99649  20783012.4384                   20783003.3094
        50.7504         55.0004
   -119150.71246    -69271.95643  25459495.8674                   25459484.8634
        36.7504         18.5004
 -11531074.63846  -8926255.20747  23282194.2974                   23282183.8794
        41.7504         42.5004
  -9380961.08146  -6603174.90445  23692401.6724                   23692394.2424
        36.7504         33.5004
  -1256562.95745  -1320076.30243  25171677.2974                   25171670.8634
        32.5004         22.5004
 -25436009.27548 -21164663.30949  20499820.9304                   20499811.1564
        52.7504         54.7504
 23  1  9  0 40  0.0000000  0 12G27G23G08G22G24G21G10G12G31G01G25G32
                                  25191713.3914                   25191705.6094
        32.0004         22.7504
  -6323606.82047  -7323258.76445  22840425.3914                   22840414.2704
        43.5004         30.7504
 -11474862.23645  -8896856.47645  24503787.6644                   24503780.5274
        31.5004         30.7504
 -21067799.89447 -12151170.64046  21190880.6644                   21190868.8404
        46.5004         37.2504
  -6247297.36545  -5470611.25143  23931209.8674                   23931201.0904
        34.5004         20.7504
 -15236740.02447 -11355523.36845  22745867.2424                   22745855.3014
        45.0004         34.5004
 -26240575.28448 -20336172.48749  20788745.9844                   20788736.7974
        51.2504         54.7504
   -185988.84146   -121353.72042  25446778.1484                   25446766.4414
        37.5004         17.2504
 -11646105.49346  -9015889.61947  23260305.0474                   23260294.2194
        41.7504         42.7504
  -9479747.43646  -6680151.28045  23673604.7584                   23673595.4534
        37.7504         34.2504
  -1339696.94545  -1384856.10244  25155859.3674                   25155851.5274
        34.0004         28.7504
 -25433071.33948 -21162373.99949  20500380.0704                   20500370.4734
        53.7504         55.0004
 23  1  9  0 40 30.0000000  0 12G27G23G08G22G24G21G10G12G31G01G25G32
 -11602687.51655  -8745424.90954  25209403.1174                   25209393.3444
        33.5004         26.5004
  -6244237.52547  -7261412.57845  22855528.4844                   22855518.7704
        43.5004         31.2504
 -11403935.53445  -8841588.88445  24517283.2894                   24517278.0274
        31.0004         31.2504
 -21114399.45947 -12187481.95846  21182012.5394                   21182001.5944
        46.0004         37.0004
  -6149986.10645  -5394784.37343  23949728.7274                   23949719.4224
        35.0004         20.5004
 -15287845.29047 -11395345.63845  22736142.5004                   22736129.9734
        45.0004         33.5004
 -26210123.85548 -20312444.11349  20794540.7814                   20794531.4184
        50.5004         55.0004
   -252549.32945   -173219.00542  25434110.5394                   25434101.0594
        34.0004         17.7504
 -11760977.99147  -9105400.63047  23238445.8834                   23238434.8204
        42.0004         42.5004
  -9578252.58246  -6756908.52745  23654858.8524                   23654851.0124
        38.2504         33.7504
  -1422738.03945  -1449563.55744  25140054.2734                   25140047.7234
        30.5004         24.7504
 -25429767.70348 -21159799.72649  20501008.6484                   20500999.0514
        52.7504         55.5004
 23  1  9  0 41  0.0000000  0 12G27G23G08G22G24G21G10G12G31G01G25G32
                                  25227081.8754                   25227076.5554
        28.0004         23.7504
  -6164653.33247  -7199398.94045  22870673.7974                   22870663.0864
        43.5004         31.5004
 -11332760.05645  -8786127.52945  24530829.3134                   24530822.2344
        33.0004         31.2504
 -21160655.61147 -12223525.69246  21173210.0084                   21173198.8284
        45.7504         37.7504
  -6052345.94245  -5318701.17043  23968308.5634                   23968299.6684
        35.5004         21.0004
 -15338555.73647 -11434860.27645  22726493.0004                   22726479.7704
        46.0004         33.5004
 -26179339.52448 -20288456.32449  20800398.5164                   20800389.3874
        50.5004         55.2504
   -318818.53645   -224857.32442  25421500.6804                   25421490.6134
        35.2504         16.7504
 -11875678.44846  -9194777.58847  23216619.3914                   23216608.0354
        41.5004         43.0004
  -9676462.89346  -6833436.03345  23636170.0634                   23636161.8714
        36.5004         33.7504
  -1505672.39545  -1514187.58044  25124272.0314                   25124266.1844
        31.2504         25.5004
 -25426088.63248 -21156932.90949  20501708.6724                   20501699.3674
        53.5004         55.0004
 23  1  9  0 41 30.0000000  0 12G27G23G08G22G24G21G10G12G31G01G25G32
                                  25244761.836
        32.250
  -6084862.64347  -7137224.39945  22885857.8364                   22885846.4224
        43.7504         30.5004
 -11261346.04046  -8730480.25045  24544421.1564                   24544411.2074
        36.0004         31.2504
 -21206576.10747 -12259307.87046  21164471.8204                   21164460.8164
        45.7504         37.7504
  -5954387.69945  -5242370.02743  23986949.0474                   23986940.2704
        33.7504         19.0004
 -15388878.00447 -11474072.43345  22716916.1564                   22716904.2734
        44.5004         34.5004
 -26148230.08548 -20264215.21249  20806318.3204                   20806309.4844
        50.5004         54.7504
   -384801.54546   -276272.64942  25408944.8834                   25408934.0554
        36.2504         17.2504
 -11990211.72146  -9284024.27047  23194823.2974                   23194812.4694
        41.7504         43.0004
  -9774383.47946  -6909737.82545  23617535.7424                   23617528.1374
        36.7504         33.2504
  -1588504.60445  -1578732.20344  25108511.2344                   25108503.1024
        32.7504         26.5004
 -25422042.85748 -21153780.35949  20502478.7194                   20502469.0634
        53.0004         54.7504
 23  1  9  0 42  0.0000000  0 11G23G08G22G24G21G10G12G31G01G25G32
  -6004863.33347  -7074887.28745  22901080.0784                   22901069.0744
        43.0004         30.0004
 -11189694.52745  -8674647.93745  24558053.8594                   24558045.7854
        34.5004         31.5004
 -21252158.19047 -12294826.35746  21155797.9924                   21155786.4614
        46.0004         37.5004
  -5856111.78645  -5165791.42743  24005651.3914                   24005642.2624
        35.5004         21.2504
 -15438808.07647 -11512978.96945  22707415.1094                   22707402.5234
        45.0004         34.0004
 -26116792.45848 -20239718.37049  20812300.9304                   20812291.6844
        50.7504         54.7504
   -450492.45246   -327460.31443  25396443.4144                   25396433.5234
        36.5004         18.2504
 -12104572.21446  -9373136.31747  23173061.9774                   23173050.6804
        41.7504         43.0004
  -9872008.86346  -6985809.54745  23598958.7194                   23598950.8794
        37.0004         34.0004
  -1671228.87045  -1643192.64644  25092767.8204                   25092762.2074
        32.2504         27.7504
 -25417628.66148 -21150340.71649  20503318.2974                   20503309.2274
        52.7504         55.0004
 23  1  9  0 42 30.0000000  0 12G27G23G08G22G24G21G10G12G31G01G25G32
                                  25280092.3914                   25280079.0434
        34.2504         22.7504
  -5924655.69947  -7012387.82645  22916342.6804                   22916332.5554
        42.0004         31.2504
 -11117807.57745  -8618632.14945  24571732.4924                   24571725.4144
        32.7504         31.5004
 -21297401.72147 -12330081.03746  21147188.2344                   21147177.1724
        45.7504         37.5004
  -5757520.70045  -5088967.24843  24024411.8134                   24024403.0944
        34.2504         19.7504
 -15488343.61347 -11551578.08045  22697989.0084                   22697976.4224
        46.2504         34.0004
 -26085026.21148 -20214965.45649  20818345.8054                   20818336.6764
        51.0004         54.7504
   -515888.04046   -378417.85243  25384000.9614                   25383989.0204
        39.0004         19.0004
 -12218756.40547  -9462110.99047  23151333.4694                   23151321.9384
        42.5004         43.2504
  -9969335.97646  -7061648.82545  23580438.2504                   23580429.8244
        37.5004         34.0004
  -1753841.64945  -1707566.21244  25077048.2274                   25077041.3834
        33.0004         28.0004
 -25412846.69648 -21146614.50849  20504228.2584                   20504219.1884
        53.0004         55.0004
 23  1  9  0 43  0.0000000  0 12G27G23G08G22G24G21G10G12G31G01G25G32
                                  25297740.2664                   25297730.0234
        32.0004         23.0004
  -5844240.61847  -6949726.74945  22931646.4614                   22931635.5744
        43.5004         31.0004
 -11045689.44645  -8562436.19445  24585458.6414                   24585449.2774
        35.7504         31.0004
 -21342307.11847 -12365072.24246  21138643.1094                   21138631.8134
        46.2504         37.7504
  -5658617.93345  -5011900.09743  24043232.2114                   24043223.7274
        33.2504         19.5004
 -15537483.72247 -11589869.09245  22688638.2424                   22688625.3634
        46.5004         35.0004
 -26052931.42248 -20189956.54349  20824453.2034                   20824443.9574
        50.7504         54.7504
   -580985.74646   -429143.34443  25371613.6484                   25371600.9454
        38.7504         19.7504
 -12332761.79746  -9550946.35647  23129638.0554                   23129627.8714
        41.5004         43.0004
 -10066362.27246  -7137253.76245  23561975.3284                   23561966.3754
        37.5004         34.0004
  -1836340.23345  -1771850.76044  25061349.9534                   25061342.3484
        33.2504         27.5004
 -25407698.24848 -21142602.72749  20505207.8834                   20505198.8714
        52.5004         54.7504
 23  1  9  0 43 30.0000000  0 11G23G08G22G24G21G10G12G31G01G25G32
  -5763617.92447  -6886903.89745  22946988.7504                   22946977.6884
        43.5004         30.5004
 -10973341.78445  -8506061.38245  24599222.2974                   24599216.5084
        33.0004         31.5004
 -21386873.62947 -12399799.37146  21130162.3834                   21130151.1454
        46.2504         38.2504
  -5559405.51945  -4934591.74943  24062111.8834                   24062102.9304
        33.2504         18.2504
 -15586225.83247 -11627849.93845  22679362.3674                   22679350.1334
        45.0004         34.5004
 -26020507.04848 -20164690.80049  20830623.9064                   20830614.2504
        51.0004         55.2504
   -645781.93346   -479633.73343  25359281.3444                   25359271.3364
        36.7504         19.5004
 -12446584.70247  -9639639.49347  23107979.3914                   23107967.8594
        42.5004         43.5004
 -10163084.34646  -7212621.57545  23543569.1334                   23543560.5314
        37.0004         35.2504
  -1918720.68245  -1836043.29344  25045674.4694                   25045665.5744
        33.7504         28.2504
 -25402183.48148 -21138305.49649  20506257.5234                   20506248.4534
        52.7504         54.7504
 23  1  9  0 44  0.0000000  0 12G27G23G08G22G24G21G10G12G31G01G25G32
                                  25333018.6954                   25333008.1604
        34.0004         22.0004
  -5682788.46247  -6823919.91045  22962368.6804                   22962358.6134
        42.7504         30.5004
 -10900768.04945  -8449510.49445  24613035.2424                   24613026.3484
        35.2504         31.0004
 -21431101.47747 -12434262.61546  21121745.8674                   21121734.6884
        46.2504         37.2504
  -5459886.84845  -4857044.72443  24081050.1024                   24081040.6804
        33.7504         19.5004
 -15634569.21847 -11665520.09145  22670162.8674                   22670151.0434
        45.5004         34.7504
 -25987753.03948 -20139168.20449  20836856.6024                   20836847.2384
        50.7504         55.0004
   -710273.43046   -529886.86643  25347008.9924                   25346999.1604
        36.0004         19.2504
 -12560222.42047  -9728188.34847  23086353.8364                   23086343.4184
        42.0004         43.7504
 -10259499.55846  -7287750.30045  23525222.2424                   23525213.1724
        38.0004         35.7504
  -2000980.17145  -1900141.59144  25030019.6644                   25030011.7074
        32.7504         27.5004
 -25396303.73148 -21133723.86849  20507376.5004                   20507366.9614
        53.2504         54.7504
 23  1  9  0 44 30.0000000  0 12G27G23G08G22G24G21G10G12G31G01G25G32
                                  25350638.8594                   25350632.3674
        30.0004         23.0004
  -5601753.42247  -6760775.72745  22977789.6954                   22977778.8674
        43.5004         30.5004
 -10827971.74445  -8392786.09445  24626888.5084                   24626879.7894
        35.0004         32.5004
 -21474991.52647 -12468462.63746  21113393.8054                   21113382.8014
        46.0004         37.7504
  -5360065.27145  -4779261.72542  24100044.7894                   24100036.7734
        32.5004         17.7504
 -15682512.24847 -11702878.31345  22661040.6254                   22661027.3364
        46.5004         35.0004
 -25954670.11348 -20113389.31449  20843151.8134                   20843142.8594
        50.7504         55.0004
   -774458.57746   -579901.26943  25334794.8054                   25334785.0904
        36.2504         19.0004
 -12673672.55747  -9816591.01847  23064765.7974                   23064754.5594
        42.7504         44.0004
 -10355605.72746  -7362638.20545  23506933.4224                   23506925.3484
        37.7504         35.5004
  -2083115.96945  -1964143.45144  25014388.6174                   25014382.0084
        32.5004         28.0004
 -25390060.47049 -21128858.98249  20508564.4454                   20508555.3754
        54.5004         54.7504
 23  1  9  0 45  0.0000000  0 12G27G23G08G22G24G21G10G12G31G01G25G32
                                  25368253.0554                   25368245.9184
        29.0004         25.0004
  -5520512.48847  -6697471.12945  22993250.2274                   22993239.2814
        43.2504         30.5004
 -10754955.09945  -8335890.01345  24640780.4534                   24640774.0784
        34.0004         30.7504
 -21518543.06647 -12502398.87646  21105106.0864                   21105095.1994
        46.0004         37.7504
  -5259943.13645  -4701244.43743  24119099.1644                   24119088.6884
        35.5004         18.2504
 -15730053.13847 -11739923.14945  22651992.8364                   22651980.5434
        44.5004         35.0004
 -25921256.43648 -20087352.69849  20849510.5084                   20849501.2624
        51.0004         55.0004
   -838333.41446   -629673.84643  25322641.5394                   25322630.1844
        38.0004         19.5004
 -12786931.38147  -9904844.61747  23043212.8594                   23043202.3244
        43.2504         44.2504
 -10451399.15846  -7437282.42946  23488704.7734                   23488695.9384
        39.0004         36.0004
  -2165124.19245  -2028045.88044  24998783.7034                   24998776.5084
        33.0004         27.2504
 -25383453.83748 -21123710.95149  20509821.8754                   20509812.3364
        53.0004         55.0004
 23  1  9  0 45 30.0000000  0 12G27G23G08G22G24G21G10G12G31G01G25G32
                                  25385858.8914                   25385847.6524
        31.7504         22.5004
  -5439066.12847  -6634006.47445  23008748.6174                   23008737.3794
        43.2504         30.5004
 -10681720.96746  -8278824.50445  24654718.1094                   24654709.7424
        36.0004         31.0004
 -21561755.82247 -12536071.13646  21096883.1484                   21096872.1454
        46.0004         37.5004
  -5159523.14545  -4622995.12243  24138208.3594                   24138198.5864
        34.0004         19.2504
 -15777190.16447 -11776653.29045  22643022.5474                   22643010.4884
        45.2504         34.0004
 -25887512.40048 -20061058.65249  20855931.8204                   20855921.9884
        51.2504         54.7504
   -901894.94845   -679202.28043  25310544.3134                   25310534.8324
        35.7504         18.5004
 -12899995.60047  -9992946.58847  23021697.7034                   23021686.6414
        43.5004         44.5004
 -10546877.03946  -7511680.75245  23470536.3364                   23470527.5594
        38.2504         35.5004
  -2247001.51745  -2091846.34944  24983203.0634                   24983195.7504
        33.2504         27.5004
 -25376484.70148 -21118280.44849  20511147.6724                   20511138.3674
        53.0004         55.0004
 23  1  9  0 46  0.0000000  0 11G23G08G22G24G21G10G12G31G01G25G32
  -5357416.44447  -6570383.33845  23024285.5784                   23024274.8674
        43.5004         30.2504
 -10608273.64745  -8221592.79645  24668695.6564                   24668687.2304
        35.5004         31.7504
 -21604631.59747 -12569480.83046  21088723.8134                   21088713.2774
        45.5004         37.5004
  -5058809.75345  -4544517.14043  24157374.0164                   24157363.8324
        34.5004         20.5004
 -15823922.96147 -11813068.45845  22634130.7344                   22634117.7384
        45.0004         34.7504
 -25853439.08848 -20034508.02549  20862415.4534                   20862406.4414
        50.7504         54.7504
   -965141.60346   -728485.34342  25298509.6174                   25298499.0824
        36.5004         17.7504
 -13012863.72247 -10080895.73947  23000220.0004                   23000208.5274
        42.5004         44.5004
 -10642037.90846  -7585832.06746  23452428.3284                   23452419.0824
        40.2504         36.2504
  -2328746.42545  -2155543.67044  24967648.4844                   24967639.8244
        33.0004         27.2504
 -25369155.45349 -21112569.34849  20512542.2974                   20512533.1094
        54.5004         54.7504
 23  1  9  0 46 30.0000000  0 12G27G23G08G22G24G21G10G12G31G01G25G32
   -387595.40655  -8054865.07953  25421025.8284                   25421017.6954
        30.2504         23.7504
  -5275563.94447  -6506602.20045  23039862.1414                   23039850.6684
        44.2504         30.5004
 -10534616.62045  -8164197.73345  24682708.8674                   24682703.4304
        33.0004         31.0004
 -21647170.29447 -12602627.84946  21080628.8524                   21080617.9654
        46.0004         38.0004
  -4957805.87645  -4465812.86243  24176591.9774                   24176584.3714
        32.2504         21.2504
 -15870250.46147 -11849167.80445  22625314.5004                   22625302.3834
        45.0004         34.5004
 -25819035.88948 -20007700.34449  20868962.4694                   20868953.3404
        51.0004         54.7504
  -1028070.44845   -777520.65343  25286533.5084                   25286524.2624
        35.5004         18.2504
 -13125532.92147 -10168689.89447  22978779.1884                   22978768.0664
        43.2504         44.5004
 -10736879.05046  -7659734.23146  23434378.8834                   23434371.5124
        37.0004         36.0004
  -2410365.40355  -2204680.02254  24952117.8594                   24952109.8444
        33.0004         28.7504
 -25361467.11848 -21106578.42849  20514005.3204                   20513995.8984
        53.0004         55.0004
 23  1  9  0 47  0.0000000  0 12G27G23G08G22G24G21G10G12G31G01G25G32
                                  25438593.7894                   25438585.4224
        31.0004         24.5004
  -5193503.00047  -6442658.63044  23055477.6954                   23055466.5744
        43.0004         29.5004
 -10460746.21245  -8106636.43445  24696768.6484                   24696759.8134
        35.7504         31.5004
 -21689365.87247 -12635507.50346  21072600.0394                   21072587.8634
        46.5004         38.2504
  -4856508.20145  -4386879.58743  24195868.6094                   24195860.5944
        32.7504         19.5004
 -15916165.06847 -11884945.41845  22616576.6484                   22616564.9414
        44.7504         34.2504
 -25784296.69148 -19980630.84649  20875572.7974                   20875563.5514
        51.2504         54.7504
  -1090672.30846   -826301.35642  25274621.8834                   25274610.1174
        36.5004         16.7504
 -13237993.91247 -10256321.80647  22957378.5784                   22957367.5164
        43.0004         44.7504
 -10831391.34346  -7733380.17546  23416395.0944                   23416385.9654
        39.5004         36.2504
  -2491829.15145  -2268158.21044  24936616.6484                   24936607.6954
        33.5004         27.2504
 -25353414.36748 -21100303.55849  20515537.8594                   20515528.7304
        53.5004         55.0004
 23  1  9  0 47 30.0000000  0 11G23G08G22G24G21G10G12G31G01G25G32
  -5111241.98847  -6378559.13145  23071130.9144                   23071120.4964
        43.5004         30.5004
 -10386673.51345  -8048917.46345  24710862.6884                   24710855.9614
        35.2504         30.7504
 -21731226.14847 -12668125.89646  21064634.4454                   21064622.7974
        46.2504         38.2504
  -4754927.44545  -4307725.73743  24215199.1804                   24215190.1094
        32.5004         19.7504
 -15961673.40847 -11920406.46145  22607917.3914                   22607904.9224
        45.5004         34.7504
 -25749229.00848 -19953305.39049  20882246.0084                   20882236.6454
        51.0004         54.7504
  -1152951.92845   -874830.91142  25262768.6564                   25262759.2344
        35.2504         17.2504
 -13350251.46347 -10343795.19147  22936017.6414                   22936005.4654
        43.5004         44.7504
 -10925579.68946  -7806773.67346  23398469.8284                   23398462.7504
        38.5004         36.5004
                                  24921141.4924                   24921133.4184
        34.0004         28.0004
 -25345005.97048 -21093751.55549  20517137.8594                   20517128.3794
        52.7504         55.0004
 23  1  9  0 48  0.0000000  0 11G23G08G22G24G21G10G12G31G01G25G32
  -5028777.63347  -6314301.22944  23086823.6024                   23086812.5394
        43.5004         29.7504
 -10312397.50746  -7991040.04445  24724999.6724                   24724990.3674
        37.0004         31.2504
 -21772747.67147 -12700480.30846  21056732.6724                   21056721.3164
        46.2504         38.5004
  -4653062.86245  -4228350.71143  24234583.9844                   24234574.7974
        33.5004         19.0004
 -16006769.28847 -11955546.10245  22599335.8054                   22599322.9264
        46.0004         35.0004
 -25713828.76748 -19925720.79049  20888982.7274                   20888972.9534
        51.5004         54.7504
  -1214902.90445   -923104.35642  25250982.2114                   25250970.6214
        35.5004         17.2504
 -13462298.69047 -10431104.70847  22914694.8754                   22914683.8134
        43.5004         45.0004
 -11019437.56746  -7879909.67946  23380611.3134                   23380602.2424
        38.7504         36.0004
  -2654327.78755  -2394780.46754  24905693.0784                   24905686.2344
        33.5004         28.7504
 -25336239.09448 -21086920.22149  20518806.4224                   20518797.1174
        53.5004         54.7504
 23  1  9  0 48 30.0000000  0 12G27G23G08G22G24G21G10G12G31G01G25G32
                                  25491213.3364                   25491206.9024
        30.7504         23.0004
  -4946111.99447  -6249886.46744  23102553.9304                   23102543.5704
        42.5004         29.2504
 -10237922.37746  -7933007.48645  24739170.9844                   24739162.2664
        37.0004         32.0004
 -21813931.72247 -12732571.76246  21048895.9614                   21048884.7814
        45.7504         38.2504
  -4550918.59445  -4148757.80643  24254020.1954                   24254011.3594
        33.0004         18.2504
 -16051453.13147 -11990364.68045  22590832.5944                   22590820.3014
        44.2504         35.2504
 -25678096.95748 -19897877.84149  20895782.5164                   20895772.8014
        51.7504         54.7504
  -1276523.82245   -971120.68743  25239253.1954                   25239244.3594
        34.0004         19.2504
 -13574133.93547 -10518249.02147  22893413.7894                   22893402.4344
        43.5004         45.0004
 -11112963.53646  -7952787.02845  23362812.5164                   23362804.4414
        37.2504         35.7504
  -2735353.77845  -2457917.61444  24890273.3204                   24890267.1804
        31.5004         28.2504
 -25327116.14548 -21079811.42049  20520542.4384                   20520533.0744
        53.5004         54.7504
 23  1  9  0 49  0.0000000  0 12G27G23G08G22G24G21G10G12G31G01G25G32
   -233350.18455  -7822724.35954  25508727.0704                   25508717.3554
        30.7504         24.2504
  -4863250.74647  -6185319.26444  23118321.8364                   23118311.5354
        44.0004         29.0004
 -10163256.58245  -7874826.35545  24753377.4844                   24753370.5824
        34.2504         31.7504
 -21854783.59747 -12764404.37746  21041121.4614                   21041110.8094
        46.2504         39.0004
  -4448502.93045  -4068953.39343  24273510.1414                   24273500.8954
        33.2504         20.0004
 -16095728.64147 -12024865.07545  22582407.6024                   22582395.1914
        45.0004         34.7504
 -25642038.73248 -19869780.53049  20902643.7034                   20902634.7504
        52.5004         54.7504
  -1337816.63946  -1018881.25343  25227592.2734                   25227580.8594
        36.0004         18.5004
 -13685759.56947 -10605230.01547  22872171.6174                   22872160.5554
        43.5004         45.2504
 -11206159.79046  -8025407.49546  23345078.5394                   23345069.8794
        38.0004         36.0004
                                  24874883.0474                   24874876.3794
        31.5004         27.5004
 -25317643.19148 -21072429.89049  20522344.8914                   20522335.5864
        53.7504         54.7504
 23  1  9  0 49 30.0000000  0 12G27G23G08G22G24G21G10G12G31G01G25G32
   -141404.62954  -7760691.93653  25526219.0394                   25526211.9614
        28.0004         23.7504
  -4780180.28747  -6120589.07144  23134129.7194                   23134119.0084
        42.5004         29.0004
 -10088389.27645  -7816488.21845  24767624.4454                   24767617.5434
        34.5004         32.5004
 -21895289.25147 -12795967.19846  21033413.9614                   21033402.4304
        46.0004         39.0004
  -4345804.38445  -3988928.63943  24293053.3204                   24293044.4844
        33.7504         19.5004
 -16139580.17947 -12059035.09745  22574061.7194                   22574050.4804
        44.5004         34.2504
 -25605639.69648 -19841417.63849  20909570.4224                   20909561.2344
        51.7504         54.7504
  -1398763.98445  -1066372.68943  25215994.5314                   25215983.1764
        35.5004         19.0004
 -13797158.10347 -10692034.02647  22850972.9064                   22850961.7274
        43.0004         45.0004
 -11299009.46246  -8097757.86645  23327409.4304                   23327401.1214
        37.5004         35.2504
  -2896945.66955  -2583833.34054  24859524.2974                   24859517.9224
        33.0004         29.2504
 -25307807.03948 -21064765.35049  20524216.7114                   20524207.2304
        53.5004         55.0004
 23  1  9  0 50  0.0000000  0 12G27G23G08G22G24G21G10G12G31G01G25G32
                                  25543705.1564                   25543694.7974
        33.0004         27.5004
  -4696909.31147  -6055702.60244  23149975.8834                   23149965.4654
        43.2504         29.0004
 -10013330.82545  -7758001.12245  24781906.4454                   24781900.6564
        33.2504         32.0004
 -21935456.82947 -12827266.60146  21025770.0554                   21025758.6994
        46.5004         39.0004
  -4242834.07245  -3908691.97243  24312646.6254                   24312638.4924
        32.5004         19.2504
 -16183014.78647 -12092880.25345  22565796.8364                   22565785.0124
        45.2504         34.0004
 -25568907.63948 -19812795.25649  20916560.4694                   20916550.8134
        52.7504         54.7504
  -1459371.88646  -1113599.53942  25204459.6564                   25204449.7074
        36.0004         17.2504
 -13908334.69047 -10778665.09747  22829816.4774                   22829805.8244
        43.0004         45.2504
 -11391517.70046  -8169842.22345  23309806.2584                   23309797.1884
        38.0004         35.5004
  -2977499.15645  -2646602.27644  24844196.0474                   24844189.0274
        32.5004         27.7504
 -25297616.73849 -21056824.85049  20526155.7194                   20526146.5314
        54.2504         54.7504
 23  1  9  0 50 30.0000000  0 12G27G23G08G22G24G21G10G12G31G01G25G32
     42235.53655  -7617595.66953  25561166.6804                   25561159.0164
        30.5004         23.0004
  -4613444.89247  -5990665.43344  23165859.1484                   23165847.7934
        43.2504         29.2504
  -9938091.43845  -7699373.04445  24796226.4614                   24796218.5044
        35.5004         31.7504
 -21975293.13647 -12858307.85246  21018190.0314                   21018178.7934
        46.5004         39.2504
  -4139601.28145  -3828250.91043  24332293.0554                   24332283.6334
        34.5004         18.5004
 -16226036.94747 -12126404.00645  22557609.9924                   22557598.0514
        45.2504         34.5004
 -25531849.04648 -19783918.42849  20923612.5234                   20923602.9264
        51.2504         55.0004
  -1519643.69345  -1160564.58942  25192991.3674                   25192980.1294
        35.0004         17.7504
 -14019292.90547 -10865126.00747  22808702.2344                   22808691.1134
        43.5004         45.2504
 -11483688.22246  -8241663.40445  23292265.9924                   23292257.8014
        38.0004         35.5004
  -3057895.62845  -2709248.85644  24828897.1174                   24828889.1604
        33.2504         28.0004
 -25287079.81448 -21048614.26149  20528161.0164                   20528151.7114
        52.5004         55.2504
 23  1  9  0 51  0.0000000  0 12G27G23G08G22G24G21G10G12G31G01G25G32
    133925.54154  -7546148.81154  25578614.0234                   25578607.0634
        29.5004         25.5004
  -4529778.47247  -5925470.84444  23181779.6484                   23181768.7624
        42.5004         28.0004
  -9862664.50345  -7640598.84845  24810579.6884                   24810572.0824
        35.0004         32.2504
 -22014789.05147 -12889083.88346  21010673.6564                   21010662.3014
        47.0004         39.2504
  -4036100.03545  -3747600.57743  24351988.3204                   24351979.0744
        35.0004         20.0004
 -16268636.55147 -12159598.50445  22549504.0234                   22549491.6134
        45.7504         34.5004
 -25494454.61148 -19754779.92349  20930728.4454                   20930718.9064
        52.0004         54.7504
  -1579567.10445  -1207258.23142  25181586.4224                   25181577.4694
        35.2504         15.5004
 -14130020.48947 -10951407.20547  22787632.1644                   22787620.2814
        43.7504         45.5004
 -11575509.09746  -8313212.10746  23274793.7034                   23274785.1024
        38.7504         36.2504
  -3138122.96645  -2771763.69244  24813630.9144                   24813622.0784
        33.5004         29.2504
 -25276188.05248 -21040127.17749  20530233.3204                   20530224.2504
        52.7504         55.0004
 23  1  9  0 51 30.0000000  0 12G27G23G08G22G24G21G10G12G31G01G25G32
                                  25596051.6024                   25596037.9024
        34.2504         25.7504
  -4445909.77347  -5860118.60844  23197740.5234                   23197728.6994
        42.5004         28.2504
  -9787052.15345  -7581680.12145  24824966.7814                   24824959.9964
        34.7504         33.2504
 -22053943.95747 -12919594.18846  21003222.5704                   21003211.9184
        46.2504         39.0004
  -3932332.12545  -3666742.44443  24371734.4924                   24371725.0124
        33.7504         18.2504
 -16310811.51447 -12192462.11345  22541478.3524                   22541466.0594
        45.5004         34.5004
 -25456722.68348 -19725378.42649  20937908.3674                   20937899.1214
        51.2504         54.7504
  -1639138.38545  -1253677.37742  25170252.3054                   25170241.7114
        35.5004         16.2504
 -14240513.46647 -11037505.60347  22766604.3984                   22766594.2154
        42.7504         45.2504
 -11666976.47546  -8384485.39246  23257387.2274                   23257379.0354
        37.5004         36.2504
  -3218176.83445  -2834143.30644  24798395.7344                   24798388.8914
        32.5004         27.2504
 -25264941.51648 -21031363.63749  20532373.7344                   20532364.2544
        52.0004         54.7504
 23  1  9  0 52  0.0000000  0 12G27G23G08G22G24G21G10G12G31G01G25G32
    317032.50855  -7413038.02954  25613459.0084                   25613450.0554
        32.2504         24.2504
  -4361850.45647  -5794617.87844  23213735.2734                   23213725.4414
        42.5004         29.0004
  -9711268.57945  -7522628.01445  24839388.9064                   24839381.9454
        35.7504         32.7504
 -22092768.93648 -12949847.41046  20995834.9924                   20995823.1684
        48.0004         39.5004
  -3828311.62445  -3585687.55643  24391529.2504                   24391521.3524
        34.5004         21.0004
 -16352570.91847 -12225001.90045  22533530.7424                   22533519.1524
        45.2504         34.5004
 -25418664.64448 -19695722.82349  20945150.4064                   20945140.9844
        51.0004         55.0004
  -1698365.78745  -1299828.57043  25158981.2424                   25158970.2384
        35.5004         18.5004
 -14350779.97447 -11123427.53047  22745622.6024                   22745611.0704
        44.2504         46.0004
 -11758098.75546  -8455489.75546  23240047.5314                   23240039.2234
        39.0004         37.0004
  -3298065.30745  -2896393.99744  24783193.0704                   24783186.9884
        31.5004         29.5004
 -25253352.37848 -21022333.13249  20534579.1724                   20534569.6914
        52.2504         54.7504
 23  1  9  0 52 30.0000000  0 12G27G23G08G22G24G21G10G12G31G01G25G32
    408443.71155  -7341808.45254  25630855.3834                   25630846.4884
        31.2504         26.5004
  -4277590.22247  -5728960.58044  23229770.0234                   23229759.2544
        43.0004         29.0004
  -9635305.91346  -7463436.33845  24853845.8284                   24853837.4614
        36.5004         33.0004
 -22131253.13947 -12979835.09846  20988511.4614                   20988499.9304
        46.2504         39.5004
  -3724030.46045  -3504429.50643  24411373.3134                   24411364.0664
        34.5004         18.5004
 -16393902.36247 -12257208.20845  22525666.3914                   22525654.3324
        44.5004         35.7504
 -25380269.26748 -19665804.36649  20952456.6484                   20952447.2274
        51.0004         55.0004
  -1757235.49745  -1345701.06443  25147778.6954                   25147768.0434
        35.0004         18.5004
 -14460806.33447 -11209162.32747  22724685.3754                   22724674.0204
        44.5004         46.0004
 -11848862.08346  -8526214.40846  23222775.6724                   23222768.0664
        38.5004         37.5004
  -3377773.95245  -2958504.58745  24768026.1484                   24768018.8954
        34.5004         31.0004
 -25241410.61248 -21013027.85449  20536851.7424                   20536842.0864
        52.2504         55.0004
 23  1  9  0 53  0.0000000  0 12G27G23G08G22G24G21G10G12G31G01G25G32
    499756.41255  -7270655.69553  25648231.0004                   25648220.5824
        33.2504         23.7504
  -4193133.60347  -5663150.24944  23245841.1484                   23245829.7934
        42.5004         28.7504
  -9559170.98946  -7404110.41245  24868332.6484                   24868324.1054
        36.0004         32.7504
 -22169401.17247 -13009560.81746  20981251.8914                   20981240.7114
        47.0004         39.7504
  -3619495.55045  -3422973.66943  24431265.8134                   24431255.9804
        34.5004         19.5004
 -16434808.84247 -12289083.40245  22517882.8204                   22517870.0004
        46.0004         34.5004
 -25341540.27448 -19635625.93949  20959826.7274                   20959817.5984
        51.2504         55.0004
  -1815748.73746  -1391295.71843  25136644.7114                   25136632.6524
        36.7504         18.5004
 -14570593.35947 -11294710.62247  22703793.3754                   22703782.1954
        44.2504         46.2504
 -11939267.60346  -8596660.25246  23205573.2664                   23205564.0204
        39.5004         37.7504
  -3457303.65045  -3020475.75944  24752892.8524                   24752883.6644
        33.5004         28.2504
 -25229121.17548 -21003451.65049  20539190.2114                   20539180.8484
        52.5004         55.0004
 23  1  9  0 53 30.0000000  0 12G27G23G08G22G24G21G10G12G31G01G25G32
                                  25665588.9694                   25665579.7814
        33.7504         27.0004
  -4108476.27647  -5597183.50544  23261951.5084                   23261940.6214
        42.0004         29.5004
  -9482861.36345  -7344648.38745  24882852.5314                   24882846.3324
        35.0004         33.0004
 -22207207.95847 -13039020.63746  20974057.6174                   20974046.2624
        46.5004         39.5004
  -3514704.73545  -3341318.60243  24451206.6174                   24451198.0164
        34.5004         19.2504
 -16475284.47147 -12320622.84645  22510179.9694                   22510168.0864
        44.0004         35.2504
 -25302472.50848 -19605183.53349  20967261.1884                   20967251.7074
        51.2504         54.7504
  -1873897.98545  -1436606.81442  25125577.6804                   25125567.4384
        35.5004         16.7504
 -14680132.92047 -11380066.09447  22682948.5944                   22682937.0634
        44.5004         46.5004
 -12029307.59746  -8666821.26746  23188438.8364                   23188430.2344
        39.5004         38.2504
  -3536646.11345  -3082301.01344  24737792.9384                   24737786.1524
        32.7504         29.0004
 -25216480.12248 -20993601.46649  20541595.6564                   20541586.1764
        52.0004         55.0004
 23  1  9  0 54  0.0000000  0 12G27G23G08G22G24G21G10G12G31G01G25G32
    682077.04555  -7128587.60454  25682923.0864                   25682915.5984
        32.0004         26.0004
  -4023631.89546  -5531071.04644  23278097.0234                   23278086.5474
        41.7504         29.2504
  -9406393.90146  -7285063.40345  24897404.4304                   24897397.9964
        36.5004         33.0004
 -22244686.68348 -13068224.82546  20966925.4144                   20966914.5274
        48.0004         40.0004
  -3409674.09645  -3259476.49343  24471193.3134                   24471183.7154
        34.7504         19.7504
 -16515340.48347 -12351835.31145  22502557.0704                   22502545.1884
        45.2504         35.2504
 -25263079.00448 -19574487.29849  20974757.5554                   20974748.2504
        51.7504         54.7504
  -1931693.17845  -1481642.03943  25114579.2034                   25114570.0744
        33.0004         18.5004
 -14789435.09447 -11465236.60547  22662148.9224                   22662138.0354
        44.5004         46.5004
 -12118992.20746  -8736705.35146  23171372.8834                   23171363.8714
        41.0004         39.5004
  -3615811.31045  -3143988.15944  24722728.6724                   24722721.4184
        33.5004         28.7504
 -25203501.50548 -20983488.25549  20544065.5084                   20544055.7344
        52.7504         55.0004
 23  1  9  0 54 30.0000000  0 12G27G23G08G22G24G21G10G12G31G01G25G32
                                  25700241.2114                   25700233.6644
        31.7504         25.5004
  -3938584.38247  -5464800.27944  23294280.4304                   23294270.0704
        42.0004         29.0004
  -9329754.61545  -7225344.47745  24911988.8754                   24911980.9184
        35.7504         33.0004
 -22281820.96348 -13097160.60446  20959859.2664                   20959848.1454
        48.2504         40.2504
  -3304389.69245  -3177436.75143  24491227.5704                   24491219.2034
        33.2504         19.7504
 -16554959.03947 -12382706.90846  22495018.5554                   22495006.3204
        46.2504         36.0004
 -25223342.52748 -19543523.82649  20982319.2194                   20982309.7384
        51.5004         54.7504
  -1989114.70045  -1526386.07342  25103653.5004                   25103642.9064
        35.7504         17.2504
 -14898480.07447 -11550206.67947  22641398.3524                   22641387.0554
        44.5004         46.7504
 -12208302.00346  -8806297.38346  23154377.0084                   23154368.5234
        40.7504         39.0004
  -3694779.20845  -3205521.53845  24707702.2274                   24707694.2704
        34.7504         30.0004
 -25190169.64448 -20973099.79449  20546602.5084                   20546593.2034
        51.5004         54.7504
 23  1  9  0 55  0.0000000  0 12G27G23G08G22G24G21G10G12G31G01G25G32
                                  25717537.4454                   25717530.5434
        29.0004         23.0004
  -3853346.72847  -5398381.34444  23310500.8204                   23310489.8164
        42.2504         28.5004
  -9252958.99745  -7165503.76245  24926602.2664                   24926594.8364
        34.5004         32.7504
 -22318623.09047 -13125837.57446  20952856.0314                   20952844.9694
        46.7504         40.5004
  -3198866.80745  -3095211.11943  24511309.2894                   24511299.1054
        34.7504         20.0004
 -16594150.91947 -12413246.04146  22487560.8594                   22487548.1564
        45.2504         36.2504
 -25183275.76648 -19512302.97949  20989943.6024                   20989934.3554
        52.0004         55.0004
  -2046172.29646  -1570846.52943  25092795.1564                   25092784.6804
        36.5004         19.0004
 -15007277.27647 -11634983.68647  22620694.7034                   22620683.5824
        44.5004         47.0004
 -12297246.45046  -8875604.72246  23137452.0234                   23137443.3634
        40.7504         40.0004
  -3773558.83945  -3266908.20745  24692710.7734                   24692703.6954
        34.7504         31.0004
 -25176497.87748 -20962446.45949  20549204.0004                   20549194.6374
        51.5004         55.0004
 23  1  9  0 55 30.0000000  0 12G27G23G08G22G24G21G10G12G31G01G25G32
                                  25734811.8914                   25734805.5164
        29.5004         22.2504
  -3767913.36146  -5331809.92044  23326758.0944                   23326747.7344
        41.5004         29.2504
  -9176003.77945  -7105538.65645  24941245.7734                   24941239.5744
        33.7504         33.5004
 -22355087.24647 -13154251.18746  20945917.6254                   20945905.6844
        47.5004         40.7504
                                  24531433.7584                   24531424.9224
        33.0004         18.5004
 -16632909.15647 -12443447.27146  22480185.0704                   22480172.7774
        47.0004         36.0004
 -25142872.04548 -19480819.57249  20997632.2424                   20997622.9964
        51.5004         54.7504
  -2102857.08145  -1615016.53143  25082008.1254                   25081998.5864
        33.5004         18.2504
 -15115817.55747 -11719560.50247  22600040.6334                   22600029.2194
        44.7504         47.0004
 -12385816.65746  -8944620.42446  23120596.8204                   23120588.6884
        40.2504         39.2504
  -3852140.85145  -3328140.93045  24677756.1724                   24677748.8594
        33.7504         30.0004
 -25162481.07248 -20951524.27549  20551871.2194                   20551861.6214
        51.2504         55.0004
 23  1  9  0 56  0.0000000  0 12G27G23G08G22G24G21G10G12G31G01G25G32
   1045424.62055  -6845459.52254  25752067.7194                   25752059.5274
        33.5004         27.2504
  -3682292.01847  -5265092.01044  23343051.7664                   23343040.9964
        42.2504         29.0004
  -9098898.81246  -7045456.90845  24955920.1334                   24955911.2384
        37.2504         32.2504
 -22391220.60747 -13182407.04646  20939041.5554                   20939029.7304
        47.0004         40.2504
 -10864205.75345  -9068202.52743  24551605.4844                   24551596.7074
        34.2504         21.0004
 -16671239.27447 -12473314.87946  22472890.4384                   22472878.6724
        44.5004         36.0004
 -25102138.26748 -19449078.97749  21005383.4064                   21005374.3364
        50.7504         54.7504
  -2159173.33345  -1658899.29042  25071291.5234                   25071282.1604
        34.0004         17.7504
 -15224105.06347 -11803940.35047  22579434.3134                   22579422.8984
        45.2504         46.7504
 -12474016.76046  -9013347.77146  23103813.6804                   23103804.5514
        41.2504         39.7504
  -3930529.05245  -3389222.58944  24662839.6884                   24662831.9654
        33.0004         28.7504
 -25148127.22948 -20940339.46549  20554602.3984                   20554593.3284
        51.2504         55.0004
 23  1  9  0 56 30.0000000  0 12G27G23G08G22G24G21G10G12G31G01G25G32
   1135979.72555  -6785459.11354  25769298.3754                   25769290.3014
        33.0004         25.2504
  -3596474.88046  -5198221.55144  23359381.8284                   23359370.7664
        41.5004         28.7504
  -9021638.69845  -6985254.18945  24970620.8674                   24970613.4964
        35.0004         32.5004
 -22427015.21148 -13210298.92646  20932229.9534                   20932218.0704
        48.2504         40.5004
 -10757971.93545  -8985422.92243  24571820.3674                   24571811.8244
        32.0004         18.2504
 -16709131.27947 -12502841.11446  22465680.7034                   22465668.3524
        47.0004         36.0004
 -25061066.26048 -19417074.82549  21013199.3754                   21013190.1294
        52.2504         55.0004
  -2215109.26145  -1702485.73443  25060647.4694                   25060637.9884
        35.5004         18.2504
 -15332128.39047 -11888114.33947  22558877.4694                   22558866.7584
        44.7504         46.7504
 -12561835.65646  -9081778.04646  23087101.7974                   23087093.5474
        40.5004         40.5004
  -4008711.83945  -3450144.19545  24647961.9064                   24647954.1844
        33.7504         30.0004
 -25133428.96948 -20928886.25949  20557399.1024                   20557390.0904
        51.7504         55.0004
 23  1  9  0 57  0.0000000  0 12G27G23G08G22G24G21G10G12G31G01G25G32
   1226411.81545  -6714992.50543  25786506.3364                   25786498.8484
        30.7504         23.5004
  -3510465.59647  -5131201.35644  23375749.4924                   23375738.2544
        42.2504         28.5004
  -8944229.74746  -6924935.54945  24985352.2114                   24985344.6644
        36.2504         33.5004
 -22462474.19848 -13237929.29246  20925482.1484                   20925470.5594
        48.0004         40.5004
 -10651506.66745  -8902462.94743  24592080.6644                   24592072.0044
        34.7504         19.7504
 -16746587.20247 -12532027.54545  22458553.3284                   22458540.6844
        47.5004         35.5004
 -25019658.61548 -19384809.14749  21021078.7734                   21021069.5274
        50.7504         54.7504
  -2270665.91245  -1745776.58242  25050073.7504                   25050065.6764
        35.0004         17.7504
 -15439887.27147 -11972082.27747  22538371.6564                   22538360.8874
        45.0004         47.0004
 -12649273.45546  -9149911.37646  23070462.6644                   23070454.4144
        41.0004         40.0004
  -4086688.78345  -3510905.43945  24633124.5234                   24633116.2154
        34.7504         30.0004
 -25118390.35048 -20917167.84649  20560261.3444                   20560252.0394
        50.5004         55.2504
 23  1  9  0 57 30.0000000  0 11G23G08G22G24G21G10G12G31G01G25G32
  -3424263.13247  -5064030.63744  23392153.3754                   23392142.1954
        42.0004         29.5004
  -8866672.99845  -6864501.74745  25000108.1564                   25000102.8364
        35.0004         32.7504
 -22497596.38348 -13265297.22146  20918798.7504                   20918786.9844
        48.2504         40.5004
 -10544811.07045  -8819323.58343  24612382.4454                   24612376.1884
        32.7504         19.5004
 -16783603.84347 -12560871.68146  22451508.8834                   22451496.5904
        47.0004         36.0004
 -24977913.46648 -19352280.47449  21029022.4694                   21029013.7504
        51.2504         55.0004
  -2325838.53045  -1788768.23643  25039574.9224                   25039566.5554
        34.5004         19.0004
 -15547377.08547 -12055840.53647  22517917.4694                   22517905.7624
        44.7504         47.0004
 -12736325.70646  -9217744.26746  23053897.3444                   23053888.6844
        40.7504         40.0004
  -4164455.19045  -3571502.63345  24618325.6884                   24618317.2624
        34.5004         30.7504
 -25103010.62448 -20905183.64249  20563187.7974                   20563178.3164
        50.5004         55.0004
 23  1  9  0 58  0.0000000  0 11G23G08G22G24G21G10G12G31G01G25G32
  -3337872.27846  -4996713.12744  23408592.5164                   23408581.6294
        41.5004         28.0004
  -8788975.87246  -6803958.55045  25014894.8444                   25014888.4104
        36.0004         33.0004
 -22532385.67448 -13292405.73846  20912178.5314                   20912166.5904
        48.7504         40.5004
 -10437892.23145  -8736010.17643  24632730.7424                   24632721.5554
        35.0004         20.0004
 -16820184.47747 -12589376.06446  22444547.3524                   22444535.0004
        46.7504         36.0004
 -24935834.91948 -19319492.01749  21037030.0474                   21037020.7424
        51.7504         55.0004
  -2380628.65045  -1831461.78642  25029150.2584                   25029140.0164
        35.7504         17.2504
 -15654599.28747 -12139390.28647  22497513.3984                   22497502.3954
        44.7504         47.0004
 -12822993.84546  -9285277.86246  23037404.9454                   23037396.6374
        40.7504         40.5004
  -4242011.80645  -3631936.29444  24603566.0634                   24603558.6334
        33.5004         29.2504
 -25087295.05248 -20892937.72449  20566178.4304                   20566168.7154
        51.0004         54.7504
 23  1  9  0 58 30.0000000  0 11G23G08G22G24G21G10G12G31G01G25G32
  -3251291.10546  -4929247.29544  23425068.7424                   23425057.4454
        41.7504         29.0004
  -8711138.39045  -6743305.93845  25029707.5944                   25029699.8714
        35.2504         33.2504
 -22566840.07947 -13319253.31846  20905622.0474                   20905610.4574
        46.7504         40.5004
 -10330750.30845  -8652522.97943  24653117.8364                   24653110.2304
        32.5004         19.7504
 -16856325.44447 -12617537.85146  22437670.1094                   22437658.0514
        45.0004         36.5004
 -24893420.32648 -19286441.69149  21045101.6024                   21045091.8284
        52.2504         54.7504
  -2435030.92345  -1873853.17342  25018796.4924                   25018787.3634
        34.2504         17.2504
 -15761548.07147 -12222726.96647  22477162.0084                   22477150.7704
        45.0004         46.7504
 -12909272.35646  -9352507.83746  23020986.9304                   23020977.6254
        40.7504         40.5004
  -4319352.78145  -3692201.94445  24588849.5784                   24588842.1484
        35.5004         30.0004
 -25071242.05148 -20880428.88249  20569233.4774                   20569223.9384
        51.5004         54.7504
 23  1  9  0 59  0.0000000  0 11G23G08G22G24G21G10G12G31G01G25G32
  -3164521.35046  -4861634.52444  23441579.6414                   23441569.0474
        40.5004         28.0004
  -8633164.69546  -6682547.26245  25044546.2974                   25044538.9264
        36.5004         33.2504
 -22600960.73248 -13345840.84046  20899129.1954                   20899117.6054
        48.7504         40.5004
 -10223389.36545  -8568865.13243  24673548.3594                   24673540.6954
        34.5004         20.2504
 -16892026.06147 -12645356.50146  22430876.7114                   22430864.1254
        47.2504         36.5004
 -24850670.48448 -19253130.13749  21053236.1564                   21053227.0274
        51.7504         54.7504
  -2489043.45046  -1915940.87642  25008519.3674                   25008508.5394
        36.0004         17.2504
 -15868221.42647 -12305849.04047  22456862.1884                   22456851.3014
        44.7504         47.0004
 -12995159.59446  -9419432.94946  23004642.7424                   23004634.3754
        41.0004         40.5004
  -4396475.99945  -3752297.95345  24574172.5944                   24574164.9884
        33.2504         30.5004
 -25054853.67148 -20867658.70049  20572351.9924                   20572342.6294
        51.0004         54.7504
 23  1  9  0 59 30.0000000  0 11G23G08G22G24G21G10G12G31G01G25G32
  -3077562.56846  -4793874.48244  23458127.6644                   23458117.4224
        41.2504         27.5004
  -8555056.88246  -6621684.01545  25059408.9064                   25059401.3014
        36.0004         32.7504
 -22634746.70148 -13372167.56746  20892700.1024                   20892688.5124
        48.0004         40.5004
 -10115811.05645  -8485037.87743  24694018.0004                   24694010.6884
        32.0004         20.2504
 -16927284.51047 -12672830.62246  22424167.4064                   22424155.1724
        46.7504         36.0004
 -24807584.19048 -19219556.41449  21061435.1954                   21061426.1254
        51.7504         54.7504
  -2542662.75645  -1957722.17142  24998315.6254                   24998305.4414
        35.7504         17.7504
 -15974615.34547 -12388753.36347  22436616.4144                   22436605.0004
        44.7504         47.0004
 -13080651.70046  -9486050.13746  22988373.4064                   22988365.8014
        39.5004         40.2504
  -4473377.21045  -3812220.95245  24559539.2974                   24559531.2234
        34.0004         30.2504
 -25038129.88748 -20854627.17249  20575534.3674                   20575524.9454
        51.5004         55.2504
 23  1  9  1  0  0.0000000  0 11G23G08G22G24G21G10G12G31G01G25G32
  -2990415.91546  -4725968.03844  23474711.5234                   23474700.8714
        41.5004         28.7504
  -8476818.43345  -6560719.00945  25074295.5234                   25074289.6174
        34.0004         32.5004
 -22668199.27648 -13398234.50946  20886334.0784                   20886322.3134
        48.7504         40.5004
 -10008018.74346  -8401043.87343  24714533.5864                   24714523.9884
        36.2504         21.2504
 -16962099.80747 -12699959.42346  22417541.9454                   22417529.8874
        47.0004         36.5004
 -24764161.75948 -19185720.76649  21069698.2814                   21069689.0354
        51.5004         55.0004
  -2595886.33145  -1999195.08142  24988188.3284                   24988178.2034
        34.5004         17.2504
 -16080727.52147 -12471438.15147  22416423.6094                   22416412.5474
        45.2504         47.0004
 -13165746.38446  -9552357.67446  22972181.3444                   22972172.1564
        41.7504         40.5004
  -4550053.48745  -3871968.65244  24544949.4534                   24544940.6174
        35.5004         29.5004
 -25021072.19948 -20841335.46649  20578779.9454                   20578771.2274
        50.5004         55.0004
 23  1  9  1  0 30.0000000  0 11G23G08G22G24G21G10G12G31G01G25G32
  -2903082.06046  -4657915.69844  23491330.1094                   23491319.3404
        40.7504         27.7504
  -8398452.28145  -6499654.51945  25089210.8594                   25089202.4344
        35.7504         32.2504
 -22701318.33647 -13424041.57246  20880031.8834                   20880020.0004
        47.2504         40.7504
  -9900015.22045  -8316885.28643  24735084.1094                   24735075.6844
        33.5004         19.2504
 -16996471.16047 -12726742.27846  22411001.4694                   22410988.9414
        45.5004         36.7504
 -24720403.36048 -19151623.31249  21078025.7274                   21078016.3634
        51.7504         54.7504
  -2648711.70846  -2040357.64143  24978136.5784                   24978125.6914
        38.0004         18.5004
 -16186554.67447 -12553900.83747  22396285.5084                   22396274.3284
        45.7504         47.2504
 -13250440.86646  -9618353.36946  22956063.6414                   22956056.0944
        40.7504         40.7504
  -4626501.75345  -3931538.68545  24530400.1564                   24530392.4924
        35.5004         30.7504
 -25003681.63448 -20827784.37549  20582089.2344                   20582080.3404
        51.0004         54.7504
 23  1  9  1  1  0.0000000  0 11G23G08G22G24G21G10G12G31G01G25G32
  -2815561.32146  -4589717.75944  23507984.8984                   23507974.7734
        41.0004         28.5004
  -8319960.88646  -6438492.37045  25104146.3204                   25104139.0084
        36.2504         33.7504
 -22734103.82947 -13449588.69946  20873792.5704                   20873781.0984
        46.7504         40.5004
  -9791803.10645  -8232564.20843  24755676.7974                   24755668.3134
        34.5004         21.0004
 -17030396.75047 -12753177.79946  22404545.1174                   22404533.2344
        46.2504         37.2504
 -24676308.36248 -19117263.57949  21086416.4304                   21086406.8914
        50.7504         54.7504
  -2701135.88545  -2081207.67643  24968158.7034                   24968149.8094
        34.0004         19.0004
 -16292093.58947 -12636138.91947  22376202.1724                   22376191.0514
        45.2504         47.2504
 -13334732.04646  -9684034.78246  22940024.1564                   22940016.0234
        41.5004         41.2504
  -4702718.25745  -3990928.17145  24515897.4774                   24515889.5204
        35.5004         31.0004
 -24985958.86548 -20813974.41949  20585462.4144                   20585452.8754
        50.2504         55.2504
 23  1  9  1  1 30.0000000  0 11G23G08G22G24G21G10G12G31G01G25G32
  -2727854.79946  -4521375.05344  23524675.2344                   23524664.8754
        41.2504         27.0004
  -8241347.92845  -6377235.53245  25119105.0164                   25119097.5864
        35.0004         30.7504
 -22766556.62248 -13474876.57146  20867616.9224                   20867605.5664
        48.0004         41.0004
  -9683385.53445  -8148082.95743  24776307.0554                   24776299.8014
        31.7504         19.2504
 -17063876.08147 -12779265.58546  22398175.4144                   22398162.4774
        47.7504         36.2504
 -24631877.38348 -19082642.04449  21094871.4774                   21094862.1134
        51.5004         54.7504
  -2753156.58045  -2121743.27343  24958260.2664                   24958250.5514
        34.7504         18.5004
 -16397341.69847 -12718150.40647  22356174.3984                   22356162.5744
        45.2504         47.5004
 -13418617.53846  -9749400.09646  22924060.9774                   22924052.4344
        41.5004         41.0004
  -4778700.28745  -4050134.94045  24501438.0314                   24501430.6604
        35.0004         31.0004
 -24967905.38048 -20799906.75949  20588897.8754                   20588887.6914
        51.2504         55.2504
 23  1  9  1  2  0.0000000  0 11G23G08G22G24G21G10G12G31G01G25G32
  -2639962.14446  -4452887.30544  23541401.0944                   23541389.9734
        41.2504         27.0004
  -8162614.90245  -6315885.18045  25134088.0394                   25134080.5514
        35.5004         32.2504
 -22798675.88948 -13499904.56146  20861504.9694                   20861493.4384
        48.0004         40.5004
  -9574764.31255  -8063443.06353  24796977.5164                   24796969.3244
        34.0004         19.2504
 -17096906.32647 -12805003.45446  22391889.6954                   22391877.2854
        46.7504         36.2504
 -24587108.94248 -19047757.56149  21103390.6484                   21103381.2274
        50.2504         54.7504
  -2804770.21645  -2161961.65642  24948437.6094                   24948428.4804
        34.7504         17.7504
 -16502294.93847 -12799932.12447  22336202.2194                   22336191.0984
        45.7504         47.7504
 -13502093.60347  -9814446.37246  22908176.7504                   22908168.3834
        42.0004         41.7504
  -4854443.49545  -4109155.60145  24487024.1564                   24487015.9654
        34.7504         30.7504
 -24949521.15148 -20785581.38149  20592395.9064                   20592386.6024
        50.5004         54.7504
 23  1  9  1  2 30.0000000  0 11G23G08G22G24G21G10G12G31G01G25G32
  -2551885.36046  -4384256.09644  23558160.9144                   23558150.4964
        41.2504         28.2504
  -8083766.59145  -6254444.91345  25149093.1024                   25149085.2034
        35.7504         31.7504
 -22830463.12347 -13524673.84446  20855456.2814                   20855444.6334
        47.7504         40.7504
  -9465943.69245  -7978647.74743  24817685.3204                   24817676.7774
        33.2504         19.2504
 -17129488.25447 -12830391.95246  22385688.5944                   22385677.0044
        45.7504         36.2504
 -24542004.36948 -19012611.16049  21111973.4144                   21111964.3444
        50.0004         55.0004
  -2855975.39545  -2201861.79343  24938694.9224                   24938684.8554
        35.5004         18.2504
 -16606951.71847 -12881482.82847  22316286.5394                   22316275.4184
        46.2504         47.7504
 -13585158.82546  -9879172.50346  22892369.1484                   22892361.1334
        41.0004         41.2504
  -4929946.06345  -4167988.71845  24472656.2894                   24472649.5044
        34.5004         31.2504
 -24930808.56848 -20771000.13649  20595956.5704                   20595947.5004
        51.0004         55.0004
 23  1  9  1  3  0.0000000  0 11G23G08G22G24G21G10G12G31G01G25G32
  -2463623.92246  -4315480.98544  23574956.4224                   23574946.0044
        40.2504         27.5004
  -8004804.75845  -6192916.22945  25164117.1254                   25164110.5744
        35.2504         31.5004
 -22861917.08947 -13549183.42046  20849470.1954                   20849459.1334
        47.5004         40.7504
  -9356924.97355  -7893698.17752  24838430.2814                   24838422.5594
        32.0004         17.7504
 -17161619.45447 -12855429.25146  22379574.1954                   22379562.2544
        46.0004         36.5004
 -24496562.76248 -18977202.13049  21120620.8834                   21120611.5784
        50.2504         54.7504
  -2906768.37046  -2241440.70743  24929029.0084                   24929018.4144
        36.0004         18.2504
 -16711307.91047 -12962799.30848  22296427.8204                   22296417.1094
        46.7504         48.0004
 -13667809.16647  -9943575.35346  22876642.3444                   22876633.2154
        42.5004         41.5004
  -5005203.36045  -4226630.76245  24458336.1954                   24458329.0004
        35.0004         31.2504
 -24911767.38148 -20756162.85249  20599580.1884                   20599571.0594
        50.5004         54.7504
 23  1  9  1  3 30.0000000  0 11G23G08G22G24G21G10G12G31G01G25G32
  -2375180.36246  -4246563.96544  23591787.3834                   23591776.2624
        41.5004         27.0004
  -7925733.99645  -6131302.61245  25179165.1954                   25179157.7664
        34.5004         31.2504
 -22893040.59447 -13573435.49846  20843548.4454                   20843536.5634
        47.7504         41.0004
  -9247713.28055  -7808598.07753  24859212.6094                   24859204.5354
        31.5004         19.0004
 -17193300.85047 -12880116.05246  22373545.8524                   22373533.3834
        46.7504         36.5004
 -24450785.46848 -18941531.51649  21129332.1414                   21129322.5434
        51.7504         55.0004
  -2957147.94246  -2280697.48343  24919443.5314                   24919431.7664
        36.7504         20.0004
 -16815362.11447 -13043880.48648  22276626.8754                   22276616.3404
        45.7504         48.0004
 -13750043.77746 -10007654.26846  22860992.8674                   22860985.1454
        41.2504         41.7504
  -5080214.14945  -4285080.71045  24444061.9064                   24444054.9454
        35.7504         31.7504
 -24892400.52248 -20741071.79749  20603265.6414                   20603256.3364
        51.7504         55.0004
 23  1  9  1  4  0.0000000  0 11G23G08G22G24G21G10G12G31G01G25G32
  -2286552.69146  -4177503.48544  23608652.0864                   23608641.7854
        40.5004         27.5004
  -7846554.44145  -6069604.33645  25194231.2504                   25194224.9924
        33.5004         31.5004
 -22923831.26847 -13597428.22946  20837688.4924                   20837677.3134
        47.7504         40.5004
  -9138309.26155  -7723348.49053  24880031.4614                   24880023.6214
        32.2504         18.2504
 -17224528.57947 -12904449.34946  22367603.6414                   22367590.9384
        46.5004         37.0004
 -24404669.63248 -18905597.10549  21138107.7424                   21138098.4384
        51.2504         54.7504
  -3007109.48845  -2319628.54843  24909935.5004                   24909923.4414
        35.5004         18.5004
 -16919108.95647 -13124722.15248  22256885.1484                   22256873.7934
        46.0004         48.0004
 -13831857.24946 -10071404.98846  22845424.1954                   22845415.5944
        40.7504         41.5004
  -5154972.45945  -4343333.92045  24429835.0554                   24429828.0944
        34.7504         30.7504
 -24872706.32548 -20725725.66049  20607013.3134                   20607003.7734
        52.5004         55.5004
 23  1  9  1  4 30.0000000  0 11G23G08G22G24G21G10G12G31G01G25G32
  -2197744.35946  -4108302.21244  23625551.3364                   23625540.9184
        39.7504         26.2504
  -7767272.42645  -6007826.16545  25209317.9064                   25209310.5944
        32.5004         31.0004
 -22954291.87647 -13621163.76146  20831892.0394                   20831880.6254
        47.5004         41.0004
  -9028716.81255  -7637951.75453  24900887.3914                   24900878.2034
        32.2504         18.5004
 -17255304.43447 -12928430.53046  22361747.0314                   22361734.8554
        46.5004         37.0004
 -24358218.28948 -18869401.25849  21146946.6644                   21146937.1844
        51.0004         54.7504
  -3056652.79246  -2358233.70443  24900508.4694                   24900495.9414
        38.5004         19.0004
 -17022548.29747 -13205324.20548  22237201.2034                   22237189.9654
        45.5004         48.2504
 -13913249.60747 -10134827.62347  22829936.2664                   22829927.5474
        42.0004         42.0004
  -5229477.99945  -4401390.16945  24415657.4694                   24415650.2734
        34.2504         30.7504
 -24852688.62748 -20710127.44549  20610822.9534                   20610813.1214
        52.0004         55.0004
 23  1  9  1  5  0.0000000  0 11G23G08G22G24G21G10G12G31G01G25G32
  -2108754.62946  -4038959.61444  23642486.1644                   23642475.7464
        40.2504         27.2504
  -7687889.12245  -5945969.08045  25224425.7974                   25224418.4844
        34.2504         30.7504
 -22984421.35147 -13644641.28146  20826158.7734                   20826147.1254
        47.7504         40.7504
  -8918938.02845  -7552409.88943  24921775.3524                   24921769.3284
        33.0004         18.5004
 -17285625.36647 -12952057.22546  22355977.1414                   22355965.1414
        46.5004         37.0004
 -24311430.20848 -18832943.03049  21155850.1884                   21155840.9414
        50.7504         54.7504
  -3105773.67545  -2396509.74542  24891159.1334                   24891147.9534
        35.7504         17.2504
 -17125675.41747 -13285682.97748  22217576.7194                   22217564.9534
        45.7504         48.2504
 -13994216.70046 -10197918.81946  22814527.2814                   22814520.0864
        41.0004         41.7504
  -5303725.66446  -4459245.46445  24401529.5944                   24401520.9924
        36.0004         31.0004
 -24832346.94248 -20694276.77349  20614693.7974                   20614684.3164
        52.5004         55.0004
 23  1  9  1  5 30.0000000  0 11G23G08G22G24G21G10G12G31G01G25G32
  -2019584.52246  -3969476.44944  23659454.5784                   23659444.3364
        40.5004         27.0004
  -7608407.38245  -5884035.23345  25239551.0944                   25239542.6684
        35.0004         31.2504
 -23014220.49448 -13667861.39046  20820488.7424                   20820476.6844
        48.0004         40.7504
  -8808976.07055  -7466725.27352  24942703.3364                   24942693.8554
        32.7504         17.7504
 -17315491.27947 -12975329.35946  22350294.2114                   22350281.8594
        47.0004         37.2504
 -24264304.89848 -18796222.02249  21164817.7974                   21164809.0204
        50.5004         54.7504
  -3154470.53345  -2434455.35043  24881891.5314                   24881881.7584
        34.2504         19.0004
 -17228487.93447 -13365796.60048  22198012.2114                   22198000.8554
        45.7504         48.5004
 -14074756.07047 -10260676.77347  22799203.1644                   22799193.3324
        42.5004         42.0004
  -5377712.83245  -4516897.79945  24387449.7974                   24387441.9574
        34.7504         30.2504
 -24811682.72948 -20678174.78849  20618625.6414                   20618616.2774
        51.7504         54.7504
 23  1  9  1  6  0.0000000  0 11G23G08G22G24G21G10G12G31G01G25G32
  -1930234.52546  -3899853.12644  23676457.4144                   23676446.8794
        40.5004         26.0004
  -7528830.51846  -5822027.27745  25254694.8834                   25254685.8714
        36.0004         31.0004
 -23043689.32747 -13690824.10246  20814880.5474                   20814869.1334
        47.2504         40.5004
  -8698833.66645  -7380900.02343  24963660.6804                   24963653.7194
        31.5004         19.5004
 -17344900.67147 -12998245.77546  22344697.4614                   22344685.1094
        47.0004         37.0004
 -24216842.72248 -18759238.51949  21173849.7344                   21173840.4884
        50.0004         54.7504
  -3202740.14445  -2472067.97942  24872705.9844                   24872697.4414
        35.0004         17.7504
 -17330982.60747 -13445662.54848  22178508.0634                   22178497.0594
        45.7504         48.2504
 -14154864.79146 -10323099.14346  22783957.4924                   22783950.1214
        40.5004         41.5004
  -5451436.05945  -4574344.42845  24373421.1644                   24373413.7344
        35.0004         30.7504
 -24790696.70248 -20661822.03849  20622619.4774                   20622610.1134
        51.7504         55.0004
 23  1  9  1  6 30.0000000  0 11G23G08G22G24G21G10G12G31G01G25G32
  -1840705.36846  -3830090.20244  23693494.4384                   23693483.7274
        40.2504         26.7504
  -7449161.40045  -5759947.44445  25269856.2194                   25269847.6174
        35.5004         30.5004
 -23072828.15747 -13713529.68746  20809335.2114                   20809324.2074
        47.7504         40.7504
  -8588513.30645  -7294936.14443  24984654.8674                   24984646.7344
        32.0004         18.2504
 -17373852.54147 -13020805.67746  22339188.0944                   22339175.5084
        46.7504         37.0004
 -24169043.54248 -18721992.41149  21182945.5234                   21182936.6884
        50.5004         54.7504
  -3250580.10546  -2509345.87543  24863603.5944                   24863593.7034
        36.5004         19.7504
 -17433156.42947 -13525278.49848  22159064.6414                   22159053.5784
        46.5004         48.5004
 -14234540.19647 -10385183.85046  22768796.7114                   22768787.9924
        42.5004         41.7504
  -5524892.07545  -4631582.86645  24359442.0314                   24359435.1884
        35.0004         31.2504
 -24769389.98148 -20645219.40449  20626673.7974                   20626664.4344
        52.7504         54.7504
 23  1  9  1  7  0.0000000  0 11G23G08G22G24G21G10G12G31G01G25G32
  -1750998.00546  -3760188.39644  23710564.5314                   23710554.6414
        39.0004         27.0004
  -7369402.63845  -5697797.76345  25285031.0234                   25285024.4734
        33.5004         30.2504
 -23101637.53147 -13735978.54246  20803852.8984                   20803841.6604
        47.0004         40.7504
  -8478018.27945  -7208836.10243  25005681.7814                   25005673.3554
        33.5004         19.5004
 -17402346.34647 -13043008.63746  22333765.6564                   22333753.6564
        46.2504         36.7504
 -24120907.65348 -18684483.94549  21192105.8054                   21192096.2664
        49.5004         54.5004
  -3297988.24245  -2546287.23243  24854581.5004                   24854572.4884
        35.7504         18.5004
 -17535006.92847 -13604642.50348  22139682.3984                   22139671.9224
        45.2504         48.5004
 -14313779.86846 -10446929.05346  22753716.6094                   22753708.7704
        40.5004         41.0004
  -5598077.90545  -4688610.79045  24345515.1174                   24345508.2734
        35.2504         31.7504
 -24747763.80848 -20628367.83949  20630789.2734                   20630779.9104
        52.5004         54.7504
 23  1  9  1  7 30.0000000  0 11G23G08G22G24G21G10G12G31G01G25G32
  -1661112.45646  -3690147.75144  23727669.8054                   23727659.3874
        40.0004         26.0004
  -7289557.13545  -5635580.51445  25300225.5634                   25300217.6054
        34.0004         30.2504
 -23130117.41447 -13758170.64846  20798433.5164                   20798422.2774
        47.0004         41.0004
  -8367350.32355  -7122601.40852  25026739.9844                   25026732.6724
        30.5004         17.7504
 -17430379.97247 -13064853.02246  22328431.1484                   22328419.0314
        46.5004         36.7504
 -24072434.12748 -18646712.37549  21201329.5314                   21201320.6954
        50.5004         54.5004
  -3344960.89245  -2582889.29043  24845642.5634                   24845635.2504
        34.7504         20.2504
 -17636530.12747 -13683751.48248  22120364.4694                   22120352.9384
        46.2504         48.7504
 -14392580.36647 -10508332.02047  22738722.7034                   22738714.5124
        42.0004         42.0004
  -5670989.55245  -4745425.04745  24331641.3674                   24331632.9414
        35.7504         32.0004
 -24725818.53448 -20611267.62149  20634965.4844                   20634955.9454
        53.2504         54.7504
 23  1  9  1  8  0.0000000  0 11G23G08G22G24G21G10G12G31G01G25G32
  -1571050.91046  -3619969.96344  23744807.1884                   23744797.4734
        38.7504         26.0004
  -7209629.19855  -5573299.03455  25315434.3834                   25315429.0634
        33.0004         30.7504
 -23158269.21647 -13780107.11146  20793076.9924                   20793065.1094
        47.7504         41.0004
  -8256513.92655  -7036235.40053  25047833.5554                   25047824.3674
        33.0004         18.2504
 -17457953.93947 -13086339.22746  22323184.1564                   22323171.9804
        46.0004         37.2504
 -24023624.51248 -18608678.92349  21210618.0084                   21210608.7624
        50.0004         54.5004
  -3391497.29346  -2619151.36643  24836789.1804                   24836778.7624
        37.0004         21.0004
 -17737724.74047 -13762604.41248  22101107.2734                   22101096.0354
        46.0004         48.5004
 -14470940.45746 -10569391.82446  22723810.1414                   22723801.9494
        41.5004         41.7504
  -5743625.40745  -4802024.37945  24317818.4144                   24317810.4574
        34.5004         30.7504
 -24703556.71048 -20593920.74349  20639201.8134                   20639192.3324
        53.2504         54.7504
 23  1  9  1  8 30.0000000  0 11G23G08G22G24G21G10G12G31G01G25G32
  -1480812.23146  -3549654.15744  23761979.5474                   23761969.8914
        38.7504         27.0004
  -7129619.67755  -5510954.02254  25330659.2274                   25330652.7344
        32.5004         29.7504
 -23186091.63247 -13801786.90846  20787781.9384                   20787771.1684
        47.7504         41.0004
  -8145509.90945  -6949738.75743  25068955.8364                   25068947.9964
        31.7504         18.2504
 -17485065.83647 -13107465.37746  22318024.9144                   22318012.9144
        47.0004         36.7504
 -23974476.91148 -18570382.09449  21219970.4614                   21219961.0394
        50.2504         54.5004
  -3437593.22246  -2655070.27943  24828017.0084                   24828006.5904
        36.7504         20.5004
 -17838585.92247 -13841197.52048  22081913.5554                   22081902.7854
        46.7504         48.7504
 -14548855.65247 -10630104.94746  22708984.6564                   22708974.9414
        42.0004         41.5004
  -5815980.30645  -4858404.77245  24304051.9774                   24304041.4414
        35.0004         31.2504
 -24680977.48149 -20576326.54349  20643498.3054                   20643488.8834
        54.2504         55.0004
 23  1  9  1  9  0.0000000  0 11G23G08G22G24G21G10G12G31G01G25G32
  -1390397.18746  -3479200.94044  23779185.7814                   23779175.0124
        40.0004         25.7504
  -7049531.69245  -5448547.81345  25345899.0234                   25345894.1764
        31.7504         30.5004
 -23213585.13647 -13823210.41146  20782550.0164                   20782538.8954
        47.0004         41.0004
                                  25090109.7424                   25090102.3714
        29.0004         17.7504
 -17511714.54047 -13128230.60446  22312954.1564                   22312941.8054
        47.0004         36.7504
 -23924991.34648 -18531821.92949  21229387.2114                   21229378.1414
        49.7504         54.2504
  -3483246.15046  -2690643.94143  24819330.8204                   24819319.3484
        37.2504         20.0004
 -17939110.71147 -13919528.50148  22062785.2114                   22062773.7384
        45.7504         48.7504
 -14626323.27946 -10690469.33847  22694242.4694                   22694234.3364
        41.2504         42.2504
  -5888051.07845  -4914563.80545  24290334.7584                   24290327.7384
        35.5004         31.5004
 -24658081.90248 -20558485.83449  20647854.9534                   20647845.7074
        53.7504         55.0004
 23  1  9  1  9 30.0000000  0 11G23G08G22G24G21G10G12G31G01G25G32
  -1299810.75446  -3408614.13844  23796423.9924                   23796413.4574
        40.2504         27.2504
  -6969372.05645  -5386085.72645  25361153.2344                   25361147.3874
        33.2504         30.7504
 -23240754.17247 -13844381.08346  20777380.0634                   20777368.4734
        47.5004         41.0004
  -7923013.89955  -6776365.33952  25111295.8364                   25111287.8204
        32.2504         17.7504
 -17537903.33247 -13148637.46046  22307970.4144                   22307957.8874
        46.7504         37.0004
 -23875172.41148 -18493001.99049  21238867.6724                   21238858.3094
        49.0004         54.2504
  -3528458.33645  -2725874.19543  24810724.9774                   24810715.6724
        35.5004         19.2504
 -18039300.46947 -13997598.42148  22043719.5704                   22043708.3914
        46.0004         49.2504
 -14703344.94146 -10750486.19146  22679585.4304                   22679576.7114
        41.2504         41.2504
  -5959838.78845  -4970502.28445  24276674.3444                   24276666.9144
        34.5004         31.5004
 -24634875.27048 -20540402.75949  20652271.3984                   20652261.9774
        53.5004         54.7504
 23  1  9  1 10  0.0000000  0 11G23G08G22G24G21G10G12G31G01G25G32
  -1209045.83046  -3337888.28544  23813695.3444                   23813685.1604
        39.2504         26.0004
  -6889136.75655  -5323564.76155  25376422.6484                   25376415.4534
        33.0004         30.7504
 -23267591.41547 -13865293.21646  20772273.3524                   20772262.1134
        46.5004         41.5004
                                  25132511.6024                   25132502.8834
        31.5004         17.2504
 -17563623.56947 -13168679.20446  22303075.4224                   22303063.4804
        46.0004         37.0004
 -23825011.81748 -18453915.81849  21248413.1024                   21248403.4454
        49.5004         54.0004
  -3573218.95646  -2760752.60843  24802208.5704                   24802197.2734
        37.2504         19.0004
 -18139144.60347 -14075399.03348  22024719.8594                   22024708.3874
        45.7504         49.2504
 -14779910.14347 -10810147.39346  22665016.2584                   22665007.1294
        42.2504         41.7504
  -6031332.36245  -5026211.52845  24263069.8204                   24263061.8054
        34.0004         31.2504
 -24611350.77448 -20522071.98149  20656747.8914                   20656738.2344
        53.5004         54.7504
 23  1  9  1 10 30.0000000  0 11G23G08G22G24G21G10G12G31G01G25G32
  -1118110.49346  -3267029.62744  23830999.2194                   23830989.3874
        38.7504         25.5004
  -6808835.31645  -5260992.16545  25391704.1804                   25391696.9844
        33.5004         31.5004
 -23294104.62047 -13885952.84846  20767227.6254                   20767216.5044
        46.7504         41.2504
                                  25153755.7034                   25153747.9224
        29.0004         15.5004
 -17588881.62347 -13188360.81046  22298269.1804                   22298257.0044
        45.5004         37.0004
 -23774517.10648 -18414569.30949  21258021.3594                   21258012.3484
        49.5004         54.0004
  -3617533.15645  -2795283.12643  24793773.3674                   24793764.3554
        34.5004         19.7504
 -18238647.39047 -14152933.65548  22005784.3834                   22005773.2624
        46.0004         49.2504
 -14856023.60446 -10869456.55447  22650531.8444                   22650523.7704
        41.0004         42.0004
  -6102535.85945  -5081694.72545  24249521.6644                   24249512.4774
        35.5004         31.7504
 -24587516.79148 -20503500.03849  20661283.3284                   20661273.7304
        53.5004         54.7504
 23  1  9  1 11  0.0000000  0 11G23G08G22G24G21G10G12G31G01G25G32
  -1027002.30146  -3196036.28544  23848336.5554                   23848326.8984
        38.5004         26.7504
  -6728467.75645  -5198368.15145  25406995.2814                   25406990.5514
        31.0004         30.0004
 -23320290.90947 -13906357.73946  20762244.7664                   20762233.4104
        46.7504         41.5004
                                  25175030.5394                   25175023.2274
        30.0004         17.7504
 -17613673.46947 -13207679.13546  22293551.5634                   22293539.4454
        46.7504         37.5004
 -23723685.12348 -18374959.98749  21267694.6334                   21267685.5634
        49.2504         54.0004
  -3661395.23246  -2829461.34442  24785429.6334                   24785417.3404
        36.2504         17.2504
 -18337802.70347 -14230197.52148  21986916.7034                   21986904.5274
        46.0004         49.5004
 -14931679.39946 -10928409.12246  22636135.2814                   22636126.3874
        41.5004         41.7504
  -6173443.00545  -5136947.02445  24236027.1484                   24236020.2464
        35.0004         33.5004
 -24563371.18548 -20484685.27949  20665877.8204                   20665868.2814
        52.5004         54.7504
 23  1  9  1 11 30.0000000  0 11G23G08G22G24G21G10G12G31G01G25G32
   -935725.31746  -3124911.41744  23865707.2424                   23865696.5904
        39.0004         25.2504
  -6648040.66545  -5135697.64345  25422301.3444                   25422295.4964
        32.2504         32.0004
 -23346153.99547 -13926510.78346  20757322.8594                   20757311.6804
        47.5004         41.2504
  -7476139.88755  -6428151.88952  25196332.0554                   25196325.5634
        31.0004         16.7504
 -17638001.32648 -13226635.90346  22288922.0864                   22288910.0274
        48.0004         37.0004
 -23672519.40648 -18335090.62149  21277431.8134                   21277422.0984
        49.2504         54.0004
  -3704806.14945  -2863288.04443  24777167.5944                   24777156.0634
        35.7504         19.0004
 -18436610.93347 -14307190.93048  21968113.0234                   21968102.1374
        46.5004         49.5004
 -15006878.31246 -10987005.66446  22621825.2584                   22621816.5984
        41.5004         41.7504
  -6244053.89145  -5191968.47345  24222590.4534                   24222582.4384
        35.0004         33.0004
 -24538918.30248 -20465631.09249  20670531.3984                   20670521.4494
        52.7504         54.7504
 23  1  9  1 12  0.0000000  0 11G23G08G22G24G21G10G12G31G01G25G32
   -844275.28146  -3053651.67544  23883108.8134                   23883099.0394
        38.5004         25.0004
  -6567550.59354  -5072978.18554  25437616.0164                   25437612.1644
        29.7504         27.2504
 -23371689.31147 -13946408.42546  20752463.6564                   20752452.7114
        47.2504         41.5004
  -7364045.76955  -6340805.90252  25217662.7974                   25217655.5434
        31.0004         17.2504
 -17661859.96047 -13245227.05446  22284382.3054                   22284369.9534
        47.0004         37.2504
 -23621014.79548 -18294957.15648  21287232.3674                   21287222.8874
        49.0004         53.7504
  -3747758.46346  -2896757.40943  24768994.0784                   24768982.4304
        37.0004         19.2504
 -18535064.28947 -14383907.81648  21949378.4384                   21949367.3164
        46.2504         49.5004
 -15081612.66947 -11045240.22647  22607604.1094                   22607595.5664
        42.0004         42.5004
  -6314360.33845  -5246752.67245  24209209.8204                   24209202.9774
        34.2504         31.7504
 -24514154.14848 -20446334.35049  20675243.6804                   20675234.3754
        52.5004         54.7504
 23  1  9  1 12 30.0000000  0 11G23G08G22G24G21G10G12G31G01G25G32
   -752654.18546  -2982258.67844  23900544.2344                   23900533.8164
        38.7504         25.0004
  -6487002.97345  -5010213.84845  25452949.2504                   25452939.0664
        35.5004         31.0004
 -23396898.25147 -13966051.74646  20747666.9144                   20747655.7344
        47.0004         41.7504
  -7251805.71655  -6253346.13052  25239022.8754                   25239014.3914
        31.7504         16.7504
 -17685249.48047 -13263452.65546  22279931.1644                   22279918.7544
        46.2504         37.0004
 -23569172.61948 -18254560.67748  21297096.8204                   21297088.1024
        49.0004         53.5004
  -3790251.10945  -2929868.54342  24760908.0234                   24760895.5554
        35.2504         17.2504
 -18633161.38147 -14460347.08548  21930711.7114                   21930699.8284
        46.7504         49.5004
 -15155881.14646 -11103111.75346  22593470.1724                   22593462.3324
        41.2504         41.5004
  -6384360.37045  -5301298.12045  24195889.9924                   24195883.1484
        34.7504         32.2504
 -24489081.02548 -20426796.85049  20680014.8754                   20680005.3364
        53.7504         55.0004
 23  1  9  1 13  0.0000000  0 11G23G08G22G24G21G10G12G31G01G25G32
   -660861.51246  -2910731.94344  23918011.1024                   23918001.1524
        38.5004         24.0004
  -6406398.88755  -4947405.41855  25468284.2114                   25468278.8914
        31.0004         31.5004
 -23421780.00848 -13985440.11946  20742932.6484                   20742920.7664
        48.5004         41.5004
                                  25260407.3444                   25260401.0274
        30.2504         16.2504
 -17708167.09148 -13281310.53346  22275569.9454                   22275557.7704
        48.0004         37.5004
 -23516991.54548 -18213900.10348  21307027.8754                   21307017.9844
        49.7504         53.5004
  -3832280.41146  -2962618.64643  24752910.6024                   24752898.0744
        36.2504         18.5004
 -18730897.52047 -14536505.10548  21912112.4774                   21912101.3554
        47.0004         49.5004
 -15229679.79647 -11160617.17546  22579427.6414                   22579418.6884
        42.0004         41.5004
  -6454049.50845  -5355601.33945  24182628.8134                   24182621.3834
        34.7504         32.5004
 -24463698.66448 -20407018.38249  20684845.2114                   20684835.4384
        53.5004         55.0004
 23  1  9  1 13 30.0000000  0 10G23G08G22G21G10G12G31G01G25G32
   -568902.73046  -2839075.84244  23935510.6254                   23935500.9104
        38.5004         25.0004
  -6325746.22555  -4884559.33254  25483633.3754                   25483626.4734
        33.2504         29.5004
 -23446339.91448 -14004577.70346  20738258.7034                   20738246.9384
        48.0004         41.5004
 -17730617.21847 -13298804.13546  22271298.0474                   22271286.1054
        47.0004         37.2504
 -23464476.67748 -18172979.43348  21317020.5314                   21317011.2854
        49.5004         53.5004
  -3873849.00446  -2995009.81243  24744998.8134                   24744987.8674
        36.0004         19.0004
 -18828274.65447 -14612383.37548  21893582.5474                   21893571.4264
        46.5004         49.7504
 -15303010.80646 -11217758.21547  22565473.6884                   22565464.3244
        41.7504         42.2504
  -6523429.34345  -5409663.51645  24169426.3914                   24169418.9614
        34.7504         33.0004
 -24438012.87848 -20387003.48949  20689732.8914                   20689723.3524
        53.2504         55.0004
 23  1  9  1 14  0.0000000  0 10G23G08G22G21G10G12G31G01G25G32
   -476776.54046  -2767289.22844  23953042.5004                   23953031.9064
        38.7504         24.5004
  -6245045.60345  -4821675.67145  25498989.8754                   25498982.9144
        33.7504         31.0004
 -23470576.52148 -14023463.36546  20733646.5554                   20733635.3164
        48.0004         41.5004
 -17752597.23847 -13315931.42846  22267115.2114                   22267102.9774
        47.5004         37.0004
 -23411625.68448 -18131796.86448  21327077.5004                   21327068.3134
        48.5004         53.5004
  -3914952.44645  -3027038.45843  24737177.0864                   24737167.4304
        35.5004         18.5004
 -18925288.01547 -14687978.18048  21875121.0634                   21875110.3524
        46.0004         49.5004
 -15375869.40146 -11274531.14146  22551608.1644                   22551599.9144
        41.5004         41.7504
  -6592494.54245  -5463480.52845  24156283.8754                   24156276.7974
        35.2504         32.2504
 -24412022.52348 -20366751.26749  20694678.3754                   20694668.8364
        52.2504         54.7504
 23  1  9  1 14 30.0000000  0 11G03G23G08G22G21G10G12G31G01G25G32
                                  25759181.953
        23.750
   -384482.91946  -2695372.19443  23970604.8054                   23970594.3284
        38.0004         22.7504
  -6164299.50045  -4758756.59345  25514357.5004                   25514348.4884
        34.0004         31.7504
 -23494489.22947 -14042096.64646  20729096.1564                   20729084.5664
        46.5004         41.7504
 -17774104.93747 -13332690.68346  22263023.2664                   22263010.3874
        46.2504         37.5004
 -23358438.03548 -18090351.95748  21337198.8284                   21337189.6414
        48.5004         53.5004
  -3955587.25946  -3058701.95843  24729447.7664                   24729434.7704
        38.5004         21.0004
 -19021934.07147 -14763286.77648  21856730.2974                   21856719.1174
        46.5004         49.7504
 -15448252.42046 -11330933.47646  22537834.2814                   22537825.1524
        40.7504         41.2504
  -6661241.25345  -5517049.37445  24143201.6954                   24143194.2074
        35.0004         33.0004
 -24385727.94948 -20346261.99249  20699682.2894                   20699672.5164
        52.0004         55.0004
 23  1  9  1 15  0.0000000  0 10G23G08G22G21G10G12G31G01G25G32
   -292023.55246  -2623325.98244  23988199.1954                   23988189.0124
        38.5004         24.2504
  -6083510.76045  -4695804.36944  25529728.1484                   25529721.4224
        32.5004         28.7504
 -23518078.98848 -14060478.26847  20724607.3754                   20724595.6094
        48.5004         42.0004
 -17795140.72247 -13349082.20646  22259020.0084                   22259007.5394
        47.5004         37.7504
 -23304914.52248 -18048645.33648  21347384.7034                   21347374.8714
        49.2504         53.2504
  -3995752.41946  -3089999.46443  24721802.3674                   24721791.1884
        37.0004         19.5004
 -19118210.51447 -14838307.35848  21838409.3984                   21838398.3364
        46.5004         50.0004
 -15520157.94447 -11386963.76546  22524152.3444                   22524143.0394
        42.0004         41.7504
  -6729667.10045  -5570368.18645  24130181.3204                   24130171.9574
        35.5004         31.7504
 -24359130.95348 -20325537.05949  20704743.7504                   20704733.9774
        52.7504         54.7504
 23  1  9  1 15 30.0000000  0 10G23G08G22G21G10G12G31G01G25G32
   -199398.04546  -2551150.30443  24005824.9384                   24005815.2814
        37.7504         22.0004
  -6002681.76445  -4632820.69845  25545109.1174                   25545102.7424
        32.0004         30.7504
 -23541345.41348 -14078607.94846  20720179.5554                   20720167.9654
        48.0004         41.7504
 -17815702.88747 -13365104.67746  22255106.7894                   22255094.6134
        46.2504         37.2504
 -23251054.13248 -18006676.21148  21357633.0234                   21357624.3634
        48.5004         53.2504
  -4035444.44846  -3120928.36743  24714248.4224                   24714239.1174
        36.0004         19.7504
 -19214113.49747 -14913036.95048  21820159.8134                   21820148.3404
        46.2504         50.0004
 -15591582.42646 -11442619.17846  22510559.2734                   22510551.2584
        40.2504         41.5004
  -6797767.85545  -5623433.68545  24117221.5784                   24117213.7384
        35.5004         32.5004
 -24332231.49448 -20304576.43349  20709862.4064                   20709853.2194
        52.0004         55.0004
 23  1  9  1 16  0.0000000  0 10G23G08G22G21G10G12G31G01G25G32
   -106608.25846  -2478846.65043  24023483.4064                   24023472.5204
        38.2504         22.5004
  -5921816.45445  -4569808.71145  25560495.4064                   25560492.7274
        30.0004         30.5004
 -23564289.98948 -14096486.82047  20715813.4454                   20715801.9144
        48.2504         42.0004
 -17835792.05347 -13380758.57146  22251283.6564                   22251271.4804
        47.0004         37.5004
 -23196858.17148 -17964445.61048  21367946.0864                   21367937.4844
        49.0004         53.2504
  -4074662.00546  -3151487.49043  24706786.4694                   24706775.3484
        36.2504         20.2504
 -19309641.39147 -14987474.25548  21801982.0004                   21801970.4694
        46.5004         50.0004
 -15662524.39747 -11497898.62746  22497060.0084                   22497051.2894
        42.2504         41.5004
  -6865541.51345  -5676244.29445  24104325.0004                   24104317.8634
        35.2504         33.0004
 -24305031.70348 -20283381.79349  20715038.0634                   20715028.8164
        51.5004         55.0004
 23  1  9  1 16 30.0000000  0 10G23G08G22G21G10G12G31G01G25G32
    -13649.31746  -2406411.15943  24041171.9304                   24041162.3914
        38.2504         22.7504
                                  25575897.7664                   25575889.3984
        38.2504         26.7504
 -23586907.52648 -14114110.87547  20711509.8204                   20711497.9964
        48.5004         42.0004
 -17855401.49547 -13396038.65146  22247552.1484                   22247540.2664
        47.0004         37.5004
 -23142320.99648 -17921949.11748  21378324.5234                   21378315.5704
        48.7504         53.2504
  -4113397.44046  -3181670.91243  24699415.7814                   24699405.2464
        36.0004         21.7504
 -19404785.28447 -15061612.34348  21783876.7114                   21783864.7704
        46.7504         50.2504
 -15732975.59446 -11552795.67346  22483653.2034                   22483644.6024
        41.2504         41.5004
  -6932979.08845  -5728793.04645  24091492.0004                   24091484.2194
        35.2504         32.2504
 -24277526.91948 -20261949.49849  20720272.1024                   20720262.6804
        51.5004         54.7504
 23  1  9  1 17  0.0000000  0 10G23G08G22G21G10G12G31G01G25G32
     79454.72646  -2333862.63443  24058888.6484                   24058879.7544
        36.7504         22.5004
    662390.85156  -4476138.41256  25591298.4924                   25591290.1254
        39.0004         37.7504
 -23609221.71148 -14131498.54846  20707263.0864                   20707251.6724
        48.2504         41.7504
 -17874553.44547 -13410962.25346  22243907.7974                   22243895.7384
        47.7504         37.5004
 -23087466.11648 -17879205.07048  21388763.1564                   21388753.7344
        48.5004         53.0004
  -4151671.72345  -3211495.00043  24692130.2734                   24692121.7894
        35.5004         21.7504
 -19499566.00547 -15135467.42148  21765840.0474                   21765828.6334
        47.0004         50.2504
 -15802956.81747 -11607326.48247  22470337.2584                   22470328.1294
        42.0004         42.0004
  -7000100.86145  -5781095.69445  24078719.3524                   24078711.5124
        35.2504         32.5004
 -24249741.43948 -20240298.47149  20725559.7814                   20725550.1254
        51.2504         54.7504
 23  1  9  1 17 30.0000000  0 11G03G23G08G22G21G10G12G31G01G25G32
    586227.79955    465792.47155  25645041.7504                   25645032.0944
        31.7504         30.0004
    172740.12146  -2261172.77443  24076641.5394                   24076631.1214
        37.2504         22.0004
    743353.74456  -4422554.96154  25606701.5084                   25606693.7854
        36.0004         27.5004
 -23631195.85347 -14148621.24646  20703081.7424                   20703070.2704
        47.0004         41.7504
 -17893210.19947 -13425499.98846  22240357.9534                   22240345.2504
        46.2504         37.5004
 -23032256.10448 -17836184.28748  21399269.3284                   21399260.1994
        49.5004         53.0004
  -4189445.82246  -3240929.34343  24684943.5394                   24684933.8834
        36.0004         20.5004
 -19593943.67947 -15209008.45848  21747880.4774                   21747868.8284
        47.0004         50.2504
 -15872428.49046 -11661460.26246  22457116.3984                   22457107.2114
        41.5004         41.5004
  -7066866.56545  -5833120.90245  24066013.3754                   24066006.0634
        34.5004         32.5004
 -24221639.21248 -20218400.61749  20730907.2424                   20730897.8794
        51.5004         54.7504
 23  1  9  1 18  0.0000000  0 10G23G08G22G21G10G12G31G01G25G32
    266187.74346  -2188356.48643  24094422.7664                   24094413.1094
        36.0004         22.5004
                                  25622115.4924                   25622104.1954
        37.2504         31.5004
 -23652848.99048 -14165493.81246  20698961.2034                   20698949.6724
        49.0004         41.7504
 -17911390.20748 -13439666.23346  22236898.9304                   22236885.9344
        48.2504         37.2504
 -22976710.11048 -17792901.71648  21409839.7424                   21409830.4384
        49.7504         53.0004
  -4226735.63945  -3269986.27743  24677848.2034                   24677837.8444
        35.7504         20.0004
 -19687933.77047 -15282247.47648  21729994.6484                   21729983.3524
        46.2504         50.2504
 -15941406.42846 -11715209.30047  22443990.3364                   22443981.6174
        41.2504         42.0004
  -7133291.44346  -5884880.53445  24053374.6644                   24053364.9494
        36.0004         32.7504
 -24193239.62248 -20196271.07249  20736311.6094                   20736301.9534
        51.0004         54.7504
 23  1  9  1 18 30.0000000  0 10G23G08G22G21G10G12G31G01G25G32
    359781.29546  -2115426.51443  24112233.2194                   24112223.7384
        37.2504         22.5004
    905343.62655  -4296329.03454  25637523.5474                   25637516.8204
        33.5004         28.2504
 -23674196.62048 -14182128.32746  20694899.1094                   20694887.1684
        48.2504         41.7504
 -17929107.36848 -13453471.82146  22233526.7734                   22233514.3634
        48.5004         37.7504
 -22920843.63348 -17749369.39548  21420470.0864                   21420461.3674
        48.2504         53.0004
  -4263554.47246  -3298676.27843  24670842.2424                   24670830.7704
        36.7504         20.5004
 -19781548.90147 -15355194.31548  21712180.1804                   21712168.9414
        46.5004         50.5004
 -16009903.69546 -11768583.78447  22430955.5944                   22430946.8754
        41.5004         42.2504
  -7199387.83445  -5936384.22845  24040795.2344                   24040787.8634
        35.0004         32.5004
 -24164559.21648 -20173922.70449  20741769.4844                   20741760.1804
        50.7504         54.7504
 23  1  9  1 19  0.0000000  0 11G03G23G08G22G21G10G12G31G01G25G32
    638889.54654    430332.53253  25587852.2664                   25587842.1994
        26.7504         22.7504
    453541.44446  -2042366.74343  24130075.9064                   24130066.5434
        37.7504         22.7504
    986368.87255  -4233192.46955  25652942.8524                   25652938.2384
        33.5004         30.2504
 -23695217.75847 -14198508.43146  20690898.8834                   20690887.0004
        47.7504         41.7504
 -17946339.88948 -13466899.76446  22230247.0314                   22230235.0314
        48.0004         37.0004
 -22864634.89448 -17705570.38148  21431166.6174                   21431157.6644
        48.5004         53.0004
  -4299878.72846  -3326980.85643  24663928.5394                   24663918.7664
        36.0004         20.2504
 -19874764.66947 -15427829.97248  21694441.4304                   21694430.4844
        46.5004         51.0004
 -16077896.24447 -11821564.99747  22418017.2584                   22418008.0704
        42.0004         42.0004
  -7265131.16245  -5987612.80745  24028286.1724                   24028277.6294
        35.7504         32.5004
 -24135577.43548 -20151339.49049  20747284.7194                   20747274.6524
        50.7504         55.0004
 23  1  9  1 19 30.0000000  0 11G03G23G08G22G21G10G12G31G01G25G32
                                  25568768.727
        29.000
    547460.58846  -1969183.08443  24147946.3914                   24147938.0234
        36.2504         21.5004
   1067411.12955  -4179558.64155  25668367.2504                   25668359.3524
        35.7504         31.7504
 -23715919.96748 -14214640.01347  20686959.3364                   20686947.6294
        48.0004         42.2504
 -17963094.30847 -13479955.14646  22227058.8284                   22227047.0044
        46.7504         37.2504
 -22808091.03548 -17661510.22948  21441926.8054                   21441917.2664
        48.5004         53.0004
  -4335713.60246  -3354904.15143  24657110.8984                   24657098.7814
        37.2504         21.2504
 -19967585.31647 -15500157.72948  21676779.0864                   21676767.2034
        47.0004         51.0004
 -16145388.53947 -11874156.39647  22405173.0634                   22405165.2234
        42.2504         42.7504
  -7330525.26545  -6038569.24445  24015840.5554                   24015833.4184
        34.5004         32.7504
 -24106302.25648 -20128527.66549  20752855.4454                   20752845.9064
        50.5004         55.0004
 23  1  9  1 20  0.0000000  0 11G03G23G08G22G21G10G12G31G01G25G32
                                  25549682.6024                   25549674.7624
        32.7504         25.5004
    641545.95746  -1895869.86343  24165852.5004                   24165841.3794
        37.5004         21.7504
                                  25683790.3054                   25683784.5744
        33.5004         27.2504
 -23736295.85848 -14230517.31947  20683082.0474                   20683070.0474
        48.0004         42.0004
 -17979361.67647 -13492631.02546  22223963.1024                   22223951.6884
        47.0004         37.5004
 -22751204.59248 -17617183.13948  21452752.0474                   21452742.8594
        48.5004         52.7504
  -4371048.42046  -3382437.75543  24650386.1024                   24650375.2154
        37.0004         20.5004
 -20059999.81147 -15572169.01548  21659192.9064                   21659181.2584
        46.7504         51.2504
 -16212369.97047 -11926349.70947  22392428.4304                   22392419.0084
        42.5004         43.2504
  -7395558.79245  -6089244.70845  24003465.1484                   24003458.7154
        34.2504         31.5004
 -24076726.51448 -20105481.62649  20758483.0864                   20758473.7234
        50.2504         54.7504
 23  1  9  1 20 30.0000000  0 11G03G23G08G22G21G10G12G31G01G25G32
    337963.14854    228377.76154  25530585.9774                   25530577.4924
        28.7504         26.0004
    735772.66746  -1822446.51743  24183782.5004                   24183772.9024
        36.5004         22.5004
   1229534.55945  -4053228.64144  25699214.4774                   25699210.1564
        32.2504         25.7504
 -23756369.54148 -14246159.15246  20679262.1884                   20679250.4804
        48.5004         41.7504
 -17995164.95347 -13504945.27646  22220956.3134                   22220944.1374
        47.7504         37.0004
 -22693999.39048 -17572607.66348  21463637.6954                   21463628.5084
        48.2504         52.7504
  -4405904.84946  -3409598.57443  24643754.6094                   24643742.1414
        38.5004         20.5004
 -20152029.57247 -15643880.49648  21641680.1564                   21641668.9184
        47.0004         51.5004
 -16278862.16546 -11978161.80147  22379773.9064                   22379765.5984
        41.5004         43.0004
  -7460252.72845  -6139655.54145  23991154.6884                   23991147.3754
        35.0004         33.0004
 -24046875.29648 -20082220.92649  20764163.7504                   20764154.0944
        50.5004         55.0004
 23  1  9  1 21  0.0000000  0 11G03G23G08G22G21G10G12G31G01G25G32
                                  25511482.8754                   25511474.7424
        31.5004         28.2504
    830165.88646  -1748893.45843  24201745.4844                   24201735.4184
        37.7504         22.2504
   1310612.10945  -3990051.24044  25714644.1564                   25714636.4344
        34.0004         26.0004
 -23776115.69548 -14261545.76146  20675504.3594                   20675492.5944
        48.2504         41.7504
 -18010477.99447 -13516877.51346  22218042.7424                   22218030.0394
        47.5004         37.0004
 -22636449.53548 -17527763.62748  21474588.7034                   21474579.8094
        48.2504         52.7504
  -4440255.19346  -3436365.08743  24637217.4454                   24637203.5124
        38.5004         20.0004
 -20243645.99847 -15715269.90548  21624245.8134                   21624234.8094
        47.2504         51.5004
 -16344836.82547 -12029570.62947  22367220.9844                   22367210.9774
        43.0004         43.5004
  -7524578.05445  -6189779.16445  23978913.6024                   23978906.4654
        35.0004         31.7504
 -24016723.75148 -20058726.20649  20769901.5474                   20769891.7734
        50.7504         55.2504
 23  1  9  1 21 30.0000000  0 11G03G23G08G22G21G10G12G31G01G25G32
    137141.60055     71893.53553  25492369.4384                   25492361.1294
        31.5004         23.7504
    924711.05646  -1675221.96843  24219735.5314                   24219726.9884
        36.0004         22.0004
   1391691.52146  -3926872.45144  25730074.6884                   25730066.3794
        36.7504         27.2504
 -23795548.23148 -14276687.98146  20671806.5164                   20671795.1604
        48.7504         41.5004
 -18025314.28847 -13528438.26846  22215219.0944                   22215206.6844
        47.2504         37.2504
 -22578569.12848 -17482662.02748  21485602.8134                   21485594.0354
        48.2504         52.5004
  -4474111.37846  -3462746.55543  24630775.7584                   24630760.6524
        39.0004         21.0004
 -20334859.71547 -15786345.51548  21606888.3594                   21606877.3554
        47.0004         51.5004
 -16410305.17547 -12080584.92847  22354761.4224                   22354753.4654
        42.5004         43.7504
  -7588545.60446  -6239624.00945  23966742.4844                   23966732.9454
        36.0004         32.5004
 -23986286.57048 -20035008.92149  20775693.4614                   20775684.0984
        50.5004         55.0004
 23  1  9  1 22  0.0000000  0 11G03G23G08G22G21G10G12G31G01G25G32
                                  25473250.0634                   25473242.9844
        30.0004         25.5004
   1019412.20146  -1601428.96043  24237758.4144                   24237748.1134
        37.2504         22.0004
   1472774.61546  -3863690.85144  25745504.4224                   25745495.9964
        36.5004         28.5004
 -23814662.99348 -14291582.59146  20668169.0474                   20668157.2234
        49.0004         41.5004
 -18039668.21447 -13539623.15046  22212487.6724                   22212475.1454
        47.7504         37.0004
 -22520353.23247 -17437299.01848  21496681.1484                   21496672.3714
        47.5004         52.5004
  -4507466.34446  -3488737.42543  24624428.1024                   24624414.4614
        38.2504         20.7504
 -20425663.23947 -15857101.50948  21589609.0394                   21589598.0354
        47.5004         51.5004
 -16475260.04247 -12131199.08647  22342402.0394                   22342392.5004
        42.7504         43.7504
  -7652147.28246  -6289183.76845  23954639.1094                   23954630.0984
        36.0004         33.0004
 -23955559.89748 -20011066.05549  20781540.4144                   20781531.1684
        49.7504         55.0004
 23  1  9  1 22 30.0000000  0 11G03G23G08G22G21G10G12G31G01G25G32
  -1639261.61945  -1312316.75944  25454122.8754                   25454116.6764
        30.7504         28.5004
   1114261.02646  -1527520.86143  24255806.5554                   24255796.8984
        36.0004         22.0004
   1553851.53345  -3800514.00044  25760932.2194                   25760925.7854
        34.0004         28.2504
 -23833468.13048 -14306235.95246  20664590.5864                   20664578.4694
        48.5004         41.5004
 -18053546.71747 -13550437.56946  22209846.6644                   22209834.7234
        47.7504         37.2504
 -22461809.85147 -17391680.81248  21507821.5394                   21507812.6454
        47.7504         52.5004
  -4540325.26646  -3514341.78443  24618175.4454                   24618160.9844
        39.0004         19.2504
 -20516061.30447 -15927541.53948  21572406.5944                   21572395.7074
        47.0004         51.5004
 -16539706.33447 -12181417.01347  22330137.8754                   22330128.4534
        43.0004         43.7504
  -7715387.56945  -6338461.88645  23942603.6884                   23942595.4964
        35.0004         31.7504
 -23924552.18248 -19986904.20149  20787441.1414                   20787431.8954
        50.0004         54.7504
 23  1  9  1 23  0.0000000  0 11G03G23G08G22G21G10G12G31G01G25G32
  -1739806.38445  -1390663.35344  25434990.9454                   25434982.3444
        30.7504         27.5004
   1209268.22246  -1453489.38143  24273886.0784                   24273876.7154
        36.7504         20.7504
   1634930.70845  -3737335.29144  25776358.5704                   25776353.4884
        31.5004         26.7504
 -23851952.32348 -14320639.21446  20661073.1254                   20661061.3014
        48.2504         41.5004
 -18066937.64047 -13560872.06546  22207298.1884                   22207285.7774
        47.5004         36.7504
 -22402927.54547 -17345798.50348  21519026.5004                   21519017.6054
        47.7504         52.2504
  -4572674.90346  -3539549.35643  24612019.2974                   24612003.7234
        39.2504         19.5004
 -20606039.89047 -15997654.71348  21555284.8984                   21555272.8404
        47.5004         51.5004
 -16603630.39646 -12231227.95547  22317972.1484                   22317964.7194
        41.0004         43.7504
  -7778251.76845  -6387447.00545  23930641.1024                   23930635.5474
        35.2504         33.2504
 -23893252.99248 -19962515.20949  20793397.2424                   20793387.5864
        50.0004         55.0004
 23  1  9  1 23 30.0000000  0 11G03G23G08G22G21G10G12G31G01G25G32
  -1840386.59145  -1469037.58344  25415850.0084                   25415842.9304
        30.5004         27.2504
   1304427.63945  -1379339.26843  24291993.7584                   24291985.3324
        34.7504         21.5004
   1716004.07345  -3674161.18844  25791788.1884                   25791781.4024
        33.0004         28.2504
 -23870121.51348 -14334797.01946  20657615.7504                   20657604.0434
        48.7504         41.5004
 -18079845.83748 -13570930.40546  22204841.9924                   22204829.6994
        48.0004         36.7504
 -22343711.83447 -17299656.42448  21530295.1804                   21530286.0514
        47.7504         52.2504
  -4604519.10046  -3564363.03743  24605958.8524                   24605944.0984
        38.2504         20.5004
 -20695601.49247 -16067442.96448  21538241.8834                   21538230.3524
        47.5004         51.7504
 -16667034.97647 -12280634.11147  22305909.0944                   22305899.3794
        43.5004         44.5004
  -7840742.26045  -6436140.89445  23918750.2034                   23918743.3014
        35.5004         33.5004
 -23861668.57648 -19937903.97449  20799407.3834                   20799397.7854
        50.5004         55.0004
 23  1  9  1 24  0.0000000  0 11G03G23G08G22G21G10G12G31G01G25G32
  -1941001.57545  -1547438.84844  25396705.3594                   25396697.3444
        32.5004         29.5004
   1399738.24046  -1305071.37043  24310132.2114                   24310121.5594
        37.0004         22.0004
   1797069.28745  -3610993.45544  25807216.3754                   25807207.0704
        35.5004         27.7504
 -23887976.27248 -14348709.81346  20654217.6564                   20654206.1844
        48.2504         41.5004
 -18092270.92047 -13580612.29946  22202477.9064                   22202465.3794
        47.7504         36.5004
 -22284163.13948 -17253254.86148  21541626.6804                   21541617.6684
        48.0004         52.2504
  -4635855.41846  -3588780.93443  24599996.9774                   24599981.1684
        38.7504         20.0004
 -20784743.37647 -16136904.16148  21521279.0554                   21521267.2304
        47.5004         51.7504
 -16729917.97346 -12329633.86147  22293940.5634                   22293932.0784
        41.7504         43.7504
  -7902856.12345  -6484541.28345  23906929.4844                   23906923.6374
        35.2504         33.2504
 -23829800.12848 -19913071.41549  20805471.7424                   20805462.3204
        50.0004         55.0004
 23  1  9  1 24 30.0000000  0 11G03G23G08G22G21G10G12G31G01G25G32
  -2041649.88945  -1625866.09944  25377552.9144                   25377544.8984
        32.7504         28.5004
   1495199.38245  -1230686.15743  24328297.0314                   24328288.0204
        35.5004         21.7504
   1878123.31845  -3547834.39344  25822639.6254                   25822631.2584
        35.2504         28.7504
 -23905516.93348 -14362377.85446  20650880.1484                   20650868.4414
        48.5004         41.7504
 -18104212.44848 -13589917.39546  22200205.2194                   22200192.7504
        48.0004         36.7504
 -22224281.34048 -17206593.73748  21553021.9384                   21553012.9844
        48.5004         52.0004
  -4666681.87646  -3612801.57443  24594130.4224                   24594115.4924
        39.2504         19.0004
 -20873462.87147 -16206036.22348  21504396.1334                   21504384.0744
        47.5004         51.7504
 -16792276.94647 -12378225.25047  22282075.4614                   22282066.6254
        42.5004         44.0004
  -7964590.32545  -6532645.83745  23895181.8674                   23895174.7894
        35.0004         33.0004
 -23797648.51648 -19888018.21849  20811590.2194                   20811580.3874
        51.0004         54.7504
 23  1  9  1 25  0.0000000  0 11G03G23G08G22G21G10G12G31G01G25G32
  -2142331.39155  -1704319.17754  25358392.3054                   25358384.2894
        31.5004         28.2504
   1590809.66445  -1156184.74043  24346491.1094                   24346482.5664
        34.7504         22.0004
   1959163.06545  -3484686.59444  25838058.6254                   25838053.0124
        32.5004         28.2504
 -23922744.41448 -14375801.85946  20647601.9844                   20647590.2194
        48.5004         41.5004
 -18115670.47547 -13598845.73546  22198025.3674                   22198012.7234
        47.7504         36.7504
 -22164067.42847 -17159673.82748  21564480.0234                   21564471.1884
        47.5004         52.0004
  -4696997.12746  -3636423.86642  24588360.6564                   24588346.6644
        37.5004         17.7504
 -20961757.70747 -16274837.38148  21487593.8674                   21487582.7464
        47.0004         51.7504
 -16854109.96647 -12426406.83747  22270309.5474                   22270300.5354
        43.0004         44.7504
  -8025942.17945  -6580452.47345  23883506.0084                   23883498.4614
        33.5004         31.5004
 -23765215.21948 -19862745.51149  20817762.1414                   20817752.4264
        50.7504         55.0004
 23  1  9  1 25 30.0000000  0 11G03G23G08G22G21G10G12G31G01G25G32
  -2243044.76645  -1782797.07445  25339228.6024                   25339220.5864
        35.2504         30.0004
   1686568.15946  -1081567.85743  24364714.1334                   24364704.6524
        36.2504         21.2504
   2040185.09045  -3421552.53644  25853477.7034                   25853471.0354
        33.0004         26.7504
 -23939659.59048 -14388982.50746  20644382.9064                   20644371.2584
        48.7504         41.7504
 -18126644.43647 -13607396.87946  22195936.8594                   22195924.2734
        47.7504         36.5004
 -22103521.88747 -17112495.50248  21576001.7894                   21575992.7194
        47.5004         52.0004
  -4726799.39746  -3659646.43043  24582691.0634                   24582675.3134
        39.0004         19.2504
 -21049625.33847 -16343305.65648  21470873.1174                   21470861.8794
        47.5004         51.7504
 -16915414.93446 -12474176.92347  22258641.3984                   22258633.5004
        41.0004         43.7504
  -8086908.80146  -6627958.99845  23871907.9304                   23871897.2194
        37.5004         33.7504
 -23732501.33548 -19837254.17449  20823987.1724                   20823977.8094
        51.0004         55.5004
 23  1  9  1 26  0.0000000  0 11G03G23G08G22G21G10G12G31G01G25G32
  -2343787.27845  -1861297.70044  25320056.7194                   25320049.2894
        33.0004         29.0004
   1782475.73945  -1006834.77743  24382964.7814                   24382955.1254
        35.2504         22.0004
                                  25868890.2274                   25868884.9654
        29.0004         22.5004
 -23956261.03948 -14401918.69746  20641223.5784                   20641212.0474
        48.5004         41.5004
 -18137132.36647 -13615569.29646  22193940.6484                   22193928.5314
        46.2504         36.5004
 -22042642.95547 -17065057.39848  21587586.6954                   21587577.7424
        47.5004         52.0004
  -4756084.85346  -3682466.26343  24577115.7894                   24577102.3834
        37.0004         19.0004
 -21137061.22447 -16411437.50348  21454234.9454                   21454223.4144
        47.5004         51.7504
 -16976187.79047 -12521532.38347  22247077.9224                   22247069.0864
        42.5004         43.7504
  -8147485.57746  -6675161.62445  23860378.0784                   23860370.6484
        36.0004         33.5004
 -23699506.14448 -19811543.62549  20830265.7734                   20830256.5274
        50.5004         55.0004
 23  1  9  1 26 30.0000000  0 11G03G23G08G22G21G10G12G31G01G25G32
  -2444562.23445  -1939823.54044  25300880.6564                   25300871.4694
        33.5004         28.2504
   1878527.30145   -931989.51343  24401241.9064                   24401233.6564
        35.2504         20.7504
    626747.65345  -4522932.32444  25884302.8054                   25884294.9654
        35.5004         25.2504
 -23972553.44447 -14414614.06646  20638123.6804                   20638112.0314
        47.0004         41.5004
 -18147138.11547 -13623365.98946  22192036.5944                   22192024.3594
        47.0004         37.2504
 -21981435.02647 -17017362.92648  21599234.5704                   21599225.3244
        47.7504         52.0004
  -4784856.31446  -3704885.58743  24571641.5554                   24571627.3874
        37.5004         19.0004
 -21224067.21847 -16479234.37348  21437678.1644                   21437666.4574
        47.5004         51.7504
 -17036430.53947 -12568474.79547  22235614.5944                   22235605.7584
        43.0004         44.5004
  -8207673.66845  -6722061.47845  23848924.1024                   23848918.7814
        33.5004         32.7504
 -23666234.93248 -19785618.00949  20836597.2814                   20836587.9184
        51.2504         55.0004
 23  1  9  1 27  0.0000000  0 11G03G23G08G22G21G10G12G31G01G25G32
  -2545364.28045  -2018370.53644  25281699.3444                   25281689.9224
        33.5004         29.7504
   1974725.94045   -857029.64743  24419548.6484                   24419539.9884
        35.2504         21.2504
    707702.77645  -4459850.21743  25899706.8054                   25899700.6644
        31.0004         23.2504
 -23988533.29648 -14427065.89946  20635082.3984                   20635071.2194
        48.7504         41.5004
 -18156656.89647 -13630783.23346  22190225.1334                   22190213.0744
        47.2504         36.5004
 -21919894.41047 -16969409.21248  21610944.8054                   21610936.0274
        47.5004         51.5004
  -4813107.43946  -3726899.48943  24566264.7584                   24566252.1134
        38.0004         19.2504
 -21310636.28747 -16546690.78348  21421204.3524                   21421192.4694
        47.5004         52.0004
 -17096136.82846 -12614999.14547  22224251.1954                   22224243.9414
        41.0004         44.0004
  -8267466.18946  -6768653.01745  23837548.4384                   23837539.4264
        36.5004         34.2504
 -23632684.54848 -19759474.85349  20842981.5704                   20842972.6764
        51.0004         54.7504
 23  1  9  1 27 30.0000000  0 11G03G23G08G22G21G10G12G31G01G25G32
  -2646193.72945  -2096938.88144  25262510.7034                   25262502.8054
        32.5004         29.2504
   2071069.73245   -781956.70143  24437881.7274                   24437872.9494
        35.0004         21.5004
    788630.29855  -4396789.79253  25915106.4534                   25915099.7854
        31.2504         23.0004
 -24004202.47948 -14439275.65047  20632100.5394                   20632089.1254
        48.5004         42.0004
 -18165689.79147 -13637821.85446  22188506.0394                   22188494.1564
        47.2504         36.5004
 -21858022.83747 -16921197.61048  21622718.9384                   21622709.3984
        47.7504         51.7504
  -4840837.90146  -3748507.59343  24560987.1954                   24560975.7234
        36.5004         19.5004
 -21396767.35347 -16613805.87848  21404814.2734                   21404803.2704
        47.5004         52.0004
 -17155305.64847 -12661104.71247  22212994.4064                   22212983.8714
        43.7504         44.2504
  -8326861.25745  -6814934.87945  23826243.6024                   23826236.7584
        34.5004         33.5004
 -23598857.23548 -19733115.90849  20849419.0004                   20849409.2274
        51.7504         55.0004
 23  1  9  1 28  0.0000000  0 10G03G23G22G21G10G12G31G01G25G32
  -2747049.39845  -2175527.62945  25243319.2734                   25243310.3204
        33.5004         30.5004
   2167557.66646   -706771.43943  24456243.6724                   24456233.7814
        36.0004         21.2504
 -24019561.41948 -14451243.64246  20629178.0164                   20629166.4844
        48.7504         41.7504
 -18174236.25447 -13644481.44546  22186879.6414                   22186867.9924
        46.5004         36.5004
 -21795820.22447 -16872728.04748  21634555.9304                   21634546.6844
        47.5004         51.5004
  -4868045.79846  -3769708.53343  24555811.5314                   24555797.8324
        37.7504         18.5004
 -21482457.62447 -16680577.50948  21388508.0164                   21388496.3674
        47.5004         52.0004
 -17213934.67847 -12706789.69047  22201836.6024                   22201827.9414
        42.2504         44.2504
  -8385855.87146  -6860904.71345  23815019.8984                   23815010.0664
        36.7504         33.2504
 -23564753.97948 -19706541.93149  20855908.5164                   20855898.9184
        51.7504         54.7504
 23  1  9  1 28 30.0000000  0 10G03G23G22G21G10G12G31G01G25G32
  -2847931.36245  -2254136.92445  25224121.6334                   25224112.8554
        34.0004         30.0004
   2264187.65045   -631475.46643  24474630.5864                   24474622.5124
        34.7504         21.2504
 -24034612.02448 -14462971.39747  20626313.9924                   20626302.2854
        48.7504         42.2504
 -18182297.53647 -13650762.97046  22185345.7894                   22185333.8484
        46.5004         36.7504
 -21733288.16747 -16824001.78548  21646454.6884                   21646445.7344
        47.2504         51.2504
  -4894730.68546  -3790501.96643  24550732.7114                   24550719.2464
        37.2504         18.5004
 -21567705.77948 -16747004.61748  21372286.0164                   21372274.1914
        48.0004         52.5004
 -17272023.19047 -12752053.42647  22190781.3834                   22190774.0124
        42.2504         44.5004
  -8444448.49745  -6906561.33345  23803868.4694                   23803859.7504
        35.2504         32.0004
 -23530377.04848 -19679754.72049  20862450.2814                   20862440.7424
        52.2504         54.7504
 23  1  9  1 29  0.0000000  0 10G03G23G22G21G10G12G31G01G25G32
  -2948837.46445  -2332764.94244  25204919.6094                   25204911.5944
        33.2504         29.5004
   2360960.04145   -556068.51743  24493046.8524                   24493037.3134
        35.7504         21.0004
 -24049353.11248 -14474457.94947  20623508.7274                   20623497.0204
        48.7504         42.0004
 -18189872.19547 -13656665.31146  22183904.4224                   22183892.3634
        46.7504         36.5004
 -21670425.84647 -16775018.18448  21658417.1564                   21658408.2624
        47.0004         51.0004
  -4920889.63846  -3810885.57143  24545756.4534                   24545742.2274
        38.2504         19.2504
 -21652508.08947 -16813084.31948  21356148.2894                   21356137.1684
        47.5004         52.2504
 -17329567.58347 -12796893.21747  22179832.7034                   22179823.2234
        43.7504         44.7504
  -8502634.92346  -6951901.43045  23792797.6724                   23792788.3094
        36.7504         33.5004
 -23495726.22648 -19652754.07249  20869044.3984                   20869034.6844
        52.0004         54.7504
 23  1  9  1 29 30.0000000  0 10G03G23G22G21G10G12G31G01G25G32
  -3049767.15945  -2411411.40745  25185714.0634                   25185704.7584
        34.7504         30.2504
   2457873.13745   -480551.99943  24511489.5944                   24511480.4064
        35.7504         20.0004
 -24063786.36748 -14485704.62747  20620762.2114                   20620750.5044
        48.5004         42.0004
 -18196960.93547 -13662189.01046  22182555.5704                   22182543.3954
        47.0004         36.7504
 -21607234.54047 -16725778.22548  21670442.6024                   21670433.0634
        47.5004         51.0004
  -4946521.78046  -3830858.66343  24540878.1254                   24540865.3054
        38.0004         20.0004
 -21736862.82447 -16878815.26548  21340096.5554                   21340085.0234
        47.7504         52.5004
 -17386566.58547 -12841308.03347  22168984.8674                   22168976.5594
        42.0004         44.5004
  -8560413.09445  -6996923.34945  23781801.5004                   23781792.8984
        35.7504         32.2504
 -23460803.34048 -19625541.44149  20875689.8984                   20875680.2424
        52.2504         54.7504
 23  1  9  1 30  0.0000000  0 10G03G23G22G21G10G12G31G01G25G32
  -3150718.88645  -2490074.99544  25166503.3834                   25166494.0204
        34.2504         29.5004
   2554926.38745   -404926.21943  24529957.3444                   24529948.4494
        35.0004         20.5004
 -24077912.06948 -14496711.66547  20618074.6334                   20618063.1604
        48.5004         42.0004
 -18203562.70447 -13667333.25946  22181299.5234                   22181287.1724
        47.0004         37.0004
 -21543714.02247 -16676281.72648  21682529.5784                   21682520.5084
        47.0004         50.7504
  -4971624.82346  -3850419.51543  24536099.2034                   24536088.0234
        36.0004         18.2504
 -21820766.71347 -16944194.90548  21324130.0234                   21324118.1994
        47.7504         52.7504
 -17443017.59347 -12885295.80247  22158243.3204                   22158234.8364
        43.2504         45.2504
  -8617779.60346  -7041624.57645  23770885.0004                   23770877.5704
        36.5004         34.7504
 -23425608.82648 -19598117.14149  20882386.7814                   20882377.1844
        51.7504         55.0004
 23  1  9  1 30 30.0000000  0 10G03G23G22G21G10G12G31G01G25G32
  -3251691.31545  -2568754.73445  25147289.7974                   25147280.3754
        35.0004         31.2504
   2652119.24445   -329191.66743  24548452.7894                   24548443.3094
        35.2504         21.7504
 -24091730.16448 -14507479.00847  20615444.8754                   20615433.4024
        48.7504         42.2504
 -18209676.80847 -13672097.49846  22180136.2814                   22180123.5204
        47.0004         37.0004
 -21479864.09147 -16626528.55448  21694679.6804                   21694670.7854
        47.2504         50.5004
  -4996196.62746  -3869566.41242  24531423.4844                   24531412.7734
        36.5004         17.7504
 -21904217.47648 -17009221.45048  21308249.4064                   21308238.2854
        48.0004         53.0004
 -17498918.18647 -12928854.72147  22147606.1484                   22147596.7274
        43.7504         45.0004
  -8674731.37345  -7086002.50745  23760047.3204                   23760040.1254
        35.7504         34.2504
 -23390143.49948 -19570481.83249  20889135.9304                   20889126.7424
        52.5004         54.7504
 23  1  9  1 31  0.0000000  0 10G03G23G22G21G10G12G31G01G25G32
  -3352684.34845  -2647450.49644  25128069.8754                   25128061.5084
        33.5004         29.7504
   2749449.63846   -253349.96743  24566974.7814                   24566965.4184
        36.5004         20.5004
 -24105242.29348 -14518007.94647  20612873.5864                   20612862.1134
        49.0004         42.2504
 -18215304.25147 -13676482.53046  22179065.0864                   22179052.9104
        47.0004         36.7504
 -21415686.53447 -16576520.09248  21706891.9614                   21706883.1254
        46.5004         50.5004
  -5020237.15646  -3888299.17743  24526849.2114                   24526836.9184
        37.5004         18.5004
 -21987212.85048 -17073893.16748  21292456.1414                   21292444.6684
        48.0004         53.0004
 -17554267.41747 -12971983.98547  22137072.6174                   22137063.8984
        42.5004         45.2504
  -8731266.52746  -7130055.91245  23749289.7194                   23749280.7664
        37.0004         34.5004
 -23354409.45248 -19542637.12449  20895935.6644                   20895926.3014
        52.0004         55.0004
 23  1  9  1 31 30.0000000  0 10G03G23G22G21G10G12G31G01G25G32
  -3453695.19345  -2726160.16544  25108848.5554                   25108839.2504
        34.2504         29.5004
   2846918.29445   -177400.51343  24585522.1174                   24585513.3984
        35.7504         21.2504
 -24118447.71148 -14528297.88147  20610360.5394                   20610349.0084
        49.0004         42.2504
 -18220443.18647 -13680486.89546  22178087.2734                   22178074.7464
        47.5004         36.7504
 -21351179.81847 -16526255.13948  21719167.0704                   21719158.7624
        46.2504         50.2504
  -5043742.97146  -3906615.41643  24522376.2274                   24522365.2814
        37.0004         19.7504
 -22069749.17847 -17138207.17748  21276749.7734                   21276738.7114
        47.7504         53.0004
 -17609061.59147 -13014680.72547  22126646.0314                   22126637.3134
        43.0004         45.5004
  -8787380.78045  -7173781.32145  23738610.3284                   23738602.8984
        35.5004         34.2504
 -23318406.04148 -19514582.51949  20902787.3594                   20902777.4694
        52.2504         55.0004
 23  1  9  1 32  0.0000000  0 10G03G23G22G21G10G12G31G01G25G32
  -3554724.32845  -2804884.06344  25089621.6954                   25089614.1484
        33.7504         29.7504
   2944522.68646   -101345.26643  24604096.0394                   24604086.9104
        36.2504         21.2504
 -24131348.43648 -14538350.38447  20607905.7584                   20607893.8754
        49.0004         42.5004
 -18225095.33047 -13684111.94746  22177201.9694                   22177189.4414
        46.7504         37.2504
 -21286346.20447 -16475735.47048  21731504.4144                   21731496.2814
        46.0004         50.2504
  -5066714.06446  -3924515.01243  24518005.7344                   24517993.5594
        37.7504         18.2504
 -22151825.33247 -17202162.61348  21261131.5554                   21261120.2584
        47.7504         53.0004
 -17663300.07847 -13056944.48447  22116325.3594                   22116316.3484
        44.5004         46.0004
  -8843072.79545  -7217177.70645  23728012.9304                   23728004.5044
        35.5004         34.2504
 -23282135.86648 -19486320.04949  20909689.0704                   20909679.6484
        53.0004         55.0004
 23  1  9  1 32 30.0000000  0 10G03G23G22G21G10G12G31G01G25G32
  -3655769.39545  -2883620.34944  25070394.3834                   25070386.8954
        33.7504         29.2504
   3042262.99646    -25184.13643  24622696.0944                   24622686.4964
        36.7504         22.2504
 -24143943.91148 -14548165.03447  20605509.2424                   20605497.9454
        49.0004         42.5004
 -18229258.85047 -13687356.26646  22176409.6414                   22176397.2894
        45.5004         36.5004
 -21221184.74047 -16424960.33848  21743905.2814                   21743896.0944
        46.7504         50.2504
  -5089147.78846  -3941995.81042  24513737.1094                   24513723.4104
        38.0004         17.2504
 -22233438.32048 -17265757.14348  21245600.9694                   21245589.4964
        48.0004         53.2504
 -17716979.85347 -13098772.87847  22106109.3754                   22106100.3054
        42.5004         45.7504
  -8898338.54345  -7260241.93245  23717495.7344                   23717487.9534
        34.7504         33.7504
 -23245598.76748 -19457849.59249  20916641.5704                   20916632.5004
        52.5004         55.0004
 23  1  9  1 33  0.0000000  0 10G03G23G22G21G10G12G31G01G25G32
  -3756830.08345  -2962368.85144  25051163.5704                   25051154.2664
        34.0004         29.5004
   3140137.33546     51081.41443  24641321.1644                   24641311.4494
        36.0004         21.5004
 -24156235.58048 -14557742.95447  20603169.9454                   20603159.1764
        48.7504         42.2504
 -18232934.82147 -13690220.66446  22175709.7194                   22175698.0124
        46.5004         38.0004
 -21155696.96147 -16373930.92248  21756366.5084                   21756358.1994
        46.5004         50.0004
  -5111043.53746  -3959057.40243  24509569.5554                   24509557.3204
        37.0004         19.2504
 -22314586.38348 -17328989.40248  21230158.9144                   21230147.5004
        48.0004         53.2504
 -17770099.77347 -13140165.01147  22096002.3134                   22095992.2464
        43.7504         46.0004
  -8953176.29646  -7302972.65645  23707060.7734                   23707053.7544
        36.2504         34.0004
 -23208796.70548 -19429172.66849  20923644.7344                   20923635.4884
        52.7504         54.7504
 23  1  9  1 33 30.0000000  0 10G03G23G22G21G10G12G31G01G25G32
  -3857904.79145  -3041128.26144  25031928.5234                   25031920.3914
        33.5004         29.0004
   3238145.38646    127451.16543  24659971.3524                   24659961.5784
        36.0004         21.7504
 -24168223.33848 -14567084.05647  20600888.3524                   20600876.8204
        49.2504         42.5004
 -18236122.72547 -13692704.75246  22175102.8054                   22175091.5664
        46.2504         37.5004
 -21089882.19047 -16322646.71448  21768890.6334                   21768882.0314
        46.2504         50.0004
  -5132398.97345  -3975698.02343  24505504.6334                   24505494.3324
        34.7504         18.5004
 -22395265.89548 -17391856.54148  21214806.3134                   21214795.1334
        48.0004         53.2504
 -17822657.14747 -13181118.83447  22086000.6484                   22085991.5784
        43.5004         46.2504
  -9007582.44345  -7345367.06145  23696707.5084                   23696700.0784
        35.5004         34.2504
 -23171730.01348 -19400289.53849  20930698.8444                   20930689.1294
        52.7504         55.0004
 23  1  9  1 34  0.0000000  0 10G03G23G22G21G10G12G31G01G25G32
  -3958992.15345  -3119897.52645  25012692.8204                   25012684.2774
        34.0004         30.7504
   3336286.14845    203924.36243  24678646.2034                   24678637.6024
        35.5004         21.2504
 -24179907.88848 -14576188.88847  20598665.5784                   20598653.7544
        49.0004         42.5004
 -18238822.32047 -13694808.34746  22174589.3364                   22174577.3954
        46.5004         36.7504
 -21023741.12147 -16271108.25748  21781477.8134                   21781468.2734
        46.7504         50.0004
  -5153212.73246  -3991916.55043  24501546.3444                   24501533.3484
        38.0004         20.7504
 -22475475.07848 -17454357.18848  21199542.8754                   21199531.5204
        48.0004         53.2504
 -17874650.13747 -13221632.82947  22076105.7034                   22076097.6294
        42.7504         46.0004
  -9061554.45345  -7387423.17345  23686437.2814                   23686429.8524
        35.2504         34.5004
 -23134399.70348 -19371200.98349  20937802.2734                   20937792.5594
        52.7504         55.0004
 23  1  9  1 34 30.0000000  0 10G03G23G22G21G10G12G31G01G25G32
  -4060091.22745  -3198675.94444  24993452.6484                   24993445.2774
        32.2504         29.0004
   3434558.58246    280500.08643  24697348.4304                   24697338.3054
        36.2504         20.7504
 -24191289.55248 -14585057.71447  20596499.3364                   20596487.8054
        49.0004         42.7504
 -18241033.39747 -13696531.26446  22174168.8054                   22174156.6884
        45.7504         37.5004
 -20957274.45047 -16219316.05848  21794125.3594                   21794116.7584
        46.5004         50.0004
  -5173483.54445  -4007711.95743  24497685.3204                   24497677.5394
        34.2504         20.0004
 -22555211.44148 -17516489.40648  21184369.6564                   21184358.1844
        48.2504         53.2504
 -17926076.83447 -13261705.57847  22066320.4924                   22066311.3634
        43.7504         46.2504
  -9115089.70946  -7429138.96145  23676250.2814                   23676242.0314
        37.0004         33.5004
 -23096806.97948 -19341907.96749  20944955.8914                   20944946.1174
        52.2504         54.7504
 23  1  9  1 35  0.0000000  0 10G03G23G22G21G10G12G31G01G25G32
  -4161201.30755  -3277462.92155  24974214.4924                   24974204.7194
        35.7504         30.7504
   3532961.06946    357177.24643  24716073.3134                   24716063.7734
        36.5004         21.0004
 -24202370.18448 -14593691.96647  20594390.5164                   20594378.9264
        48.5004         42.7504
 -18242756.86647 -13697874.23346  22173840.6884                   22173829.0394
        45.5004         37.2504
 -20890483.11547 -16167270.89548  21806835.4694                   21806826.5164
        46.2504         50.0004
  -5193210.17446  -4023083.42143  24493932.8204                   24493923.3984
        36.0004         19.5004
 -22634473.12447 -17578251.73548  21169286.7664                   21169275.0004
        47.7504         53.5004
 -17976935.91447 -13301336.03247  22056641.9534                   22056633.0004
        43.7504         46.2504
  -9168185.92246  -7470512.64645  23666146.4144                   23666137.9884
        36.0004         33.7504
 -23058953.41848 -19312411.70749  20952159.2504                   20952149.5944
        52.2504         54.7504
 23  1  9  1 35 30.0000000  0 10G03G23G22G21G10G12G31G01G25G32
  -4262321.57245  -3356257.87045  24954970.4144                   24954962.3984
        33.5004         30.0004
   3631492.30846    433954.67243  24734823.4844                   24734813.0084
        36.7504         20.5004
 -24213150.37948 -14602092.11647  20592339.2974                   20592328.1764
        49.0004         42.7504
 -18243992.46347 -13698837.04946  22173605.6334                   22173593.8094
        46.0004         37.5004
 -20823367.59447 -16114973.11548  21819606.7584                   21819597.9224
        46.2504         49.7504
  -5212392.23246  -4038030.44243  24490283.7894                   24490271.9064
        37.0004         19.5004
 -22713257.94147 -17639642.49348  21154294.4924                   21154283.0204
        47.7504         53.5004
 -18027225.81947 -13340522.97447  22047071.6254                   22047063.3164
        42.7504         46.0004
  -9220840.69045  -7511542.35345  23656125.1724                   23656118.3284
        35.5004         33.5004
 -23020840.27348 -19282713.15649  20959411.9064                   20959402.2504
        52.5004         55.0004
 23  1  9  1 36  0.0000000  0 10G03G23G22G21G10G12G31G01G25G32
  -4363448.51845  -3435057.99244  24935726.0004                   24935718.1024
        33.5004         29.7504
   3730153.49446    510833.35643  24753598.2114                   24753588.5554
        37.0004         20.5004
 -24223628.39248 -14610256.80547  20590345.5944                   20590334.1214
        49.5004         42.7504
 -18244738.46747 -13699418.35446  22173463.5314                   22173451.5904
        46.0004         37.5004
 -20755926.60147 -16062421.70648  21832441.2814                   21832431.8014
        47.0004         49.7504
  -5231025.38146  -4052549.78043  24486738.3364                   24486725.7504
        37.2504         19.0004
 -22791561.20548 -17700658.00648  21139394.0784                   21139382.3134
        48.2504         53.5004
 -18076942.32047 -13379263.08047  22037611.6564                   22037602.4694
        43.5004         46.2504
  -9273049.18346  -7552224.30345  23646191.3754                   23646183.4184
        36.5004         34.0004
 -22982466.30548 -19252811.37249  20966714.4384                   20966704.6644
        52.0004         54.7504
 23  1  9  1 36 30.0000000  0 10G03G23G22G21G10G12G31G01G25G32
  -4464583.45545  -3513864.35845  24916482.2344                   24916473.3404
        34.5004         31.2504
   3828941.12346    587810.54543  24772396.9304                   24772386.7464
        36.0004         20.2504
 -24233807.71748 -14618188.76747  20588408.6954                   20588396.8134
        48.7504         42.7504
 -18244997.46247 -13699620.18146  22173414.4774                   22173402.5944
        46.5004         37.7504
 -20688163.04147 -16009618.97648  21845335.8524                   21845326.8404
        46.5004         49.7504
  -5249111.72946  -4066642.99243  24483296.8054                   24483284.9804
        37.5004         20.5004
 -22869383.56648 -17761298.81048  21124584.6254                   21124573.1524
        48.7504         53.5004
 -18126086.21947 -13417557.04147  22028260.4224                   22028250.8244
        44.0004         46.5004
  -9324811.28446  -7592558.40845  23636341.3134                   23636333.5904
        37.2504         35.0004
 -22943835.21548 -19222709.23549  20974065.6254                   20974055.8524
        52.7504         54.7504
 23  1  9  1 37  0.0000000  0 10G03G23G22G21G10G12G31G01G25G32
  -4565723.02845  -3592674.29045  24897234.7114                   24897227.2234
        33.0004         30.7504
   3927856.42446    664887.21143  24791217.8834                   24791210.8634
        36.0004         19.5004
 -24243686.63648 -14625886.61647  20586528.5864                   20586516.9384
        48.7504         43.0004
 -18244766.82147 -13699440.47746  22173458.3914                   22173446.1564
        46.5004         38.0004
 -20620074.99347 -15956563.38248  21858292.9694                   21858283.8404
        46.7504         49.7504
  -5266646.85146  -4080306.74043  24479958.7974                   24479948.4384
        36.7504         20.0004
 -22946720.24048 -17821561.13848  21109868.2974                   21109856.2974
        48.7504         53.5004
 -18174653.41847 -13455401.60447  22019016.6254                   22019008.8444
        42.2504         46.2504
  -9376122.04246  -7632540.82645  23626577.1414                   23626570.3554
        36.5004         34.7504
 -22904945.67248 -19192405.71249  20981466.0474                   20981456.0984
        53.0004         55.0004
 23  1  9  1 37 30.0000000  0 10G03G23G22G21G10G12G31G01G25G32
  -4666867.82045  -3671488.33145  24877989.0084                   24877979.1764
        35.2504         31.0004
   4026896.49646    742061.14743  24810066.9384                   24810057.2814
        36.7504         19.5004
 -24253267.49248 -14633352.22547  20584705.6334                   20584693.9264
        49.2504         43.0004
 -18244048.61047 -13698880.84346  22173595.3054                   22173582.8364
        46.0004         38.0004
 -20551664.95647 -15903256.88648  21871311.2504                   21871301.3014
        47.0004         49.7504
  -5283631.80046  -4093541.84243  24476728.9064                   24476716.5554
        39.2504         19.2504
 -23023570.79948 -17881444.68448  21095244.2424                   21095231.8914
        49.7504         53.7504
 -18222644.00447 -13492796.85347  22009885.5704                   22009876.6174
        43.5004         46.5004
  -9426980.75646  -7672171.01345  23616899.1254                   23616891.7544
        37.2504         34.2504
 -22865800.58948 -19161903.05849  20988914.8984                   20988905.1254
        52.2504         54.7504
 23  1  9  1 38  0.0000000  0 10G03G23G22G21G10G12G31G01G25G32
  -4768016.55245  -3750305.46945  24858739.4224                   24858731.1134
        33.7504         31.0004
   4126060.34545    819331.51343  24828936.4304                   24828928.0044
        35.5004         19.5004
 -24262550.81548 -14640585.97547  20582938.5634                   20582927.3244
        49.0004         43.0004
 -18242843.07347 -13697941.47046  22173824.8984                   22173812.3714
        46.5004         37.5004
 -20482933.27047 -15849699.75248  21884389.7974                   21884381.1374
        47.2504         49.5004
  -5300065.21746  -4106347.01942  24473599.8754                   24473586.2934
        38.5004         16.7504
 -23099932.99148 -17940947.67248  21080712.4694                   21080700.9384
        49.0004         53.7504
 -18270056.00747 -13529741.27947  22000863.4384                   22000854.0164
        43.7504         46.5004
  -9477384.60346  -7711446.73845  23607307.6414                   23607300.3874
        37.0004         34.5004
 -22826400.86548 -19131201.97949  20996412.5704                   20996402.6804
        53.2504         54.7504
 23  1  9  1 38 30.0000000  0 10G03G23G22G21G10G12G31G01G25G32
  -4869165.64245  -3829122.85145  24839491.2114                   24839482.9024
        34.5004         31.7504
   4225349.27446    896699.33043  24847831.2504                   24847822.0044
        36.2504         20.0004
 -24271535.25248 -14647586.84047  20581229.4144                   20581217.3554
        48.5004         43.0004
 -18241148.05647 -13696620.69346  22174147.2504                   22174134.9574
        46.5004         38.0004
 -20413878.47047 -15795890.84748  21897530.6644                   21897521.5944
        47.5004         49.5004
  -5315943.14646  -4118719.41643  24470579.3444                   24470565.5274
        38.0004         19.5004
 -23175801.99648 -18000066.36449  21066275.4844                   21066263.4844
        50.0004         54.0004
 -18316885.43647 -13566231.74947  21991950.9454                   21991942.9884
        42.5004         46.2504
  -9527328.83646  -7750364.31745  23597803.9454                   23597795.8714
        36.7504         34.7504
 -22786745.25448 -19100301.52649  21003958.8284                   21003949.0554
        53.7504         55.0004
 23  1  9  1 39  0.0000000  0 10G03G23G22G21G10G12G31G01G25G32
  -4970316.38645  -3907941.57645  24820243.5634                   24820234.7274
        33.5004         31.2504
   4324759.81845    974161.91443  24866748.4144                   24866739.9884
        35.2504         19.5004
 -24280223.50248 -14654356.90047  20579575.7344                   20579563.9104
        49.5004         43.2504
 -18238965.59147 -13694920.07946  22174562.5634                   22174550.1524
        47.0004         38.0004
 -20344503.33947 -15741832.32848  21910732.5314                   21910723.5784
        47.5004         49.7504
  -5331267.05746  -4130660.16143  24467662.9924                   24467651.8714
        39.0004         20.7504
 -23251178.43148 -18058801.23549  21051931.3364                   21051919.5704
        50.0004         54.0004
 -18363133.00747 -13602268.79247  21983150.3984                   21983142.2664
        43.5004         46.5004
  -9576813.22646  -7788923.58745  23588388.4224                   23588379.6454
        38.0004         35.0004
 -22746837.22148 -19069204.36249  21011553.0234                   21011543.7774
        53.2504         54.7504
 23  1  9  1 39 30.0000000  0 10G03G23G22G21G10G12G31G01G25G32
  -5071465.80945  -3986759.22745  24800993.8914                   24800986.4024
        33.5004         31.7504
   4424292.54645   1051719.66943  24885689.0164                   24885680.9414
        34.7504         20.0004
 -24288614.71748 -14660895.52347  20577979.0004                   20577967.5864
        49.5004         43.0004
 -18236294.82047 -13692838.97146  22175070.6334                   22175058.7504
        47.5004         38.0004
 -20274806.71247 -15687523.29448  21923994.7664                   21923985.8714
        46.5004         49.5004
  -5346033.87846  -4142166.79342  24464851.7504                   24464840.6294
        37.0004         16.7504
 -23326058.13648 -18117149.04249  21037682.3134                   21037670.7814
        50.5004         54.0004
 -18408795.22247 -13637849.74347  21974462.7114                   21974453.1724
        44.2504         46.7504
  -9625833.53446  -7827121.27645  23579057.8134                   23579049.9144
        36.7504         34.0004
 -22706675.99748 -19037909.91349  21019195.4064                   21019185.6334
        53.5004         54.7504
 23  1  9  1 40  0.0000000  0 11G03G23G22G17G21G10G12G31G01G25G32
  -5172614.11446  -4065576.05445  24781748.6414                   24781738.6914
        36.0004         32.0004
   4523944.76846   1129370.58143  24904652.8054                   24904643.0904
        36.0004         18.5004
 -24296711.30948 -14667204.55247  20576438.3054                   20576426.4804
        49.0004         43.0004
   -586888.52515                  25871939.969
        31.750
 -18233136.79248 -13690378.18646  22175672.0314                   22175659.3874
        48.0004         38.5004
 -20204790.68647 -15632965.38148  21937319.0084                   21937309.8794
        47.7504         49.5004
  -5360244.37046  -4153239.90942  24462149.9144                   24462134.2234
        38.7504         17.7504
 -23400440.45748 -18175109.28549  21023527.8444                   21023516.1954
        50.7504         54.2504
 -18453872.00347 -13672974.51547  21965883.7034                   21965875.2774
        44.0004         46.5004
  -9674388.90446  -7864956.63645  23569818.6644                   23569810.8834
        36.5004         34.5004
 -22666264.29248 -19006420.28549  21026885.6724                   21026875.6054
        53.2504         54.7504
 23  1  9  1 40 30.0000000  0 11G03G23G22G17G21G10G12G31G01G25G32
  -5273759.78245  -4144390.79645  24762499.2424                   24762490.9344
        33.5004         32.2504
   4623715.98645   1207114.21443  24923638.7814                   24923629.1844
        35.2504         19.5004
 -24304513.49248 -14673284.16847  20574953.4224                   20574941.8914
        49.0004         43.5004
   -604081.14945   -114700.10952  25868668.3674                   25868658.1844
        32.5004         16.7504
 -18229492.16248 -13687538.22346  22176365.3444                   22176352.9344
        48.0004         38.5004
 -20134455.53547 -15578158.79448  21950703.1094                   21950694.2734
        47.2504         49.5004
  -5373897.01146  -4163878.31643  24459551.4224                   24459536.7854
        39.2504         19.5004
 -23474322.91548 -18232680.01149  21009468.2894                   21009456.6414
        50.0004         54.2504
 -18498361.41847 -13707641.56947  21957417.2274                   21957409.5044
        43.5004         46.7504
  -9722476.20846  -7902427.28045  23560667.4694                   23560660.6844
        36.5004         34.7504
 -22625602.68948 -18974735.93149  21034623.1724                   21034613.6334
        52.7504         54.7504
 23  1  9  1 41  0.0000000  0 11G03G23G22G17G21G10G12G31G01G25G32
  -5374899.98345  -4223201.27145  24743254.2274                   24743244.3954
        35.5004         32.2504
   4723606.51446   1284950.74643  24942647.7814                   24942638.9454
        37.0004         19.7504
 -24312020.12748 -14679133.49447  20573525.3134                   20573513.8404
        50.0004         43.5004
   -620806.79945   -127733.08842  25865485.3054                   25865475.2384
        32.0004         17.2504
 -18225358.85947 -13684317.48646  22177152.1094                   22177139.5824
        47.5004         38.5004
 -20063800.41747 -15523102.90548  21964148.4844                   21964139.2384
        47.7504         49.2504
  -5386989.04946  -4174079.90243  24457059.8754                   24457047.4654
        37.7504         20.5004
 -23547701.88748 -18289858.42349  20995505.1564                   20995493.1564
        50.0004         54.2504
 -18542260.15947 -13741848.38447  21949064.4924                   21949055.5394
        45.2504         46.7504
  -9770091.62046  -7939530.19545  23551607.2894                   23551599.4494
        36.2504         34.5004
 -22584690.69348 -18942856.46749  21042408.5704                   21042398.7974
        53.2504         54.7504
 23  1  9  1 41 30.0000000  0 11G03G23G22G17G21G10G12G31G01G25G32
  -5476034.76345  -4302007.56445  24724007.5554                   24723999.4804
        35.5004         32.5004
   4823613.88545   1362878.44943  24961676.4694                   24961668.9804
        34.5004         18.2504
 -24319233.36748 -14684754.20147  20572152.5084                   20572140.7424
        50.0004         43.0004
   -637066.91845   -140403.32742  25862391.5084                   25862381.3244
        32.2504         16.2504
 -18220738.60348 -13680717.30246  22178031.4384                   22178018.9694
        48.5004         39.0004
 -19992826.84347 -15467798.84148  21977653.9454                   21977645.4024
        47.5004         49.0004
  -5399520.66246  -4183844.82243  24454674.5164                   24454663.1604
        38.2504         19.5004
 -23620576.35348 -18346643.71549  20981637.7344                   20981625.7934
        50.5004         54.5004
 -18585568.01047 -13775594.76047  21940822.8134                   21940813.9184
        45.2504         46.7504
  -9817233.91246  -7976264.45345  23542637.7034                   23542628.9264
        37.2504         35.0004
 -22543530.71448 -18910783.76649  21050241.1724                   21050231.2234
        53.7504         54.7504
 23  1  9  1 42  0.0000000  0 11G03G23G22G17G21G10G12G31G01G25G32
  -5577161.38746  -4380807.46045  24704764.6254                   24704755.6134
        37.5004         33.2504
   4923738.70545   1440897.54543  24980731.2584                   24980722.3634
        34.5004         18.2504
 -24326152.26848 -14690145.55047  20570836.1414                   20570824.2584
        49.2504         43.2504
   -652859.21845   -152708.99442  25859387.1644                   25859376.3954
        32.2504         16.2504
 -18215630.30647 -13676736.82246  22179003.4924                   22178991.1414
        47.5004         38.5004
 -19921534.18848 -15412246.16348  21991221.3984                   21991212.0944
        48.5004         49.0004
  -5411489.39246  -4193171.10343  24452397.5314                   24452385.2384
        38.5004         18.2504
 -23692942.95148 -18403033.26449  20967866.5864                   20967854.9384
        50.2504         54.5004
 -18628281.74547 -13808878.18847  21932692.8674                   21932685.3204
        45.0004         47.0004
  -9863898.97346  -8012626.84545  23533756.2424                   23533748.8714
        36.7504         35.2504
 -22502122.06248 -18878517.29849  21058121.1724                   21058110.9884
        53.0004         54.7504
 23  1  9  1 42 30.0000000  0 11G03G23G22G17G21G10G12G31G01G25G32
  -5678280.67846  -4459601.69545  24685520.4454                   24685512.7814
        36.0004         32.5004
   5023977.56945   1519005.53743  24999805.2664                   24999798.6564
        34.5004         19.2504
 -24332779.75048 -14695309.80847  20569574.6644                   20569563.0164
        50.2504         43.0004
   -668186.17045   -164652.03442  25856469.8984                   25856459.0704
        31.2504         15.5004
 -18210036.23748 -13672377.82246  22180067.8594                   22180055.8594
        48.7504         38.7504
 -19849925.52347 -15356447.24048  22004847.0314                   22004838.3714
        47.5004         48.5004
  -5422896.22046  -4202059.49243  24450227.4614                   24450212.8834
        38.7504         19.2504
 -23764801.70248 -18459027.08549  20954192.5314                   20954181.0594
        51.5004         54.7504
 -18670402.12347 -13841699.24847  21924680.2584                   21924670.8364
        45.7504         47.0004
  -9910086.83546  -8048617.38845  23524966.6174                   23524959.0124
        36.2504         35.0004
 -22460468.09848 -18846059.67949  21066047.0864                   21066037.8404
        52.2504         54.7504
 23  1  9  1 43  0.0000000  0 11G03G23G22G17G21G10G12G31G01G25G32
  -5779389.51246  -4538387.76745  24666282.6414                   24666272.3984
        38.2504         32.7504
   5124331.24245   1597203.08343  25018900.7274                   25018894.8794
        32.2504         19.0004
 -24339114.92448 -14700246.30147  20568369.1724                   20568357.6414
        49.5004         43.0004
   -683045.56645   -176230.86442  25853642.1564                   25853631.8554
        31.0004         13.7504
 -18203954.89948 -13667639.12746  22181225.3674                   22181213.4264
        48.5004         39.0004
 -19777999.38247 -15300400.93248  22018534.8834                   22018525.4614
        47.5004         48.7504
  -5433738.50146  -4210508.08543  24448162.9224                   24448149.9264
        38.5004         19.7504
 -23836148.47148 -18514621.95649  20940615.3364                   20940603.5704
        51.0004         54.7504
 -18711925.69747 -13874055.28047  21916778.1024                   21916769.2664
        45.7504         47.0004
  -9955792.96646  -8084232.55245  23516269.4534                   23516261.0274
        36.5004         34.5004
 -22418568.02048 -18813410.27649  21074020.7114                   21074011.0554
        52.2504         55.0004
 23  1  9  1 43 30.0000000  0 11G03G23G22G17G21G10G12G31G01G25G32
  -5880487.73346  -4617165.56645  24647043.0314                   24647034.0204
        38.2504         34.0004
   5224797.50745   1675488.27443  25038021.1414                   25038013.6524
        34.0004         18.2504
 -24345159.27948 -14704956.19647  20567218.8134                   20567207.1644
        48.5004         43.0004
   -697438.36745   -187446.09242  25850903.4774                   25850894.2894
        30.5004         15.5004
 -18197388.11148 -13662522.16146  22182475.4224                   22182463.1294
        48.7504         38.7504
 -19705757.50547 -15244108.60348  22032281.8984                   22032272.8284
        47.7504         48.5004
  -5444016.28846  -4218516.77143  24446207.2424                   24446195.1844
        37.5004         20.2504
 -23906982.16948 -18569817.04349  20927136.0784                   20927124.7814
        50.5004         55.0004
 -18752852.01647 -13905945.92347  21908990.0784                   21908980.7154
        44.7504         47.2504
 -10001016.15046  -8119471.41645  23507664.0704                   23507655.8204
        37.0004         35.0004
 -22376423.82748 -18780570.66149  21082040.4614                   21082030.5704
        52.5004         54.7504
 23  1  9  1 44  0.0000000  0 11G03G23G22G17G21G10G12G31G01G25G32
  -5981572.62746  -4695932.95545  24627806.6884                   24627799.0234
        36.2504         32.7504
   5325376.81945   1753861.50243  25057161.3204                   25057152.8954
        35.5004         18.2504
 -24350912.40848 -14709439.15947  20566124.0864                   20566112.5554
        49.2504         43.2504
   -711362.78645   -198296.21442  25848253.1644                   25848245.0314
        31.0004         15.5004
 -18190334.12448 -13657025.55946  22183817.5864                   22183805.0004
        49.2504         38.7504
 -19633199.45747 -15187569.89548  22046089.2584                   22046080.3054
        47.5004         48.5004
  -5453727.24746  -4226083.73743  24444357.3984                   24444348.6214
        36.7504         21.0004
 -23977299.87548 -18624610.05849  20913755.1254                   20913743.1254
        50.5004         54.7504
 -18793178.21447 -13937368.93547  21901315.8754                   21901307.9184
        44.5004         47.5004
 -10045752.67846  -8154331.04845  23499150.9224                   23499143.3754
        37.2504         35.0004
 -22334035.23248 -18747540.59649  21090106.3984                   21090096.9184
        51.5004         54.7504
 23  1  9  1 44 30.0000000  0 11G03G23G22G17G21G10G12G31G01G25G32
  -6082644.52446  -4774690.26645  24608574.0784                   24608565.1254
        37.2504         33.2504
   5426066.08845   1832320.56943  25076320.9534                   25076313.5234
        33.7504         19.0004
 -24356376.43048 -14713696.83547  20565084.3364                   20565072.6884
        48.0004         43.2504
   -724820.35744   -208782.61042  25845692.4774                   25845683.9924
        29.7504         15.5004
 -18182795.32748 -13651151.18346  22185251.9844                   22185239.7504
        48.7504         38.7504
 -19560327.22047 -15130786.37448  22059957.0634                   22059947.2304
        47.7504         48.0004
  -5462872.28446  -4233209.79143  24442617.8444                   24442609.3014
        36.2504         20.7504
 -24047101.03848 -18679000.56649  20900472.4064                   20900460.9344
        50.2504         54.7504
 -18832904.54047 -13968324.50347  21893756.3834                   21893747.7234
        44.5004         47.5004
 -10090001.75746  -8188810.86845  23490730.8754                   23490721.8054
        37.0004         34.5004
 -22291404.88248 -18714322.16149  21098218.7664                   21098209.4024
        51.7504         54.7504
 23  1  9  1 45  0.0000000  0 11G03G23G22G17G21G10G12G31G01G25G32
  -6183700.45146  -4853435.09145  24589343.7114                   24589334.5824
        36.5004         33.2504
   5526865.92545   1910865.68543  25095501.4614                   25095495.8484
        32.7504         19.2504
 -24361550.47248 -14717728.56347  20564099.5784                   20564088.2234
        48.7504         43.2504
   -737809.438 5                  25843221.445
        30.250
 -18174770.56148 -13644898.13046  22186778.9694                   22186766.5594
        48.2504         38.7504
 -19487139.52947 -15073757.04348  22073883.1094                   22073874.6254
        46.2504         48.0004
  -5471448.75046  -4239892.78043  24440988.3754                   24440976.1994
        40.0004         20.0004
 -24116381.95848 -18732985.70549  20887288.8834                   20887277.1764
        50.5004         54.7504
 -18872027.74847 -13998810.13147  21886311.8674                   21886303.0314
        44.7504         47.5004
 -10133759.42446  -8222907.77645  23482402.9694                   23482395.0704
        36.5004         34.0004
 -22248532.07848 -18680914.78949  21106377.5234                   21106368.1024
        51.5004         54.7504
 23  1  9  1 45 30.0000000  0 11G03G23G22G17G21G10G12G31G01G25G32
  -6284739.54646  -4932166.80245  24570115.9924                   24570107.6254
        37.0004         33.0004
   5627775.01245   1989495.89543  25114705.7114                   25114698.1644
        34.5004         18.2504
 -24366435.49448 -14721535.06547  20563169.9224                   20563158.3914
        48.2504         43.5004
   -750330.36814                  25840837.625
        29.500
 -18166260.53448 -13638266.96446  22188398.0864                   22188385.9104
        48.2504         39.0004
 -19413638.35447 -15016483.45548  22087870.8364                   22087861.4144
        47.5004         48.0004
  -5479456.17846  -4246132.32843  24439463.3594                   24439451.8284
        37.7504         21.5004
 -24185140.90148 -18786564.09949  20874203.7504                   20874192.4534
        49.5004         55.0004
 -18910546.98147 -14028825.11547  21878981.7584                   21878972.9224
        44.2504         47.5004
 -10177023.81146  -8256620.27545  23474170.2664                   23474162.4844
        37.5004         34.7504
 -22205418.33748 -18647319.67249  21114581.5864                   21114572.3984
        51.5004         54.7504
 23  1  9  1 46  0.0000000  0 11G03G23G22G17G21G10G12G31G01G25G32
  -6385759.67846  -5010883.73445  24550892.9844                   24550883.9144
        37.5004         34.2504
   5728792.54945   2068210.72843  25133928.4694                   25133921.5664
        33.5004         18.5004
 -24371031.60448 -14725116.45047  20562295.5164                   20562283.9264
        48.5004         43.2504
                                  25838547.156
        30.250
 -18157264.61448 -13631257.16646  22190110.4534                   22190097.8674
        48.5004         39.0004
 -19339823.02147 -14958965.03947  22101916.7504                   22101907.8554
        46.5004         47.7504
  -5486893.06946  -4251927.35743  24438048.3914                   24438037.6214
        38.5004         22.2504
 -24253375.34848 -18839733.78249  20861219.7034                   20861207.9964
        49.5004         55.0004
 -18948460.13447 -14058367.83547  21871767.4384                   21871758.1334
        44.5004         47.7504
 -10219791.83346  -8289946.00545  23466032.6724                   23466024.4804
        38.0004         35.7504
 -22162063.94648 -18613537.05649  21122831.8914                   21122822.1174
        50.2504         54.7504
 23  1  9  1 46 30.0000000  0 11G03G23G22G17G21G10G12G31G01G25G32
  -6486762.87746  -5089587.44645  24531673.4304                   24531663.8324
        37.0004         34.5004
   5829914.44745   2147006.82843  25153170.6884                   25153164.3714
        33.5004         19.0004
 -24375342.80047 -14728475.82047  20561475.0634                   20561463.5314
        47.7504         43.5004
   -773968.36814                  25836340.234
        29.000
 -18147786.82747 -13623871.89246  22191913.7424                   22191901.2734
        47.7504         39.0004
 -19265698.03647 -14901205.34647  22116022.6884                   22116013.9694
        47.0004         47.7504
  -5493761.66746  -4257279.56243  24436740.3834                   24436730.4344
        36.5004         20.7504
 -24321086.72048 -18892495.90349  20848334.6484                   20848323.1764
        49.0004         55.0004
 -18985768.97847 -14087439.66847  21864668.0474                   21864658.6254
        44.5004         47.7504
 -10262064.50446  -8322885.76245  23457988.6254                   23457980.8444
        38.5004         35.2504
 -22118473.16748 -18579570.21749  21131127.2504                   21131117.2424
        51.2504         54.7504
 23  1  9  1 47  0.0000000  0 11G03G23G22G17G21G10G12G31G01G25G32
  -6587743.90046  -5168273.91545  24512457.7344                   24512448.1374
        39.0004         34.5004
   5931143.21045   2225886.19943  25172435.3284                   25172426.6684
        35.0004         18.5004
 -24379366.05648 -14731610.81447  20560709.6094                   20560697.7854
        48.0004         43.2504
   -785084.91515                  25834224.523
        30.500
 -18137823.69848 -13616108.42946  22193809.2504                   22193797.3094
        48.0004         39.0004
 -19191259.61847 -14843201.44047  22130187.9384                   22130178.6914
        46.5004         47.5004
  -5500057.66545  -4262185.57143  24435542.5394                   24435532.6484
        35.7504         20.5004
 -24388269.17948 -18944845.85549  20835550.1094                   20835538.7544
        49.7504         55.0004
 -19022468.44547 -14116036.65347  21857683.1024                   21857674.7344
        43.7504         47.5004
 -10303835.69746  -8355434.73445  23450039.8134                   23450031.3284
        38.5004         35.5004
 -22074643.15648 -18545416.97949  21139467.2814                   21139457.9774
        50.5004         54.7504
 23  1  9  1 47 30.0000000  0 11G03G23G22G17G21G10G12G31G01G25G32
  -6688702.24746  -5246942.70345  24493245.0784                   24493236.1254
        38.0004         35.0004
   6032477.01846   2304847.43343  25191719.5784                   25191711.2114
        36.5004         19.2504
 -24383102.91748 -14734522.65547  20559998.5554                   20559986.7304
        48.5004         43.5004
   -795732.19114                  25832198.813
        29.250
 -18127376.59647 -13607967.84146  22195797.6724                   22195785.5554
        47.7504         39.0004
 -19116509.88347 -14784954.93347  22144412.5704                   22144403.5594
        46.2504         47.5004
  -5505781.05245  -4266645.41643  24434452.6884                   24434443.1484
        35.2504         20.0004
 -24454921.53248 -18996782.74949  20822866.8594                   20822855.2114
        49.5004         55.0004
 -19058557.91547 -14144158.31347  21850816.2274                   21850807.3324
        44.2504         47.5004
 -10345104.02646  -8387591.89245  23442186.0004                   23442177.7504
        38.7504         35.5004
 -22030575.71448 -18511078.72849  21147852.7194                   21147843.4144
        50.2504         54.7504
 23  1  9  1 48  0.0000000  0 11G03G23G22G17G21G10G12G31G01G25G32
  -6789636.89746  -5325593.04645  24474038.3524                   24474028.6374
        38.2504         34.7504
   6133914.31545   2383889.25743  25211020.8364                   25211013.8754
        34.7504         20.5004
 -24386554.20248 -14737211.97247  20559341.9534                   20559330.1294
        49.5004         43.7504
   -805910.958 5                  25830261.109
        30.000
 -18116446.51248 -13599450.90946  22197877.7814                   22197865.3714
        48.2504         39.0004
 -19041449.78047 -14726466.59047  22158695.7894                   22158686.4264
        46.2504         47.2504
  -5510931.31046  -4270658.64843  24433472.8984                   24433462.7154
        36.2504         19.7504
 -24521042.52048 -19048305.59549  20810284.1954                   20810272.7814
        49.2504         54.7504
 -19094036.56047 -14171804.02047  21844064.3984                   21844056.2074
        44.5004         47.7504
 -10385867.61446  -8419355.74245  23434429.5394                   23434421.2304
        39.5004         35.5004
 -21986272.26748 -18476556.57849  21156284.0704                   21156274.4734
        50.5004         55.0004
 23  1  9  1 48 30.0000000  0 11G03G23G22G17G21G10G12G31G01G25G32
  -6890546.11146  -5404223.56345  24454834.9844                   24454826.8524
        38.0004         35.5004
   6235454.13445   2463011.02842  25230342.4304                   25230336.3484
        32.2504         17.7504
 -24389720.22748 -14739679.01047  20558739.3594                   20558727.3594
        48.0004         43.7504
   -815621.099 4                  25828413.813
        29.500
 -18105033.42247 -13590557.60546  22200049.1564                   22200037.2734
        47.2504         39.5004
 -18966079.63547 -14667736.65247  22173037.8444                   22173029.3594
        45.2504         47.2504
  -5515507.58646  -4274224.57743  24432603.2034                   24432592.0234
        38.2504         21.5004
 -24586629.48448 -19099412.31149  20797803.3594                   20797791.9454
        49.7504         54.7504
 -19128902.67347 -14198972.42547  21837430.2974                   21837420.9344
        44.0004         47.7504
 -10426123.88846  -8450724.27446  23426770.3984                   23426761.2704
        39.0004         36.2504
 -21941733.38448 -18441850.96349  21164759.3834                   21164749.8444
        49.5004         55.2504
 23  1  9  1 49  0.0000000  0 11G03G23G22G17G21G10G12G31G01G25G32
  -6991429.57246  -5482834.00645  24435638.2194                   24435628.6804
        38.2504         34.7504
   6337094.51046   2542210.97543  25249686.5634                   25249678.8984
        36.7504         20.0004
 -24392602.94148 -14741925.27947  20558190.8594                   20558178.9184
        48.5004         43.7504
   -824863.272 5                  25826656.047
        30.000
 -18093138.89647 -13581289.16046  22202312.6954                   22202300.4024
        47.2504         39.0004
 -18890401.14847 -14608766.44047  22187440.1484                   22187430.5514
        45.7504         47.2504
  -5519509.97646  -4277343.41343  24431841.8984                   24431830.9534
        37.5004         19.7504
 -24651681.85148 -19150102.46949  20785424.9534                   20785412.9534
        50.0004         54.7504
 -19163156.05947 -14225663.37847  21830911.1954                   21830903.0634
        43.2504         47.5004
 -10465871.62446  -8481696.56046  23419205.7974                   23419196.6094
        39.0004         36.0004
 -21896961.11248 -18406963.48849  21173279.1484                   21173269.7274
        49.5004         55.0004
 23  1  9  1 49 30.0000000  0 11G03G23G22G17G21G10G12G31G01G25G32
  -7092284.68646  -5561422.38445  24416445.6484                   24416436.4614
        37.5004         35.0004
   6438835.10945   2621489.24143  25269046.0314                   25269039.5984
        35.0004         19.0004
 -24395201.99948 -14743950.51547  20557696.2424                   20557684.2424
        48.0004         43.2504
   -833636.485 5                  25824986.203
        31.750
 -18080762.29347 -13571645.06546  22204668.1804                   22204655.7114
        47.7504         39.2504
 -18814414.08847 -14549555.79347  22201899.5234                   22201890.3364
        46.5004         47.2504
  -5522936.73646  -4280013.64143  24431189.2424                   24431178.0044
        38.0004         20.2504
 -24716196.82148 -19200373.86749  20773147.5314                   20773135.9414
        50.0004         54.7504
 -19196794.45547 -14251875.12147  21824510.1724                   21824502.0984
        43.7504         47.7504
 -10505107.70546  -8512270.14945  23411738.2664                   23411729.8984
        38.5004         35.5004
 -21851955.39548 -18371894.11349  21181843.1254                   21181834.2304
        50.5004         54.7504
 23  1  9  1 50  0.0000000  0 11G03G23G22G17G21G10G12G31G01G25G32
  -7193109.67846  -5639987.25445  24397259.9224                   24397250.6174
        37.7504         35.0004
   6540675.56845   2700845.13943  25288425.3594                   25288419.0434
        35.7504         18.2504
 -24397517.73648 -14745754.98947  20557255.5474                   20557243.6644
        48.5004         43.5004
   -841940.408 5                  25823405.875
        31.250
 -18067903.82547 -13561625.49346  22207114.7114                   22207102.8874
        46.7504         39.0004
 -18738118.94447 -14490105.07847  22216417.8134                   22216409.3874
        46.2504         47.5004
  -5525786.98046  -4282234.57743  24430648.0234                   24430634.8524
        38.2504         20.7504
 -24780171.99748 -19250224.64449  20760973.5944                   20760962.1214
        49.7504         54.7504
 -19229816.07247 -14277606.24347  21818226.1484                   21818217.8404
        44.0004         47.7504
 -10543829.38246  -8542442.89445  23404370.9144                   23404361.9614
        38.7504         35.5004
 -21806716.65748 -18336643.16749  21190452.0234                   21190442.7194
        49.7504         54.7504
 23  1  9  1 50 30.0000000  0 11G03G23G22G17G21G10G12G31G01G25G32
  -7293904.50846  -5718528.64745  24378078.6804                   24378069.6094
        37.2504         35.0004
   6642613.09245   2780276.78443  25307824.2424                   25307817.1644
        35.0004         19.2504
 -24399552.05348 -14747340.16647  20556868.2664                   20556856.5004
        48.5004         43.5004
   -849776.290 5                  25821914.797
        32.750
 -18054565.34547 -13551231.89046  22209653.0084                   22209641.0664
        47.5004         39.0004
 -18661517.65047 -14430415.81847  22230994.9224                   22230985.9694
        45.5004         47.0004
  -5528061.47446  -4284006.97043  24430214.2974                   24430203.4104
        37.7504         22.5004
 -24843607.08548 -19299654.59349  20748902.8674                   20748890.5744
        50.2504         55.0004
 -19262221.13747 -14302856.96348  21812060.3754                   21812051.8914
        44.5004         48.0004
 -10582035.87846  -8572214.20345  23397099.9304                   23397091.6804
        38.7504         35.5004
 -21761247.30048 -18301212.51049  21199104.5234                   21199095.6294
        49.7504         54.7504
 23  1  9  1 51  0.0000000  0 11G03G23G22G17G21G10G12G31G01G25G32
  -7394665.61846  -5797043.76645  24358904.3834                   24358894.8444
        37.0004         35.2504
   6744648.79945   2859784.82043  25327241.4454                   25327234.6024
        35.0004         18.5004
 -24401303.39748 -14748704.85847  20556534.9774                   20556522.6844
        48.0004         43.5004
   -857142.817 5                  25820513.102
        33.000
 -18040745.52047 -13540463.20846  22212282.8204                   22212270.8794
        47.0004         39.0004
 -18584608.86047 -14370486.94347  22245629.7584                   22245620.9224
        46.5004         47.0004
  -5529757.35246  -4285328.44943  24429891.2274                   24429880.6334
        37.7504         21.5004
 -24906498.02948 -19348660.51849  20736934.2114                   20736922.8554
        49.0004         54.7504
 -19294006.44147 -14327624.74248  21806011.3754                   21806003.4184
        43.5004         48.0004
 -10619723.07346  -8601580.85045  23389926.8204                   23389920.2114
        37.7504         35.5004
 -21715546.20148 -18265601.27049  21207801.4694                   21207791.6374
        50.0004         54.7504
 23  1  9  1 51 30.0000000  0 11G03G23G22G17G21G10G12G31G01G25G32
  -7495393.08746  -5875532.68845  24339737.2344                   24339728.0474
        36.2504         35.2504
   6846779.86045   2939367.28443  25346676.9774                   25346670.5434
        35.0004         19.0004
 -24402774.32348 -14749851.03747  20556255.3594                   20556243.3014
        49.7504         43.5004
   -864041.085 5                  25819200.117
        34.500
 -18026446.35147 -13529321.01746  22215003.9384                   22214992.1724
        46.7504         39.0004
 -18507395.12747 -14310320.44247  22260323.8364                   22260314.4144
        45.7504         47.0004
  -5530875.66946  -4286199.90643  24429678.0234                   24429667.8984
        36.7504         20.2504
 -24968844.67548 -19397242.30949  20725070.7814                   20725058.4304
        50.5004         55.0004
 -19325172.31847 -14351909.84348  21800080.1334                   21800072.4694
        43.0004         48.0004
 -10656890.34646  -8630542.37445  23382854.0634                   23382847.2774
        38.5004         35.2504
 -21669615.83948 -18229811.38849  21216541.4064                   21216532.1604
        50.0004         55.0004
 23  1  9  1 52  0.0000000  0 11G03G23G22G17G21G10G12G31G01G25G32
  -7596084.96246  -5953993.85345  24320575.0234                   24320566.4804
        36.2504         34.0004
   6949005.74845   3019023.44642  25366130.5164                   25366123.0864
        35.5004         17.2504
 -24403964.74848 -14750778.63447  20556028.4384                   20556016.6134
        49.0004         44.0004
   -870470.908 5                  25817976.805
        33.500
 -18011668.01447 -13517805.44146  22217816.3134                   22217804.1374
        47.0004         39.0004
 -18429876.64647 -14249916.48447  22275074.7424                   22275066.0234
        45.7504         47.0004
  -5531415.47646  -4286620.56443  24429576.7034                   24429565.0554
        37.2504         21.0004
 -25030644.72048 -19445398.21849  20713310.1644                   20713298.6334
        49.7504         55.0004
 -19355717.16847 -14375711.01548  21794267.7974                   21794259.8404
        43.7504         48.0004
 -10693535.06546  -8659096.71746  23375882.3204                   23375874.1294
        39.0004         36.0004
 -21623456.63448 -18193843.19549  21225324.8914                   21225316.1134
        49.7504         54.7504
 23  1  9  1 52 30.0000000  0 11G03G23G22G17G21G10G12G31G01G25G32
  -7696739.98146  -6032426.31445  24301422.1254                   24301412.8204
        36.2504         35.0004
   7051325.09446   3098752.61342  25385601.3674                   25385594.8754
        36.5004         17.2504
 -24404875.76348 -14751488.52047  20555854.8984                   20555843.4264
        49.0004         43.5004
   -876432.430 5                  25816841.688
        32.500
 -17996411.32547 -13505917.12946  22220719.3284                   22220707.5634
        47.2504         39.0004
 -18352054.38947 -14189275.83047  22289883.2194                   22289874.8524
        46.0004         46.7504
  -5531376.50146  -4286590.24443  24429582.8834                   24429571.7034
        36.7504         19.7504
 -25091896.77248 -19493127.07249  20701653.8594                   20701642.7384
        49.2504         55.0004
 -19385640.05747 -14399027.56248  21788574.6724                   21788565.9534
        45.0004         48.0004
 -10729655.43546  -8687242.47646  23369008.6484                   23369000.3984
        39.5004         36.0004
 -21577069.81448 -18157697.64849  21234152.1334                   21234143.1804
        50.7504         54.7504
