     2.11           OBSERVATION DATA    G (GPS)             RINEX VERSION / TYPE
teqc  2019Feb25     Salamtina Y.M.      20230920 03:20:33UTCPGM / RUN BY / DATE
OBSERVATION MODE: Permanent                                 COMMENT
CHUM Chumysh (CHUM)                                         MARKER NAME
25601M001                                                   MARKER NUMBER
4549261325          TRIMBLE NETRS        1.3-2              REC # / TYPE / VERS
237                 AOAD/M_T        NONE                    ANT # / TYPE
        0.0900        0.0000        0.0000                  ANTENNA: DELTA H/E/N
  1228950.3077  4508080.0111  4327868.5432                  APPROX POSITION XYZ
  74.75110459  42.99850161  716.3369  LonLatAlt  S/W        COMMENT
ANT ADDED FROM RCV_ANT.txt                                  COMMENT
Linux 2.6.32-573.12.1.x86_64|x86_64|gcc|Linux 64|=+         COMMENT
BIT 2 OF LLI FLAGS DATA COLLECTED UNDER A/S CONDITION       COMMENT
Konovalov S.M.      RS_RAS                                  OBSERVER / AGENCY
     1     1                                                WAVELENGTH FACT L1/2
     7    L1    L2    C1    P1    P2    S1    S2            # / TYPES OF OBSERV
    30.0000                                                 INTERVAL
    18                                                      LEAP SECONDS
TIME: 2023.01.07                                            COMMENT
TOUR: cont                                                  COMMENT
RSET: RAS02                                                 COMMENT
ASET: DS24                                                  COMMENT
OPER: skon (Konovalov S.M.)                                 COMMENT
SOUR: chum202301070000d.dat                                 COMMENT
SUPP: chum202301070000d.eph                                 COMMENT
SUPP: chum202301070000d.ion                                 COMMENT
SUPP: chum202301070000d.mes                                 COMMENT
Forced Modulo Decimation to 30 seconds                      COMMENT
 SNR is mapped to RINEX snr flag value [0-9]                COMMENT
  L1 & L2: min(max(int(snr_dBHz/6), 0), 9)                  COMMENT
  2023     1     7     0     0    0.0000000     GPS         TIME OF FIRST OBS
  2023     1     7    23    59   30.0000000     GPS         TIME OF LAST OBS
                                                            END OF HEADER
 23  1  7  0  0  0.0000000  0  9G24G23G22G27G08G21G10G18G32
 -12940194.65146 -10682771.09247  22515060.5164                   22515051.4454
        40.0004         42.5004
 -12749179.21347 -12089219.96046  21582737.4774                   21582726.6484
        46.2504         38.7504
  -8183430.18347  -6665521.96544  22333402.5784                   22333391.0474
        43.0004         27.5004
 -11087117.00546  -8449691.81346  23545621.5554                   23545613.0704
        38.5004         37.5004
  -9385599.52046  -7213157.44046  23502048.7504                   23502040.3834
        40.5004         38.5004
  -9450030.29046  -6659049.64844  23980040.4384                   23980027.9104
        40.0004         25.0004
 -25433162.94248 -21474898.62149  20510462.1884                   20510452.8244
        53.7504         55.0004
  -3036251.32446  -9689469.37944  23747468.2664                   23747457.9064
        37.5004         24.2504
 -17692763.97948 -20011185.94749  20789080.5164                   20789071.3284
        51.7504         54.7504
 23  1  7  0  0 30.0000000  0  9G24G23G22G27G08G21G10G18G32
 -12886877.10446 -10641224.91347  22525207.3594                   22525197.6454
        41.0004         42.2504
 -12691827.61347 -12044530.40446  21593650.7034                   21593639.9344
        46.0004         38.2504
  -8260968.59547  -6725941.47844  22318646.3054                   22318635.8874
        42.0004         29.2504
 -11005257.78446  -8385905.41646  23561199.5634                   23561190.0824
        39.2504         37.5004
  -9350845.82646  -7186076.63246  23508662.4844                   23508653.3554
        41.5004         38.5004
  -9530181.88446  -6721505.43944  23964788.3054                   23964775.6604
        39.7504         25.2504
 -25432239.70948 -21474179.21849  20510637.9844                   20510628.5634
        52.2504         54.7504
  -2926125.41446  -9603656.93144  23768423.7664                   23768414.9304
        36.7504         24.7504
 -17728060.14748 -20038689.43649  20782364.0704                   20782354.3554
        51.5004         55.0004
 23  1  7  0  1  0.0000000  0  9G24G23G22G27G08G21G10G18G32
 -12832987.54346 -10599233.07747  22535460.5704                   22535452.9654
        39.7504         42.0004
 -12634231.57847 -11999650.38946  21604611.3444                   21604600.3404
        46.0004         38.7504
  -8338212.73547  -6786131.68844  22303947.9694                   22303937.0824
        43.5004         29.0004
 -10923133.38246  -8321912.39646  23576827.3444                   23576818.0394
        39.2504         37.2504
  -9315603.43046  -7158615.03346  23515368.3674                   23515360.0594
        41.7504         39.0004
  -9610122.20747  -6783796.56644  23949576.2584                   23949564.1414
        42.0004         25.5004
 -25431030.83048 -21473237.23549  20510867.9064                   20510858.5434
        53.5004         55.0004
  -2815825.73646  -9517709.14944  23789414.7584                   23789403.8714
        38.7504         24.7504
 -17762937.47048 -20065866.55249  20775726.6254                   20775717.7304
        51.5004         54.7504
 23  1  7  0  1 30.0000000  0  9G24G23G22G27G08G21G10G18G32
 -12778529.76846 -10556798.44647  22545823.3594                   22545815.8714
        39.5004         42.0004
 -12576393.21147 -11954581.54246  21615616.5944                   21615606.4694
        45.5004         39.0004
  -8415163.94746  -6846093.65644  22289303.8054                   22289293.3874
        41.5004         29.2504
 -10840748.80946  -8257716.65346  23592504.5314                   23592495.2274
        39.0004         36.7504
  -9279876.33346  -7130775.76146  23522166.7734                   23522158.5234
        40.7504         39.0004
  -9689851.34046  -6845923.17444  23934404.5704                   23934391.8094
        40.7504         26.5004
 -25429537.44749 -21472073.56349  20511152.0164                   20511142.5354
        54.0004         54.7504
  -2705356.12246  -9431628.92943  23810436.1254                   23810425.6484
        38.7504         23.7504
 -17797397.73548 -20092718.69549  20769169.3204                   20769159.7814
        52.5004         54.7504
 23  1  7  0  2  0.0000000  0  9G24G23G22G27G08G21G10G18G32
 -12723505.95846 -10513922.74347  22556295.8054                   22556285.8554
        40.5004         42.0004
 -12518312.90647 -11909324.18346  21626669.3754                   21626658.6054
        45.5004         38.5004
  -8491821.28247  -6905826.62044  22274717.3524                   22274705.9384
        43.0004         28.7504
 -10758107.38346  -8193320.74646  23608228.8284                   23608221.1644
        37.2504         36.5004
  -9243666.06746  -7102559.99046  23529057.3834                   23529048.8984
        41.5004         38.5004
  -9769367.58146  -6907883.86044  23919273.4844                   23919260.3134
        41.5004         26.0004
 -25427759.32648 -21470688.01449  20511490.5394                   20511481.4694
        53.0004         54.7504
  -2594718.91046  -9345418.15943  23831490.5084                   23831479.3874
        38.2504         22.7504
 -17831441.28848 -20119246.13249  20762690.9844                   20762681.6804
        51.7504         54.7504
 23  1  7  0  2 30.0000000  0 10G24G23G22G27G08G21G10G18G31G32
 -12667918.80046 -10470608.05046  22566872.1254                   22566863.8754
        39.7504         41.5004
 -12459991.73347 -11863879.12346  21637768.0554                   21637756.8754
        46.2504         38.2504
  -8568184.80247  -6965330.64944  22260185.8284                   22260174.8834
        42.5004         29.7504
 -10675212.99346  -8128727.74446  23624005.3204                   23623995.8404
        39.2504         36.7504
  -9206975.95446  -7073970.30346  23536039.7974                   23536031.3714
        41.7504         38.7504
  -9848669.56046  -6969677.61544  23904182.2194                   23904169.8094
        41.2504         26.2504
 -25425697.02148 -21469081.03349  20511882.6884                   20511873.6764
        53.5004         55.0004
  -2483917.12346  -9259079.05143  23852574.1954                   23852563.9534
        37.2504         22.5004
    -47427.00716                  25321186.266
        38.000
 -17865068.85048 -20145449.41449  20756291.6414                   20756282.8054
        51.7504         54.7504
 23  1  7  0  3  0.0000000  0 10G24G23G22G27G08G21G10G18G31G32
 -12611768.29146 -10426854.43646  22577557.5704                   22577549.1454
        40.0004         41.7504
 -12401428.01847 -11818245.06546  21648912.1884                   21648901.0664
        46.2504         38.2504
  -8644251.71947  -7024603.52745  22245711.1414                   22245699.4924
        43.5004         30.0004
 -10592066.80546  -8063938.52846  23639825.4144                   23639817.8674
        37.2504         36.0004
  -9169805.67247  -7045006.46246  23543112.7664                   23543104.3984
        42.2504         38.5004
  -9927753.28246  -7031301.26944  23889132.6484                   23889120.4734
        41.5004         25.7504
 -25423347.99748 -21467250.63549  20512329.5864                   20512320.5164
        53.2504         55.0004
  -2372950.77346  -9172611.78443  23873690.1804                   23873680.2894
        36.7504         22.2504
   -165194.46155    -99657.85655  25298776.1954                   25298764.6644
        33.5004         30.0004
 -17898278.56048 -20171327.09749  20749972.3834                   20749962.9024
        52.0004         54.7504
 23  1  7  0  3 30.0000000  0 10G24G23G22G27G08G21G10G18G31G32
 -12555058.86646 -10382665.26747  22588349.1484                   22588340.1954
        40.2504         42.0004
 -12342624.34747 -11772424.03346  21660101.9304                   21660090.9264
        45.2504         38.5004
  -8720023.08447  -7083646.13545  22231292.0394                   22231280.5084
        43.0004         31.2504
 -10508674.40946  -7998957.47145  23655697.3444                   23655686.8674
        38.7504         35.5004
  -9132159.66647  -7015671.92846  23550277.0634                   23550267.8164
        43.0004         38.5004
 -10006619.52046  -7092755.48944  23874124.8674                   23874112.3984
        40.7504         26.0004
 -25420713.87348 -21465198.07649  20512831.3284                   20512822.0234
        53.0004         54.7504
  -2261824.49246  -9086019.87643  23894837.6884                   23894827.2114
        37.5004         22.5004
   -283056.58145   -191498.39444  25276347.9384                   25276336.4064
        33.7504         27.0004
 -17931072.83848 -20196881.07649  20743731.8834                   20743722.6374
        51.7504         55.0004
 23  1  7  0  4  0.0000000  0 10G24G23G22G27G08G21G10G18G31G32
 -12497790.67746 -10338040.69746  22599246.7344                   22599237.7814
        40.0004         41.5004
 -12283579.16747 -11726414.82346  21671338.0554                   21671327.1094
        45.7504         38.2504
  -8795496.43247  -7142456.49845  22216929.8524                   22216918.3794
        44.0004         30.0004
 -10425037.06946  -7933785.50645  23671611.2344                   23671603.1024
        38.0004         35.5004
  -9094038.65847  -6985967.24746  23557531.2034                   23557522.4264
        43.2504         39.0004
 -10085264.24946  -7154037.07444  23859159.3914                   23859147.5664
        40.7504         25.7504
 -25417792.61948 -21462921.77649  20513387.0704                   20513377.5904
        53.5004         55.0004
  -2150538.49346  -8999303.55043  23916013.3054                   23916003.8244
        36.0004         22.0004
   -401008.90945   -283409.37844  25253901.8524                   25253890.4964
        34.5004         28.2504
 -17963449.91948 -20222109.96249  20737570.4534                   20737561.0314
        52.2504         55.0004
 23  1  7  0  4 30.0000000  0 10G24G23G22G27G08G21G10G18G31G32
 -12439966.29646 -10292982.72746  22610250.6484                   22610241.4614
        39.7504         41.5004
 -12224293.23547 -11680218.00146  21682620.2974                   21682609.0004
        46.0004         38.0004
  -8870671.47747  -7201034.44545  22202624.6024                   22202613.3054
        44.5004         30.0004
 -10341158.37346  -7868425.52345  23687572.6484                   23687564.1054
        36.7504         34.0004
  -9055444.25147  -6955893.69046  23564875.4924                   23564866.5984
        42.2504         38.5004
 -10163685.89546  -7215144.84444  23844236.3984                   23844224.0474
        41.5004         26.0004
 -25414584.27348 -21460421.77249  20513997.5084                   20513988.2624
        53.7504         54.7504
  -2039095.43146  -8912464.77843  23937222.0084                   23937211.2384
        37.0004         23.0004
   -519049.40445   -375388.96144  25231441.1644                   25231428.6954
        35.2504         29.7504
 -17995410.37448 -20247014.20249  20731488.5314                   20731479.4024
        51.2504         55.0004
 23  1  7  0  5  0.0000000  0 10G24G23G22G27G08G21G10G18G31G32
 -12381588.44846 -10247493.50746  22621359.3594                   22621350.9924
        39.5004         41.5004
 -12164767.46947 -11633834.29746  21693947.4224                   21693935.7734
        46.0004         38.0004
  -8945548.06647  -7259379.82245  22188376.3834                   22188364.9694
        44.0004         30.7504
 -10257042.21646  -7802880.45945  23703580.2344                   23703570.9304
        38.2504         34.7504
  -9016379.68447  -6925453.77046  23572307.8984                   23572300.0594
        42.5004         38.7504
 -10241883.46746  -7276077.99444  23829354.7974                   23829343.8524
        41.0004         27.2504
 -25411088.89348 -21457698.10449  20514662.5394                   20514653.2344
        53.5004         54.7504
  -1927498.13646  -8825505.85443  23958457.1484                   23958447.3754
        37.2504         22.5004
   -637176.25655   -467435.95954  25208960.5944                   25208949.0044
        33.0004         28.7504
 -18026955.02148 -20271594.43449  20725485.9844                   20725476.3874
        51.7504         55.0004
 23  1  7  0  5 30.0000000  0 10G24G23G22G27G08G21G10G18G31G32
 -12322656.72546 -10201572.67146  22632574.2814                   22632564.8594
        39.7504         41.5004
 -12104999.55847 -11587261.91446  21705320.0704                   21705309.5944
        45.5004         38.0004
  -9020122.72647  -7317489.92645  22174184.7504                   22174173.6884
        44.5004         32.0004
 -10172689.13046  -7737150.83645  23719631.6954                   23719623.5044
        37.5004         34.5004
  -8976843.67846  -6894646.52246  23579831.4144                   23579823.7504
        41.7504         38.5004
 -10319852.45846  -7336833.01544  23814518.6804                   23814507.0904
        41.2504         25.5004
 -25407303.12048 -21454748.15549  20515383.1414                   20515373.8364
        53.2504         55.0004
  -1815746.13446  -8738426.41843  23979723.0784                   23979712.8954
        37.0004         22.0004
   -755384.13155   -559546.02055  25186468.2974                   25186456.4734
        35.5004         31.5004
 -18058081.37648 -20295848.72649  20719563.0554                   20719553.6334
        52.2504         54.7504
 23  1  7  0  6  0.0000000  0 10G24G23G22G27G08G21G10G18G31G32
 -12263175.61746 -10155223.77546  22643892.6094                   22643883.4224
        39.2504         41.0004
 -12044992.40347 -11540503.10846  21716740.1484                   21716728.5004
        46.0004         38.0004
  -9094397.21647  -7375366.12645  22160050.8204                   22160039.4654
        44.7504         31.2504
 -10088104.92946  -7671241.05245  23735727.3834                   23735718.6644
        37.5004         33.7504
  -8936841.45747  -6863475.97246  23587444.0004                   23587436.2194
        42.2504         38.5004
 -10397593.45846  -7397410.39844  23799724.3914                   23799712.4494
        39.7504         24.5004
 -25403229.58248 -21451573.97049  20516158.2894                   20516149.1024
        52.5004         54.7504
  -1703844.28146  -8651230.14543  24001017.4614                   24001007.2194
        37.2504         22.7504
   -873673.60845   -651719.68845  25163955.7274                   25163947.3014
        31.2504         31.7504
 -18088792.16648 -20319779.19249  20713718.6804                   20713709.6094
        52.2504         54.7504
 23  1  7  0  6 30.0000000  0 10G24G23G22G27G08G21G10G18G31G32
 -12203146.10446 -10108447.50446  22655316.3444                   22655306.6884
        39.7504         41.5004
 -11984744.90947 -11493557.02346  21728204.8444                   21728193.1954
        46.5004         38.0004
  -9168369.40647  -7433006.79145  22145974.9924                   22145963.0514
        44.7504         31.2504
 -10003291.42446  -7605152.62645  23751866.5314                   23751858.1644
        36.5004         32.7504
  -8896373.94547  -6831942.86046  23595144.7114                   23595136.9884
        42.5004         38.2504
 -10475102.92546  -7457807.35844  23784975.7584                   23784963.6414
        41.2504         25.7504
 -25398866.15948 -21448173.90649  20516988.4224                   20516979.5864
        51.5004         55.0004
  -1591793.21546  -8563917.65643  24022339.8914                   24022329.6484
        37.0004         22.7504
                                  25141436.531
        40.250
 -18119086.16148 -20343384.89349  20707954.0944                   20707944.4964
        52.0004         55.0004
 23  1  7  0  7  0.0000000  0 11G24G23G22G27G08G21G10G18G31G01G32
 -12142574.01946 -10061248.47846  22666842.5084                   22666833.4384
        40.0004         41.0004
 -11924261.17947 -11446426.84446  21739714.0474                   21739703.3364
        45.5004         38.0004
  -9242042.21247  -7490414.15445  22131954.6884                   22131943.8014
        45.0004         31.2504
  -9918255.51946  -7538890.89145  23768049.1484                   23768040.0784
        36.7504         33.5004
  -8855446.84247  -6800051.61346  23602934.0474                   23602924.3914
        43.0004         38.0004
 -10552382.79146  -7518025.38844  23770269.3134                   23770258.1914
        40.5004         26.5004
 -25394216.17148 -21444550.53649  20517873.3834                   20517864.2544
        52.7504         55.0004
  -1479599.06546  -8476493.64743  24043691.2734                   24043679.5084
        38.5004         23.0004
    -21974.52855   -794949.45654  25118893.0944                   25118883.4964
        33.5004         29.2504
     32017.44815                  25356623.578
        31.750
 -18148967.38148 -20366668.93949  20702267.6884                   20702258.3244
        51.5004         54.7504
 23  1  7  0  7 30.0000000  0 11G24G23G22G27G08G21G10G18G31G01G32
 -12081453.18346 -10013621.85346  22678472.9844                   22678464.6764
        39.0004         41.0004
 -11863533.02147 -11399106.21946  21751270.2034                   21751259.3164
        46.0004         38.0004
  -9315406.47747  -7547581.10245  22117993.9224                   22117982.8014
        44.7504         31.2504
  -9832991.99446  -7472451.80045  23784273.1414                   23784265.0084
        36.5004         33.0004
  -8814054.06947  -6767797.51846  23610810.1254                   23610800.9964
        43.2504         37.7504
 -10629422.87546  -7578056.59244  23755609.5554                   23755596.5004
        41.0004         25.5004
 -25389271.04548 -21440697.20049  20518814.4614                   20518805.4494
        53.2504         55.0004
  -1367255.46446  -8388953.22743  24065069.2504                   24065058.0124
        38.7504         22.2504
                                  25096344.0554                   25096332.6414
        32.0004         31.2504
    -80886.52545     96011.16653  25335139.0474                   25335131.4414
        30.5004         18.5004
 -18178427.51348 -20389624.87249  20696661.7114                   20696652.2304
        52.0004         55.0004
 23  1  7  0  8  0.0000000  0 11G24G23G22G27G08G21G10G18G31G01G32
 -12019795.08146  -9965576.57846  22690206.3594                   22690197.4654
        39.0004         41.0004
 -11802570.18547 -11351602.71246  21762870.7894                   21762860.1954
        46.5004         37.5004
  -9388470.82147  -7604514.32945  22104090.6644                   22104079.3674
        45.5004         30.7504
  -9747513.44045  -7405845.14445  23800538.4774                   23800531.7504
        34.7504         33.2504
  -8772206.65747  -6735189.16446  23618773.0944                   23618764.5514
        42.0004         38.0004
 -10706230.93746  -7637907.02244  23740993.2734                   23740980.9804
        41.5004         27.0004
 -25384039.44048 -21436620.62849  20519810.0704                   20519800.6484
        53.2504         54.7504
  -1254774.09946  -8301305.39043  24086472.5004                   24086462.5514
        37.5004         23.5004
   -259074.42455   -979702.68355  25073775.4144                   25073763.4734
        35.5004         31.0004
   -193724.69144      8085.31742  25313666.1334                   25313658.9384
        28.2504         15.5004
 -18207476.19348 -20412260.20149  20691133.8834                   20691124.6954
        51.7504         54.7504
 23  1  7  0  8 30.0000000  0 11G24G23G22G27G08G21G10G18G31G01G32
 -11957596.40746  -9917110.07046  22702042.5164                   22702033.6214
        39.5004         41.0004
 -11741367.26247 -11303912.14146  21774517.9224                   21774506.9774
        46.0004         37.7504
  -9461228.78647  -7661208.84745  22090244.7814                   22090233.5434
        44.0004         31.2504
  -9661817.36646  -7339068.98945  23816847.8754                   23816838.2774
        37.2504         33.0004
  -8729901.10347  -6702223.80646  23626824.3134                   23626815.5354
        43.0004         38.2504
 -10782798.89646  -7697570.31544  23726423.2584                   23726410.9064
        40.2504         25.5004
 -25378515.15048 -21432315.98349  20520861.4454                   20520852.0234
        52.5004         54.7504
  -1142151.34646  -8213547.38743  24107904.2114                   24107893.8524
        37.5004         22.5004
   -377727.69645  -1072159.82745  25051196.5164                   25051184.5164
        35.5004         31.5004
   -306488.42645    -79782.54942  25292208.0944                   25292201.3094
        31.2504         15.5004
 -18236107.94748 -20434570.64949  20685685.3134                   20685676.1254
        52.2504         55.0004
 23  1  7  0  9  0.0000000  0 11G24G23G22G27G08G21G10G18G31G01G32
 -11894860.23346  -9868224.75746  22713980.7344                   22713971.7234
        39.0004         40.7504
 -11679925.54747 -11256035.48346  21786209.7344                   21786198.7894
        45.5004         37.5004
  -9533680.57547  -7717664.75845  22076457.4384                   22076446.9024
        44.0004         31.0004
  -9575907.85446  -7272126.54445  23833194.5864                   23833186.5704
        36.2504         33.5004
  -8687140.70247  -6668904.01946  23634961.4454                   23634952.9614
        42.5004         38.0004
 -10859125.84446  -7757045.85144  23711898.5704                   23711885.3984
        41.2504         26.2504
 -25372698.92048 -21427783.85349  20521967.8834                   20521958.9304
        53.0004         54.7504
  -1029390.44446  -8125681.78243  24129363.9224                   24129351.8634
        39.2504         22.5004
   -496445.83546  -1164667.43245  25028605.0864                   25028594.1414
        36.2504         31.5004
   -419176.81855   -167591.66752  25270764.2504                   25270757.9924
        31.5004         16.7504
 -18264323.94748 -20456557.15149  20680316.1024                   20680306.6804
        52.5004         54.7504
 23  1  7  0  9 30.0000000  0 11G24G23G22G27G08G21G10G18G31G01G32
 -11831589.70346  -9818923.02746  22726020.9614                   22726012.3014
        39.5004         41.0004
 -11618246.14947 -11207973.62746  21797946.5394                   21797936.0044
        45.2504         37.5004
  -9605826.26847  -7773882.15945  22062729.3444                   22062717.5204
        45.0004         31.2504
  -9489789.04646  -7205020.97645  23849582.7274                   23849574.8284
        36.5004         33.2504
  -8643928.80647  -6635232.42846  23643183.5864                   23643175.5124
        43.0004         37.7504
 -10935210.98846  -7816332.93844  23697419.8914                   23697407.8324
        41.5004         26.0004
 -25366591.04948 -21423024.48249  20523130.5164                   20523121.5044
        53.0004         55.0004
   -916494.37246  -8037710.84543  24150846.4224                   24150834.7734
        39.0004         23.0004
   -615226.38045  -1257223.79645  25006001.9064                   25005989.6724
        34.2504         30.0004
   -531788.42545   -255341.13442  25249334.7344                   25249327.7154
        31.5004         15.5004
 -18292125.23348 -20478220.48249  20675025.8284                   20675015.9964
        52.0004         55.0004
 23  1  7  0 10  0.0000000  0 10G24G23G22G27G08G21G10G18G31G32
 -11767786.21246  -9769206.01846  22738161.1724                   22738153.5664
        38.0004         40.5004
 -11556328.54947 -11159726.16646  21809729.5314                   21809718.5274
        46.0004         37.5004
  -9677664.31447  -7829859.83845  22049058.4304                   22049047.3674
        44.5004         31.0004
  -9403463.17046  -7137754.11245  23866011.2114                   23866001.4384
        37.5004         32.7504
  -8600266.50747  -6601209.88546  23651492.5474                   23651484.2384
        42.7504         37.5004
 -11011051.20047  -7875429.19444  23682988.5164                   23682975.8714
        42.2504         27.7504
 -25360189.84548 -21418036.52349  20524348.4144                   20524339.4614
        51.5004         55.0004
   -803464.54046  -7949635.65244  24172355.1484                   24172344.0274
        38.5004         25.0004
                                  24983386.5394                   24983376.4144
        33.7504         32.2504
 -18319511.23748 -20499560.21749  20669814.2584                   20669804.7774
        52.0004         54.7504
 23  1  7  0 10 30.0000000  0 11G24G23G22G27G08G21G10G18G31G01G32
 -11703450.94146  -9719074.65446  22750405.1884                   22750395.7074
        39.5004         40.2504
 -11494171.95647 -11111292.45746  21821557.6254                   21821546.7384
        45.0004         37.0004
  -9749192.83147  -7885596.30845  22035446.9144                   22035436.3204
        44.2504         30.5004
  -9316932.41746  -7070327.54245  23882477.2504                   23882468.2384
        37.5004         34.0004
  -8556155.32247  -6566837.54746  23659887.1334                   23659877.4774
        42.2504         37.0004
 -11086643.60646  -7934332.33844  23668602.6724                   23668590.7304
        41.2504         27.0004
 -25353494.28848 -21412819.21649  20525622.7504                   20525613.6214
        52.0004         54.7504
   -690301.98046  -7861457.06543  24193889.7034                   24193878.3484
        39.0004         22.2504
   -852961.68145  -1442472.15545  24960763.1884                   24960750.8364
        34.5004         31.2504
                                  25206522.719
        29.750
 -18346481.09848 -20520575.69149  20664681.9454                   20664672.5234
        51.5004         54.7504
 23  1  7  0 11  0.0000000  0 11G24G23G22G27G08G21G10G18G31G01G32
 -11638589.02446  -9668532.88546  22762747.0164                   22762738.4734
        38.2504         40.2504
 -11431779.40047 -11062674.89746  21833429.5234                   21833419.5744
        44.5004         36.7504
  -9820413.99047  -7941093.29445  22021894.2424                   22021883.1804
        44.5004         31.0004
  -9230202.68146  -7002745.95345  23898981.8524                   23898972.2544
        37.0004         33.0004
  -8511599.53047  -6532118.75246  23668364.8284                   23668356.6954
        42.5004         37.2504
 -11161989.37747  -7993043.30744  23654265.9384                   23654253.0594
        42.0004         26.2504
 -25346506.42748 -21407374.13849  20526952.0784                   20526943.2424
        51.5004         54.7504
   -577011.66246  -7773178.88943  24215445.7034                   24215435.8714
        38.0004         22.5004
   -971912.89646  -1535161.41645  24938127.9384                   24938114.9414
        36.7504         31.7504
   -869142.99255   -387754.71853  25185139.7344                   25185131.3674
        33.0004         19.0004
 -18373037.82848 -20541269.24849  20659628.6724                   20659619.0744
        52.0004         55.0004
 23  1  7  0 11 30.0000000  0 11G24G23G22G27G08G21G10G18G31G01G32
 -11573200.52646  -9617580.80146  22775189.9614                   22775182.0634
        39.0004         39.7504
 -11369149.08347 -11013872.06946  21845348.1644                   21845337.5124
        45.5004         36.7504
  -9891324.68247  -7996348.34945  22008400.4064                   22008389.3444
        44.5004         30.7504
  -9143274.97446  -6935010.08545  23915522.0944                   23915514.2544
        36.5004         32.2504
  -8466599.57946  -6497053.86646  23676929.0084                   23676920.0554
        41.7504         37.0004
 -11237083.91846  -8051558.50944  23639974.6024                   23639963.0704
        40.7504         27.0004
 -25339223.93948 -21401699.47149  20528337.8914                   20528328.9384
        51.7504         54.7504
   -463593.69546  -7684801.27443  24237030.1094                   24237019.2234
        39.0004         22.7504
  -1090915.29145  -1627890.53045  24915477.7504                   24915469.9694
        31.2504         30.7504
   -981421.80955   -475244.65952  25163774.4844                   25163766.5274
        30.7504         16.2504
 -18399179.55648 -20561639.42149  20654654.0554                   20654644.1644
        51.5004         54.7504
 23  1  7  0 12  0.0000000  0 11G24G23G22G27G08G21G10G18G31G01G32
 -11507287.68346  -9566220.17546  22787732.5314                   22787724.9264
        38.2504         40.0004
 -11306281.16647 -10964884.08946  21857312.0864                   21857300.7894
        45.0004         36.7504
  -9961924.39947  -8051361.09145  21994965.6644                   21994954.6604
        44.2504         31.0004
  -9056152.41346  -6867122.38845  23932101.9064                   23932093.1294
        37.0004         32.7504
  -8421157.81047  -6461644.72246  23685575.6094                   23685567.5944
        42.5004         36.5004
 -11311925.56847  -8109876.66344  23625733.1724                   23625720.8204
        42.0004         27.0004
 -25331645.96548 -21395794.56249  20529780.1414                   20529771.1294
        51.7504         54.7504
   -350050.10846  -7596325.78044  24258636.9844                   24258625.9224
        39.0004         24.0004
  -1209965.52546  -1720657.02645  24892828.0314                   24892815.1524
        36.5004         32.2504
                                  25142426.6024                   25142418.2344
        30.7504         15.5004
 -18424906.42648 -20581686.32449  20649758.3054                   20649748.6484
        51.5004         55.0004
 23  1  7  0 12 30.0000000  0 11G24G23G22G27G08G21G10G18G31G01G32
 -11440854.86946  -9514454.32845  22800375.3754                   22800366.1884
        39.7504         33.7504
 -11243178.02647 -10915712.81046  21869320.2734                   21869309.0354
        45.0004         37.0004
 -10032214.49447  -8106132.55745  21981589.5164                   21981578.8634
        44.7504         31.0004
  -8968840.20346  -6799086.90845  23948717.1804                   23948707.9924
        36.0004         32.7504
  -8375278.35647  -6425894.51046  23694307.3364                   23694297.5044
        42.2504         36.2504
 -11386514.03946  -8167997.53444  23611538.8524                   23611526.9104
        41.5004         27.5004
 -25323774.03248 -21389660.59349  20531278.1644                   20531268.9184
        52.5004         54.7504
   -236385.06246  -7507755.62743  24280266.0004                   24280255.4654
        38.5004         22.5004
  -1329063.37846  -1813460.55645  24870165.5554                   24870151.9144
        37.0004         31.5004
  -1205704.29615                  25121092.086
        32.250
 -18450220.77548 -20601411.78049  20644941.2504                   20644931.4774
        52.2504         54.7504
 23  1  7  0 13  0.0000000  0 11G24G23G22G27G08G21G10G18G31G01G32
 -11373901.54246  -9462282.91244  22813114.0314                   22813106.7194
        37.0004         27.2504
 -11179837.06247 -10866356.23546  21881372.7504                   21881362.1564
        44.5004         36.5004
 -10102191.30647  -8160659.91645  21968273.3134                   21968262.5434
        44.2504         31.7504
  -8881338.57646  -6730903.86345  23965367.8054                   23965359.2624
        36.7504         33.2504
  -8328960.60047  -6389802.75646  23703122.0944                   23703112.6134
        42.2504         36.7504
 -11460844.91146  -8225917.66544  23597395.3594                   23597383.0084
        41.5004         26.2504
 -25315604.98748 -21383295.10549  20532832.8594                   20532823.7304
        51.7504         54.7504
   -122598.01446  -7419090.42944  24301919.7114                   24301908.0634
        40.0004         24.7504
  -1448203.41646  -1906296.92345  24847491.3284                   24847480.0314
        36.0004         32.0004
                                  25099781.4144                   25099772.6954
        31.5004         16.7504
 -18475120.06048 -20620813.81149  20640202.8524                   20640193.4304
        51.5004         54.7504
 23  1  7  0 13 30.0000000  0 11G24G23G22G27G08G21G10G18G31G01G32
 -11306432.48946  -9409709.61344  22825955.4304                   22825946.0664
        39.2504         29.2504
 -11116260.85847 -10816816.34446  21893471.5314                   21893460.8204
        44.5004         36.7504
 -10171856.41147  -8214944.38345  21955016.9064                   21955005.7854
        45.2504         31.7504
  -8793653.12945  -6662577.56445  23982053.7504                   23982045.2664
        35.7504         32.5004
  -8282209.18447  -6353373.09146  23712017.2034                   23712008.8954
        42.2504         36.2504
 -11534918.74246  -8283637.52544  23583299.4534                   23583285.9884
        41.5004         25.7504
 -25307140.42548 -21376699.34349  20534443.6564                   20534434.4104
        51.5004         54.7504
     -8693.35046  -7330333.52743  24323594.1954                   24323584.0704
        38.7504         23.7504
  -1567385.00245  -1999165.78945  24824812.3054                   24824800.4804
        34.2504         31.5004
                                  25078482.6414                   25078476.7344
        30.5004         17.2504
 -18499606.83448 -20639894.40449  20635543.2114                   20635533.6134
        51.5004         54.7504
 23  1  7  0 14  0.0000000  0 11G24G23G22G27G08G21G10G18G31G01G32
 -11238448.84446  -9356735.34644  22838892.0004                   22838883.4574
        38.5004         29.0004
 -11052448.66647 -10767092.55846  21905614.6884                   21905603.6254
        45.0004         36.5004
 -10241208.08047  -8268984.61345  21941819.3754                   21941808.3714
        45.5004         32.0004
  -8705785.82446  -6594109.52345  23998774.7504                   23998765.5044
        36.0004         32.5004
  -8235025.24247  -6316606.40045  23720995.3834                   23720987.4844
        42.2504         35.7504
 -11608731.84246  -8341154.20744  23569252.1254                   23569241.3554
        41.5004         27.2504
 -25298379.03048 -21369872.28649  20536110.9304                   20536101.2734
        52.5004         55.0004
    105327.77946  -7241485.94244  24345293.1174                   24345281.2934
        40.2504         24.2504
  -1686604.43246  -2092064.05845  24802125.9144                   24802113.9144
        36.5004         32.7504
                                  25057208.4224                   25057199.0004
        32.5004         19.0004
 -18523680.35548 -20658652.98349  20630962.1644                   20630952.6254
        52.2504         55.0004
 23  1  7  0 14 30.0000000  0 10G24G23G22G27G08G21G10G18G31G32
 -11169953.08246  -9303362.04544  22851925.8914                   22851916.8204
        39.0004         27.0004
 -10988400.85347 -10717185.18046  21917802.0554                   21917791.6954
        44.5004         36.2504
 -10310245.69847  -8322780.12945  21928682.3284                   21928671.0904
        45.0004         31.7504
  -8617739.98445  -6525502.40145  24015528.4844                   24015520.5274
        35.5004         32.0004
  -8187411.23346  -6279504.60146  23730055.8914                   23730047.9924
        40.5004         36.2504
 -11682282.68146  -8398466.53844  23555256.9844                   23555244.2234
        41.2504         27.0004
 -25289320.39448 -21362813.60849  20537834.5234                   20537825.2774
        51.2504         54.7504
    219463.13046  -7152549.30343  24367011.0784                   24367001.0704
        38.7504         23.5004
  -1805859.19446  -2184989.85945  24779431.3444                   24779420.7504
        36.0004         33.0004
 -18547340.97848 -20677089.83649  20626459.9694                   20626450.1374
        51.7504         55.0004
 23  1  7  0 15  0.0000000  0 11G24G23G22G27G08G21G10G18G31G01G32
 -11100947.85946  -9249591.71244  22865057.3444                   22865048.1564
        39.0004         28.0004
 -10924117.81447 -10667094.52846  21930034.7344                   21930024.1994
        44.5004         36.2504
 -10378968.62147  -8376330.42545  21915604.4694                   21915593.5824
        44.7504         32.5004
  -8529518.86746  -6456758.69245  24032317.8054                   24032308.8524
        36.2504         32.0004
  -8139369.87846  -6242069.80545  23739198.7504                   23739189.0944
        41.0004         35.5004
 -11755569.36446  -8455573.02844  23541310.5944                   23541297.8324
        41.0004         28.0004
 -25279963.82948 -21355522.78549  20539614.9224                   20539605.9104
        51.7504         54.7504
    333710.34846  -7063525.53144  24388752.3054                   24388741.4774
        39.5004         24.0004
  -1925146.73746  -2277941.21845  24756731.7814                   24756720.8364
        36.7504         32.2504
                                  25014712.664
        33.750
 -18570589.19648 -20695205.32249  20622035.9534                   20622026.1804
        51.7504         55.0004
 23  1  7  0 15 30.0000000  0 11G24G23G22G27G08G21G10G18G31G01G32
 -11031435.72446  -9195426.42344  22878284.7034                   22878276.1024
        38.5004         28.0004
 -10859600.15247 -10616821.02546  21942312.9304                   21942301.4574
        45.5004         36.2504
 -10447376.55447  -8429635.28545  21902586.8914                   21902576.0044
        45.2504         32.0004
  -8441125.93145  -6387881.06645  24049137.4924                   24049128.8914
        35.0004         31.5004
  -8090903.58647  -6204303.84545  23748422.0704                   23748411.9454
        42.2504         35.2504
 -11828590.53347  -8512472.62944  23527415.6094                   23527402.9654
        42.2504         27.5004
 -25270309.54648 -21347999.96749  20541452.1174                   20541442.9884
        51.7504         54.7504
    448066.97146  -6974416.44643  24410513.2344                   24410503.1094
        38.7504         23.5004
  -2044464.37245  -2370916.01945  24734027.3524                   24734015.2344
        35.7504         32.5004
                                  24993494.1724                   24993486.3914
        30.7504         16.2504
 -18593425.57548 -20712999.90549  20617690.1804                   20617680.5824
        52.0004         54.7504
 23  1  7  0 16  0.0000000  0 10G24G23G22G27G08G21G10G18G31G32
 -10961418.15246  -9140867.28444  22891608.1804                   22891599.6374
        38.5004         26.7504
 -10794847.14247 -10566364.15246  21954634.4924                   21954623.7234
        44.5004         36.0004
 -10515467.95647  -8482693.50245  21889629.2504                   21889618.8324
        45.0004         32.7504
  -8352563.29646  -6318871.25445  24065991.4694                   24065981.9304
        37.0004         32.2504
  -8042013.74546  -6166207.87645  23757723.8914                   23757716.8134
        39.7504         35.5004
 -11901343.01546  -8569162.88744  23513569.7424                   23513559.4414
        41.0004         27.5004
 -25260355.86648 -21340243.85749  20543346.2344                   20543337.1644
        51.0004         54.7504
    562531.96046  -6885222.99244  24432296.2734                   24432284.6844
        39.2504         25.2504
  -2163808.39846  -2463911.36845  24711316.3594                   24711305.1214
        37.0004         32.2504
 -18615849.46248 -20730473.06149  20613422.8204                   20613413.5164
        51.5004         54.7504
 23  1  7  0 16 30.0000000  0 11G24G23G22G27G08G21G10G18G31G01G32
 -10890898.26746  -9085916.71444  22905028.6644                   22905019.4774
        38.5004         26.7504
 -10729859.79147 -10515724.66545  21967001.5394                   21966990.5944
        45.5004         35.7504
 -10583242.78747  -8535505.02745  21876732.2114                   21876721.3834
        45.7504         33.0004
  -8263834.82446  -6249732.16845  24082876.4384                   24082866.1374
        36.5004         31.5004
  -7992703.40646  -6127784.27745  23767107.5004                   23767100.4804
        39.7504         35.2504
 -11973825.41446  -8625642.64444  23499777.6484                   23499765.1214
        41.5004         27.0004
 -25250102.90748 -21332254.53949  20545297.3524                   20545288.3404
        51.5004         54.7504
    677102.31946  -6795947.37943  24454097.3754                   24454086.9574
        38.0004         22.7504
  -2283176.82546  -2556925.71645  24688600.7584                   24688589.8714
        36.0004         33.0004
                                  24951121.6954                   24951114.3834
        32.0004         17.2504
 -18637861.93548 -20747625.62649  20609234.0164                   20609224.7114
        52.2504         54.7504
 23  1  7  0 17  0.0000000  0 11G24G23G22G27G08G21G10G18G31G01G32
 -10819878.76646  -9030576.84144  22918542.0704                   22918534.1134
        37.7504         27.5004
 -10664638.67347 -10464903.02246  21979412.4774                   21979401.8834
        44.7504         36.2504
 -10650700.60747  -8588069.55245  21863895.1954                   21863884.4844
        45.2504         33.0004
  -8174943.87745  -6180466.50745  24099789.5234                   24099782.0944
        34.5004         31.5004
  -7942974.79146  -6089034.72545  23776571.8754                   23776562.9804
        41.2504         35.2504
 -12046036.09946  -8681910.72344  23486036.8204                   23486023.9414
        41.7504         28.2504
 -25239550.57148 -21324031.94149  20547305.3914                   20547296.0274
        53.0004         54.7504
    791775.55046  -6706591.63443  24475919.1484                   24475908.8484
        38.0004         22.7504
  -2402567.30746  -2649957.25245  24665882.0784                   24665870.6054
        37.0004         33.2504
                                  24929965.7504                   24929959.6094
        31.0004         15.5004
 -18659463.54548 -20764458.04749  20605123.5944                   20605113.9384
        53.0004         54.7504
 23  1  7  0 17 30.0000000  0 11G24G23G22G27G08G21G10G18G31G01G32
 -10748361.12346  -8974848.82144  22932152.6174                   22932143.2544
        38.5004         27.2504
 -10599183.10347 -10413898.69846  21991867.4224                   21991857.2974
        44.7504         36.2504
 -10717840.13347  -8640386.04045  21851119.5474                   21851107.7234
        46.2504         34.0004
  -8085892.73745  -6111076.01345  24116736.0704                   24116727.5864
        35.5004         32.2504
  -7892830.05446  -6049960.89845  23786113.7584                   23786104.4534
        40.5004         35.0004
 -12117972.43146  -8737964.99044  23472347.5864                   23472335.1764
        41.7504         27.7504
 -25228697.35848 -21315574.89549  20549371.0474                   20549361.2734
        51.7504         55.0004
    906550.58546  -6617156.56043  24497758.6094                   24497749.2464
        38.0004         22.7504
  -2521976.24546  -2743003.20045  24643160.0084                   24643148.0664
        37.0004         33.5004
    123345.95455  -1046268.07952  24908836.0004                   24908826.4614
        31.0004         17.2504
 -18680653.77948 -20780969.91649  20601090.9694                   20601081.1954
        51.7504         55.0004
 23  1  7  0 18  0.0000000  0 11G24G23G22G27G08G21G10G18G31G01G32
 -10676348.98546  -8918735.47344  22945856.0784                   22945847.1844
        39.2504         27.2504
 -10533494.48447 -10362712.78745  22004368.4384                   22004357.3164
        46.5004         35.5004
 -10784661.50047  -8692454.62645  21838403.9924                   21838392.4614
        46.2504         34.0004
  -7996685.56245  -6041563.92945  24133712.6884                   24133703.2664
        35.7504         30.0004
  -7842272.26746  -6010565.22345  23795733.9144                   23795725.1954
        40.0004         34.5004
 -12189633.48446  -8793804.75044  23458711.0784                   23458698.1994
        41.5004         27.5004
 -25217543.89648 -21306883.89249  20551493.2584                   20551484.1294
        51.5004         55.0004
   1021423.95846  -6527644.81443  24519620.5554                   24519608.9654
        39.0004         23.5004
  -2641401.84046  -2836062.10045  24620434.1484                   24620422.4414
        37.2504         34.0004
                                  24887725.0704                   24887717.5824
        33.5004         16.2504
 -18701434.05848 -20797162.33149  20597136.5554                   20597127.1914
        52.0004         55.0004
 23  1  7  0 18 30.0000000  0 11G24G23G22G27G08G21G10G18G31G01G32
 -10603843.01546  -8862237.29744  22959652.4384                   22959644.3634
        37.5004         26.2504
 -10467571.34047 -10311344.11146  22016912.9534                   22016902.3014
        46.0004         36.0004
 -10851162.55747  -8744273.61045  21825748.6414                   21825737.9304
        46.5004         34.0004
  -7907323.75846  -5971931.34445  24150717.1884                   24150708.5274
        36.5004         31.0004
  -7791302.51146  -5970848.56045  23805434.6024                   23805425.5314
        39.7504         34.7504
 -12261015.51246  -8849427.10744  23445126.8204                   23445114.3524
        41.7504         28.2504
 -25206087.80948 -21297957.07749  20553673.3834                   20553664.1374
        51.0004         55.0004
   1136395.41846  -6438056.69343  24541496.7894                   24541487.0164
        36.7504         22.7504
  -2760839.24746  -2929130.20045  24597704.6414                   24597693.9304
        37.0004         33.5004
                                  24866639.7114                   24866630.8754
        33.2504         16.2504
 -18721802.98448 -20813034.22349  20593260.4774                   20593250.9964
        52.0004         54.7504
 23  1  7  0 19  0.0000000  0 11G24G23G22G27G08G21G10G18G31G01G32
 -10530847.66546  -8805357.81444  22973543.8834                   22973534.1094
        38.2504         26.0004
 -10401416.03247 -10259794.53545  22029502.0634                   22029491.2344
        45.7504         35.5004
 -10917344.66947  -8795844.07245  21813154.7814                   21813143.7194
        46.2504         34.0004
  -7817812.50446  -5902182.33945  24167751.4694                   24167741.8714
        36.0004         31.5004
  -7739925.02846  -5930814.16445  23815209.7664                   23815202.6294
        39.2504         35.2504
 -12332118.53547  -8904832.04144  23431596.1644                   23431584.7504
        42.2504         27.7504
 -25194330.89248 -21288795.84249  20555910.4064                   20555901.1604
        51.0004         54.7504
   1251460.64446  -6348395.47643  24563394.0704                   24563382.9494
        37.5004         23.0004
  -2880288.04446  -3022207.19345  24574975.4844                   24574964.0704
        38.2504         35.0004
   -209082.98255  -1305303.44552  24845575.1954                   24845568.1174
        31.7504         16.7504
 -18741763.04248 -20828587.50749  20589462.3054                   20589452.7074
        51.7504         55.0004
 23  1  7  0 19 30.0000000  0 11G24G23G22G27G08G21G10G18G31G01G32
 -10457365.25246  -8748098.78244  22987527.2034                   22987518.1914
        38.2504         27.2504
 -10335028.46247 -10208063.97145  22042134.9614                   22042124.1334
        45.2504         35.7504
 -10983206.88247  -8847165.25245  21800621.7814                   21800610.4844
        46.2504         34.2504
  -7728154.54246  -5832318.97745  24184812.3054                   24184802.8834
        37.0004         31.0004
  -7688141.49746  -5890463.38445  23825064.4844                   23825055.9414
        38.7504         33.2504
 -12402940.44947  -8960017.91444  23418119.1644                   23418107.3984
        42.0004         27.7504
 -25182272.11748 -21279399.39749  20558205.3284                   20558195.9064
        51.0004         54.7504
   1366617.94146  -6258662.52643  24585307.0164                   24585297.1254
        37.0004         22.5004
  -2999745.14546  -3115290.64745  24552243.3204                   24552231.7894
        38.7504         34.0004
   -319644.51845  -1391455.36842  24824536.3754                   24824529.0634
        32.7504         17.7504
 -18761314.22948 -20843822.19649  20585741.9224                   20585731.9734
        51.5004         54.7504
 23  1  7  0 20  0.0000000  0 11G24G23G22G27G08G21G10G18G31G01G32
 -10383396.99346  -8690461.20044  23001601.8524                   23001594.0704
        37.2504         26.0004
 -10268407.88847 -10156151.85345  22054812.8284                   22054801.8834
        46.5004         35.5004
 -11048747.53347  -8898235.87645  21788149.9924                   21788138.5204
        46.5004         34.0004
  -7638351.90146  -5762342.89245  24201900.4224                   24201891.4694
        36.5004         30.7504
  -7635953.76146  -5849797.62345  23834995.6804                   23834986.1414
        39.0004         33.5004
 -12473477.80547  -9014982.09544  23404696.6644                   23404684.5474
        42.2504         28.0004
 -25169910.19348 -21269766.73049  20560557.5394                   20560548.3524
        52.2504         55.0004
   1481866.04346  -6168858.82643  24607238.3444                   24607228.1024
        38.0004         22.5004
  -3119206.51946  -3208377.42245  24529511.8204                   24529498.8834
        39.7504         34.7504
                                  24803520.0164                   24803514.4024
        30.5004         16.2504
 -18780455.88648 -20858737.76749  20582099.3204                   20582089.7234
        52.5004         54.7504
 23  1  7  0 20 30.0000000  0 11G24G23G22G27G08G21G10G18G31G01G32
 -10308946.44446  -8632447.74944  23015769.9534                   23015760.7074
        37.7504         26.5004
 -10201555.37347 -10104058.99246  22067534.0004                   22067523.4654
        46.0004         36.0004
 -11113966.73147  -8949056.00745  21775738.9534                   21775728.0084
        47.0004         34.0004
  -7548408.50746  -5692257.15345  24219016.8754                   24219007.3364
        37.7504         31.5004
  -7583364.52446  -5808819.01745  23845004.5634                   23844994.4964
        40.0004         34.0004
 -12543729.93147  -9069723.98344  23391328.7194                   23391316.0164
        42.5004         28.5004
 -25157245.08248 -21259897.81649  20562967.7894                   20562958.4264
        52.5004         55.0004
   1597202.12446  -6078986.52043  24629186.0704                   24629175.8874
        38.2504         22.0004
  -3238670.12046  -3301465.95045  24506777.5084                   24506765.6844
        38.2504         34.7504
   -540377.72945  -1563455.30343  24782534.1564                   24782525.2034
        34.5004         18.2504
 -18799189.20648 -20873335.16649  20578534.3984                   20578524.9184
        52.5004         54.7504
 23  1  7  0 21  0.0000000  0 11G24G23G22G27G08G21G10G18G31G01G32
 -10234014.86946  -8574059.50944  23030027.8054                   23030019.9654
        37.5004         26.0004
 -10134470.17947 -10051784.84545  22080300.6644                   22080289.6024
        46.5004         35.5004
 -11178862.97247  -8999624.49745  21763389.2034                   21763378.3754
        46.5004         34.2504
  -7458326.52246  -5622063.39845  24236160.0944                   24236150.2034
        38.5004         31.7504
  -7530375.83846  -5767529.13445  23855087.0314                   23855078.4304
        39.0004         33.5004
 -12613693.78047  -9124241.25644  23378015.1804                   23378002.2424
        42.2504         28.5004
 -25144275.19848 -21249791.41749  20565435.8284                   20565426.6994
        51.0004         54.7504
   1712624.98846  -5989046.65443  24651148.9304                   24651140.2704
        36.0004         22.5004
  -3358132.52246  -3394553.57845  24484044.1804                   24484033.1174
        38.7504         35.5004
   -650543.88645  -1649299.05342  24761566.4774                   24761561.2154
        30.5004         17.7504
 -18817513.54748 -20887613.86449  20575047.2894                   20575037.7504
        51.5004         55.0004
 23  1  7  0 21 30.0000000  0 11G24G23G22G27G08G21G10G18G31G01G32
 -10158606.47846  -8515299.75244  23044378.2114                   23044369.9614
        37.5004         25.7504
 -10067154.17347  -9999330.82645  22093109.8984                   22093099.0704
        47.0004         35.7504
 -11243437.40647  -9049942.22445  21751101.2814                   21751090.5704
        46.5004         34.2504
  -7368110.49646  -5551765.18545  24253325.1724                   24253316.9804
        36.0004         30.5004
  -7476991.89246  -5725931.28045  23865242.8914                   23865236.8674
        37.2504         32.2504
 -12683368.53246  -9178533.23944  23364755.0164                   23364743.3674
        41.5004         28.2504
 -25131001.86948 -21239448.56349  20567961.6564                   20567952.2344
        52.0004         55.0004
   1828130.95346  -5899042.03143  24673131.3134                   24673120.2504
        38.5004         22.5004
  -3477592.14046  -3487638.98245  24461310.7584                   24461300.1644
        37.5004         34.0004
   -760574.30245  -1735037.07043  24740632.0634                   24740622.6994
        34.2504         18.5004
 -18835430.96748 -20901575.48049  20571637.6804                   20571628.1414
        52.2504         54.7504
 23  1  7  0 22  0.0000000  0 11G24G23G22G27G08G21G10G18G31G01G32
 -10082723.49146  -8456170.11144  23058817.8134                   23058809.1524
        37.5004         24.5004
  -9999607.25847  -9946696.87546  22105963.9614                   22105952.7814
        46.5004         36.0004
 -11307688.83447  -9100008.25845  21738874.6954                   21738863.4574
        46.5004         34.0004
  -7277763.28746  -5481364.79045  24270519.6414                   24270509.3404
        39.0004         31.5004
  -7423214.20946  -5684026.62845  23875479.3754                   23875469.6604
        37.7504         32.0004
 -12752752.04347  -9232598.31844  23351552.9694                   23351540.7934
        42.5004         29.0004
 -25117424.00348 -21228868.40749  20570545.7034                   20570536.2234
        52.0004         55.0004
   1943718.03546  -5808974.14043  24695125.6414                   24695116.1604
        37.2504         22.0004
  -3597045.62346  -3580719.62346  24438580.5004                   24438570.0824
        38.2504         36.0004
   -870465.73145  -1820666.75842  24719717.2814                   24719711.2584
        31.2504         17.7504
 -18852941.48248 -20915220.04349  20568305.3914                   20568296.3794
        53.0004         54.7504
 23  1  7  0 22 30.0000000  0 11G24G23G22G27G08G21G10G18G31G01G32
 -10006367.41046  -8396671.90144  23073346.4614                   23073339.8524
        37.7504         25.7504
  -9931828.83047  -9893882.52446  22118861.8204                   22118850.8164
        46.7504         36.0004
 -11371615.88147  -9149821.52145  21726709.7034                   21726698.8164
        46.5004         34.0004
  -7187286.94446  -5410863.75345  24287736.2814                   24287726.9184
        38.2504         32.0004
  -7369044.73646  -5641816.66245  23885786.9384                   23885777.8674
        38.5004         32.0004
 -12821841.90447  -9286434.54544  23338405.1174                   23338393.1174
        42.0004         28.5004
 -25103540.21448 -21218049.87049  20573187.3364                   20573178.2074
        51.5004         55.0004
   2059385.30846  -5718843.84843  24717136.9924                   24717126.5744
        37.5004         22.7504
  -3716489.51046  -3673792.77445  24415851.5314                   24415839.5314
        38.0004         35.0004
   -980214.74445  -1906185.48743  24698835.8524                   24698826.6644
        34.7504         18.5004
 -18870044.58248 -20928547.14049  20565051.2584                   20565041.7774
        53.0004         54.7504
 23  1  7  0 23  0.0000000  0 11G24G23G22G27G08G21G10G18G31G01G32
  -9929542.75246  -8336808.52644  23087968.8204                   23087959.0474
        38.5004         26.5004
  -9863821.02147  -9840889.44146  22131803.3524                   22131792.2894
        46.5004         36.0004
 -11435219.84047  -9199383.02945  21714606.3284                   21714595.3244
        46.5004         34.7504
  -7096686.53946  -5340266.05745  24304975.5004                   24304967.7774
        36.7504         32.2504
  -7314487.42846  -5599304.45145  23896168.0314                   23896159.6644
        38.0004         32.7504
 -12890637.34247  -9340041.37044  23325314.1024                   23325301.5744
        42.7504         28.0004
 -25089351.96248 -21206994.09049  20575887.2424                   20575877.9964
        51.2504         54.7504
   2175128.51246  -5628654.34243  24739161.8364                   24739151.2424
        37.7504         21.5004
  -3835922.55046  -3766857.51145  24393124.5554                   24393112.4384
        38.0004         34.7504
  -1089820.52945  -1991592.66443  24677977.1954                   24677969.6484
        34.0004         18.2504
 -18886742.60148 -20941558.56749  20561873.4454                   20561864.1994
        53.2504         54.7504
 23  1  7  0 23 30.0000000  0 11G24G23G22G27G08G21G10G18G31G01G32
  -9852249.97446  -8276580.34544  23102675.6564                   23102667.1724
        36.7504         25.7504
  -9795582.03847  -9787716.22345  22144788.1564                   22144777.7384
        46.7504         35.7504
 -11498498.04747  -9248690.71045  21702564.7504                   21702553.8634
        46.7504         34.5004
  -7005962.96546  -5269572.33645  24322241.1094                   24322230.6334
        38.5004         32.2504
  -7259542.94345  -5556490.60345  23906622.2734                   23906615.3134
        35.5004         31.5004
 -12959134.82447  -9393416.01944  23312279.5234                   23312267.2304
        42.2504         28.5004
 -25074856.62948 -21195699.03049  20578645.5164                   20578636.2704
        51.2504         55.0004
   2290947.68446  -5538405.64343  24761201.4224                   24761191.7074
        37.2504         22.0004
  -3955339.72246  -3859909.85245  24370398.6804                   24370387.9694
        37.5004         34.0004
  -1199278.43245  -2076884.54143  24657147.9774                   24657140.1374
        34.2504         18.5004
 -18903033.87348 -20954253.06649  20558773.4144                   20558763.9924
        52.7504         54.7504
 23  1  7  0 24  0.0000000  0 11G24G23G22G27G08G21G10G18G31G01G32
  -9774492.92546  -8215990.47444  23117474.8284                   23117463.7664
        39.5004         26.0004
  -9727113.54947  -9734364.17145  22157817.8204                   22157806.9924
        46.2504         35.7504
 -11561451.34947  -9297745.21345  21690585.6564                   21690573.8914
        46.2504         35.2504
  -6915120.64546  -5198786.16845  24339527.9694                   24339518.8984
        37.7504         32.5004
  -7204215.36146  -5513378.22945  23917152.5164                   23917143.6214
        36.5004         31.7504
 -13027333.47247  -9446557.82144  23299301.5084                   23299289.8014
        42.2504         29.0004
 -25060054.87248 -21184165.19149  20581462.2664                   20581453.0204
        52.0004         55.0004
   2406839.39046  -5448100.45843  24783254.8204                   24783244.9304
        36.5004         22.0004
  -4074739.83646  -3952948.92245  24347677.9844                   24347667.1564
        37.0004         34.7504
  -1308586.98545  -2162060.09343  24636348.2664                   24636339.1374
        34.2504         19.5004
 -18918920.24348 -20966632.05249  20555750.2894                   20555740.9844
        53.7504         54.7504
 23  1  7  0 24 30.0000000  0 11G24G23G22G27G08G21G10G18G31G01G32
  -9696274.03246  -8155040.65644  23132356.1024                   23132348.9064
        37.2504         26.0004
  -9658415.46947  -9680833.21645  22170890.4534                   22170879.8594
        47.0004         35.5004
 -11624078.97647  -9346545.93845  21678667.5164                   21678656.3954
        46.2504         34.5004
  -6824162.43146  -5127909.62445  24356835.5704                   24356827.2624
        36.2504         33.0004
  -7148506.47546  -5469968.69045  23927754.7504                   23927745.0944
        37.5004         32.0004
 -13095231.46347  -9499465.30244  23286381.3834                   23286368.0944
        42.5004         28.5004
 -25044946.11948 -21172392.14449  20584337.2734                   20584327.9694
        51.5004         54.7504
   2522801.56146  -5357740.30343  24805321.5084                   24805311.9104
        36.2504         22.5004
  -4194119.53246  -4045972.08645  24324960.4304                   24324949.8954
        36.7504         35.2504
  -1417743.42945  -2247117.05042  24615575.6174                   24615568.0704
        34.5004         17.2504
 -18934401.80148 -20978695.60749  20552804.3524                   20552794.6954
        52.5004         55.0004
 23  1  7  0 25  0.0000000  0 11G24G23G22G27G08G21G10G18G31G01G32
  -9617595.73246  -8093732.89044  23147329.3674                   23147320.6484
        38.2504         25.5004
  -9589488.12847  -9627123.60445  22184007.2814                   22183996.3364
        46.5004         35.0004
 -11686380.18447  -9395092.31945  21666812.3364                   21666800.8634
        46.2504         34.7504
  -6733091.30746  -5056945.12245  24374166.2664                   24374157.2544
        37.0004         32.7504
  -7092419.04545  -5426264.21345  23938424.8134                   23938418.2624
        33.7504         31.0004
 -13162826.26747  -9552136.59644  23273518.1954                   23273505.7854
        43.0004         28.5004
 -25029529.69048 -21160379.34749  20587271.1094                   20587261.9804
        51.5004         54.7504
   2638832.29545  -5267326.76843  24827401.2114                   24827391.6724
        35.5004         21.5004
  -4313475.88046  -4138977.02945  24302248.5784                   24302237.5164
        37.7504         34.5004
  -1526744.74346  -2332053.18543  24594834.3834                   24594825.0204
        36.7504         18.5004
 -18949479.04248 -20990444.09649  20549935.2504                   20549926.0634
        53.0004         55.0004
 23  1  7  0 25 30.0000000  0 11G24G23G22G27G08G21G10G18G31G01G32
  -9538460.27246  -8032068.90244  23162388.9774                   23162379.5554
        39.0004         26.0004
  -9520331.39147  -9573235.25145  22197166.9844                   22197156.2734
        45.7504         35.0004
 -11748354.10347  -9443383.65545  21655018.8364                   21655007.8914
        46.2504         34.0004
  -6641909.96646  -4985894.75445  24391517.7344                   24391508.3714
        37.5004         32.5004
  -7035955.23245  -5382266.49145  23949170.7034                   23949163.4494
        34.7504         31.7504
 -13230115.72646  -9604569.94644  23260712.6414                   23260701.1094
        41.5004         28.5004
 -25013804.43248 -21148125.90749  20590263.6954                   20590254.3324
        52.5004         55.0004
   2754929.76445  -5176861.19243  24849493.7584                   24849483.9844
        34.5004         21.7504
  -4432805.60646  -4231961.25745  24279540.6414                   24279529.4614
        37.0004         34.2504
  -1635588.10445  -2416866.24142  24574119.5164                   24574112.7304
        34.5004         16.7504
 -18964152.03348 -21001877.58249  20547142.9304                   20547133.8594
        53.2504         54.7504
 23  1  7  0 26  0.0000000  0 11G24G23G22G27G08G21G10G18G31G01G32
  -9458871.35046  -7970051.53944  23177534.2274                   23177524.3954
        38.5004         25.0004
  -9450946.59847  -9519169.20745  22210370.6174                   22210360.2584
        46.0004         35.0004
 -11810001.50847  -9491420.58945  21643287.3594                   21643276.3554
        46.7504         34.2504
  -6550622.55446  -4914761.69945  24408888.7034                   24408879.4574
        36.5004         32.5004
  -6979118.62946  -5337978.21945  23959987.5864                   23959978.6334
        36.7504         31.5004
 -13297099.27447  -9656764.89744  23247967.2974                   23247953.8914
        43.0004         28.7504
 -24997771.43448 -21135632.66649  20593314.6174                   20593305.3134
        52.5004         55.0004
   2871090.77745  -5086346.14643  24871598.6564                   24871589.3524
        35.7504         22.7504
  -4552106.79546  -4324923.22345  24256838.7734                   24256827.4774
        38.5004         34.5004
  -1744271.76846  -2501554.83243  24553440.0394                   24553431.0864
        37.2504         19.5004
 -18978422.33948 -21012997.29949  20544426.9924                   20544417.9224
        53.0004         54.7504
 23  1  7  0 26 30.0000000  0 11G24G23G22G27G08G21G10G18G31G01G32
  -9378830.60346  -7907682.13244  23192766.3054                   23192756.1214
        39.7504         26.0004
  -9381333.15747  -9464924.96645  22223618.1484                   22223606.4414
        46.5004         35.5004
 -11871320.78447  -9539201.81045  21631619.0474                   21631607.6914
        45.7504         35.0004
  -6459231.16146  -4843547.64645  24426280.2114                   24426271.3754
        36.5004         32.5004
  -6921911.11145  -5293400.94545  23970872.8364                   23970864.2344
        35.0004         30.2504
 -13363773.19647  -9708718.60044  23235278.6644                   23235266.7814
        42.0004         29.2504
 -24981429.05048 -21122898.34449  20596424.2344                   20596414.4024
        52.0004         54.7504
   2987314.17846  -4995782.49843  24893715.1804                   24893705.0554
        36.0004         21.2504
  -4671375.73846  -4417860.04845  24234144.0864                   24234130.5634
        38.7504         34.7504
  -1852792.11945  -2586116.17443  24532788.1564                   24532780.5514
        35.5004         18.2504
 -18992289.43848 -21023802.83049  20541788.6884                   20541779.7344
        53.5004         54.7504
 23  1  7  0 27  0.0000000  0 11G24G23G22G27G08G21G10G18G31G01G32
  -9298341.26346  -7844963.16644  23208080.7194                   23208072.4694
        38.2504         25.2504
  -9311491.91847  -9410503.23145  22236908.3284                   22236896.9734
        46.7504         35.0004
 -11932311.98247  -9586727.40245  21620013.0084                   21620001.4774
        47.0004         34.7504
  -6367739.39546  -4772255.38545  24443689.7894                   24443681.5394
        36.5004         32.5004
  -6864336.00745  -5248537.24445  23981828.5554                   23981820.8914
        34.0004         31.0004
 -13430136.99747  -9760430.62444  23222650.8524                   23222638.9694
        43.5004         29.0004
 -24964777.26848 -21109922.93449  20599593.4224                   20599584.5274
        53.0004         54.7504
   3103597.15246  -4905172.40943  24915843.9694                   24915833.7274
        37.5004         21.7504
  -4790610.33046  -4510770.12645  24211451.9534                   24211441.1844
        37.5004         34.0004
  -1961146.94946  -2670548.52443  24512169.9384                   24512161.2774
        37.0004         19.5004
 -19005754.57248 -21034295.12749  20539226.2974                   20539217.6374
        53.5004         55.0004
 23  1  7  0 27 30.0000000  0 11G24G23G22G27G08G21G10G18G31G01G32
  -9217405.53946  -7781896.37844  23223484.3284                   23223474.3204
        39.5004         26.0004
  -9241422.72947  -9355903.88845  22250241.8984                   22250230.9534
        46.2504         35.5004
 -11992974.42247  -9633996.81645  21608468.7274                   21608458.0164
        46.5004         34.7504
  -6276149.97146  -4700886.98445  24461119.4614                   24461110.7424
        36.2504         32.2504
  -6806394.55046  -5203388.08045  23992856.8754                   23992847.4534
        36.2504         32.0004
 -13496188.14747  -9811899.06444  23210081.2034                   23210068.9104
        43.0004         29.0004
 -24947815.09148 -21096705.66249  20602820.7664                   20602811.7544
        52.0004         55.0004
   3219937.97445  -4814517.20643  24937981.6954                   24937971.8634
        35.0004         20.5004
  -4909806.93846  -4603650.59845  24188769.8204                   24188758.7584
        37.2504         34.5004
  -2069333.20445  -2754849.48143  24491581.6254                   24491573.9614
        35.5004         18.2504
 -19018817.66448 -21044474.15849  20536740.6884                   20536731.2074
        53.5004         55.0004
 23  1  7  0 28  0.0000000  0 11G24G23G22G27G08G21G10G18G31G01G32
  -9136027.23046  -7718484.70944  23238968.9144                   23238959.6094
        39.5004         25.2504
  -9171127.06047  -9301128.06645  22263618.9694                   22263607.8484
        46.2504         35.0004
 -12053308.74647  -9681010.56345  21596988.0554                   21596976.8164
        46.7504         34.7504
  -6184466.90546  -4629445.66945  24478566.1884                   24478557.0004
        37.5004         31.5004
  -6748091.13346  -5157956.86245  24003950.8134                   24003941.6844
        36.7504         31.7504
 -13561925.71847  -9863123.11844  23197571.9694                   23197559.5594
        43.7504         29.5004
 -24930543.19548 -21083247.04749  20606107.4224                   20606098.4694
        52.2504         55.0004
   3336333.39046  -4723819.49643  24960133.6564                   24960121.8324
        37.0004         21.5004
  -5028963.62846  -4696499.96945  24166095.4844                   24166084.3054
        36.7504         34.7504
  -2177349.07946  -2839017.72943  24471029.0164                   24471019.2424
        38.7504         20.2504
 -19031480.43648 -21054341.24549  20534330.3054                   20534321.1174
        53.7504         54.7504
 23  1  7  0 28 30.0000000  0 11G24G23G22G27G08G21G10G18G31G01G32
  -9054207.91246  -7654729.38944  23254539.3054                   23254530.4694
        40.0004         26.0004
  -9100604.12047  -9246175.13345  22277038.8204                   22277027.9924
        46.2504         35.0004
 -12113313.36047  -9727767.38245  21585568.8444                   21585558.1334
        46.2504         35.2504
  -6092692.28346  -4557932.97445  24496029.3054                   24496021.6414
        36.2504         31.5004
  -6689426.85545  -5112244.44845  24015112.6724                   24015105.0664
        33.5004         30.0004
 -13627347.11747  -9914100.83945  23185123.6724                   23185110.5594
        45.0004         30.2504
 -24912960.09548 -21069545.93049  20609453.5704                   20609444.7344
        51.7504         55.2504
   3452782.44846  -4633079.99243  24982292.1644                   24982281.8634
        36.0004         21.5004
  -5148076.46946  -4789315.16745  24143429.7894                   24143417.6724
        38.5004         34.7504
  -2285191.05545  -2923050.45142  24450504.6804                   24450497.7774
        35.0004         17.7504
 -19043742.33248 -21063895.96749  20531997.3674                   20531988.1804
        53.2504         54.7504
 23  1  7  0 29  0.0000000  0 11G24G23G22G27G08G21G10G18G31G01G32
  -8971949.91146  -7590632.26744  23270192.8364                   23270182.8874
        39.0004         26.0004
  -9029853.97447  -9191045.16745  22290502.2424                   22290490.8874
        46.0004         34.5004
 -12172987.27347  -9774266.51645  21574214.0474                   21574202.6334
        47.0004         35.0004
  -6000828.84646  -4486351.10945  24513510.7274                   24513502.0664
        36.7504         32.2504
  -6630404.56645  -5066253.10245  24026345.8284                   24026336.7584
        34.2504         30.5004
 -13692449.49647  -9964829.95145  23172733.0164                   23172721.8954
        43.0004         30.0004
 -24895064.94148 -21055601.66349  20612859.0554                   20612849.6914
        52.2504         55.0004
   3569283.18946  -4542300.20043  25004461.9064                   25004450.2584
        37.5004         19.7504
  -5267142.30746  -4882093.71345  24120770.9844                   24120760.2154
        37.0004         34.7504
  -2392855.85546  -3006945.10143  24430019.1484                   24430009.1994
        38.5004         18.5004
 -19055603.65948 -21073138.55849  20529740.3054                   20529730.9414
        53.5004         55.0004
 23  1  7  0 29 30.0000000  0 11G24G23G22G27G08G21G10G18G31G01G32
  -8889257.44646  -7526196.55244  23285929.1564                   23285918.7974
        39.2504         24.7504
  -8958878.30947  -9135739.46345  22304007.9924                   22303997.2814
        45.0004         34.2504
 -12232331.81147  -9820509.00245  21562920.5394                   21562909.8284
        46.5004         35.2504
  -5908881.06546  -4414703.45145  24531008.5554                   24530999.2504
        37.0004         31.2504
  -6571027.97746  -5019985.64345  24037645.0084                   24037635.8794
        36.0004         31.0004
 -13757232.20547 -10015309.96045  23160407.2734                   23160393.5744
        45.0004         30.7504
 -24876858.80048 -21041415.06549  20616323.4304                   20616314.3594
        52.0004         54.7504
   3685832.08145  -4451482.85443  25026639.2504                   25026629.4774
        35.2504         21.5004
  -5386159.86046  -4974834.66345  24098123.7974                   24098112.3244
        37.5004         35.2504
  -2500342.31746  -3090700.81043  24409563.9774                   24409555.2584
        37.7504         19.0004
 -19067066.31048 -21082070.48649  20527558.8524                   20527549.8984
        53.5004         54.7504
 23  1  7  0 30  0.0000000  0 11G24G23G22G27G08G21G10G18G31G01G32
  -8806132.32646  -7461423.74344  23301747.2584                   23301737.2504
        39.7504         24.7504
  -8887676.77447  -9080257.76245  22317557.7584                   22317547.1644
        46.5004         34.7504
 -12291345.71747  -9866493.84346  21551690.8364                   21551679.7734
        47.0004         36.0004
  -5816851.18445  -4342991.89945  24548520.3754                   24548512.4774
        35.2504         30.5004
  -6511298.99045  -4973443.60245  24049009.6564                   24049001.8754
        33.7504         30.5004
 -13821693.40247 -10065539.47945  23148139.6954                   23148127.9304
        45.0004         30.5004
 -24858340.16648 -21026984.96749  20619847.3444                   20619838.0984
        52.2504         55.0004
   3802427.60246  -4360629.25843  25048828.0784                   25048816.8404
        37.7504         20.2504
  -5505125.05846  -5067534.80045  24075483.6884                   24075472.9774
        37.5004         35.5004
  -2607646.89946  -3174314.74643  24389145.9304                   24389136.8014
        39.0004         20.7504
 -19078130.18148 -21090691.67249  20525453.4694                   20525444.3984
        53.7504         55.5004
 23  1  7  0 30 30.0000000  0 11G24G23G22G27G08G21G10G18G31G01G32
  -8722576.45646  -7396315.27644  23317646.1174                   23317637.2814
        38.5004         24.5004
  -8816248.76647  -9024599.59045  22331149.4694                   22331138.8754
        45.5004         34.5004
 -12350027.59647  -9912219.96745  21540524.1724                   21540512.5234
        46.7504         35.5004
  -5724741.45046  -4271218.10945  24566049.7664                   24566039.5824
        36.0004         30.5004
  -6451219.54345  -4926628.49245  24060443.6254                   24060434.4384
        34.0004         31.0004
 -13885829.98247 -10115515.98844  23135935.2734                   23135922.6884
        44.5004         29.7504
 -24839508.07648 -21012310.60449  20623431.1414                   20623421.8364
        51.7504         55.0004
                                  25071026.5474                   25071013.7854
        38.5004         20.0004
  -5624034.32246  -5160191.36045  24052857.3284                   24052846.3834
        37.5004         35.2504
  -2714765.95946  -3257784.10443  24368760.0554                   24368751.3364
        37.5004         19.2504
 -19088794.91948 -21099001.85949  20523424.4064                   20523414.6914
        52.5004         55.0004
 23  1  7  0 31  0.0000000  0 11G24G23G22G27G08G21G10G18G31G01G32
  -8638594.84946  -7330875.06844  23333627.5164                   23333618.4454
        38.7504         25.2504
  -8744596.95047  -8968767.02645  22344784.6414                   22344773.5784
        46.0004         34.0004
 -12408379.42647  -9957688.90546  21529419.9614                   21529408.5474
        46.0004         36.0004
  -5632557.14845  -4199386.14945  24583589.8914                   24583582.4024
        35.7504         30.0004
  -6390794.64045  -4879544.15445  24071943.2344                   24071933.1094
        35.0004         31.0004
 -13949642.14647 -10165239.76945  23123792.2974                   23123779.1844
        44.5004         31.0004
 -24820363.81648 -20997393.00949  20627074.1174                   20627064.9304
        51.5004         55.0004
  -8567609.53746 -13999619.22243  25093228.8594                   25093218.3244
        36.5004         22.0004
  -5742887.29546  -5252804.01546  24030240.4454                   24030228.9144
        39.7504         36.0004
  -2821699.07446  -3341108.67543  24348413.9144                   24348403.4384
        39.2504         21.0004
 -19099063.44448 -21107003.30149  20521470.2974                   20521460.9924
        53.5004         55.0004
 23  1  7  0 31 30.0000000  0 11G24G23G22G27G08G21G10G18G31G01G32
  -8554187.86846  -7265103.36644  23349690.7194                   23349680.5944
        39.0004         24.7504
  -8672719.27647  -8912758.45945  22358462.6804                   22358451.5594
        46.0004         34.5004
 -12466398.54147 -10002898.59546  21518379.6484                   21518368.2934
        46.5004         36.0004
  -5540298.89745  -4127496.65644  24601145.7974                   24601138.7774
        35.0004         29.5004
  -6330024.10145  -4832190.53245  24083506.2344                   24083497.5744
        34.2504         30.2504
 -14013125.98247 -10214707.67245  23111711.2274                   23111699.0514
        44.0004         31.2504
 -24800904.87248 -20982230.19649  20630777.2034                   20630767.6054
        50.5004         55.0004
  -8450886.08855 -13908665.94253  25115438.1024                   25115429.7934
        35.0004         19.7504
  -5861678.43246  -5345368.53146  24007635.6884                   24007623.9224
        39.0004         36.5004
  -2928441.16746  -3424284.29143  24328097.8594                   24328090.4304
        36.0004         19.2504
 -19108933.94348 -21114694.59749  20519591.9614                   20519582.5984
        52.5004         54.7504
 23  1  7  0 32  0.0000000  0 11G24G23G22G27G08G21G10G18G31G01G32
  -8469359.52646  -7199003.35444  23365832.0554                   23365822.8674
        38.5004         24.0004
  -8600617.43647  -8856575.21645  22372182.9924                   22372172.1054
        45.0004         34.5004
 -12524085.85847 -10047849.74246  21507401.2664                   21507390.4964
        46.5004         36.0004
  -5447971.13745  -4055552.94045  24618715.5314                   24618706.8134
        35.2504         30.0004
  -6268913.07245  -4784571.59345  24095133.3524                   24095126.5084
        33.2504         30.0004
 -14076280.90247 -10263919.27045  23099694.3524                   23099681.7074
        45.0004         31.0004
 -24781132.20548 -20966822.92649  20634539.7664                   20634530.4024
        50.7504         55.0004
  -8334125.29346 -13817683.47143  25137658.6414                   25137647.5204
        37.7504         20.5004
  -5980406.12646  -5437883.64346  23985041.3594                   23985030.8244
        38.2504         37.0004
  -3034990.71146  -3507309.91043  24307824.6254                   24307815.0274
        39.0004         20.2504
 -19118408.38548 -21122077.27249  20517788.7114                   20517779.8754
        52.5004         55.2504
 23  1  7  0 32 30.0000000  0 11G24G23G22G27G08G21G10G18G31G01G32
  -8384111.75346  -7132576.52744  23382054.1954                   23382044.3054
        38.5004         24.2504
  -8528290.99447  -8800216.98145  22385946.4844                   22385935.6564
        45.2504         34.0004
 -12581440.06048 -10092541.31046  21496487.9534                   21496476.4224
        48.0004         36.5004
  -5355576.09445  -3983556.82144  24636298.1174                   24636290.6884
        35.0004         29.5004
  -6207462.51545  -4736688.03845  24106829.4224                   24106820.0594
        34.0004         30.7504
 -14139103.97747 -10312872.31445  23087738.7034                   23087725.5904
        43.7504         31.0004
 -24761044.43448 -20951170.12549  20638362.1024                   20638353.3834
        50.0004         55.2504
  -8217327.97846 -13726672.57443  25159884.3204                   25159874.1374
        37.0004         20.5004
  -6099066.32946  -5530346.09046  23962460.5704                   23962450.2114
        38.7504         36.7504
  -3141344.20246  -3590182.76743  24287584.9844                   24287577.0864
        37.0004         20.7504
 -19127486.56448 -21129151.17349  20516061.2504                   20516052.1804
        51.7504         54.7504
 23  1  7  0 33  0.0000000  0 11G24G23G22G27G08G21G10G18G31G01G32
  -8298448.72746  -7065826.07644  23398355.4924                   23398345.9534
        37.7504         24.0004
  -8455741.63747  -8743685.02845  22399752.0164                   22399741.0704
        46.0004         34.0004
 -12638462.35347 -10136974.26746  21485636.2194                   21485625.3914
        46.5004         36.0004
  -5263118.13346  -3911511.66844  24653893.3674                   24653884.4144
        36.2504         28.2504
  -6145677.12245  -4688543.58945  24118585.7274                   24118577.7114
        34.0004         30.5004
 -14201594.38647 -10361566.12445  23075846.7584                   23075833.9964
        43.5004         30.7504
 -24740642.46148 -20935272.49349  20642244.5004                   20642235.5474
        50.5004         55.0004
  -8100497.99945 -13635636.15943  25182116.7274                   25182106.7774
        32.5004         19.5004
  -6217657.54146  -5622754.81046  23939895.9844                   23939883.1054
        40.0004         38.0004
  -3247500.20646  -3672901.72043  24267385.4844                   24267375.7704
        38.0004         21.0004
 -19136170.51348 -21135917.88049  20514408.9534                   20514399.7074
        52.5004         54.7504
 23  1  7  0 33 30.0000000  0 11G24G23G22G27G08G21G10G18G31G01G32
  -8212372.01646  -6998753.31643  23414734.7584                   23414725.2774
        37.2504         22.7504
  -8382968.59247  -8686978.76245  22413600.5084                   22413589.0944
        45.2504         34.0004
 -12695150.86647 -10181147.11346  21474849.6484                   21474837.9414
        47.0004         36.2504
  -5170599.06145  -3839418.92144  24671498.8674                   24671489.0944
        35.5004         28.2504
  -6083557.66145  -4640138.85045  24130407.2734                   24130398.9654
        34.0004         30.5004
 -14263749.54247 -10409998.69645  23064020.0474                   23064007.8714
        44.5004         31.0004
 -24719924.48248 -20919128.61949  20646187.2114                   20646177.9654
        50.5004         54.7504
  -7983635.80645 -13544574.74243  25204352.5634                   25204344.0204
        35.0004         19.2504
  -6336175.80246  -5715106.67746  23917340.6804                   23917329.9104
        39.5004         38.5004
  -3353454.85746  -3755463.80043  24247220.7974                   24247213.7194
        36.2504         21.2504
 -19144459.68348 -21142376.97449  20512831.4614                   20512822.1564
        51.2504         55.0004
 23  1  7  0 34  0.0000000  0 11G24G23G22G27G08G21G10G18G31G01G32
  -8125884.86146  -6931360.73143  23431192.7504                   23431183.9734
        38.2504         22.7504
  -8309972.65747  -8630098.83645  22427491.0234                   22427479.7854
        45.2504         33.7504
 -12751506.04547 -10225060.22946  21464125.6334                   21464113.9844
        47.2504         36.0004
  -5078022.46345  -3767281.29444  24689114.7344                   24689106.9534
        33.5004         28.5004
  -6021107.52645  -4591476.43945  24142291.4844                   24142282.0044
        34.0004         31.0004
 -14325568.05547 -10458168.96645  23052255.8984                   23052243.6054
        43.5004         31.0004
 -24698890.52048 -20902738.52149  20650189.5704                   20650180.5594
        51.5004         55.0004
  -7866744.647 6                  25226599.875
        36.750
  -6454618.91646  -5807399.98146  23894802.7194                   23894790.7194
        40.0004         38.5004
  -3459205.73546  -3837867.09943  24227099.3674                   24227090.0044
        38.2504         21.0004
 -19152355.18748 -21148529.31349  20511328.9064                   20511319.8954
        53.0004         55.0004
 23  1  7  0 34 30.0000000  0 11G24G23G22G27G08G21G10G18G31G01G32
  -8038989.21546  -6863649.84443  23447728.5784                   23447720.0354
        37.2504         22.7504
  -8236753.45047  -8573044.91945  22441423.7734                   22441413.5904
        44.5004         34.0004
 -12807526.93747 -10268712.86246  21453464.6484                   21453453.2344
        47.0004         36.0004
  -4985390.53545  -3695100.61144  24706743.1484                   24706734.5474
        34.7504         28.7504
  -5958328.99045  -4542558.10145  24154238.1804                   24154228.4064
        35.2504         30.7504
 -14387047.17947 -10506074.73545  23040556.0784                   23040543.5514
        43.0004         30.2504
 -24677539.40748 -20886101.28949  20654252.5474                   20654243.4774
        50.5004         55.0004
                                  25248850.7114                   25248838.9454
        39.0004         17.7504
  -6572982.70746  -5899631.50246  23872278.4304                   23872266.8404
        40.2504         38.7504
  -3564749.40445  -3920108.91143  24207013.0704                   24207005.5234
        35.7504         19.2504
 -19159856.87648 -21154374.77949  20509901.5554                   20509892.4264
        53.0004         54.7504
 23  1  7  0 35  0.0000000  0 11G24G23G22G27G08G21G10G18G31G01G32
  -7951691.85446  -6795625.90444  23464341.3204                   23464331.5474
        38.5004         25.7504
  -8163315.26247  -8515820.37945  22455398.5554                   22455388.1374
        44.7504         33.2504
 -12863217.13247 -10312107.79046  21442867.0474                   21442855.8094
        46.2504         36.2504
  -4892710.21845  -3622882.17144  24724378.5704                   24724368.9144
        33.5004         27.0004
  -5895228.85245  -4493389.17845  24166245.8984                   24166236.0664
        34.2504         31.5004
 -14448189.10347 -10553717.81045  23028923.3914                   23028909.8094
        45.5004         31.5004
 -24655875.11448 -20869220.03149  20658374.9454                   20658365.8754
        49.5004         55.0004
  -7632881.57655 -13299457.98653  25271100.8524                   25271090.6094
        31.2504         19.5004
  -6691268.21246  -5991801.99046  23849768.8134                   23849758.0434
        39.5004         39.5004
  -3670086.94346  -4002190.12543  24186969.9844                   24186961.0904
        38.0004         21.7504
 -19166969.35448 -21159916.96649  20508548.2664                   20508538.6684
        51.0004         55.0004
 23  1  7  0 35 30.0000000  0 11G24G23G22G27G08G21G10G18G31G01G32
  -7863988.56646  -6727285.64943  23481030.0004                   23481020.9304
        37.0004         22.5004
  -8089651.55447  -8458420.09545  22469416.9384                   22469405.9344
        45.5004         34.2504
 -12918569.12847 -10355239.20546  21432334.2424                   21432322.8874
        46.2504         36.7504
  -4799977.63245  -3550623.03844  24742025.5234                   24742017.3324
        34.2504         27.2504
  -5831802.49545  -4443966.06345  24178314.5944                   24178306.5204
        33.5004         30.5004
 -14508985.64747 -10601091.73845  23017351.5634                   23017340.3244
        42.2504         30.5004
 -24633889.64548 -20852088.50249  20662558.5234                   20662549.6294
        50.0004         54.7504
  -7515913.99045 -13223464.64153  25293357.9384                   25293347.2854
        34.5004         19.5004
  -6809465.55946  -6083903.80446  23827278.3054                   23827265.8954
        40.7504         39.5004
  -3775208.61846  -4084103.11243  24166965.5084                   24166956.6134
        36.5004         20.7504
 -19173686.42448 -21165151.03749  20507269.8134                   20507260.5084
        52.5004         54.7504
 23  1  7  0 36  0.0000000  0 11G24G23G22G27G08G21G10G18G31G01G32
  -7775886.75046  -6658634.89343  23497794.8284                   23497785.6414
        38.0004         23.0004
  -8015767.21847  -8400847.91145  22483476.8054                   22483465.0394
        45.0004         33.5004
 -12973587.36847 -10398110.55146  21421864.1724                   21421853.1094
        46.7504         37.0004
  -4707200.23145  -3478328.98644  24759678.5004                   24759671.7734
        31.2504         26.2504
  -5768057.64745  -4394294.78945  24190443.6484                   24190436.9804
        31.7504         31.2504
 -14569439.06947 -10648198.26345  23005848.7974                   23005835.9774
        44.5004         31.7504
 -24611587.56048 -20834710.26449  20666802.7504                   20666793.7384
        49.5004         54.7504
  -7398926.53945 -13132305.47843  25315618.6094                   25315610.0084
        31.7504         19.2504
  -6927576.61246  -6175938.36246  23804801.6024                   23804790.2464
        40.5004         39.7504
  -3880116.23646  -4165849.33343  24147001.8594                   24146993.4924
        38.0004         20.2504
 -19180013.24348 -21170081.02649  20506065.9384                   20506056.7504
        52.2504         54.7504
 23  1  7  0 36 30.0000000  0 11G24G23G22G27G08G21G10G18G31G01G32
  -7687389.01546  -6589675.62943  23514635.6804                   23514626.8444
        37.0004         22.0004
  -7941662.59447  -8343104.06245  22497578.5314                   22497567.2344
        45.2504         34.0004
 -13028271.38947 -10440721.45246  21411458.3594                   21411447.1214
        46.7504         36.5004
  -4614380.97845  -3406002.28144  24777345.3284                   24777333.8554
        35.2504         26.7504
  -5703997.01445  -4344377.41445  24202634.0704                   24202626.4064
        32.5004         30.7504
 -14629546.94747 -10695035.60845  22994411.1954                   22994397.8484
        44.5004         31.7504
 -24588968.13948 -20817084.74549  20671107.1094                   20671098.0394
        49.7504         54.7504
  -7281920.95955 -13041132.43253  25337886.3754                   25337875.9574
        35.2504         19.2504
  -7045598.19946  -6267903.19346  23782342.3364                   23782331.2154
        40.2504         39.7504
  -3984806.74545  -4247426.35445  24127079.8054                   24127071.4964
        35.7504         32.2504
 -19185950.41748 -21174707.38949  20504936.0634                   20504926.6994
        52.0004         54.7504
 23  1  7  0 37  0.0000000  0 11G24G23G22G27G08G21G10G18G31G01G32
  -7598497.57246  -6520409.54844  23531551.1484                   23531542.2544
        38.0004         24.2504
  -7867337.22147  -8285188.21745  22511721.2894                   22511711.4574
        43.7504         33.7504
 -13082620.23247 -10483071.18846  21401116.2274                   21401104.6374
        46.5004         36.7504
  -4521522.14145  -3333644.76244  24795012.6254                   24795005.4304
        32.7504         26.5004
  -5639622.35645  -4294215.37045  24214885.8524                   24214877.1914
        34.5004         31.7504
 -14689307.10947 -10741601.94445  22983037.3054                   22983025.8914
        43.2504         32.5004
 -24566030.02248 -20799210.89249  20675472.1414                   20675463.1294
        50.5004         54.7504
  -7164898.91645 -12965627.37353  25360153.6334                   25360144.0944
        33.0004         19.7504
  -7163526.39046  -6359795.28946  23759901.8754                   23759890.5204
        41.2504         40.5004
  -4089276.85046  -4328831.63645  24107200.3284                   24107191.4924
        36.7504         33.0004
 -19191497.89448 -21179030.08749  20503880.4534                   20503871.2074
        52.7504         55.0004
 23  1  7  0 37 30.0000000  0 11G24G23G22G27G08G21G10G18G31G01G32
  -7509214.59646  -6450838.39244  23548541.7734                   23548532.5864
        37.0004         24.7504
  -7792791.11247  -8227100.35945  22525907.0944                   22525896.6764
        44.0004         34.0004
 -13136633.15247 -10525159.16246  21390837.6954                   21390826.5744
        46.0004         36.5004
  -4428626.11845  -3261258.25444  24812692.2974                   24812681.3524
        33.7504         26.7504
  -5574936.08645  -4243810.49345  24227194.4454                   24227186.4884
        32.5004         30.0004
 -14748717.48747 -10787895.73645  22971734.1724                   22971720.7664
        45.2504         31.7504
 -24542772.45248 -20781088.11449  20679898.0784                   20679889.0664
        50.5004         54.7504
  -7047862.08155 -12874429.88053  25382426.9774                   25382415.8554
        35.7504         18.5004
  -7281357.72346  -6451611.84846  23737480.1564                   23737467.6884
        41.5004         40.0004
  -4193523.08146  -4410062.44545  24087362.8524                   24087354.1914
        37.0004         32.5004
 -19196655.90048 -21183049.31249  20502899.0634                   20502889.5234
        52.0004         55.0004
 23  1  7  0 38  0.0000000  0 11G24G23G22G27G08G21G10G18G31G01G32
  -7419544.29146  -6380965.42944  23565605.4534                   23565595.7974
        37.7504         25.2504
  -7718025.94547  -8168841.80745  22540134.4064                   22540124.1054
        44.5004         34.2504
 -13190311.20147 -10566986.18746  21380623.0704                   21380612.1254
        46.7504         36.2504
  -4335697.38545  -3188846.26644  24830375.1564                   24830366.7894
        33.0004         26.7504
  -5509941.89945  -4193165.71445  24239561.7664                   24239554.5704
        31.7504         30.0004
 -14807777.27647 -10833916.36545  22960494.1644                   22960481.2274
        44.2504         32.0004
 -24519196.22048 -20762717.02749  20684384.4774                   20684375.4064
        49.5004         55.0004
  -6930813.64944 -12797338.23153  25404695.7504                   25404690.5474
        28.7504         19.2504
  -7399090.65046  -6543351.78746  23715074.8204                   23715063.1724
        41.2504         40.0004
  -4297543.99246  -4491117.70344  24067566.7344                   24067558.6604
        36.2504         29.7504
 -19201426.48148 -21186766.64249  20501991.1564                   20501981.7344
        51.5004         55.0004
 23  1  7  0 38 30.0000000  0 11G24G23G22G27G08G21G10G18G31G01G32
  -7329487.75646  -6310791.49644  23582742.6804                   23582732.9064
        36.5004         24.5004
  -7643040.36347  -8110411.50445  22554403.8914                   22554393.4734
        44.0004         33.5004
 -13243652.50647 -10608550.81846  21370472.5864                   21370460.9964
        46.5004         37.0004
  -4242737.05345  -3116409.66244  24848065.5394                   24848055.8834
        34.0004         26.0004
  -5444641.80545  -4142282.49145  24251989.9144                   24251980.9614
        33.5004         31.5004
 -14866483.17747 -10879661.19845  22949322.7194                   22949310.6604
        44.2504         32.2504
 -24495299.10348 -20744095.89749  20688931.7504                   20688922.6804
        50.0004         55.0004
                                  25426975.859
        35.500
  -7516720.34646  -6635011.27446  23692690.3364                   23692679.7424
        41.0004         40.5004
  -4401335.09445  -4571993.89545  24047817.1254                   24047808.9924
        34.5004         30.7504
 -19205808.58448 -21190181.26349  20501157.0704                   20501148.1174
        52.0004         54.7504
 23  1  7  0 39  0.0000000  0 11G24G23G22G27G08G21G10G18G31G01G32
  -7239049.79746  -6240320.38844  23599950.9144                   23599943.3674
        36.2504         25.2504
  -7567836.81147  -8051811.36145  22568714.8284                   22568704.1764
        44.7504         33.0004
 -13296658.84247 -10649854.45646  21360386.4774                   21360374.3594
        46.7504         36.7504
  -4149750.25445  -3043952.36844  24865759.7584                   24865750.3954
        32.7504         24.7504
  -5379040.14445  -4091164.34545  24264472.9924                   24264464.4494
        33.5004         31.0004
 -14924835.29747 -10925130.39345  22938219.9064                   22938206.6174
        45.7504         32.5004
 -24471082.93148 -20725226.16249  20693539.9924                   20693530.8634
        50.0004         55.0004
   -265077.96245 -12665645.78052  25449252.3284                   25449241.1484
        32.5004         17.7504
  -7634246.07246  -6726589.73946  23670326.1954                   23670314.7814
        40.5004         40.0004
  -4504895.49545  -4652690.29745  24028109.2504                   24028100.5904
        34.2504         30.0004
 -19209804.99648 -21193295.34749  20500396.5944                   20500387.2894
        52.2504         54.7504
 23  1  7  0 39 30.0000000  0 10G24G23G22G27G08G21G10G31G01G32
  -7148231.11646  -6169552.55043  23617235.1174                   23617225.3444
        38.0004         23.7504
  -7492413.51647  -7993039.98145  22583067.2114                   22583056.3244
        45.2504         32.7504
 -13349327.51447 -10690894.95846  21350362.5944                   21350351.7664
        46.5004         36.5004
  -4056737.53045  -2971474.97944  24883460.5704                   24883451.0314
        33.5004         24.5004
  -5313137.27445  -4039811.48945  24277011.3364                   24277005.3714
        30.7504         30.2504
 -14982829.84547 -10970320.96045  22927182.4064                   22927169.8794
        43.2504         32.5004
 -24446545.02848 -20706105.72049  20698209.2424                   20698200.2894
        50.5004         55.0004
  -7751662.32847  -6818082.89746  23647983.1094                   23647971.6954
        42.0004         41.0004
  -4608220.29445  -4733203.11545  24008445.5004                   24008440.1214
        33.2504         30.0004
 -19213414.23548 -21196107.74549  20499709.7664                   20499700.6374
        52.0004         55.0004
 23  1  7  0 40  0.0000000  0 10G24G23G22G27G08G21G10G31G01G32
  -7057036.52346  -6098491.83043  23634588.2114                   23634578.9654
        38.0004         22.5004
  -7416772.86447  -7934099.24745  22597461.9304                   22597450.5164
        45.5004         33.2504
 -13401660.42247 -10731673.82946  21340404.9694                   21340393.4964
        47.0004         36.7504
  -3963704.11645  -2898981.36344  24901163.1484                   24901154.0204
        33.0004         24.7504
  -5246938.46645  -3988228.03345  24289609.4694                   24289602.0394
        31.5004         30.0004
 -15040466.90347 -11015232.92345  22916215.1954                   22916202.3164
        45.0004         32.5004
 -24421687.04148 -20686735.86249  20702939.7344                   20702930.6644
        51.2504         55.0004
  -7868968.36346  -6909490.17846  23625659.6724                   23625648.6094
        41.2504         40.5004
  -4711308.57645  -4813531.66445  23988829.8914                   23988823.2234
        34.2504         30.5004
 -19216639.04648 -21198620.58249  20499096.3134                   20499087.0664
        53.2504         55.0004
 23  1  7  0 40 30.0000000  0 11G24G23G22G27G08G21G10G31G01G25G32
  -6965467.68846  -6027139.46643  23652013.3834                   23652004.4884
        37.5004         22.7504
  -7340914.12647  -7874988.55945  22611897.2424                   22611887.4104
        44.7504         33.5004
 -13453656.33747 -10772190.11746  21330510.4694                   21330499.2304
        46.7504         36.5004
  -3870651.64745  -2826472.94344  24918870.0314                   24918861.2544
        31.7504         25.7504
  -5180444.97845  -3936414.93145  24302265.4774                   24302255.4694
        34.0004         31.7504
 -15097743.45447 -11059864.01845  22905316.2584                   22905303.5554
        44.7504         33.2504
 -24396507.42548 -20667115.39849  20707731.1884                   20707722.2344
        50.7504         55.5004
  -7986159.87946  -7000808.23546  23603358.9144                   23603348.4964
        41.2504         40.5004
  -4814156.47145  -4893672.84144  23969259.0784                   23969251.7074
        34.5004         29.0004
                                  25403113.289
        36.000
 -19219479.05748 -21200833.57149  20498555.6884                   20498546.5594
        51.2504         54.7504
 23  1  7  0 41  0.0000000  0 11G24G23G22G27G08G21G10G31G01G25G32
  -6873528.18146  -5955498.30444  23669508.6414                   23669499.1604
        37.2504         24.0004
  -7264838.42747  -7815708.81545  22626375.5554                   22626363.8484
        45.5004         33.2504
 -13505315.84347 -10812444.25646  21320679.6804                   21320668.3834
        46.2504         36.7504
  -3777583.84245  -2753952.60343  24936579.5314                   24936571.6914
        32.7504         22.7504
  -5113660.77245  -3884375.29845  24314972.5784                   24314965.0904
        32.2504         31.0004
 -15154658.62547 -11104213.48045  22894483.9384                   22894472.7584
        43.5004         33.7504
 -24371006.27848 -20647244.37449  20712584.3054                   20712575.0594
        50.0004         55.0004
  -8103234.96946  -7092035.56446  23581080.9064                   23581069.3754
        41.7504         40.5004
  -4916761.74845  -4973625.02144  23949733.5944                   23949725.4024
        34.5004         29.5004
                                  25387080.5864                   25387072.5704
        35.7504         24.2504
 -19221935.73648 -21202747.86849  20498088.2034                   20498079.0164
        51.0004         55.0004
 23  1  7  0 41 30.0000000  0 10G24G23G22G27G08G21G10G31G01G32
  -6781219.94246  -5883569.79043  23687074.5004                   23687064.9024
        37.0004         22.7504
  -7188545.23047  -7756259.59545  22640893.0864                   22640880.5594
        45.0004         33.7504
 -13556637.68847 -10852435.28646  21310913.1954                   21310901.7814
        46.2504         37.0004
  -3684502.68845  -2681421.78444  24954294.5474                   24954284.4224
        34.0004         26.0004
  -5046587.18945  -3832110.20445  24327735.9144                   24327727.7814
        30.7504         30.0004
 -15211210.09747 -11148279.55945  22883723.9694                   22883710.7974
        45.5004         33.2504
 -24345182.44648 -20627121.90249  20717498.1174                   20717488.6374
        50.5004         55.0004
  -8220189.10946  -7183168.64846  23558825.2734                   23558813.9774
        41.7504         41.2504
  -5019120.61845  -5053385.15145  23930255.2194                   23930247.3204
        33.5004         30.2504
 -19224008.82348 -21204363.26249  20497693.8284                   20497684.4064
        52.2504         54.7504
 23  1  7  0 42  0.0000000  0 11G24G23G22G27G08G21G10G31G01G25G32
  -6688546.84246  -5811356.99043  23704709.2424                   23704700.4654
        36.7504         22.0004
  -7112036.04847  -7696642.07245  22655451.5234                   22655440.8714
        45.0004         33.5004
 -13607622.79247 -10892163.92046  21301211.2814                   21301199.9844
        46.0004         36.7504
  -3591412.14945  -2608883.76344  24972007.0944                   24971999.0784
        31.7504         24.2504
  -4979228.98745  -3779623.30045  24340555.1644                   24340545.5084
        33.7504         31.5004
 -15267396.34747 -11192061.06245  22873032.2734                   22873019.6294
        45.2504         33.5004
 -24319036.56948 -20606748.50249  20722473.1724                   20722464.3954
        50.5004         55.0004
  -8337020.93746  -7274206.40946  23536592.4924                   23536581.4884
        41.5004         41.0004
  -5121231.42445  -5132952.00245  23910825.0394                   23910816.3204
        35.7504         30.2504
                                  25355045.234
        32.500
 -19225700.24148 -21205681.25349  20497372.1884                   20497362.8834
        52.2504         55.0004
 23  1  7  0 42 30.0000000  0 11G24G23G22G27G08G21G10G12G31G01G32
  -6595511.45346  -5738861.88843  23722413.1334                   23722404.0634
        36.0004         22.2504
  -7035311.01747  -7636856.36145  22670051.5084                   22670040.6214
        45.5004         33.2504
 -13658270.53747 -10931629.68146  21291573.3524                   21291561.9384
        46.5004         36.7504
 -11375415.01655  -8674340.46354  24989723.1414                   24989714.3054
        32.7504         25.5004
  -4911587.82045  -3726915.88244  24353426.0554                   24353417.7464
        30.5004         29.5004
 -15323215.53947 -11235556.50145  22862408.6884                   22862396.9804
        44.2504         33.2504
 -24292568.02948 -20586123.67549  20727510.6484                   20727501.3444
        50.5004         55.0004
   -363941.21155   -265647.44052  25593557.6024                   25593550.2894
        34.2504         17.2504
  -8453726.69247  -7365145.95846  23514384.5234                   23514372.9924
        43.0004         41.5004
  -5223090.96045  -5212323.09445  23891441.5394                   23891433.7584
        34.7504         30.7504
 -19227010.42548 -21206702.17249  20497122.5784                   20497113.4494
        52.2504         54.7504
 23  1  7  0 43  0.0000000  0 11G24G23G22G27G08G21G10G12G31G01G32
  -6502116.18446  -5666086.36643  23740186.2344                   23740176.8714
        37.5004         22.5004
  -6958370.07947  -7576902.41045  22684692.1884                   22684682.5904
        46.0004         33.0004
 -13708580.22947 -10970832.01946  21281999.1644                   21281988.3364
        46.2504         37.0004
 -11282313.56145  -8601793.91544  25007438.2894                   25007432.6174
        30.0004         26.7504
  -4843666.81245  -3673990.48745  24366352.1254                   24366343.2304
        33.0004         30.0004
 -15378665.54647 -11278764.28745  22851858.4774                   22851845.1884
        46.0004         33.2504
 -24265775.78748 -20565246.60849  20732608.9224                   20732599.7344
        50.0004         54.7504
   -433536.21445   -319877.34842  25580314.9454                   25580306.1094
        33.5004         16.2504
  -8570302.88247  -7455984.51746  23492200.6804                   23492189.4414
        42.2504         41.7504
  -5324695.95245  -5291495.79345  23872106.3054                   23872098.5234
        34.5004         30.5004
 -19227939.67748 -21207426.25749  20496945.7894                   20496936.4264
        52.5004         55.0004
 23  1  7  0 43 30.0000000  0 11G24G23G22G27G08G21G10G12G31G01G32
  -6408364.88845  -5593033.37843  23758026.2894                   23758017.3954
        35.7504         21.5004
  -6881214.68447  -7516781.33545  22699375.3204                   22699364.1994
        45.2504         33.2504
 -13758552.97747 -11009771.82046  21272490.3594                   21272478.8874
        47.7504         36.7504
 -11189211.79145  -8529247.06144  25025155.9844                   25025147.0904
        32.0004         25.0004
  -4775469.46145  -3620849.69545  24379328.6174                   24379320.4844
        31.5004         30.5004
 -15433746.12447 -11321684.23545  22841376.4844                   22841363.8984
        45.0004         33.0004
 -24238660.68748 -20544117.96149  20737768.8054                   20737759.4414
        50.0004         54.7504
   -502880.33946   -373911.60042  25567120.7114                   25567110.2934
        37.5004         15.5004
  -8686747.63946  -7546720.69947  23470041.8284                   23470030.4734
        41.5004         42.0004
  -5426044.54646  -5370468.68545  23852820.9064                   23852813.1844
        36.5004         31.2504
 -19228489.82548 -21207854.94649  20496841.4064                   20496831.6914
        52.5004         55.0004
 23  1  7  0 44  0.0000000  0 12G24G23G22G27G08G21G10G12G31G01G25G32
  -6314258.89745  -5519704.05543  23775933.0314                   23775925.6024
        35.7504         22.2504
  -6803843.69647  -7456492.29345  22714097.8984                   22714087.1294
        44.0004         32.5004
 -13808187.10847 -11048447.73946  21263044.3674                   21263033.9494
        46.5004         37.0004
 -11096111.15244  -8456701.06744  25042870.7814                   25042865.3444
        27.2504         25.2504
  -4706997.13344  -3567494.64744  24392355.7584                   24392349.3244
        29.7504         29.0004
 -15488453.57747 -11364313.39545  22830965.5704                   22830953.5124
        44.7504         33.2504
 -24211220.60648 -20522736.09349  20742990.4534                   20742981.2664
        50.0004         54.7504
   -571968.78746   -415297.63652  25553972.7194                   25553961.4224
        36.2504         17.2504
  -8803056.45447  -7637350.91447  23447909.5474                   23447898.0744
        42.0004         42.5004
  -5527132.26046  -5449238.35745  23833585.8284                   23833576.1134
        36.2504         32.5004
   -312897.83555   -381528.32555  25291119.2894                   25291112.8554
        32.7504         30.7504
 -19228660.11348 -21207987.63349  20496808.7584                   20496799.1024
        51.7504         55.0004
 23  1  7  0 44 30.0000000  0 12G24G23G22G27G08G21G10G12G31G01G25G32
  -6219802.22446  -5446101.43343  23793908.4534                   23793899.2664
        36.0004         22.5004
  -6726258.84247  -7396036.57745  22728862.4304                   22728851.1914
        45.0004         33.0004
 -13857483.69047 -11086860.64046  21253664.3524                   21253653.0554
        46.5004         37.2504
 -11003015.79745  -8384159.27844  25060591.3134                   25060580.6604
        34.2504         25.2504
  -4638253.97145  -3513928.60044  24405440.2344                   24405430.6954
        31.5004         29.5004
 -15542787.52847 -11406651.52945  22820627.3284                   22820614.3914
        46.0004         33.5004
 -24183456.46948 -20501101.69849  20748273.9844                   20748264.3874
        50.2504         55.0004
   -640799.96445   -468932.43542  25540872.6884                   25540863.7934
        33.7504         16.2504
  -8919227.44847  -7727873.76647  23425802.5784                   23425791.0474
        42.0004         42.2504
  -5627957.65345  -5527803.56545  23814397.0704                   23814389.8164
        35.5004         32.0004
   -261075.03555   -406212.40154  25275170.9144                   25275161.2584
        34.0004         25.5004
 -19228452.57648 -21207825.91949  20496847.9694                   20496838.6644
        51.5004         55.0004
 23  1  7  0 45  0.0000000  0 12G24G23G22G27G08G21G10G12G31G01G25G32
  -6124998.27546  -5372228.22643  23811949.2504                   23811940.1214
        36.5004         22.2504
  -6648460.85347  -7335414.80045  22743666.0474                   22743655.9224
        44.2504         32.2504
 -13906442.92147 -11125010.68446  21244348.1174                   21244336.4104
        47.0004         37.5004
 -10909928.70145  -8311623.89244  25078302.6564                   25078293.6454
        32.0004         25.0004
  -4569242.96745  -3460153.76545  24418571.7664                   24418564.1024
        31.7504         30.0004
 -15596746.93847 -11448697.82945  22810358.7424                   22810345.5704
        45.5004         33.5004
 -24155368.22748 -20479214.76749  20753618.6564                   20753609.5274
        50.0004         54.7504
   -709371.33446   -522364.66842  25527827.4694                   25527815.9964
        38.2504         17.2504
  -9035258.23547  -7818287.35547  23403722.3284                   23403711.7934
        42.0004         43.0004
  -5728518.05846  -5606162.29445  23795263.1024                   23795254.9104
        37.5004         33.5004
   -344819.93956   -429303.44354  25259233.9304                   25259220.6994
        37.0004         26.0004
 -19227868.30548 -21207370.63549  20496959.2504                   20496949.8874
        52.7504         54.7504
 23  1  7  0 45 30.0000000  0 12G24G23G22G27G08G21G10G12G31G01G25G32
  -6029848.27046  -5298085.35443  23830056.4384                   23830045.9614
        37.0004         21.5004
  -6570448.79547  -7274626.19745  22758511.8364                   22758501.5354
        44.5004         32.5004
 -13955063.43647 -11162896.78446  21235095.7424                   21235084.3284
        47.5004         37.2504
 -10816851.54044  -8239096.19244  25096012.7114                   25096006.6294
        29.2504         24.7504
  -4499965.76545  -3406171.56645  24431754.5864                   24431747.0984
        31.0004         30.0004
 -15650328.17047 -11490449.42345  22800161.1174                   22800149.5864
        44.2504         33.5004
 -24126954.04748 -20457073.85349  20759025.6484                   20759016.9884
        51.0004         55.0004
   -777678.04545   -575590.49042  25514826.7274                   25514817.4804
        34.7504         17.7504
  -9151143.96646  -7908587.89847  23381669.7114                   23381658.5904
        41.5004         42.7504
  -5828809.26745  -5684311.31045  23776176.6174                   23776168.8954
        35.5004         33.0004
                                  25243311.6174                   25243304.2464
        37.5004         32.0004
 -19226906.76748 -21206621.38249  20497142.3524                   20497133.1644
        53.0004         54.7504
 23  1  7  0 46  0.0000000  0 12G24G23G22G27G08G21G10G12G31G01G25G32
  -5934355.18745  -5223675.18343  23848227.6644                   23848218.4774
        35.7504         22.0004
  -6492223.05947  -7213671.10445  22773397.4454                   22773386.5004
        45.0004         32.0004
 -14003344.85147 -11200518.66546  21225907.7504                   21225896.6294
        47.5004         37.5004
                                  25113722.2114                   25113715.6604
        29.5004         24.2504
 -10732105.26855  -8262384.21354  24444986.3984                   24444979.6134
        31.5004         29.7504
 -15703529.61047 -11531905.07645  22790038.1024                   22790026.1024
        45.2504         33.5004
 -24098213.60548 -20434678.70349  20764495.0314                   20764485.7854
        50.7504         54.7504
   -845716.79346   -628607.73342  25501880.5084                   25501870.1484
        37.5004         16.7504
  -9266881.75647  -7998773.18347  23359645.9454                   23359634.6484
        42.0004         43.0004
  -5928828.37446  -5762248.21245  23757145.4844                   23757136.2384
        39.0004         33.5004
                                  25227404.9454                   25227397.1054
        36.0004         29.0004
 -19225568.69848 -21205578.72949  20497396.7194                   20497387.5904
        52.2504         55.0004
 23  1  7  0 46 30.0000000  0 12G24G23G22G27G08G21G10G12G31G01G25G32
  -5838524.19046  -5149001.66543  23866463.4614                   23866453.8054
        36.5004         21.0004
  -6413786.44347  -7152551.68345  22788323.7194                   22788313.0084
        44.5004         31.7504
 -14051289.51147 -11237878.13146  21216784.0784                   21216772.8404
        46.5004         37.2504
 -10630741.02455  -8094075.02454  25131434.3594                   25131422.0664
        35.2504         27.7504
                                  24458269.3834                   24458261.7774
        31.7504         30.5004
 -15756352.01847 -11573065.40545  22779986.2504                   22779974.1334
        45.2504         33.5004
 -24069148.53848 -20412030.60549  20770025.9304                   20770016.8014
        50.0004         55.0004
   -913487.05246   -681415.71042  25488985.3444                   25488973.0514
        38.0004         16.7504
  -9382470.94347  -8088842.66747  23337649.5554                   23337638.7274
        42.0004         42.7504
  -6028574.84446  -5839972.71145  23738162.1094                   23738155.5004
        36.2504         33.5004
                                  25211512.1024                   25211507.1374
        31.5004         24.5004
 -19223857.25448 -21204245.13849  20497722.6174                   20497713.4304
        51.7504         54.7504
 23  1  7  0 47  0.0000000  0 12G24G23G22G27G08G21G10G12G31G01G25G32
  -5742355.60045  -5074065.11843  23884762.9064                   23884754.7154
        34.7504         21.5004
  -6335136.86647  -7091266.33545  22803289.8364                   22803280.0044
        44.0004         32.0004
 -14098894.65547 -11274973.02646  21207724.8524                   21207714.0824
        46.2504         37.7504
                                  25149132.7344                   25149124.6604
        32.2504         24.5004
 -10592250.87045  -8153406.79845  24471601.6804                   24471594.0164
        32.2504         30.0004
 -15808791.01247 -11613926.95045  22770007.4064                   22769995.4654
        44.0004         33.5004
 -24039756.60448 -20389127.80949  20775618.9924                   20775609.9224
        50.5004         55.0004
   -980983.18146   -734010.05243  25476141.7814                   25476128.9614
        39.0004         18.2504
  -9497905.72547  -8178791.82147  23315683.8984                   23315672.7194
        42.5004         42.7504
  -6128043.24046  -5917480.54145  23719236.5164                   23719226.3914
        39.0004         34.2504
   -470456.54554   -627835.84753  25195638.5164                   25195633.2544
        28.2504         23.2504
 -19221770.75648 -21202619.29649  20498119.7814                   20498110.3594
        53.0004         55.0004
 23  1  7  0 47 30.0000000  0 12G24G23G22G27G08G21G10G12G31G01G25G32
  -5645856.38345  -4998870.93143  23903126.2274                   23903117.6844
        34.2504         20.5004
  -6256278.81547  -7029818.52245  22818296.1024                   22818285.2734
        44.0004         31.2504
 -14146164.13847 -11311806.37446  21198730.1884                   21198719.0084
        47.0004         37.5004
 -10444710.26655  -7949115.95054  25166828.8594                   25166821.8984
        30.5004         25.0004
 -10521944.04645  -8098622.22245  24484980.8754                   24484972.4494
        32.2504         30.2504
 -15860849.40747 -11654491.93045  22760100.9384                   22760088.9384
        45.2504         34.2504
 -24010041.23548 -20365972.98349  20781273.3914                   20781264.2034
        50.0004         55.0004
  -1048206.44346   -786391.79342  25463346.3674                   25463336.1844
        36.5004         17.7504
  -9613187.19247  -8268621.51847  23293746.2034                   23293734.7894
        42.0004         42.5004
  -6227234.77246  -5994772.62545  23700359.6564                   23700351.9344
        38.0004         33.5004
   -553783.75045   -692766.04244  25179784.1644                   25179777.6724
        33.5004         27.7504
 -19219314.01448 -21200704.95149  20498587.4144                   20498577.9924
        52.2504         54.7504
 23  1  7  0 48  0.0000000  0 12G24G23G22G27G08G21G10G12G31G01G25G32
  -5549023.84645  -4923416.99943  23921553.3364                   23921544.6174
        35.0004         21.5004
  -6177207.16347  -6968204.25445  22833343.3754                   22833332.4304
        44.5004         30.5004
 -14193092.51647 -11348373.92646  21189800.1334                   21189788.7774
        47.2504         37.2504
 -10351730.01855  -7876663.76054  25184524.3364                   25184515.7934
        31.7504         25.5004
 -10451383.60245  -8043640.12644  24498406.8834                   24498399.0434
        31.7504         29.7504
 -15912519.61947 -11694754.43045  22750268.6954                   22750256.4024
        45.0004         34.2504
 -23979996.20248 -20342561.27149  20786990.9454                   20786981.5824
        50.5004         54.7504
  -1115147.94346   -838553.96543  25450609.8834                   25450598.5274
        37.5004         19.5004
  -9728306.82047  -8358325.11147  23271840.3444                   23271828.1094
        42.0004         42.5004
  -6326140.94046  -6071842.37545  23681536.9064                   23681529.6524
        36.5004         34.0004
   -637015.25755   -757621.78454  25163947.6724                   25163938.0164
        34.5004         26.2504
 -19216482.31948 -21198498.43549  20499126.1484                   20499116.7274
        52.5004         55.0004
 23  1  7  0 48 30.0000000  0 12G24G23G22G27G08G21G10G12G31G01G25G32
  -5451862.17646  -4847706.59943  23940043.2424                   23940033.8794
        36.0004         22.0004
  -6097923.70147  -6906424.96245  22848429.8134                   22848419.6294
        43.0004         31.7504
 -14239681.05347 -11384676.67546  21180934.6804                   21180922.9144
        47.0004         37.5004
                                  25202215.8204                   25202204.8754
        34.2504         24.2504
 -10380573.70745  -7988463.57945  24511880.8984                   24511874.4654
        31.5004         30.5004
 -15963801.24147 -11734714.13845  22740509.7504                   22740497.6914
        45.0004         33.5004
 -23949622.66148 -20318893.58849  20792770.7034                   20792761.6334
        50.5004         55.2504
  -1181806.36845   -890495.63042  25437924.0084                   25437914.4104
        35.5004         17.7504
  -9843262.84246  -8447901.22847  23249963.9924                   23249953.0474
        41.2504         42.7504
  -6424760.26846  -6148688.58145  23662772.1724                   23662762.6334
        38.0004         34.7504
   -720148.99745   -822401.28444  25148126.0554                   25148118.0984
        33.7504         26.5004
 -19213277.85848 -21196001.44749  20499735.9144                   20499726.4924
        52.5004         54.7504
 23  1  7  0 49  0.0000000  0 12G24G23G22G27G08G21G10G12G31G01G25G32
  -5354378.47745  -4771745.27243  23958592.9774                   23958583.7304
        35.2504         20.5004
  -6018433.31747  -6844484.42345  22863556.6174                   22863546.4344
        43.5004         31.5004
 -14285934.10247 -11420717.98846  21172132.1334                   21172121.8324
        46.2504         37.2504
 -10165856.67154  -7731827.43354  25219891.9774                   25219886.3634
        29.0004         24.2504
 -10309522.21845  -7933098.79545  24525401.2974                   24525395.2734
        30.7504         31.0004
 -16014697.31147 -11774373.39545  22730824.9614                   22730812.7274
        45.5004         33.7504
 -23918924.70848 -20294973.11349  20798612.2894                   20798602.9844
        50.7504         54.7504
  -1248182.56146   -942217.29742  25425292.2274                   25425283.6254
        36.2504         17.2504
  -9958056.80446  -8537351.06147  23228119.4454                   23228108.3244
        41.5004         42.7504
  -6523094.24746  -6225312.43145  23644058.9144                   23644051.3094
        37.2504         33.5004
   -803186.28245   -887105.62344  25132323.6414                   25132317.6174
        32.0004         27.5004
 -19209705.85348 -21193218.07049  20500415.6804                   20500406.4344
        53.5004         55.0004
 23  1  7  0 49 30.0000000  0 12G24G23G22G27G08G21G10G12G31G01G25G32
  -5256571.18545  -4695531.81543  23977203.0784                   23977196.4104
        32.7504         20.2504
  -5938731.76547  -6782379.35545  22878723.8984                   22878712.9534
        43.7504         31.2504
 -14331846.81447 -11456494.11746  21163396.4064                   21163384.5824
        47.2504         37.5004
 -10072969.23355  -7659447.56453  25237572.0474                   25237561.6884
        33.0004         22.7504
 -10238227.01545  -7877544.11245  24538968.2894                   24538961.9734
        30.5004         30.0004
 -16065201.25647 -11813727.12445  22721214.5314                   22721202.2384
        46.2504         33.2504
 -23887897.14748 -20270795.79049  20804516.8134                   20804507.7424
        51.2504         54.7504
  -1314268.79545   -993713.06942  25412715.7894                   25412707.3634
        34.7504         17.2504
 -10072680.67347  -8626668.33647  23206307.7424                   23206295.9184
        42.5004         42.7504
  -6621135.22446  -6301707.97645  23625403.2814                   23625393.9184
        38.2504         33.7504
   -886119.10045   -951728.55843  25116543.2194                   25116535.0274
        34.0004         23.7504
 -19205762.43548 -21190145.27149  20501166.1644                   20501156.7424
        53.5004         54.7504
 23  1  7  0 50  0.0000000  0 12G24G23G22G27G08G21G10G12G31G01G25G32
  -5158443.16845  -4619068.43243  23995878.3444                   23995869.3914
        35.0004         20.7504
  -5858819.68347  -6720110.23445  22893930.9454                   22893919.7074
        44.7504         31.0004
 -14377419.20047 -11492005.05946  21154723.9534                   21154712.5394
        47.2504         38.0004
                                  25255241.5164                   25255232.2704
        33.2504         23.7504
 -10166691.17345  -7821801.89845  24552583.2034                   24552574.6024
        34.0004         30.7504
 -16115311.74647 -11852774.25245  22711678.1804                   22711665.8874
        45.2504         34.7504
 -23856539.92348 -20246361.60449  20810483.6804                   20810474.5514
        50.5004         55.0004
  -1380062.43546  -1044980.76342  25400197.6954                   25400187.1604
        38.2504         17.7504
 -10187131.62147  -8715850.88847  23184529.1954                   23184516.7274
        42.0004         43.0004
  -6718880.61146  -6377873.22045  23606801.8444                   23606793.8874
        37.2504         34.0004
   -968944.42245  -1016267.83444  25100781.0784                   25100774.0594
        31.5004         27.0004
 -19201448.66648 -21186783.89849  20501986.8524                   20501977.5474
        53.2504         55.0004
 23  1  7  0 50 30.0000000  0 12G24G23G22G27G08G21G10G12G31G01G25G32
  -5060000.98445  -4542360.20843  24014610.6484                   24014601.8714
        33.5004         20.2504
  -5778701.12647  -6657680.19645  22909175.6174                   22909165.7274
        42.5004         30.7504
 -14422655.06847 -11527253.77646  21146115.6414                   21146104.2854
        46.0004         38.0004
                                  25272902.523
        32.750
 -10094921.24545  -7765877.31945  24566241.2344                   24566232.2234
        34.7504         32.0004
 -16165030.57747 -11891516.18745  22702217.1024                   22702205.3364
        45.2504         34.2504
 -23824856.53748 -20221673.26149  20816512.9844                   20816503.7384
        50.5004         54.7504
  -1445563.76546  -1096020.82343  25387735.3134                   25387721.9654
        38.7504         18.2504
 -10301410.24647  -8804899.16147  23162781.7894                   23162769.9064
        42.0004         43.0004
  -6816330.99546  -6453808.55645  23588257.9774                   23588249.9024
        37.2504         34.0004
  -1051662.58245  -1080723.49844  25085042.5474                   25085033.8874
        33.5004         27.5004
 -19196768.91148 -21183137.33649  20502877.3524                   20502867.8714
        52.2504         54.7504
 23  1  7  0 51  0.0000000  0 12G24G23G22G27G08G21G10G12G31G01G25G32
  -4961245.15245  -4465407.65743  24033403.7974                   24033395.4304
        34.5004         20.5004
  -5698374.31847  -6595087.89845  22924461.4064                   22924451.9264
        43.5004         31.5004
 -14467552.04947 -11562238.42846  21137572.2894                   21137560.6994
        46.0004         38.0004
                                  25290557.008
        34.500
 -10022917.52545  -7709770.55445  24579943.5084                   24579933.9694
        35.2504         31.7504
 -16214354.02947 -11929950.04945  22692831.9774                   22692819.0394
        46.5004         34.5004
 -23792843.95548 -20196728.39549  20822605.1174                   20822595.7544
        50.5004         55.0004
  -1510767.66446  -1146829.08343  25375326.1484                   25375313.6804
        37.5004         18.5004
 -10415511.01147  -8893808.84547  23141069.8364                   23141057.4264
        42.5004         43.0004
  -6913481.26346  -6529510.04945  23569770.6254                   23569762.1414
        38.2504         34.0004
  -1134268.13945  -1145091.46444  25069321.1564                   25069313.4344
        32.7504         26.5004
 -19191721.82748 -21179204.54549  20503837.8364                   20503828.5314
        53.0004         54.7504
 23  1  7  0 51 30.0000000  0 12G24G23G22G27G08G21G10G12G31G01G25G32
  -4862182.67745  -4388216.10043  24052254.0784                   24052245.5944
        32.7504         19.7504
  -5617843.74747  -6532336.84445  22939787.6724                   22939776.4344
        44.5004         31.0004
 -14512114.01347 -11596962.02446  21129092.4304                   21129081.0744
        47.5004         37.7504
  -9701815.19854  -7396796.24753  25308203.9064                   25308190.3244
        29.5004         22.2504
  -9950687.66245  -7653487.56045  24593686.8444                   24593678.9454
        34.0004         31.0004
 -16263284.61647 -11968077.77645  22683520.0394                   22683508.0394
        45.5004         33.7504
 -23760505.83248 -20171529.86749  20828758.8984                   20828749.6524
        50.5004         55.0004
  -1575675.20746  -1197406.28642  25362973.9224                   25362962.6254
        36.7504         16.7504
 -10529435.33747  -8982581.04347  23119389.6334                   23119378.8634
        42.2504         43.5004
  -7010332.60746  -6604978.61545  23551340.0704                   23551332.8164
        37.5004         35.2504
  -1216761.94545  -1209372.29644  25053624.8054                   25053615.9694
        34.0004         27.7504
 -19186312.36348 -21174989.37749  20504867.2894                   20504858.1604
        53.0004         54.7504
 23  1  7  0 52  0.0000000  0 11G24G23G22G08G21G10G12G31G01G25G32
  -4762804.58945  -4310778.56243  24071166.9614                   24071156.2504
        35.2504         20.0004
  -5537098.10947  -6469418.19945  22955152.1174                   22955141.4654
        43.7504         31.5004
 -14556329.33147 -11631415.50946  21120678.2974                   21120667.1764
        46.5004         38.0004
  -9878222.27145  -7597021.03445  24607475.5234                   24607468.1524
        34.2504         31.7504
 -16311808.82847 -12005888.82345  22674286.1174                   22674273.9414
        45.0004         35.0004
 -23727830.27848 -20146068.40049  20834976.4304                   20834967.2424
        50.2504         55.0004
  -1640271.44846  -1247741.01243  25350681.7274                   25350670.7234
        36.2504         18.2504
 -10643168.13647  -9071203.99447  23097747.5554                   23097736.0824
        42.5004         43.5004
  -7106870.23546  -6680202.72345  23532969.7504                   23532961.7344
        37.7504         34.7504
  -1299128.89145  -1273554.32244  25037948.6954                   25037941.6764
        33.2504         26.5004
 -19180529.44948 -21170483.20849  20505967.7424                   20505958.1454
        53.0004         55.0004
 23  1  7  0 52 30.0000000  0 12G24G23G22G27G08G21G10G12G31G01G25G32
  -4663126.09245  -4233107.02443  24090132.4694                   24090125.2734
        32.5004         19.7504
  -5456150.29047  -6406341.98345  22970555.4064                   22970545.2234
        42.0004         30.7504
 -14600210.09747 -11665608.29946  21112327.6254                   21112317.2664
        47.2504         38.0004
                                  25343456.5944                   25343452.9774
        24.5004         22.5004
  -9805536.74945  -7540382.98445  24621308.8204                   24621299.6334
        35.2504         31.2504
 -16359937.14347 -12043391.42045  22665129.1414                   22665115.7934
        46.7504         34.5004
 -23694829.34848 -20120353.40249  20841256.0784                   20841247.2424
        50.5004         55.0004
  -1704565.73446  -1297840.53542  25338446.8984                   25338436.0124
        37.5004         17.7504
 -10756718.70947  -9159684.94047  23076140.0004                   23076128.2344
        44.0004         44.0004
  -7203103.78446  -6755189.85045  23514658.8134                   23514649.5664
        39.0004         34.7504
  -1381377.98345  -1337644.55444  25022297.1024                   25022290.7274
        32.7504         26.7504
 -19174386.42348 -21165696.44149  20507136.6484                   20507127.4024
        53.7504         55.0004
 23  1  7  0 53  0.0000000  0 11G24G23G22G08G21G10G12G31G01G25G32
  -4563146.31445  -4155200.73843  24109159.1724                   24109150.9804
        33.2504         19.5004
  -5374996.93547  -6343105.62345  22985999.9144                   22985988.6764
        44.2504         31.0004
 -14643752.76548 -11699537.64746  21104041.5634                   21104030.1484
        48.0004         38.0004
  -9732629.87545  -7483572.42245  24635183.3134                   24635174.1844
        35.2504         32.0004
 -16407664.65747 -12080581.69745  22656045.1804                   22656033.1214
        45.7504         34.2504
 -23661498.80148 -20094381.55649  20847599.0394                   20847589.7344
        51.0004         54.7504
  -1768551.21545  -1347699.34243  25326270.0704                   25326260.7664
        35.7504         18.5004
 -10870080.08347  -9248018.48447  23054566.5004                   23054556.4344
        43.0004         44.0004
  -7299026.38346  -6829934.72745  23496404.7034                   23496395.8674
        39.5004         35.2504
  -1463502.34854  -1401637.56754  25006667.2274                   25006663.1994
        29.2504         26.2504
 -19167880.35149 -21160626.77149  20508374.9844                   20508365.0354
        54.0004         54.7504
 23  1  7  0 53 30.0000000  0 12G24G23G22G27G08G21G10G12G31G01G25G32
  -4462869.65945  -4077063.10043  24128240.9224                   24128232.6134
        33.2504         18.5004
  -5293640.09747  -6279710.74145  23001481.3914                   23001470.5044
        44.5004         30.5004
 -14686958.83047 -11733204.69646  21095820.3524                   21095809.2304
        47.0004         37.7504
    149757.01655  -7283813.86654  25378684.4924                   25378672.8444
        31.7504         25.0004
  -9659507.13745  -7426593.68645  24649096.5634                   24649088.6054
        34.2504         31.0004
 -16454991.37747 -12117459.64345  22647038.9304                   22647027.2814
        45.5004         34.7504
 -23627839.99048 -20068153.91549  20854004.1954                   20853994.7154
        50.7504         55.0004
  -1832226.55445  -1397316.43643  25314151.4454                   25314143.6054
        33.5004         19.2504
 -10983250.64347  -9336203.31047  23033031.7344                   23033020.2624
        43.0004         44.2504
  -7394636.83946  -6904436.36345  23478210.1954                   23478201.4184
        39.0004         35.7504
  -1545500.15355  -1465531.91754  24991066.0004                   24991058.7464
        32.5004         27.0004
 -19161013.67248 -21155276.11149  20509681.2664                   20509672.3134
        53.2504         54.7504
 23  1  7  0 54  0.0000000  0 11G24G23G22G08G21G10G12G31G01G25G32
  -4362292.45845  -3998691.21643  24147381.1254                   24147371.5864
        33.5004         19.2504
  -5212073.75247  -6216152.55845  23017002.0554                   23016991.5204
        43.2504         31.2504
 -14729821.63747 -11766604.28446  21087663.7424                   21087652.1524
        46.2504         38.5004
  -9586163.63745  -7369442.94345  24663052.1564                   24663045.0784
        34.5004         31.2504
 -16501909.21447 -12154018.99645  22638111.6804                   22638099.0354
        46.0004         34.7504
 -23593845.99648 -20041665.10249  20860472.7194                   20860463.7664
        50.5004         55.0004
  -1895582.05346  -1446684.38643  25302098.1884                   25302086.7154
        36.0004         18.5004
 -11096220.72247  -9424231.95047  23011533.5084                   23011522.7974
        42.0004         44.2504
  -7489925.57846  -6978687.32046  23460078.1884                   23460068.8834
        40.2504         36.0004
  -1627361.56855  -1529320.01154  24975489.8594                   24975480.9654
        34.0004         26.7504
 -19153780.65749 -21149639.99449  20511057.7894                   20511048.7774
        54.0004         54.7504
 23  1  7  0 54 30.0000000  0 11G24G23G22G27G08G21G10G12G31G01G32
  -4261427.46145  -3920095.07943  24166574.3674                   24166565.4734
        33.5004         18.2504
  -5130308.26047  -6152439.20645  23032562.0084                   23032551.1804
        43.7504         31.2504
 -14772351.15747 -11799744.15246  21079570.0864                   21079559.1994
        45.7504         38.2504
    190293.69754  -7172531.29353  25413856.8444                   25413850.0594
        28.2504         23.2504
  -9512612.87645  -7312130.70545  24677048.0634                   24677041.3364
        33.5004         30.5004
 -16548426.28047 -12190266.06645  22629260.0394                   22629247.3364
        45.5004         33.5004
 -23559526.31648 -20014922.50349  20867003.6414                   20866994.5704
        51.0004         54.7504
  -1958624.78145  -1495808.54242  25290099.0784                   25290089.5394
        32.7504         16.7504
 -11208997.71747  -9512110.10347  22990073.7664                   22990062.1174
        43.7504         44.2504
  -7584899.72746  -7052693.10046  23442004.1024                   23441995.4414
        38.5004         36.5004
 -19146192.18648 -21143726.90349  20512501.7114                   20512492.4654
        53.7504         55.0004
 23  1  7  0 55  0.0000000  0 12G24G23G22G27G08G21G10G12G31G01G25G32
  -4160268.34945  -3841269.78643  24185825.3444                   24185815.7464
        33.5004         19.2504
  -5048334.91147  -6088563.89245  23048161.4614                   23048150.0474
        44.5004         31.0004
 -14814538.37447 -11832617.30146  21071542.7274                   21071531.4304
        47.0004         38.2504
    282624.98954  -7100584.93453  25431427.3834                   25431419.6024
        29.2504         21.5004
  -9438848.56346  -7254652.04945  24691090.3524                   24691079.0554
        37.7504         31.5004
 -16594531.64047 -12226192.32745  22620485.5164                   22620473.5164
        45.2504         35.0004
 -23524871.67448 -19987918.89549  20873597.9844                   20873589.2074
        51.5004         55.0004
  -2021342.21745  -1544679.22742  25278165.8594                   25278154.6214
        35.5004         17.2504
 -11321568.87847  -9599827.88947  22968652.0864                   22968640.5554
        43.0004         44.7504
  -7679547.04046  -7126444.23046  23423993.8984                   23423985.2974
        40.2504         36.2504
  -1790688.83155  -1628053.30654  24944409.4384                   24944402.1254
        33.0004         27.2504
 -19138239.86649 -21137530.28849  20514014.9924                   20514005.5124
        54.7504         54.7504
 23  1  7  0 55 30.0000000  0 12G24G23G22G27G08G21G10G12G31G01G25G32
  -4058824.82645  -3762222.94043  24205129.1644                   24205119.2734
        33.0004         19.0004
  -4966161.19347  -6024532.43445  23063797.6564                   23063787.5904
        43.5004         30.5004
 -14856390.05147 -11865228.99846  21063578.4384                   21063567.4924
        47.0004         39.0004
    374886.77154  -7028692.31153  25448983.8754                   25448976.9144
        28.2504         22.2504
  -9364880.76446  -7197014.75745  24705163.2814                   24705153.7424
        36.2504         31.2504
 -16640230.83947 -12261802.09045  22611789.8524                   22611777.6764
        45.0004         34.5004
 -23489888.50248 -19960659.29249  20880255.6564                   20880246.1764
        51.0004         54.7504
  -2083738.86045  -1593299.98942  25266291.0474                   25266280.8054
        34.5004         17.2504
 -11433937.94047  -9687388.18747  22947269.1724                   22947257.2894
        43.0004         44.7504
  -7773871.68246  -7199943.93245  23406043.6414                   23406035.7424
        39.0004         35.7504
                                  24928908.8284                   24928902.2194
        30.5004         26.0004
 -19129931.57248 -21131056.30049  20515596.1884                   20515586.7664
        53.5004         55.0004
 23  1  7  0 56  0.0000000  0 12G24G23G22G27G08G21G10G12G31G01G25G32
  -3957091.08145  -3682949.86443  24224488.8984                   24224479.0084
        34.0004         20.2504
  -4883778.75047  -5960338.35344  23079475.1884                   23079463.7734
        43.2504         29.7504
 -14897897.52247 -11897572.46946  21055679.8834                   21055668.4104
        46.0004         38.7504
                                  25466534.8524                   25466521.6214
        36.2504         26.7504
  -9290703.23745  -7139214.08845  24719276.7814                   24719269.8794
        33.0004         31.5004
 -16685513.92747 -12297087.61945  22603173.7274                   22603160.3794
        46.0004         34.5004
 -23454568.03948 -19933136.86349  20886977.0314                   20886967.4344
        51.7504         54.7504
  -2145802.63246  -1641661.39242  25254481.6724                   25254470.6684
        36.5004         17.7504
 -11546093.17247  -9774781.87447  22925926.6024                   22925914.8954
        43.0004         44.7504
  -7867861.87446  -7273183.03845  23388158.4064                   23388149.8054
        38.5004         35.7504
                                  24913437.4064                   24913431.9694
        30.2504         27.5004
 -19121259.36249 -21124298.73449  20517246.5864                   20517237.2234
        54.0004         55.0004
 23  1  7  0 56 30.0000000  0 12G24G23G22G27G08G21G10G12G31G01G25G32
  -3855078.95345  -3603459.96642  24243899.2584                   24243891.4184
        31.7504         16.7504
  -4801197.26747  -5895989.18445  23095189.5944                   23095179.2934
        43.7504         31.2504
 -14939069.79047 -11929654.74746  21047844.6724                   21047833.7854
        46.2504         39.0004
                                  25484055.4614                   25484050.9654
        27.2504         22.5004
  -9216328.17645  -7081259.56145  24733431.0234                   24733422.9494
        34.2504         32.0004
 -16730388.22447 -12332054.61945  22594632.9694                   22594621.0864
        44.7504         34.5004
 -23418918.58348 -19905358.08049  20893760.7034                   20893751.1644
        51.2504         55.0004
  -2207539.47145  -1689767.97742  25242731.8284                   25242723.1684
        33.5004         16.2504
 -11658040.90647  -9862013.87047  22904623.3984                   22904612.2774
        43.2504         45.2504
  -7961523.90046  -7346166.38745  23370335.1954                   23370326.6524
        38.5004         35.0004
  -2034595.69955  -1818110.54654  24897994.9694                   24897987.8324
        32.5004         26.2504
 -19112233.27648 -21117265.42049  20518964.3674                   20518954.7114
        53.0004         55.0004
 23  1  7  0 57  0.0000000  0 12G24G23G22G27G08G21G10G12G31G01G25G32
  -3752789.87245  -3523754.12643  24263366.7424                   24263356.2664
        35.0004         20.2504
  -4718415.66747  -5831484.05344  23110942.1804                   23110931.8794
        43.0004         29.5004
 -14979905.57347 -11961474.83346  21040074.1884                   21040062.9494
        47.0004         39.0004
                                  25501581.570
        35.500
  -9141757.01946  -7023152.15545  24747621.7734                   24747613.2894
        36.0004         31.7504
 -16774850.52247 -12366700.57145  22586171.7034                   22586160.1724
        44.5004         34.2504
 -23382938.51448 -19877321.67149  20900607.7344                   20900598.0784
        51.5004         54.7504
  -2268945.01245  -1737616.45642  25231047.6254                   25231038.3794
        33.5004         17.7504
 -11769776.38347  -9949080.47247  22883360.6884                   22883349.3324
        43.5004         45.0004
  -8054853.24746  -7418890.56145  23352575.3914                   23352566.4964
        38.7504         35.5004
                                  24882579.9304                   24882573.0864
        32.2504         26.2504
 -19102852.63548 -21109955.83649  20520749.1094                   20520739.7464
        53.5004         55.0004
 23  1  7  0 57 30.0000000  0 11G24G23G22G27G08G21G10G12G31G01G32
  -3650223.82445  -3443832.54043  24282882.9064                   24282874.3054
        32.2504         18.2504
  -4635431.62447  -5766821.20044  23126733.4454                   23126722.9694
        42.5004         28.0004
 -15020401.96847 -11993030.45946  21032368.4384                   21032356.9064
        47.0004         39.2504
                                  25519073.8754                   25519067.6174
        25.2504         24.2504
  -9066989.68045  -6964891.90945  24761848.2504                   24761840.9384
        34.2504         31.7504
 -16818896.40147 -12401022.02045  22577791.2424                   22577778.5984
        44.5004         34.7504
 -23346624.76848 -19849025.24749  20907517.6254                   20907508.3204
        51.2504         54.7504
  -2330013.70146  -1785202.38942  25219428.2034                   25219417.0234
        36.5004         17.2504
 -11881293.49947 -10035976.91847  22862140.5864                   22862128.5864
        43.5004         45.0004
  -8147844.26946  -7491351.06345  23334877.8524                   23334870.8324
        37.0004         35.5004
 -19093115.55249 -21102368.49949  20522602.1174                   20522592.6374
        54.0004         55.0004
 23  1  7  0 58  0.0000000  0 12G24G23G22G27G08G21G10G12G31G01G25G32
  -3547385.79645  -3363699.02543  24302452.6884                   24302443.5004
        34.0004         19.2504
  -4552247.88147  -5702002.71844  23142562.9144                   23142552.7304
        42.2504         29.2504
 -15060561.23448 -12024323.38246  21024725.8984                   21024714.9534
        48.0004         39.5004
                                  25536563.7734                   25536552.8874
        35.7504         26.5004
  -8992031.55945  -6906483.03845  24776113.7814                   24776105.9414
        35.5004         32.7504
 -16862526.76747 -12435019.72045  22569488.4304                   22569476.3134
        46.7504         34.5004
 -23309979.40448 -19820470.44149  20914491.1644                   20914481.8014
        51.2504         54.7504
  -2390744.51845  -1832525.06042  25207869.6334                   25207859.9774
        33.5004         17.2504
 -11992591.58347 -10122702.70047  22840960.0554                   22840949.2854
        43.0004         44.7504
  -8240496.15246  -7563547.33945  23317247.9614                   23317239.5944
        37.7504         35.5004
  -2277145.97355  -1994987.87354  24851839.2584                   24851833.1764
        32.0004         28.0004
 -19083025.14748 -21094505.84249  20524522.3364                   20524512.6804
        53.7504         54.7504
 23  1  7  0 58 30.0000000  0 12G24G23G22G27G08G21G10G12G31G01G25G32
  -3444280.91545  -3283357.53643  24322071.7734                   24322062.4694
        32.0004         18.5004
  -4468867.16247  -5637030.75544  23158430.8134                   23158419.2814
        43.2504         28.7504
 -15100385.68748 -12055355.40946  21017147.7274                   21017136.0784
        48.0004         39.5004
    611407.72454  -6680654.37553  25554027.3594                   25554019.6954
        29.5004         22.2504
  -8916887.20445  -6847929.01445  24790412.7034                   24790405.0394
        34.5004         31.7504
 -16905742.93047 -12468694.66145  22561264.0164                   22561252.4264
        46.0004         34.2504
 -23273004.09548 -19791658.51249  20921527.2274                   20921517.9224
        51.2504         54.7504
  -2451136.68745  -1879583.86342  25196377.3754                   25196367.8364
        34.5004         17.7504
 -12103669.44047 -10209256.86447  22819823.2424                   22819811.7114
        43.0004         44.7504
  -8332808.24346  -7635478.81345  23299681.5864                   23299673.5704
        37.7504         35.5004
  -2357681.37255  -2057742.68554  24836514.4224                   24836507.7544
        32.0004         29.2504
 -19072584.45848 -21086370.24249  20526508.9454                   20526499.4064
        53.7504         55.0004
 23  1  7  0 59  0.0000000  0 12G24G23G22G27G08G21G10G12G31G01G25G32
  -3340905.69145  -3202805.45043  24341744.0634                   24341735.8134
        33.7504         20.2504
  -4385283.66947  -5571900.79644  23174334.4534                   23174324.4454
        42.2504         28.7504
 -15139869.21847 -12086121.78046  21009633.9844                   21009622.5704
        46.5004         39.2504
    703122.18444  -6609188.56644  25571480.1804                   25571472.0474
        29.0004         25.5004
  -8841553.78645  -6789227.64645  24804747.7274                   24804740.1214
        35.5004         32.2504
 -16948536.40747 -12502040.22345  22553121.3594                   22553108.7154
        44.2504         34.7504
 -23235692.40748 -19762584.48349  20928627.9694                   20928618.0204
        51.0004         55.0004
  -2511181.04745  -1926371.79142  25184952.5784                   25184941.0474
        34.2504         16.7504
 -12214517.74347 -10295632.16047  22798729.3284                   22798717.7974
        43.0004         45.0004
  -8424771.38246  -7707138.38745  23282181.4924                   23282173.3594
        38.0004         35.5004
  -2438049.17055  -2120366.93154  24821221.6954                   24821212.3914
        33.2504         27.2504
 -19061788.16348 -21077957.54949  20528563.3524                   20528554.1054
        53.0004         54.7504
 23  1  7  0 59 30.0000000  0 12G24G23G22G27G08G21G10G12G31G01G25G32
  -3237267.01445  -3122048.04142  24361465.1024                   24361456.5594
        32.0004         17.7504
  -4301502.06747  -5506616.44744  23190278.7734                   23190267.5944
        42.0004         29.5004
 -15179015.92147 -12116625.70446  21002184.4144                   21002173.3524
        47.7504         39.7504
    794746.66855  -6537792.80454  25588918.1884                   25588908.5314
        30.2504         25.2504
  -8766038.50545  -6730384.60045  24819119.4454                   24819109.4964
        35.7504         32.0004
 -16990909.73047 -12535058.40045  22545057.6724                   22545045.5554
        46.0004         34.7504
 -23198048.19648 -19733251.33749  20935791.2584                   20935781.7194
        52.2504         54.7504
  -2570878.70845  -1972889.41642  25173589.7584                   25173582.0354
        33.5004         15.5004
 -12325137.87447 -10381829.66947  22777679.6414                   22777667.6414
        43.7504         45.2504
  -8516386.76646  -7778526.98546  23264747.3054                   23264739.0554
        37.7504         36.0004
  -2518250.18655  -2182861.20254  24805959.6884                   24805951.2624
        34.0004         28.0004
 -19050641.22048 -21069271.62349  20530684.8134                   20530675.3914
        53.7504         54.7504
 23  1  7  1  0  0.0000000  0 12G24G23G22G27G08G21G10G12G31G01G25G32
  -3133366.69845  -3041086.76743  24381238.4064                   24381228.6334
        35.0004         20.2504
  -4217521.69247  -5441177.23544  23206260.4614                   23206249.1054
        42.0004         29.2504
 -15217824.64147 -12146866.25946  20994800.2504                   20994788.4264
        47.7504         39.7504
    886279.76955  -6466468.32653  25606332.9614                   25606326.0594
        30.0004         22.5004
  -8690342.45945  -6671400.67045  24833523.0944                   24833514.7854
        35.2504         31.5004
 -17032860.88347 -12567747.61945  22537074.2974                   22537062.6484
        45.7504         34.7504
 -23160069.85348 -19703657.82749  20943018.2344                   20943008.7544
        52.0004         55.0004
  -2630225.56245  -2019133.66942  25162298.8984                   25162289.1254
        35.5004         17.2504
 -12435525.40447 -10467845.90847  22756673.0864                   22756661.3204
        43.5004         45.5004
  -8607650.37046  -7849641.47646  23247381.2504                   23247372.5314
        38.5004         37.2504
  -2598280.01545  -2245222.06644  24790727.8914                   24790723.2774
        31.2504         28.2504
 -19039143.46948 -21060312.33749  20532872.8284                   20532863.1724
        53.5004         55.0004
 23  1  7  1  0 30.0000000  0 12G24G23G22G27G08G21G10G12G31G01G25G32
  -3029208.08645  -2959924.24243  24401056.6564                   24401050.0474
        32.0004         18.2504
  -4133343.74847  -5375584.05944  23222277.6414                   23222268.2194
        42.0004         29.0004
 -15256296.20748 -12176844.10246  20987478.7814                   20987467.4844
        48.0004         40.5004
    977718.08755  -6395217.70654  25623735.1254                   25623727.2274
        32.7504         25.0004
  -8614469.27145  -6612278.69945  24847961.8134                   24847953.4454
        33.7504         32.5004
 -17074388.68747 -12600106.92645  22529172.0554                   22529160.1724
        46.0004         34.0004
 -23121757.63648 -19673804.16449  20950308.6174                   20950299.4304
        50.7504         55.0004
  -2689219.45246  -2065102.91343  25151073.5474                   25151062.6024
        36.0004         18.5004
 -12545677.79247 -10553678.94247  22735711.5164                   22735700.4534
        43.7504         45.5004
  -8698559.84346  -7920480.00046  23230081.5234                   23230073.3324
        39.2504         36.5004
  -2678135.89745  -2307447.36944  24775533.5164                   24775527.1994
        32.5004         26.7504
 -19027296.41648 -21051080.86549  20535127.3594                   20535117.4104
        52.5004         54.7504
 23  1  7  1  1  0.0000000  0 12G24G23G22G27G08G21G10G12G31G01G25G32
  -2924794.00045  -2878562.60643  24420927.7664                   24420918.3444
        33.5004         18.2504
  -4048968.68647  -5309837.30044  23238334.9614                   23238323.5474
        43.2504         29.0004
 -15294430.50947 -12206559.13546  20980222.1564                   20980210.4494
        46.5004         40.2504
   1069059.35955  -6324042.55353  25641116.9304                   25641107.6254
        30.5004         23.7504
  -8538422.22545  -6553021.30545  24862432.0164                   24862425.5824
        34.2504         33.5004
 -17115491.58247 -12632135.16545  22521350.1094                   22521338.4024
        44.5004         35.2504
 -23083111.83648 -19643690.56549  20957662.8914                   20957653.2344
        52.0004         55.0004
  -2747857.60345  -2110794.88943  25139912.3984                   25139903.5634
        33.5004         18.2504
 -12655591.96747 -10639326.35747  22714795.5634                   22714784.5004
        44.0004         45.7504
  -8789112.29646  -7991040.34646  23212850.6954                   23212841.5664
        41.7504         37.5004
  -2757814.55145  -2369534.60944  24760371.6644                   24760364.0594
        33.7504         27.5004
 -19015100.95848 -21041577.91249  20537448.0084                   20537438.2344
        53.2504         55.0004
 23  1  7  1  1 30.0000000  0 12G24G23G22G27G08G21G10G12G31G01G25G32
  -2820127.84545  -2797004.61943  24440843.5234                   24440836.7384
        32.5004         20.2504
  -3964397.64946  -5243937.80344  23254427.4614                   23254416.7504
        41.5004         29.2504
 -15332228.36447 -12236012.01146  20973029.3204                   20973018.3164
        47.5004         40.2504
   1160300.04155  -6252945.97454  25658480.4224                   25658469.4774
        32.7504         26.2504
  -8462205.02945  -6493631.27545  24876935.3444                   24876927.2704
        35.5004         32.5004
 -17156169.03947 -12663831.88645  22513610.0554                   22513598.0554
        45.7504         35.7504
 -23044132.33548 -19613316.93149  20965080.3674                   20965070.6524
        51.5004         54.7504
  -2806137.33445  -2156207.73742  25128822.1254                   25128813.9344
        33.0004         16.2504
 -12765265.28547 -10724786.07747  22693925.4384                   22693914.5514
        43.7504         46.2504
  -8879305.42546  -8061320.68246  23195687.0784                   23195678.2424
        40.2504         38.0004
  -2837313.23045  -2431481.64544  24745243.7584                   24745235.3324
        32.5004         29.0004
 -19002558.57748 -21031804.63049  20539834.6414                   20539825.0434
        53.0004         55.0004
 23  1  7  1  2  0.0000000  0 12G24G23G22G27G08G21G10G12G31G01G25G32
  -2715211.01845  -2715251.26343  24460810.2194                   24460800.9734
        34.5004         19.2504
  -3879629.70547  -5177884.90344  23270558.5314                   23270548.1134
        42.0004         29.2504
 -15369688.50448 -12265201.72046  20965901.1414                   20965889.7274
        48.0004         40.5004
   1251439.28255  -6181928.36354  25675822.7974                   25675814.0784
        32.5004         25.7504
  -8385818.78145  -6434109.59545  24891471.7664                   24891463.9844
        34.2504         32.2504
 -17196417.93547 -12695194.66045  22505950.5164                   22505938.3404
        45.5004         35.5004
 -23004817.61548 -19582682.09049  20972561.5004                   20972552.3714
        51.0004         55.0004
  -2864054.59545  -2201338.06942  25117800.9384                   25117792.3954
        31.5004         15.5004
 -12874693.32047 -10810054.67547  22673102.6094                   22673090.4344
        44.5004         46.2504
  -8969134.82046  -8131317.59846  23178593.5554                   23178584.1914
        40.5004         39.0004
  -2916627.18255  -2493284.65754  24730150.2194                   24730142.9064
        32.7504         28.2504
 -18989668.73848 -21021760.59849  20542287.1884                   20542278.0594
        52.5004         55.0004
 23  1  7  1  2 30.0000000  0 12G24G23G22G27G08G21G10G12G31G01G25G32
  -2610048.61545  -2633306.48343  24480820.8594                   24480812.7274
        33.0004         19.0004
  -3794667.67447  -5111680.76944  23286725.5784                   23286716.0394
        42.2504         29.0004
 -15406813.29047 -12294130.12446  20958836.8054                   20958824.6884
        47.7504         40.2504
   1342472.07155  -6110993.65854  25693145.1804                   25693136.2854
        32.0004         24.0004
  -8309268.75046  -6374460.16945  24906040.0784                   24906031.1254
        36.5004         33.0004
 -17236239.57747 -12726224.50245  22498372.7114                   22498361.1214
        45.2504         35.2504
 -22965169.48348 -19551787.45649  20980106.0634                   20980096.9344
        51.2504         55.0004
  -2921608.43745  -2246185.17542  25106850.2344                   25106840.1684
        33.7504         14.7504
 -12983875.40947 -10895131.62547  22652325.2814                   22652313.8094
        44.2504         46.5004
  -9058599.93246  -8201030.64146  23161568.3984                   23161559.8554
        40.7504         38.7504
  -2995755.21945  -2554942.83144  24715093.7424                   24715085.8444
        33.0004         29.7504
 -18976434.63648 -21011448.30549  20544805.9064                   20544796.0164
        52.5004         55.0004
 23  1  7  1  3  0.0000000  0 12G24G23G22G27G08G21G10G12G31G01G25G32
  -2504640.17145  -2551170.09943  24500881.8054                   24500872.0904
        35.7504         20.0004
  -3709508.93346  -5045323.33644  23302931.1804                   23302920.6454
        41.5004         29.5004
 -15443599.64148 -12322794.79546  20951836.2734                   20951825.0944
        48.2504         40.2504
   1433398.96955  -6040141.53754  25710449.9064                   25710439.8404
        33.7504         25.7504
  -8232555.06945  -6314683.31245  24920634.8914                   24920628.4574
        33.0004         32.2504
 -17275628.68247 -12756917.31045  22490877.5634                   22490865.5634
        46.0004         35.5004
 -22925184.62248 -19520630.43449  20987715.2114                   20987705.9654
        51.7504         54.7504
  -2978792.96945  -2290744.56742  25095969.6884                   25095958.1564
        35.5004         16.7504
 -13092805.01947 -10980011.84347  22631596.8754                   22631585.3444
        44.0004         46.5004
  -9147694.62146  -8270455.06446  23144614.1724                   23144605.7464
        40.7504         39.0004
  -3074691.04245  -2616451.25545  24700072.3364                   24700065.0234
        33.5004         30.2504
 -18962854.06348 -21000866.04549  20547389.8674                   20547380.3284
        51.7504         54.7504
 23  1  7  1  3 30.0000000  0 12G24G23G22G27G08G21G10G12G31G01G25G32
  -2398992.96745  -2468847.51143  24520983.7274                   24520974.2464
        33.5004         18.2504
  -3624158.39847  -4978816.45744  23319173.0554                   23319162.3444
        42.2504         29.2504
 -15480051.98247 -12351199.20546  20944899.7194                   20944888.1294
        47.7504         41.0004
   1524213.08345  -5969377.31043  25727729.7344                   25727720.1954
        32.5004         22.7504
  -8155684.42445  -6254784.10645  24935266.0234                   24935257.2464
        35.7504         33.5004
 -17314588.96947 -12787275.98145  22483463.4534                   22483451.3954
        46.5004         35.5004
 -22884866.98248 -19489214.09849  20995387.2584                   20995378.1294
        50.7504         54.7504
  -3035609.78046  -2335017.32742  25085156.2734                   25085146.5004
        36.0004         17.2504
 -13201483.69847 -11064696.52947  22610916.7894                   22610904.9654
        45.0004         46.7504
  -9236420.45246  -8339592.04946  23127729.5864                   23127721.6294
        41.0004         39.0004
                                  24685086.2734                   24685079.2544
        32.7504         28.5004
 -18948932.25848 -20990017.88649  20550039.0164                   20550029.8284
        51.5004         54.7504
 23  1  7  1  4  0.0000000  0 12G24G23G22G27G08G21G10G12G31G01G25G32
  -2293104.65145  -2386337.18643  24541135.8674                   24541125.8594
        35.5004         21.2504
  -3538611.56647  -4912156.63845  23335452.1024                   23335441.7424
        42.2504         30.2504
 -15516165.43848 -12379339.54846  20938027.4924                   20938016.3134
        48.2504         41.2504
                                  25744992.0474                   25744982.2734
        35.2504         28.5004
  -8078655.10945  -6194761.28045  24949923.2664                   24949915.3674
        35.0004         32.5004
 -17353113.35047 -12817294.97346  22476132.6884                   22476120.4534
        47.0004         36.0004
 -22844211.75448 -19457534.70949  21003123.5004                   21003114.8984
        51.2504         54.7504
  -3092050.77246  -2378997.32943  25074416.6414                   25074406.6914
        36.0004         18.2504
 -13309903.15947 -11149179.21647  22590284.1644                   22590273.3364
        44.2504         46.7504
  -9324769.41746  -8408435.39146  23110918.1254                   23110909.6994
        40.5004         39.5004
  -3231980.50645  -2739014.43744  24670139.6884                   24670133.2544
        32.0004         28.0004
 -18934665.14548 -20978900.64649  20552754.5004                   20552744.4344
        52.5004         55.0004
 23  1  7  1  4 30.0000000  0 11G24G23G22G08G21G10G12G31G01G25G32
  -2186983.02545  -2303645.03243  24561328.1804                   24561320.6914
        35.0004         20.0004
  -3452873.84747  -4845348.07344  23351767.2734                   23351756.7974
        42.5004         28.2504
 -15551945.15548 -12407219.84246  20931218.7424                   20931207.4454
        48.5004         41.0004
  -8001474.69945  -6134620.69745  24964609.3204                   24964602.4184
        33.7504         32.0004
 -17391205.65647 -12846977.29445  22468884.1094                   22468871.5234
        47.0004         35.7504
 -22803223.30648 -19425595.66849  21010923.8914                   21010914.4104
        52.5004         55.0004
  -3148118.08345  -2422686.20842  25063747.0164                   25063737.0084
        34.7504         16.2504
 -13418065.05347 -11233461.21247  22569701.4844                   22569690.3054
        44.5004         46.7504
  -9412743.53446  -8476986.60846  23094177.2894                   23094168.6294
        40.5004         39.5004
  -3310327.32445  -2800063.88644  24655231.0704                   24655223.8754
        33.0004         28.5004
 -18920058.52048 -20967518.85549  20555533.3364                   20555523.9144
        52.0004         54.7504
 23  1  7  1  5  0.0000000  0 12G24G23G22G27G08G21G10G12G31G01G25G32
  -9957731.06155  -8358773.36453  24581567.0084                   24581557.2934
        34.5004         18.2504
  -3366946.08646  -4778391.39944  23368118.9694                   23368108.2584
        41.0004         28.5004
 -15587391.47447 -12434840.34346  20924473.5944                   20924462.0634
        47.0004         40.7504
    548258.85955  -5794550.44853  25779443.7974                   25779433.3204
        32.7504         22.5004
  -7924146.16246  -6074364.69645  24979326.4064                   24979316.8094
        36.5004         33.2504
 -17428865.48447 -12876322.61246  22461717.2664                   22461705.4414
        44.7504         36.0004
 -22761901.49948 -19393396.86649  21018786.9534                   21018777.7664
        50.5004         54.7504
  -3203809.41146  -2466081.95042  25053150.0004                   25053139.4064
        36.0004         17.7504
 -13525966.73747 -11317540.44747  22549169.0634                   22549157.7074
        45.0004         46.5004
  -9500340.19546  -8545243.73246  23077507.8284                   23077499.3444
        41.2504         39.5004
  -3388472.95145  -2860956.58944  24640361.1024                   24640353.0864
        34.7504         29.0004
 -18905113.53348 -20955873.41349  20558377.5704                   20558368.0314
        51.2504         55.0004
 23  1  7  1  5 30.0000000  0 12G24G23G22G27G08G21G10G12G31G01G25G32
  -9851147.57145  -8275721.31043  24601848.2344                   24601841.2734
        33.5004         20.2504
  -3280824.88546  -4711284.01944  23384507.6724                   23384497.6054
        41.7504         28.7504
 -15622500.60348 -12462198.11546  20917792.1724                   20917781.1094
        48.5004         41.0004
    638605.56945  -5724150.39144  25796634.4774                   25796626.5204
        32.2504         25.0004
  -7846669.06645  -6013992.96945  24994068.9064                   24994061.5354
        35.2504         32.0004
 -17466086.51647 -12905326.01645  22454634.2034                   22454622.4384
        46.5004         35.7504
 -22720242.54648 -19360935.35749  21026714.1254                   21026705.1134
        50.7504         54.7504
  -3259117.65146  -2509179.33342  25042624.4534                   25042614.5634
        36.0004         17.7504
 -13633601.32847 -11401411.55047  22528686.9224                   22528675.2734
        44.5004         46.7504
  -9587552.56046  -8613201.41246  23060912.1484                   23060903.8404
        41.0004         40.2504
  -3466410.07645  -2921686.78644  24625530.1724                   24625522.3914
        34.2504         29.5004
 -18889827.22248 -20943961.99949  20561286.3134                   20561277.1254
        51.0004         55.2504
 23  1  7  1  6  0.0000000  0 11G24G23G22G08G21G10G12G31G01G25G32
  -9744334.90845  -8192490.68543  24622174.5784                   24622165.7424
        35.0004         19.5004
  -3194510.37146  -4644025.98944  23400932.8914                   23400922.0044
        41.5004         28.5004
 -15657272.07247 -12489292.75346  20911176.0084                   20911164.1254
        47.0004         41.0004
  -7769045.17046  -5953506.80045  25008842.7274                   25008832.6024
        38.7504         34.0004
 -17502867.09047 -12933986.20546  22447635.3914                   22447622.8634
        45.0004         36.0004
 -22678245.61648 -19328210.50049  21034706.2194                   21034697.2074
        52.0004         54.7504
  -3314039.54345  -2551975.61142  25032172.2194                   25032163.2074
        34.5004         17.7504
 -13740964.99447 -11485071.55447  22508256.2814                   22508244.8094
        44.5004         46.7504
  -9674377.30146  -8680857.02446  23044389.2664                   23044381.4264
        40.2504         40.0004
  -3544135.09945  -2982251.73145  24610739.4774                   24610732.5164
        35.0004         30.0004
 -18874200.08448 -20931785.01049  20564260.4534                   20564250.7974
        52.0004         55.0004
 23  1  7  1  6 30.0000000  0 11G24G23G22G08G21G10G12G31G01G25G32
  -9637300.59745  -8109087.32743  24642542.5084                   24642534.3164
        34.0004         19.7504
  -3108007.69446  -4576621.33344  23417393.3524                   23417382.5824
        41.0004         28.7504
 -15691711.13147 -12516128.38546  20904622.3134                   20904610.8984
        47.5004         41.2504
  -7691282.39145  -5892912.38745  25023637.3204                   25023629.8324
        34.2504         32.5004
 -17539211.49047 -12962306.52546  22440719.1094                   22440706.9344
        45.0004         36.2504
 -22635915.19848 -19295225.76749  21042761.4534                   21042751.7974
        50.7504         54.7504
  -3368577.01445  -2594472.39042  25021793.7274                   25021784.3634
        32.7504         16.2504
 -13848059.37947 -11568521.72147  22487876.3594                   22487865.2384
        44.2504         46.5004
  -9760816.17846  -8748211.98746  23027941.3204                   23027932.1334
        41.2504         39.7504
  -3621649.07945  -3042652.22244  24595988.5554                   24595981.7704
        34.2504         29.7504
 -18858237.67648 -20919346.76249  20567297.7734                   20567288.2344
        50.2504         55.0004
 23  1  7  1  7  0.0000000  0 11G24G23G22G08G21G10G12G31G01G25G32
  -9530044.55445  -8025511.26643  24662953.2814                   24662944.1524
        35.0004         21.7504
  -3021314.82646  -4509068.48944  23433889.6884                   23433879.7384
        41.0004         28.2504
 -15725814.83648 -12542702.69346  20898132.6254                   20898121.0944
        49.0004         41.0004
  -7613381.29445  -5832210.26345  25038461.5314                   25038454.0434
        35.0004         31.7504
 -17575114.54347 -12990282.93146  22433887.2584                   22433874.9064
        46.7504         36.5004
 -22593248.27748 -19261978.82649  21050880.4064                   21050871.4534
        51.5004         54.7504
  -3422724.52545  -2636665.16242  25011490.1414                   25011479.6054
        35.7504         17.2504
 -13954878.85147 -11651757.67347  22467549.9924                   22467538.1094
        45.0004         46.7504
  -9846863.69046  -8815261.96946  23011566.7274                   23011558.3594
        40.5004         40.2504
  -3698946.26455  -3102883.78354  24581280.1414                   24581272.1844
        35.5004         29.5004
 -18841938.28248 -20906645.92749  20570398.7194                   20570389.8834
        52.0004         55.0004
 23  1  7  1  7 30.0000000  0 11G24G23G22G08G21G10G12G31G01G25G32
  -9422571.61945  -7941766.05643  24683404.4064                   24683395.3364
        35.7504         19.7504
  -2934434.24746  -4441369.38544  23450423.3134                   23450412.8954
        41.0004         29.0004
 -15759585.27248 -12569017.31646  20891706.1094                   20891694.6374
        49.0004         41.5004
  -7535346.08646  -5771403.57545  25053312.0634                   25053303.9304
        36.0004         33.5004
 -17610577.62047 -13017916.50046  22427139.1644                   22427126.5784
        47.0004         36.2504
 -22550246.68548 -19228471.10749  21059063.2424                   21059054.2894
        51.5004         55.0004
  -3476481.15846  -2678553.49542  25001262.1254                   25001250.3014
        36.5004         16.2504
 -14061422.15547 -11734778.42847  22447275.1884                   22447263.6564
        44.2504         46.5004
  -9932518.80046  -8882006.19946  22995266.7664                   22995258.2234
        40.0004         40.2504
  -3776025.02345  -3162945.13544  24566611.8134                   24566604.5004
        34.7504         29.5004
 -18825304.71148 -20893684.70949  20573564.4144                   20573555.4024
        51.2504         54.7504
 23  1  7  1  8  0.0000000  0 11G24G23G22G08G21G10G12G31G01G25G32
  -9314882.44645  -7857852.46643  24703896.6484                   24703888.1644
        34.7504         19.7504
  -2847364.46946  -4373522.85644  23466992.2584                   23466981.8404
        41.5004         28.2504
 -15793020.92248 -12595071.07646  20885343.6334                   20885331.8674
        49.0004         41.0004
  -7457177.83246  -5710493.31245  25068186.3284                   25068178.7234
        36.0004         31.5004
 -17645597.06047 -13045204.38246  22420474.9774                   22420462.3324
        47.0004         36.5004
 -22506908.29248 -19194700.94649  21067310.4224                   21067301.2344
        51.0004         55.0004
  -3529842.18146  -2720133.48142  24991108.9614                   24991096.9614
        36.5004         16.7504
 -14167684.08447 -11817579.93747  22427054.2664                   22427042.5004
        44.5004         46.5004
 -10017776.74946  -8948440.96146  22979042.5084                   22979034.6094
        40.0004         40.5004
  -3852880.16545  -3222832.22644  24551986.6334                   24551979.7894
        34.7504         29.5004
 -18808335.95448 -20880462.29549  20576793.3914                   20576784.3204
        50.5004         55.7504
 23  1  7  1  8 30.0000000  0 11G24G23G22G08G21G10G12G31G01G25G32
  -9206981.05545  -7773773.50343  24724429.6024                   24724421.2344
        34.2504         19.7504
  -2760107.27746  -4305530.27044  23483596.2734                   23483586.0314
        40.7504         25.5004
 -15826123.00748 -12620864.89646  20879044.4694                   20879032.9384
        48.5004         41.0004
  -7378880.83546  -5649482.64145  25083087.8914                   25083077.7664
        37.5004         32.5004
 -17680173.12247 -13072146.76946  22413895.1094                   22413882.6414
        45.5004         36.5004
 -22463233.84448 -19160668.92449  21075621.7034                   21075612.2234
        51.5004         54.7504
  -3582805.76345  -2761403.84342  24981027.8054                   24981019.1454
        34.0004         17.7504
 -14273662.70147 -11900160.66747  22406886.7974                   22406875.6764
        44.5004         47.0004
 -10102635.66046  -9014564.78046  22962894.7504                   22962886.3244
        40.5004         40.2504
  -3929509.31145  -3282543.25645  24537406.2344                   24537397.9264
        35.2504         30.7504
 -18791033.99348 -20866980.24249  20580086.2424                   20580076.5864
        51.2504         55.0004
 23  1  7  1  9  0.0000000  0 11G24G23G22G08G21G10G12G31G01G25G32
  -9098870.08645  -7689531.16843  24745001.9924                   24744993.3914
        33.5004         20.0004
  -2672663.32946  -4237392.17544  23500236.6334                   23500226.1564
        41.2504         28.5004
 -15858891.99047 -12646399.16846  20872808.6644                   20872797.4264
        47.5004         41.0004
  -7300457.63245  -5588373.60245  25098009.9304                   25098002.0904
        35.7504         33.2504
 -17714304.53347 -13098742.67146  22407400.4454                   22407388.1524
        45.5004         36.2504
 -22419223.39448 -19126375.07749  21083996.4224                   21083986.8244
        50.7504         54.7504
  -3635369.48745  -2802362.55242  24971025.5474                   24971016.2424
        35.2504         17.7504
 -14379355.20247 -11982518.46247  22386774.5474                   22386762.4884
        44.7504         47.0004
 -10187092.97146  -9080375.65646  22946823.1884                   22946814.4104
        41.0004         40.7504
  -4005909.43945  -3342075.80145  24522867.1804                   24522858.6374
        35.0004         30.0004
 -18773399.99448 -20853239.46549  20583441.6094                   20583432.3054
        50.5004         54.7504
 23  1  7  1  9 30.0000000  0 11G24G23G22G08G21G10G12G31G01G25G32
  -8990551.99445  -7605127.45843  24765615.1954                   24765605.5984
        35.0004         21.2504
  -2585032.65646  -4169108.57744  23516912.3674                   23516901.8914
        41.5004         27.5004
 -15891327.08648 -12671673.26246  20866636.2974                   20866624.8834
        48.0004         41.2504
  -7221910.68245  -5527168.25445  25112957.1024                   25112948.5594
        35.7504         31.2504
 -17747989.30147 -13124990.54646  22400990.7344                   22400978.1484
        47.0004         37.0004
 -22374876.12248 -19091818.77349  21092435.4614                   21092426.0984
        50.7504         55.0004
  -3687529.98345  -2843007.04742  24961100.6414                   24961091.2774
        35.5004         17.7504
 -14484757.88447 -12064650.41847  22366717.2894                   22366705.6994
        45.5004         47.2504
 -10271145.14346  -9145870.85346  22930828.2584                   22930820.4774
        41.2504         40.7504
  -4082076.64345  -3401426.85044  24508373.5944                   24508364.7584
        35.5004         29.7504
 -18755434.29948 -20839240.21749  20586860.5864                   20586851.3984
        50.7504         54.7504
 23  1  7  1 10  0.0000000  0 11G24G23G22G08G21G10G12G31G01G25G32
  -8882029.27255  -7520564.32553  24786265.2344                   24786258.0394
        32.2504         18.5004
  -2497215.88746  -4100679.98144  23533624.0084                   23533613.2974
        40.7504         28.5004
 -15923428.78148 -12696687.56046  20860528.0864                   20860516.4384
        48.5004         41.7504
  -7143243.33946  -5465869.03045  25127928.8204                   25127917.8754
        37.0004         31.7504
 -17781226.24447 -13150889.47546  22394666.0634                   22394653.4184
        46.5004         36.7504
 -22330192.26648 -19057000.19049  21100938.5474                   21100929.2424
        50.7504         54.7504
  -3739284.75845  -2883335.43542  24951250.1254                   24951242.6954
        34.2504         16.7504
 -14589867.69947 -12146554.16147  22346715.0784                   22346703.8404
        45.5004         47.2504
 -10354789.40046  -9211048.18146  22914912.2584                   22914903.2464
        41.5004         41.5004
  -4158007.42745  -3460593.69045  24493923.8364                   24493916.2894
        35.0004         31.5004
 -18737137.91048 -20824983.28749  20590341.9224                   20590332.9104
        50.5004         55.2504
 23  1  7  1 10 30.0000000  0 11G24G23G22G08G21G10G12G31G01G25G32
  -8773306.06545  -7435844.95143  24806955.6884                   24806946.7344
        33.5004         18.5004
  -2409214.83646  -4032107.78144  23550369.0784                   23550358.6024
        40.7504         26.5004
 -15955198.47248 -12721443.15746  20854482.1884                   20854470.3054
        48.0004         41.2504
  -7064459.29646  -5404478.79545  25142919.5164                   25142910.6804
        36.0004         31.2504
 -17814015.47547 -13176439.52246  22388425.4774                   22388413.7704
        45.0004         36.2504
 -22285172.60548 -19021919.94849  21109505.5634                   21109496.1994
        50.2504         55.0004
  -3790631.85446  -2923346.10542  24941481.2664                   24941470.6724
        36.2504         17.7504
 -14694682.87547 -12228228.31647  22326769.3524                   22326758.3484
        45.7504         47.5004
 -10438024.08146  -9275906.37946  22899072.2424                   22899063.6414
        41.2504         40.7504
  -4233699.88746  -3519574.83745  24479519.2034                   24479512.2424
        36.2504         30.7504
 -18718512.89248 -20810470.28449  20593886.1484                   20593877.0204
        50.7504         55.0004
 23  1  7  1 11  0.0000000  0 11G24G23G22G08G21G10G12G31G01G25G32
  -8664383.86345  -7350970.56243  24827681.5004                   24827673.9534
        30.2504         19.7504
  -2321028.85346  -3963391.48444  23567150.8444                   23567140.3674
        41.0004         27.7504
 -15986635.28547 -12745939.35346  20848500.1174                   20848488.4104
        47.0004         41.7504
  -6985560.37845  -5342999.15545  25157929.8524                   25157924.5314
        32.7504         30.5004
 -17846355.01647 -13201639.15646  22382271.2424                   22382259.8284
        44.5004         36.2504
 -22239815.47248 -18986576.73949  21118136.6564                   21118127.3524
        50.7504         55.0004
  -3841567.81345  -2963036.43343  24931787.6024                   24931777.1254
        35.7504         19.0004
 -14799199.35047 -12309669.72147  22306880.3594                   22306869.2384
        45.7504         47.7504
 -10520845.23347  -9340442.33046  22883312.8444                   22883303.8324
        42.5004         41.5004
  -4309149.45245  -3578366.70345  24465161.8364                   24465154.6414
        34.7504         30.5004
 -18699559.07848 -20795701.07149  20597492.9454                   20597483.7584
        50.0004         55.0004
 23  1  7  1 11 30.0000000  0 11G24G23G22G08G21G10G12G31G01G25G32
  -8555266.09355  -7265943.70953  24848447.0234                   24848438.5394
        34.2504         19.0004
  -2232659.38446  -3894532.19144  23583967.3444                   23583956.5164
        41.2504         27.0004
 -16017740.03548 -12770176.82346  20842581.0634                   20842569.4144
        48.2504         41.0004
  -6906550.62445  -5281433.11045  25172967.0394                   25172959.3164
        34.2504         31.2504
 -17878244.04047 -13226487.75246  22376203.9774                   22376191.6254
        46.0004         36.5004
 -22194121.57348 -18950971.11349  21126832.0164                   21126822.3014
        51.2504         55.0004
  -3892090.56946  -3002404.80142  24922175.0864                   24922161.9144
        37.0004         17.7504
 -14903414.50347 -12390876.32047  22287050.0394                   22287038.0394
        46.5004         47.7504
 -10603250.71246  -9404654.38946  22867630.9924                   22867622.0984
        41.7504         41.2504
  -4384353.40845  -3636967.19145  24450850.3674                   24450843.9344
        35.0004         30.5004
 -18680278.14648 -20780676.97749  20601162.1094                   20601152.9224
        51.5004         55.0004
 23  1  7  1 12  0.0000000  0 11G24G23G22G08G21G10G12G31G01G25G32
                                  24869246.9844                   24869239.9064
        31.2504         19.2504
  -2144105.76946  -3825529.43444  23600817.6094                   23600807.5434
        40.0004         27.0004
 -16048511.85348 -12794154.85146  20836724.9924                   20836713.8134
        48.5004         41.2504
  -6827431.28645  -5219781.66145  25188021.5864                   25188015.5634
        33.5004         30.5004
 -17909679.73147 -13250983.09846  22370221.7274                   22370209.3754
        46.7504         36.5004
 -22148089.95348 -18915102.32249  21135591.3594                   21135582.2894
        52.0004         54.7504
  -3942195.95246  -3041447.92742  24912638.8444                   24912627.4884
        36.0004         17.2504
 -15007323.98347 -12471844.73847  22267275.8524                   22267264.5554
        46.0004         47.7504
 -10685236.53746  -9468539.41646  22852029.6414                   22852020.8634
        41.2504         41.2504
  -4459307.40945  -3695372.89844  24436587.9844                   24436580.4384
        35.0004         29.7504
 -18660669.88848 -20765397.81249  20604893.9064                   20604884.3674
        52.5004         54.7504
 23  1  7  1 12 30.0000000  0 11G24G23G22G08G21G10G12G31G01G25G32
  -8336454.29445  -7095441.04843  24890085.5164                   24890076.8554
        32.7504         18.5004
  -2055371.73146  -3756386.07844  23617704.3594                   23617693.1214
        40.7504         26.0004
 -16078954.09247 -12817876.06946  20830931.5864                   20830920.5824
        47.7504         41.0004
  -6748208.24445  -5158049.48945  25203100.0004                   25203090.8714
        35.5004         31.2504
 -17940664.35447 -13275126.97446  22364325.8834                   22364313.1214
        47.0004         37.2504
 -22101723.50448 -18878972.63249  21144414.3594                   21144406.0514
        51.0004         54.7504
  -3991884.88546  -3080166.62942  24903183.5164                   24903170.9304
        36.5004         16.7504
 -15110928.02047 -12552575.15548  22247560.9694                   22247548.9104
        47.5004         48.0004
 -10766802.95546  -9532097.68446  22836507.9924                   22836499.3914
        41.0004         41.7504
  -4534011.10445  -3753583.55745  24422372.3284                   24422364.6054
        34.2504         31.0004
 -18640738.33248 -20749866.72749  20608686.6644                   20608677.2424
        52.5004         55.0004
 23  1  7  1 13  0.0000000  0 11G24G23G22G08G21G10G12G31G01G25G32
  -8226766.61645  -7009970.10243  24910957.6884                   24910949.8484
        32.0004         18.5004
  -1966455.69446  -3687100.89644  23634624.2344                   23634613.2894
        40.5004         26.5004
 -16109064.75048 -12841338.91646  20825202.2034                   20825190.6724
        48.5004         41.0004
  -6668882.33146  -5096237.05045  25218195.8984                   25218185.6564
        36.5004         31.2504
 -17971194.89347 -13298917.00146  22358515.8134                   22358503.5204
        46.2504         37.2504
 -22055019.68148 -18842580.05749  21153302.3364                   21153293.2074
        51.5004         55.0004
  -4041152.00745  -3118556.63542  24893808.1804                   24893795.8284
        35.2504         16.2504
 -15214221.32547 -12633063.43848  22227905.5864                   22227893.8204
        46.5004         48.0004
 -10847944.96446  -9595325.19446  22821066.8674                   22821058.6174
        41.0004         41.2504
  -4608459.09745  -3811595.00045  24408206.3984                   24408197.7384
        33.7504         31.0004
 -18620482.19148 -20734082.72449  20612541.1564                   20612531.4414
        52.2504         54.7504
 23  1  7  1 13 30.0000000  0 11G24G23G22G08G21G10G12G31G01G25G32
  -8116894.35655  -6924355.47952  24931866.8054                   24931857.9104
        32.2504         17.2504
  -1877358.73246  -3617674.73944  23651578.8054                   23651568.6804
        40.7504         26.0004
 -16138844.56948 -12864543.96746  20819535.6644                   20819524.0164
        48.2504         41.2504
  -6589456.69245  -5034346.88145  25233309.7504                   25233300.6214
        34.5004         30.7504
 -18001270.57047 -13322352.59346  22352792.4144                   22352780.1214
        46.2504         37.0004
 -22007978.77348 -18805924.81349  21162253.4454                   21162244.9614
        50.0004         54.7504
  -4089995.57045  -3156616.47942  24884513.6644                   24884501.9574
        35.5004         16.7504
 -15317201.34147 -12713307.60248  22208307.4534                   22208296.5084
        45.7504         48.0004
 -10928660.27946  -9658220.25946  22805708.0394                   22805699.0274
        41.5004         41.5004
  -4682648.53345  -3869404.94845  24394087.5234                   24394081.1484
        35.0004         31.7504
 -18599902.97348 -20718046.96049  20616457.2504                   20616448.1804
        52.5004         55.0004
 23  1  7  1 14  0.0000000  0 11G24G23G22G08G21G10G12G31G01G25G32
  -8006839.98455  -6838598.77353  24952809.8054                   24952800.4414
        33.0004         19.0004
  -1788081.21246  -3548107.89144  23668567.3984                   23668557.0394
        39.7504         26.0004
 -16168293.79247 -12887491.40846  20813931.1414                   20813919.9614
        47.5004         41.5004
  -6509934.51145  -4972381.60445  25248441.0864                   25248432.3094
        34.5004         30.7504
 -18030889.70047 -13345432.45046  22347156.1724                   22347144.1134
        47.0004         37.0004
 -21960600.59348 -18769006.76049  21171269.3204                   21171260.3094
        51.0004         54.7504
  -4138412.50645  -3194344.01143  24875299.5004                   24875290.0784
        34.7504         19.2504
 -15419864.94047 -12793305.20848  22188772.2894                   22188760.4654
        45.2504         48.0004
 -11008945.77846  -9720780.36046  22790428.9844                   22790421.4384
        41.2504         41.7504
  -4756575.62945  -3927010.48245  24380018.6564                   24380012.9264
        34.7504         30.7504
 -18579001.29948 -20701759.93549  20620434.6644                   20620425.4184
        52.7504         54.7504
 23  1  7  1 14 30.0000000  0 11G24G23G22G08G21G10G12G31G01G25G32
  -7896606.89345  -6752702.90443  24973785.3834                   24973777.0164
        31.2504         18.2504
  -1698624.51246  -3478401.41544  23685590.8984                   23685580.3634
        39.7504         26.0004
 -16197413.02247 -12910181.70746  20808389.7664                   20808378.7034
        47.0004         41.2504
  -6430319.07645  -4910343.54245  25263589.7344                   25263582.4804
        31.5004         30.7504
 -18060052.28847 -13368156.54346  22341606.9224                   22341594.2774
        46.5004         37.0004
 -21912885.84648 -18731826.44349  21180349.2344                   21180340.1644
        50.5004         54.7504
  -4186400.89246  -3231737.51743  24866168.1644                   24866158.0394
        37.0004         18.2504
 -15522209.62147 -12873054.30348  22169295.8984                   22169284.6604
        46.2504         48.2504
 -11088799.44146  -9783004.00246  22775233.8834                   22775225.2814
        41.2504         41.5004
  -4830238.05745  -3984409.76044  24366002.8834                   24365993.5784
        33.7504         29.7504
 -18557778.87848 -20685222.99449  20624472.9774                   20624463.6724
        52.5004         55.0004
 23  1  7  1 15  0.0000000  0 11G24G23G22G08G21G10G12G31G01G25G32
  -7786197.42345  -6666669.57343  24994796.6884                   24994787.5594
        33.7504         19.0004
  -1608988.89546  -3408555.51244  23702647.3204                   23702637.3134
        39.5004         26.0004
 -16226202.14347 -12932614.77346  20802911.2734                   20802900.2114
        47.7504         41.5004
  -6350612.37645  -4848234.51944  25278756.7424                   25278751.9534
        31.0004         29.5004
 -18088756.55447 -13390523.50246  22336144.1884                   22336131.9534
        46.0004         36.5004
 -21864833.75648 -18694383.27349  21189493.1024                   21189484.3244
        49.0004         54.7504
  -4233957.59645  -3268794.71443  24857117.7584                   24857108.9804
        35.2504         19.0004
 -15624232.12247 -12952552.35748  22149882.1254                   22149870.9454
        46.2504         48.5004
 -11168218.09546  -9844888.64746  22760120.4454                   22760112.2544
        40.0004         41.0004
  -4903631.97845  -4041599.80945  24352036.1334                   24352027.2974
        33.5004         30.5004
 -18536236.26148 -20668436.54449  20628572.6804                   20628563.1994
        51.7504         55.0004
 23  1  7  1 15 30.0000000  0 11G24G23G22G08G21G10G12G31G01G25G32
  -7675614.12645  -6580500.77843  25015839.1334                   25015831.2934
        31.7504         18.5004
  -1519174.81046  -3338570.58744  23719738.5234                   23719728.1644
        39.0004         25.5004
 -16254661.37347 -12954790.79146  20797496.4224                   20797484.3634
        47.0004         41.0004
  -7846238.23855  -6013657.25355  25293942.6644                   25293935.1764
        34.0004         30.5004
 -18117001.63147 -13412532.66246  22330769.7894                   22330757.2624
        47.2504         37.2504
 -21816444.24048 -18656677.15549  21198701.1414                   21198692.3054
        49.5004         54.7504
  -4281080.15545  -3305513.54943  24848149.5944                   24848141.9304
        33.5004         19.5004
 -15725929.09747 -13031796.74548  22130529.8054                   22130518.5664
        45.7504         48.2504
 -11247198.77947  -9906432.04446  22745091.7274                   22745083.1844
        42.5004         41.7504
  -4976754.02645  -4098577.98745  24338121.0944                   24338113.8984
        33.5004         30.2504
 -18514374.30648 -20651401.25849  20632732.8674                   20632723.3874
        52.7504         55.0004
 23  1  7  1 16  0.0000000  0 11G24G23G22G08G21G10G12G31G01G25G32
  -9140280.90355  -7721799.64753  25036916.0394                   25036906.5594
        33.5004         19.0004
  -1429184.27446  -3268448.13044  23736863.5234                   23736852.9884
        39.2504         25.2504
 -16282792.37647 -12976711.04646  20792142.8914                   20792131.5354
        47.2504         41.2504
  -7766359.84145  -5951414.33745  25309141.4064                   25309135.5594
        32.0004         30.2504
 -18144787.52647 -13434184.01446  22325482.5474                   22325469.9614
        46.7504         36.7504
 -21767718.66048 -18618709.18049  21207973.8524                   21207964.7234
        49.7504         54.7504
  -4327767.08745  -3341892.92743  24839266.8204                   24839257.6914
        35.7504         19.5004
 -15827298.74247 -13110786.07448  22111239.9224                   22111228.5664
        46.5004         48.5004
 -11325740.10346  -9967633.07746  22730145.1564                   22730137.4924
        41.2504         41.7504
  -5049602.12045  -4155342.73845  24324257.8204                   24324251.3874
        32.7504         30.5004
 -18492195.25248 -20634118.87549  20636953.2894                   20636943.6334
        52.7504         55.0004
 23  1  7  1 16 30.0000000  0 11G24G23G22G08G21G10G12G31G01G25G32
  -9029359.32845  -7635367.19743  25058022.9774                   25058014.6684
        33.5004         19.2504
  -1339016.78246  -3198187.80244  23754021.7664                   23754011.4064
        39.0004         25.7504
 -16310594.39647 -12998374.95446  20786852.6024                   20786841.0704
        47.7504         41.5004
  -7686399.37945  -5889107.44945  25324359.3134                   25324351.4144
        35.0004         30.7504
 -18172112.18447 -13455475.95246  22320282.4384                   22320270.2034
        47.2504         37.0004
 -21718655.71848 -18580478.32849  21217309.7274                   21217300.7154
        50.0004         54.5004
  -4374014.71246  -3377930.04743  24830466.3914                   24830455.9734
        36.2504         19.7504
 -15928337.19747 -13189517.33848  22092013.3284                   22092001.7384
        46.2504         48.7504
 -11403838.15847 -10028488.69747  22715284.5474                   22715275.5944
        42.5004         42.0004
  -5122171.96445  -4211890.64745  24310448.0704                   24310441.1684
        33.2504         30.0004
 -18469698.99248 -20616589.32849  20641234.3134                   20641224.8914
        53.0004         55.0004
 23  1  7  1 17  0.0000000  0 11G24G23G22G08G21G10G12G31G01G25G32
  -8918272.93945  -7548806.44042  25079161.7344                   25079153.4264
        31.0004         17.7504
  -1248673.75346  -3127790.66144  23771213.6334                   23771203.3324
        38.5004         25.7504
 -16338068.53447 -13019783.37346  20781624.4064                   20781612.8164
        47.7504         41.5004
  -7606360.51146  -5826739.50245  25339593.5314                   25339582.8794
        36.5004         31.0004
 -18198975.32547 -13476408.27946  22315170.6884                   22315158.2194
        46.5004         37.0004
 -21669256.12948 -18541985.15449  21226710.5394                   21226701.4694
        49.5004         54.5004
  -4419821.31545  -3413623.49143  24821749.0234                   24821739.1914
        35.5004         19.0004
 -16029042.18547 -13267988.74448  22072849.3594                   22072838.0634
        46.5004         48.5004
 -11481490.95747 -10088997.37046  22700507.4844                   22700498.3554
        42.5004         41.5004
  -5194460.94745  -4268219.72245  24296693.5474                   24296684.5944
        34.2504         31.0004
 -18446887.21948 -20598813.92149  20645574.9844                   20645565.9734
        53.2504         55.0004
 23  1  7  1 17 30.0000000  0 11G24G23G22G08G21G10G12G31G01G25G32
  -8807023.65955  -7462118.77152  25100331.2974                   25100323.1054
        32.0004         17.2504
  -1158155.43446  -3057256.97544  23788438.0314                   23788428.6094
        38.2504         26.5004
 -16365214.49647 -13040936.07546  20776458.4924                   20776447.0784
        47.5004         41.5004
  -7526245.26456  -5764312.05655  25354838.4534                   25354828.5634
        37.0004         31.5004
 -18225375.52347 -13496979.86346  22310147.1094                   22310134.6994
        46.2504         36.7504
 -21619519.43748 -18503229.29149  21236174.8364                   21236165.8244
        49.2504         54.5004
  -4465184.30345  -3448971.27343  24813116.9384                   24813107.1644
        34.0004         18.2504
 -16129410.33647 -13346197.68048  22053750.0394                   22053738.9184
        46.5004         49.0004
 -11558695.37946 -10149156.65546  22685816.0004                   22685807.3404
        41.7504         41.5004
  -5266465.36645  -4324327.05345  24282991.2274                   24282982.5664
        34.0004         30.0004
 -18423760.48748 -20580793.09849  20649975.9454                   20649966.5234
        53.2504         54.7504
 23  1  7  1 18  0.0000000  0 11G24G23G22G08G21G10G12G31G01G25G32
  -8695614.75545  -7375306.63343  25121531.9774                   25121523.9024
        33.2504         19.2504
  -1067462.73346  -2986587.38644  23805697.2504                   23805686.7734
        39.0004         25.7504
 -16392032.77647 -13061833.43746  20771355.3594                   20771343.8874
        46.5004         41.5004
  -7446057.26945  -5701827.85645  25370094.5704                   25370086.3204
        33.5004         30.7504
 -18251312.13347 -13517190.21146  22305211.0704                   22305198.7194
        45.5004         36.5004
 -21569445.73348 -18464210.84249  21245703.7274                   21245694.8324
        48.7504         54.2504
  -4510101.28245  -3483971.52642  24804569.1174                   24804559.5784
        34.7504         17.7504
 -16229438.75047 -13424141.88948  22034716.0394                   22034703.5704
        46.5004         49.0004
 -11635448.92246 -10208964.60346  22671210.5164                   22671201.3874
        41.5004         41.7504
  -5338182.30745  -4380210.37645  24269341.8204                   24269336.2664
        31.5004         30.2504
 -18400320.03948 -20562527.82549  20654436.7194                   20654427.0634
        53.2504         54.7504
 23  1  7  1 18 30.0000000  0 11G24G23G22G08G21G10G12G31G01G25G32
  -8584039.22555  -7288364.70552  25142763.0864                   25142756.2424
        30.7504         16.2504
   -976586.90746  -2915775.12044  23822990.7424                   23822979.8554
        39.7504         26.5004
 -16418514.46947 -13082468.52047  20766315.7734                   20766304.4184
        47.2504         42.0004
                                  25385370.1724                   25385362.5664
        36.7504         30.7504
 -18276774.34847 -13537030.90746  22300365.5864                   22300353.4694
        46.5004         37.2504
 -21519025.65148 -18424922.46549  21255298.0004                   21255289.3984
        49.0004         54.2504
  -4554560.15946  -3518614.72842  24796109.4774                   24796098.9414
        36.5004         17.7504
 -16329114.98047 -13501811.66748  22015747.5554                   22015735.8484
        46.5004         49.0004
 -11711739.49846 -10268411.79746  22656692.3754                   22656683.8324
        41.2504         41.5004
  -5409598.84845  -4435859.61145  24255752.4694                   24255746.5044
        33.0004         31.5004
 -18376557.39448 -20544011.48449  20658958.9694                   20658949.2544
        53.5004         54.7504
 23  1  7  1 19  0.0000000  0 11G24G23G22G08G21G10G12G31G01G25G32
                                  25164022.7274                   25164014.7114
        31.0004         15.5004
   -885555.31746  -2844841.45744  23840313.1254                   23840302.8244
        39.0004         24.5004
 -16444686.49247 -13102862.31246  20761335.2034                   20761324.3754
        47.2504         41.7504
  -7285468.79745  -5576694.30645  25400654.5394                   25400644.8834
        35.0004         31.0004
 -18301788.22947 -13556522.23746  22295605.8204                   22295593.5274
        47.5004         37.0004
 -21468285.65848 -18385384.82149  21264953.2504                   21264945.1174
        49.7504         54.2504
  -4598585.13146  -3552919.88243  24787730.4774                   24787721.2894
        36.0004         18.5004
 -16428462.81447 -13579225.54848  21996842.8284                   21996830.8874
        46.2504         49.0004
 -11787591.02547 -10327516.89047  22642258.6884                   22642250.0274
        42.0004         42.0004
  -5480738.64145  -4491293.21245  24242215.4224                   24242209.0474
        33.5004         31.7504
 -18352500.21648 -20525265.62649  20663536.5634                   20663526.8484
        53.5004         54.7504
 23  1  7  1 19 30.0000000  0 11G24G23G22G08G21G10G12G31G01G25G32
  -8360455.74545  -7114143.87043  25185310.8834                   25185302.9264
        31.0004         18.2504
   -794345.55746  -2773768.98444  23857670.2274                   23857658.9304
        39.5004         26.0004
 -16470525.95147 -13122996.95946  20756418.5704                   20756407.2734
        47.5004         41.7504
  -7205080.92945  -5514054.44645  25415950.8834                   25415943.6884
        33.5004         31.0004
 -18326329.51547 -13575645.32746  22290936.0314                   22290923.5044
        47.2504         37.5004
 -21417202.89448 -18345580.08249  21274674.8914                   21274665.7034
        48.7504         54.0004
  -4642150.80946  -3586867.13142  24779442.9844                   24779429.5204
        37.0004         17.7504
 -16527456.37247 -13656363.37048  21978004.0084                   21977992.8874
        46.7504         49.2504
 -11862977.73546 -10386259.76046  22627912.0164                   22627903.3554
        41.0004         41.5004
  -5551575.22645  -4546490.54645  24228736.5164                   24228728.7934
        34.0004         30.7504
 -18328126.39648 -20506273.04049  20668174.5554                   20668165.1914
        53.2504         54.7504
 23  1  7  1 20  0.0000000  0 11G24G23G22G08G21G10G12G31G01G25G32
  -8248425.38255  -7026847.50353  25206629.5634                   25206621.7814
        32.5004         18.2504
   -702953.65046  -2702554.54944  23875060.2734                   23875050.4414
        37.7504         25.5004
 -16496028.67047 -13142869.21346  20751565.4454                   20751553.9734
        46.5004         41.7504
                                  25431258.7584                   25431253.9104
        29.0004         28.5004
 -18350392.91247 -13594396.03346  22286356.3594                   22286344.3594
        45.2504         37.0004
 -21365772.37448 -18305504.36049  21284461.5234                   21284452.2774
        49.0004         54.0004
  -4685249.87146  -3620450.85943  24771240.1564                   24771228.3324
        36.5004         18.2504
 -16626087.76847 -13733218.98748  21959235.1254                   21959223.8284
        46.2504         49.2504
 -11937892.28346 -10444634.73047  22613657.4924                   22613648.0704
        41.7504         42.0004
  -5622100.63345  -4601445.40145  24215315.5864                   24215308.4494
        34.0004         30.7504
 -18303432.21548 -20487030.83549  20672873.7894                   20672864.0164
        52.7504         54.7504
 23  1  7  1 20 30.0000000  0 11G24G23G22G08G21G10G12G31G01G25G32
  -8136257.86655  -6939444.29752  25227973.4064                   25227966.0944
        32.2504         17.2504
   -611400.38546  -2631214.40744  23892482.2424                   23892472.6454
        38.2504         25.7504
 -16521214.99548 -13162494.92147  20746772.6484                   20746760.8244
        48.5004         42.0004
                                  25446578.2034                   25446574.5274
        30.7504         28.7504
 -18373997.38047 -13612789.12346  22281864.8204                   22281852.8794
        47.7504         37.0004
 -21314014.52648 -18265173.58549  21294310.8444                   21294301.7154
        49.0004         54.0004
  -4727900.16946  -3653684.80843  24763124.8914                   24763111.1334
        36.0004         18.2504
 -16724374.29847 -13809805.87848  21940532.3754                   21940520.4924
        46.5004         49.5004
 -12012351.98347 -10502655.27147  22599487.9844                   22599479.6764
        42.2504         42.0004
  -5692331.74345  -4656170.95245  24201951.6484                   24201943.6914
        34.2504         31.5004
 -18278438.72148 -20467555.38149  20677629.7584                   20677620.5124
        53.2504         55.0004
 23  1  7  1 21  0.0000000  0 11G24G23G22G08G21G10G12G31G01G25G32
                                  25249341.7894                   25249336.6484
        31.5004         17.7504
   -519685.29146  -2559748.17944  23909936.2734                   23909925.2704
        39.7504         24.5004
 -16546084.27648 -13181873.57847  20742040.0864                   20742028.5554
        48.0004         42.0004
  -6963555.65245  -5325852.89345  25461911.2344                   25461904.4494
        32.0004         30.7504
 -18397141.04748 -13630823.15446  22277461.1094                   22277448.6414
        48.5004         37.5004
 -21261927.83048 -18224586.56449  21304222.9694                   21304213.4304
        50.5004         54.0004
  -4770097.90746  -3686566.15042  24755094.8364                   24755082.0744
        36.7504         17.2504
 -16822311.81947 -13886120.81248  21921894.7894                   21921883.4344
        46.5004         49.5004
 -12086353.23746 -10560318.57746  22585405.8444                   22585396.6564
        41.5004         41.5004
  -5762264.34545  -4710663.88645  24188643.8134                   24188635.3874
        34.2504         31.5004
 -18253145.84848 -20447846.65849  20682443.0554                   20682433.4574
        53.2504         54.7504
 23  1  7  1 21 30.0000000  0 10G23G22G08G21G10G12G31G01G25G32
   -427793.72946  -2488144.41844  23927422.1094                   23927412.1604
        38.7504         24.7504
 -16570621.40348 -13200993.40847  20737370.6884                   20737359.2154
        48.2504         42.0004
  -6882939.26345  -5263034.91044  25477251.4694                   25477244.3914
        32.5004         29.2504
 -18419807.52848 -13648485.34746  22273148.0314                   22273135.3874
        48.2504         37.0004
 -21209497.40948 -18183731.70048  21314199.8054                   21314190.9104
        49.0004         53.7504
  -4811825.76046  -3719081.38943  24747154.2424                   24747140.7774
        37.2504         19.5004
 -16919881.75147 -13962149.31448  21903328.0234                   21903316.8444
        46.7504         49.5004
 -12159877.84547 -10617610.46347  22571414.8594                   22571405.4384
        42.2504         42.0004
  -5831879.55746  -4764909.48645  24175396.9774                   24175389.4304
        36.0004         33.0004
 -18227539.10648 -20427893.35349  20687315.8674                   20687306.4454
        53.5004         55.0004
 23  1  7  1 22  0.0000000  0 10G23G22G08G21G10G12G31G01G25G32
   -335733.74146  -2416409.45044  23944941.4534                   23944930.9184
        39.0004         26.0004
 -16594834.12247 -13219860.45847  20732763.4534                   20732752.1564
        46.7504         42.0004
  -6802272.75745  -5200177.86645  25492603.2034                   25492595.5984
        32.5004         31.2504
 -18442003.41047 -13665780.84546  22268923.9844                   22268911.1644
        45.7504         37.5004
 -21156730.22548 -18142614.43548  21324240.6024                   21324232.0004
        48.5004         53.5004
  -4853088.45745  -3751234.12043  24739300.0864                   24739289.3164
        35.2504         18.2504
 -17017089.01247 -14037895.22248  21884830.8914                   21884819.1254
        46.7504         49.5004
 -12232930.57746 -10674534.67446  22557512.6724                   22557505.0084
        40.5004         41.5004
  -5901181.63245  -4818911.11745  24162208.1334                   24162201.2894
        34.2504         33.0004
 -18201626.84348 -20407701.98349  20692246.4924                   20692236.8954
        52.2504         55.0004
 23  1  7  1 22 30.0000000  0 11G23G22G03G08G21G10G12G31G01G25G32
   -243506.06346  -2344543.76543  23962490.5864                   23962480.9884
        38.0004         22.5004
 -16618722.72747 -13238474.95247  20728217.3754                   20728205.9614
        47.7504         42.0004
                                  25758763.625
        29.000
  -6721559.30046  -5137284.28145  25507965.1094                   25507953.3444
        37.0004         31.7504
 -18463727.79947 -13682708.94846  22264790.0084                   22264777.3634
        47.0004         37.5004
 -21103626.36848 -18101234.81248  21334346.7894                   21334337.3094
        48.7504         53.5004
  -4893883.59746  -3783022.50243  24731538.6174                   24731527.3794
        37.0004         19.5004
 -17113930.53247 -14113356.12548  21866402.1094                   21866390.2274
        46.2504         49.7504
 -12305508.68646 -10731089.02046  22543700.8594                   22543693.0784
        40.5004         41.2504
  -5970167.38545  -4872666.24045  24149079.7504                   24149073.2584
        34.0004         31.7504
 -18175410.03948 -20387273.31549  20697235.5314                   20697226.2274
        52.7504         54.7504
 23  1  7  1 23  0.0000000  0 10G23G22G08G21G10G12G31G01G25G32
   -151111.27946  -2272547.91143  23980072.7584                   23980062.9264
        38.2504         23.7504
 -16642287.37347 -13256837.00246  20723733.7114                   20723722.1804
        47.0004         41.7504
  -6640801.68145  -5074356.19445  25523328.7274                   25523321.4734
        32.0004         30.2504
 -18484979.83947 -13699268.98246  22260746.1334                   22260733.6054
        46.2504         38.0004
 -21050185.76448 -18059592.80148  21344516.1954                   21344506.5984
        49.0004         53.5004
  -4934208.69746  -3814444.67243  24723865.6954                   24723854.0474
        37.7504         19.7504
 -17210403.17647 -14188529.60548  21848043.9534                   21848032.4224
        46.2504         49.7504
 -12377609.60346 -10787271.55246  22529981.9144                   22529973.0784
        41.5004         41.7504
  -6038833.27845  -4926172.12145  24136013.3364                   24136006.4924
        33.7504         31.0004
 -18148889.53948 -20366607.99649  20702282.4454                   20702272.4964
        52.2504         55.0004
 23  1  7  1 23 30.0000000  0 11G23G22G03G08G21G10G12G31G01G25G32
    -58551.32546  -2200423.33144  23997686.9924                   23997677.1024
        38.5004         24.5004
 -16665529.97147 -13274948.11647  20719310.4384                   20719298.9654
        47.2504         42.0004
                                  25720758.656
        26.250
  -6560004.10746  -5011397.16045  25538707.5474                   25538697.1884
        37.5004         30.7504
 -18505760.28847 -13715461.54546  22256791.9614                   22256779.1994
        46.2504         37.2504
 -20996409.89248 -18017689.53448  21354748.7424                   21354740.0824
        48.2504         53.5004
  -4974062.68946  -3845499.73743  24716282.2274                   24716270.2854
        37.7504         20.0004
 -17306505.26747 -14263414.34048  21829756.2584                   21829744.4924
        46.5004         49.7504
 -12449231.95247 -10843081.17646  22516352.8284                   22516343.4654
        42.0004         41.7504
  -6107177.53545  -4979427.41545  24123007.7424                   24123000.9574
        34.2504         31.7504
 -18122067.66648 -20345707.83949  20707386.4064                   20707376.6914
        52.7504         55.0004
 23  1  7  1 24  0.0000000  0 11G23G22G03G08G21G10G12G31G01G25G32
     34173.55346  -2128170.26943  24015331.1254                   24015321.5274
        37.5004         22.7504
 -16688450.07548 -13292807.93547  20714949.2504                   20714937.3094
        48.5004         42.2504
                                  25701743.516
        35.000
  -6479168.44545  -4948408.16144  25554085.1644                   25554080.1414
        30.0004         29.7504
 -18526066.87148 -13731284.85546  22252927.2194                   22252914.8094
        48.5004         37.7504
 -20942298.02648 -17975524.46848  21365046.2974                   21365037.2854
        49.5004         53.5004
  -5013442.87245  -3876185.60143  24708786.1414                   24708776.4264
        35.0004         19.2504
 -17402233.29447 -14338007.60348  21811539.8134                   21811527.9884
        46.2504         49.7504
 -12520372.51046 -10898515.36346  22502813.6334                   22502806.0274
        41.2504         41.5004
  -6175196.32745  -5032429.07345  24110064.6804                   24110057.3094
        34.5004         31.7504
 -18094944.73348 -20324573.09049  20712547.3754                   20712537.8954
        51.7504         54.7504
 23  1  7  1 24 30.0000000  0 10G23G22G08G21G10G12G31G01G25G32
    127074.20946  -2055780.21843  24033010.8054                   24033000.3874
        38.2504         22.7504
 -16711036.57648 -13310407.80547  20710650.9924                   20710639.5784
        48.0004         42.2504
                                  25569482.695
        36.500
 -18545887.47048 -13746729.48346  22249155.8444                   22249143.3164
        49.0004         37.5004
 -20887838.89848 -17933088.80848  21375408.9774                   21375400.0824
        49.2504         53.2504
  -5052335.35845  -3906491.39943  24701385.3914                   24701375.7344
        35.5004         19.2504
 -17497572.96147 -14412298.25048  21793397.1644                   21793385.6914
        46.2504         50.0004
 -12591017.08747 -10953563.09047  22489372.0004                   22489362.6374
        42.5004         42.0004
  -6242874.83945  -5085165.55645  24097185.6174                   24097179.0664
        34.7504         32.7504
 -18067510.14348 -20303195.48549  20717768.3444                   20717758.5124
        52.0004         55.2504
 23  1  7  1 25  0.0000000  0 11G23G22G03G08G21G10G12G31G01G25G32
    220126.72446  -1983271.83343  24050716.5394                   24050707.4694
        36.5004         21.7504
 -16733313.28547 -13327766.27547  20706411.9384                   20706400.6414
        47.7504         42.0004
                                  25663685.453
        29.250
                                  25584879.0234                   25584868.8984
        39.0004         34.5004
 -18565245.22147 -13761813.45146  22245471.7504                   22245459.6334
        47.7504         38.0004
 -20833055.33248 -17890400.32948  21385834.3754                   21385825.4804
        48.5004         53.2504
  -5090761.15746  -3936433.57443  24694073.3754                   24694063.7774
        36.7504         20.0004
 -17592544.60547 -14486302.12148  21775324.6254                   21775313.2704
        45.7504         50.0004
 -12661186.43746 -11008240.52246  22476019.0474                   22476009.8594
        41.5004         41.7504
  -6310233.23145  -5137652.61145  24084368.6484                   24084361.2774
        35.0004         33.2504
 -18039788.19348 -20281593.97249  20723043.6884                   20723034.0904
        51.5004         55.0004
 23  1  7  1 25 30.0000000  0 11G23G22G03G08G21G10G12G31G01G25G32
    313327.70546  -1910647.79143  24068454.0474                   24068443.3954
        38.5004         22.0004
 -16755283.00847 -13344885.53247  20702231.2504                   20702219.2504
        47.5004         42.0004
                                  25644639.4144                   25644633.8594
        28.0004         25.2504
  -6236456.63555  -4791769.23254  25600274.1644                   25600263.2774
        35.5004         29.5004
 -18584141.87047 -13776538.11946  22241875.7734                   22241863.5984
        47.0004         37.2504
 -20777950.54048 -17847461.54948  21396320.8134                   21396311.3914
        49.2504         53.2504
  -5128720.55745  -3966012.30743  24686848.9924                   24686840.8594
        34.0004         19.7504
 -17687147.70147 -14560018.81648  21757322.1564                   21757310.3914
        46.5004         50.0004
 -12730880.60747 -11062547.64447  22462756.3754                   22462747.3054
        42.5004         42.0004
  -6377270.84145  -5189889.68045  24071611.6884                   24071603.9654
        35.5004         32.2504
 -18011782.45848 -20259771.31849  20728373.0084                   20728363.4104
        51.7504         55.0004
 23  1  7  1 26  0.0000000  0 10G23G22G08G21G10G12G31G01G25G32
    406707.54546  -1837884.35443  24086222.6564                   24086212.2384
        37.5004         22.2504
 -16776914.86148 -13361741.51647  20698114.7274                   20698103.0204
        48.7504         42.0004
  -6155494.92156  -4728682.28555  25615681.5474                   25615671.0124
        37.2504         32.0004
 -18602544.91048 -13790878.16146  22238374.2894                   22238361.6454
        48.5004         38.0004
 -20722492.86548 -17804247.79248  21406873.8524                   21406864.8404
        48.2504         53.2504
  -5166179.86045  -3995201.33643  24679722.0944                   24679712.4384
        35.5004         20.0004
 -17781348.44647 -14633421.98648  21739396.2424                   21739384.9454
        46.5004         50.2504
 -12800065.79446 -11116458.20046  22449590.7814                   22449581.5354
        41.5004         41.7504
  -6443953.44045  -5241850.09745  24058921.8754                   24058913.9184
        34.5004         30.0004
 -17983462.70348 -20237703.97649  20733762.0004                   20733752.3444
        51.2504         55.0004
 23  1  7  1 26 30.0000000  0 10G23G22G08G21G10G12G31G01G25G32
    500258.87746  -1764987.30343  24104023.8754                   24104015.0984
        37.0004         22.0004
 -16798216.11647 -13378339.89347  20694061.1644                   20694049.2814
        47.0004         42.0004
                                  25631094.977
        37.250
 -18620460.16547 -13804838.09746  22234965.4454                   22234952.5664
        46.7504         37.5004
 -20666689.42448 -17760764.61648  21417492.4144                   21417483.7544
        48.2504         53.2504
  -5203144.24546  -4024004.73143  24672687.5004                   24672677.9614
        36.0004         20.2504
 -17875150.74647 -14706514.67248  21721546.0314                   21721534.8524
        46.2504         50.5004
 -12868746.21147 -11169975.39147  22436521.0864                   22436512.6604
        42.0004         42.2504
  -6510284.28945  -5293536.48545  24046299.5784                   24046291.9144
        35.2504         32.2504
 -17954836.57048 -20215397.90249  20739209.4304                   20739199.3634
        51.5004         54.7504
 23  1  7  1 27  0.0000000  0 10G23G22G08G21G10G12G31G01G25G32
    593942.75446  -1691986.96843  24121852.5944                   24121842.8794
        38.2504         22.5004
 -16819225.41848 -13394710.77647  20690063.5634                   20690051.9144
        48.0004         42.0004
  -5993508.39755  -4620562.87754  25646504.7424                   25646497.0784
        35.0004         29.2504
 -18637925.92747 -13818447.79246  22231641.2734                   22231628.6294
        47.0004         37.5004
 -20610578.60748 -17717041.92948  21428170.2424                   21428161.4654
        48.0004         53.0004
  -5239648.82145  -4052449.82743  24665740.1174                   24665730.7544
        35.5004         19.7504
 -17968589.82647 -14779324.33948  21703765.5084                   21703754.2114
        46.5004         50.5004
 -12936957.40447 -11223126.98647  22423541.7734                   22423532.2934
        42.5004         42.7504
  -6576298.63745  -5344976.25445  24033737.4064                   24033729.8014
        34.2504         32.2504
 -17925943.23648 -20192883.61549  20744707.6094                   20744697.6604
        51.0004         54.7504
 23  1  7  1 27 30.0000000  0 11G23G22G03G08G21G10G12G31G01G25G32
    687800.31445  -1618851.28043  24139711.9534                   24139703.5274
        35.7504         21.2504
 -16839901.09348 -13410821.68546  20686128.8284                   20686117.3554
        49.2504         41.7504
   -502845.23354   -615977.51154  25568381.1724                   25568374.5044
        29.5004         26.0004
  -5912486.76745  -4557429.04244  25661918.5634                   25661915.0044
        31.2504         24.0004
 -18654899.51748 -13831673.97046  22228411.2504                   22228398.7234
        48.0004         37.7504
 -20554118.12248 -17673046.75748  21438914.7194                   21438905.4734
        49.5004         53.2504
  -5275650.15446  -4080502.80943  24658891.7814                   24658879.3714
        37.5004         19.7504
 -18061620.64447 -14851815.88048  21686062.3134                   21686051.0164
        47.0004         50.7504
 -13004655.02747 -11275878.37047  22410658.0234                   22410649.7154
        42.0004         42.7504
  -6641951.21145  -5396134.09245  24021243.6724                   24021237.1804
        33.7504         31.5004
 -17896741.72648 -20170129.19749  20750264.6024                   20750254.9454
        51.5004         55.0004
 23  1  7  1 28  0.0000000  0 11G23G22G03G08G21G10G12G31G01G25G32
    781816.79246  -1545591.76343  24157604.3284                   24157593.7934
        37.5004         21.5004
 -16860257.64448 -13426683.92147  20682254.8914                   20682243.3594
        48.2504         42.0004
                                  25549297.7274                   25549291.2344
        32.7504         28.0004
  -5831450.02045  -4494283.34744  25677343.1094                   25677333.8634
        34.0004         28.2504
 -18671393.96347 -13844526.78546  22225272.6804                   22225259.8594
        47.7504         37.5004
 -20497322.48948 -17628790.43748  21449722.1804                   21449713.6954
        49.0004         53.0004
  -5311159.92146  -4108172.77143  24652134.2734                   24652121.9224
        37.5004         20.0004
 -18154254.73947 -14923998.28848  21668434.9614                   21668423.3714
        46.7504         51.0004
 -13071850.56047 -11328238.54147  22397872.3594                   22397863.4064
        43.2504         43.0004
  -6707253.19145  -5447018.72645  24008816.7894                   24008811.0594
        34.0004         31.7504
 -17867247.10448 -20147146.36549  20755877.1334                   20755867.5354
        51.0004         54.7504
 23  1  7  1 28 30.0000000  0 11G23G22G03G08G21G10G12G31G01G25G32
    875989.29346  -1472210.67243  24175524.8364                   24175514.7704
        37.0004         21.7504
 -16880297.61548 -13442299.48246  20678441.3834                   20678429.7344
        49.0004         41.7504
   -703470.40355   -772308.49553  25530204.5234                   25530195.7464
        31.2504         22.7504
  -5750402.31745  -4431129.30444  25692766.2034                   25692756.1374
        35.5004         28.0004
 -18687410.44147 -13857007.17446  22222224.2974                   22222212.4144
        47.7504         37.5004
 -20440193.58847 -17584274.43248  21460593.2274                   21460584.8014
        47.7504         53.0004
  -5346178.12746  -4135459.67843  24645469.9614                   24645458.0204
        36.5004         19.7504
 -18246491.36747 -14995870.98448  21650882.6564                   21650871.1254
        47.0004         51.0004
 -13138543.62646 -11380207.16247  22385180.0164                   22385171.9414
        41.7504         43.0004
  -6772203.19345  -5497629.07945  23996457.6174                   23996450.5984
        34.5004         32.2504
 -17837462.34948 -20123937.46749  20761544.8134                   20761535.2734
        50.7504         55.0004
 23  1  7  1 29  0.0000000  0 11G23G22G03G08G21G10G12G31G01G25G32
    970319.84646  -1398706.46843  24193474.7344                   24193465.8404
        36.0004         22.0004
 -16900018.68148 -13457666.54746  20674688.5784                   20674677.1054
        48.0004         41.7504
   -803844.40555   -850521.86454  25511104.9614                   25511096.0084
        33.5004         29.2504
  -5669343.90945  -4367966.85544  25708188.5864                   25708181.7424
        32.7504         28.0004
 -18702945.89447 -13869112.71946  22219268.6484                   22219256.0634
        47.2504         37.2504
 -20382729.38847 -17539497.15048  21471528.5864                   21471519.6334
        47.7504         52.7504
  -5380699.99946  -4162359.80043  24638902.3754                   24638887.9144
        38.5004         19.5004
 -18338325.04947 -15067429.68548  21633407.3984                   21633395.6914
        47.0004         51.2504
 -13204729.05047 -11431780.19047  22372585.8914                   22372576.7624
        43.0004         43.5004
  -6836795.51645  -5547960.72945  23984166.2504                   23984159.4654
        34.0004         32.5004
 -17807385.78148 -20100501.17449  20767268.4924                   20767258.7774
        50.7504         54.7504
 23  1  7  1 29 30.0000000  0 11G23G22G03G08G21G10G12G31G01G25G32
   1064808.87646  -1325078.72043  24211456.0634                   24211445.8794
        37.2504         21.0004
 -16919419.77148 -13472784.27146  20670996.9064                   20670985.3164
        48.2504         41.7504
   -904255.44944   -928764.25244  25491994.5704                   25491988.6644
        26.7504         25.7504
  -5588276.11045  -4304797.14744  25723617.8444                   25723609.1254
        34.2504         28.2504
 -18717999.24647 -13880842.61646  22216404.3284                   22216391.5084
        47.5004         37.0004
 -20324928.43047 -17494457.45848  21482527.8134                   21482518.6844
        47.7504         52.7504
  -5414721.85746  -4188870.37943  24632427.0634                   24632413.4224
        37.7504         18.5004
 -18429751.42547 -15138671.01548  21616009.5164                   21615998.5124
        47.0004         51.2504
 -13270402.96247 -11482954.69847  22360088.9924                   22360080.2154
        43.5004         43.7504
  -6901025.77445  -5598010.28945  23971943.1954                   23971936.0004
        34.2504         31.5004
 -17777017.03748 -20076837.21349  20773047.3754                   20773037.7194
        50.5004         54.7504
 23  1  7  1 30  0.0000000  0 11G23G22G03G08G21G10G12G31G01G25G32
   1159448.97946  -1251333.29443  24229464.4924                   24229455.5984
        36.0004         22.0004
 -16938508.38548 -13487658.50547  20667364.2974                   20667353.0594
        48.5004         42.0004
  -1004709.14345  -1007039.78244  25472880.5084                   25472873.0204
        32.2504         28.5004
  -5507208.81145  -4241627.83544  25739042.0314                   25739035.9494
        33.2504         28.7504
 -18732575.30647 -13892200.58846  22213629.5784                   22213617.7544
        47.5004         36.7504
 -20266797.52847 -17449160.67748  21493589.6024                   21493580.9414
        47.5004         52.7504
  -5448248.34346  -4214994.94043  24626048.3054                   24626033.7854
        38.0004         19.7504
 -18520774.26447 -15209597.88948  21598688.8674                   21598676.8674
        47.2504         51.2504
 -13335569.72347 -11533733.94947  22347687.7424                   22347679.2584
        42.0004         44.0004
  -6964897.44645  -5647780.45545  23959789.3754                   23959779.9534
        34.5004         32.0004
 -17746363.81348 -20052951.58549  20778880.1024                   20778870.7974
        50.0004         55.2504
 23  1  7  1 30 30.0000000  0 11G23G22G03G08G21G10G12G31G01G25G32
   1254353.19045  -1177382.06043  24247524.6724                   24247515.6604
        35.2504         21.2504
 -16957171.04348 -13502200.83746  20663813.0864                   20663801.3204
        48.7504         41.7504
  -1105090.66945  -1085259.14844  25453778.5554                   25453771.0084
        32.5004         29.0004
  -5426030.65145  -4178372.09444  25754490.6414                   25754483.2704
        35.0004         28.7504
 -18746559.70747 -13903097.52246  22210968.2584                   22210957.0204
        47.0004         36.7504
 -20208222.97548 -17403518.19548  21504736.4614                   21504727.2734
        48.5004         52.7504
  -5481163.74546  -4240643.30643  24619783.5554                   24619770.0904
        38.0004         19.2504
 -18611277.29848 -15280119.72848  21581466.1094                   21581454.9304
        48.5004         51.5004
 -13400113.02447 -11584027.44847  22335406.0474                   22335396.5664
        43.0004         44.0004
  -7028293.66645  -5697180.11545  23947724.6564                   23947718.0474
        33.2504         31.5004
 -17715313.20748 -20028756.31449  20784789.1484                   20784779.6684
        50.7504         55.0004
 23  1  7  1 31  0.0000000  0 11G23G22G03G08G21G10G12G31G01G25G32
   1349192.20145  -1103481.61743  24265571.5704                   24265563.0864
        35.0004         22.0004
 -16975736.29348 -13516667.26146  20660280.4304                   20660268.4884
        48.7504         41.7504
  -1205727.31144  -1163677.28344  25434627.7584                   25434621.0314
        29.2504         28.0004
  -5345073.03146  -4115288.14145  25769898.5234                   25769888.6914
        36.0004         30.0004
 -18760280.89947 -13913789.36646  22208357.7584                   22208345.4064
        47.5004         37.0004
 -20149533.36548 -17357786.03448  21515904.3984                   21515895.5634
        48.0004         52.5004
  -5513794.43946  -4266069.81643  24613574.4304                   24613559.7344
        38.0004         19.7504
 -18701586.09347 -15350490.19948  21564280.9304                   21564269.9844
        47.5004         51.2504
 -13464358.87546 -11634089.14447  22323179.5394                   22323171.1134
        41.5004         43.5004
  -7091539.74545  -5746462.79345  23935691.3524                   23935684.1564
        35.7504         33.0004
 -17684194.62748 -20004508.06149  20790710.7114                   20790701.2304
        51.0004         55.0004
 23  1  7  1 31 30.0000000  0 11G23G22G03G08G21G10G12G31G01G25G32
   1444293.90945  -1029376.48543  24283668.8674                   24283661.0274
        34.5004         21.0004
 -16993876.25248 -13530802.28546  20656828.1724                   20656816.7584
        48.5004         41.7504
  -1306289.60245  -1242037.44644  25415491.4694                   25415483.6294
        33.0004         28.7504
  -5264009.49846  -4052121.88045  25785324.3834                   25785315.9574
        36.0004         30.0004
 -18773409.96048 -13924019.81246  22205858.9774                   22205847.1524
        48.0004         37.0004
 -20090400.06947 -17311708.17748  21527156.9304                   21527148.2114
        47.5004         52.5004
  -5545809.47746  -4291016.58543  24607482.9454                   24607467.0784
        38.2504         19.5004
 -18791369.48047 -15420451.26648  21547195.8984                   21547184.6604
        47.5004         51.5004
 -13527976.30947 -11683661.13947  22311074.4924                   22311065.8324
        42.7504         44.5004
  -7154304.04346  -5795369.98445  23923748.2504                   23923739.7074
        36.2504         33.0004
 -17652680.49848 -19979951.60249  20796707.5164                   20796698.5634
        50.5004         55.0004
 23  1  7  1 32  0.0000000  0 11G23G22G03G08G21G10G12G31G01G25G32
   1539546.05745   -955154.14243  24301795.2194                   24301786.0904
        35.0004         21.5004
 -17011702.66948 -13544692.99746  20653435.7034                   20653424.1724
        48.5004         41.5004
  -1406887.73045  -1320425.58944  25396349.2664                   25396340.0204
        33.0004         29.0004
  -5182954.69045  -3988962.15544  25800745.6724                   25800738.3014
        33.2504         25.2504
 -18786056.93748 -13933874.60746  22203453.0004                   22203440.4734
        48.0004         37.2504
 -20030934.95547 -17265371.73848  21538473.0084                   21538464.2894
        47.5004         52.5004
  -5577318.68646  -4315569.27743  24601486.4064                   24601471.4774
        38.0004         19.2504
 -18880735.82947 -15490087.37648  21530190.1564                   21530178.3324
        47.5004         51.5004
 -13591074.22547 -11732828.35347  22299067.4144                   22299057.6414
        42.5004         44.0004
  -7216694.76545  -5843986.13245  23911873.7814                   23911868.5784
        34.5004         33.7504
 -17620883.08148 -19955174.39449  20802758.4144                   20802749.2274
        50.0004         55.0004
 23  1  7  1 32 30.0000000  0 11G23G22G03G08G21G10G12G31G01G25G32
   1634949.79645   -880813.68843  24319949.8284                   24319941.0514
        35.2504         21.5004
 -17029214.19448 -13558338.34047  20650103.5394                   20650092.4774
        48.0004         42.0004
  -1507518.84245  -1398839.38744  25377199.0864                   25377190.9534
        34.0004         29.5004
  -5101909.23646  -3925809.76845  25816171.8524                   25816161.7274
        37.5004         32.0004
 -18798220.06548 -13943352.37246  22201138.5164                   22201126.2814
        48.0004         37.0004
 -19971136.15948 -17218775.30048  21549852.6024                   21549843.4734
        48.5004         52.5004
  -5608318.11646  -4339724.61943  24595586.5944                   24595572.3674
        38.0004         19.0004
 -18969680.51347 -15559394.91048  21513264.5234                   21513252.7584
        47.2504         51.5004
 -13653648.50346 -11781587.52747  22287158.2424                   22287150.2854
        41.0004         43.7504
  -7278707.03645  -5892307.39745  23900072.8984                   23900065.4694
        34.2504         31.5004
 -17588801.52248 -19930175.77749  20808863.4844                   20808854.0044
        50.2504         55.0004
 23  1  7  1 33  0.0000000  0 11G23G22G03G08G21G10G12G31G01G25G32
   1730503.19545   -806356.58243  24338134.2664                   24338124.9614
        34.7504         22.5004
 -17046412.38948 -13571739.52746  20646830.9384                   20646819.2894
        49.0004         41.7504
  -1608182.71145  -1477278.71745  25358043.1644                   25358035.5004
        34.0004         30.2504
  -5020876.45345  -3862667.37344  25831588.2194                   25831581.1414
        33.5004         27.0004
 -18809899.81548 -13952453.49446  22198915.5704                   22198903.1604
        48.0004         36.5004
 -19911004.95847 -17171919.83648  21561294.8204                   21561286.1604
        47.5004         52.2504
  -5638807.09846  -4363482.28743  24589785.5084                   24589770.9304
        38.2504         18.2504
 -19058201.89647 -15628372.60448  21496419.3444                   21496407.6954
        47.2504         51.7504
 -13715697.68547 -11829937.52247  22275352.3284                   22275343.9024
        43.0004         44.2504
  -7340338.76145  -5940332.09945  23888346.1954                   23888337.1844
        35.0004         32.0004
 -17556437.74948 -19904957.24749  20815022.0554                   20815012.8674
        51.0004         54.7504
 23  1  7  1 33 30.0000000  0 11G23G22G03G08G21G10G12G31G01G25G32
   1826205.20345   -731783.69943  24356344.3284                   24356335.9614
        34.5004         21.5004
 -17063298.06448 -13584897.18846  20643617.9454                   20643606.0044
        48.2504         41.7504
  -1708878.72645  -1555743.07944  25338881.2504                   25338873.2344
        34.2504         29.5004
  -4939860.19945  -3799537.87443  25847005.2974                   25846998.1604
        33.5004         23.5004
 -18821095.43747 -13961177.35946  22196784.9924                   22196772.7584
        47.5004         36.7504
 -19850541.84447 -17124805.75348  21572800.9534                   21572791.5904
        47.7504         52.0004
  -5668783.50646  -4386840.53743  24584080.3754                   24584066.6764
        37.2504         18.5004
 -19146297.52347 -15697018.52348  21479655.1724                   21479643.4064
        47.2504         51.5004
 -13777219.76547 -11877876.81847  22263645.0314                   22263635.7854
        42.7504         44.0004
  -7401587.36646  -5988058.29445  23876691.1024                   23876680.5664
        36.2504         32.0004
 -17523793.14548 -19879519.89849  20821233.8594                   20821224.8484
        50.7504         55.2504
 23  1  7  1 34  0.0000000  0 10G23G22G03G21G10G12G31G01G25G32
   1922058.85345   -657092.65843  24374585.5394                   24374576.2934
        35.5004         21.2504
 -17079867.66348 -13597808.56146  20640464.2424                   20640453.0044
        48.7504         41.5004
  -1809601.80845  -1634228.57545  25319715.6254                   25319706.6134
        35.2504         30.7504
 -18831802.93247 -13969520.86246  22194747.0864                   22194735.2624
        46.5004         36.7504
 -19789743.20847 -17077430.20948  21584370.3204                   21584361.4264
        47.5004         52.2504
  -5698241.69346  -4409794.97343  24578474.8674                   24578460.6414
        37.5004         18.5004
 -19233960.98347 -15765327.71348  21462973.4384                   21462961.9064
        47.7504         51.7504
 -13838208.66446 -11925400.60147  22252037.4844                   22252029.3524
        41.2504         43.5004
  -7462445.76645  -6035480.43345  23865108.1884                   23865102.3404
        34.2504         33.5004
 -17490864.73348 -19853861.39849  20827499.9384                   20827490.7504
        50.7504         54.7504
 23  1  7  1 34 30.0000000  0 11G23G22G03G08G21G10G12G31G01G25G32
   2018052.41645   -582292.58243  24392852.6804                   24392843.1994
        34.2504         20.7504
 -17096132.51748 -13610482.46246  20637369.5004                   20637357.9104
        49.0004         41.7504
  -1910361.70145  -1712742.74344  25300540.6564                   25300532.4064
        35.0004         29.0004
  -4777884.07055  -3686740.09053  25877828.1724                   25877820.3324
        32.7504         22.5004
 -18842032.87847 -13977492.25246  22192800.4304                   22192788.6644
        46.5004         36.5004
 -19728620.24547 -17029801.95148  21596001.1334                   21595992.9414
        47.5004         52.0004
  -5727190.77746  -4432352.67442  24572966.0704                   24572951.7274
        37.5004         17.7504
 -19321200.34047 -15833306.41448  21446372.2114                   21446360.6214
        47.2504         51.7504
 -13898672.77247 -11972515.50147  22240534.2424                   22240523.8834
        43.7504         44.5004
  -7522921.79646  -6082604.63045  23853601.4614                   23853593.9734
        36.0004         33.7504
 -17457664.32448 -19827990.95349  20833817.6564                   20833808.8204
        50.5004         54.7504
 23  1  7  1 35  0.0000000  0 11G23G22G03G08G21G10G12G31G01G25G32
   2114196.33445   -507375.38143  24411147.7734                   24411139.2304
        35.0004         21.5004
 -17112081.64647 -13622910.35547  20634334.4064                   20634322.9924
        47.7504         42.0004
  -2011146.19245  -1791276.04745  25281362.3054                   25281353.6454
        34.5004         30.5004
  -4696930.73456  -3623659.67854  25893233.9454                   25893225.5204
        36.2504         29.7504
 -18851773.56747 -13985082.40846  22190946.9224                   22190934.8634
        47.2504         37.0004
 -19667162.05747 -16981912.48248  21607696.2814                   21607687.9734
        47.0004         51.7504
  -5755617.51446  -4454503.37642  24567555.6954                   24567542.6414
        36.7504         17.7504
 -19408001.64048 -15900943.77648  21429854.6724                   21429842.7894
        48.2504         52.0004
 -13958598.61246 -12019210.96747  22229128.4614                   22229120.9144
        41.2504         43.7504
  -7583001.41045  -6129419.85545  23842167.8204                   23842161.6804
        34.7504         33.0004
 -17424181.69348 -19801900.59049  20840189.3054                   20840180.4104
        51.0004         54.7504
 23  1  7  1 35 30.0000000  0 11G23G22G03G08G21G10G12G31G01G25G32
   2210488.18145   -432342.87143  24429471.8444                   24429463.6524
        35.0004         21.5004
 -17127717.43948 -13635094.08747  20631358.9144                   20631347.2664
        48.5004         42.0004
  -2111955.46445  -1869828.74645  25262179.1174                   25262169.5204
        35.0004         30.7504
                                  25908631.9224                   25908625.4884
        32.2504         25.5004
 -18861026.23748 -13992292.29146  22189186.6334                   22189174.2234
        48.5004         36.5004
 -19605370.08047 -16933762.92048  21619455.2814                   21619446.7384
        47.0004         51.7504
  -5783521.52546  -4476246.74543  24562245.1484                   24562233.5004
        36.5004         18.5004
 -19494363.58348 -15968238.79448  21413420.8054                   21413409.3324
        48.0004         52.0004
 -14017985.52647 -12065486.44247  22217828.0864                   22217819.3094
        42.2504         43.7504
  -7642682.84745  -6175924.86045  23830810.7504                   23830803.7894
        34.7504         33.0004
 -17390419.30448 -19775592.23949  20846614.4534                   20846604.7974
        51.5004         55.0004
 23  1  7  1 36  0.0000000  0 10G23G22G03G21G10G12G31G01G25G32
   2307140.08745   -357029.84743  24447863.9694                   24447855.4844
        34.0004         21.5004
 -17142827.31848 -13646868.01347  20628483.6724                   20628471.9654
        48.0004         42.0004
  -2212575.66545  -1948234.05544  25243030.1884                   25243022.4064
        33.0004         29.5004
 -18869577.27047 -13998955.44546  22187559.8364                   22187546.9574
        47.5004         36.2504
 -19543031.72847 -16885187.60548  21631318.1884                   21631309.1764
        47.5004         51.7504
  -5810688.21546  -4497415.57043  24557077.1804                   24557063.6564
        37.7504         18.5004
 -19580070.86248 -16035023.68148  21397111.0314                   21397099.1484
        48.0004         52.0004
 -14076618.22147 -12111174.29747  22206671.6484                   22206661.8164
        43.5004         44.2504
  -7701750.60145  -6221951.65345  23819572.0634                   23819562.9924
        35.5004         33.0004
 -17356165.27448 -19748900.79549  20853132.7974                   20853123.4924
        52.2504         55.0004
 23  1  7  1 36 30.0000000  0 10G23G22G03G21G10G12G31G01G25G32
   2403497.73845   -281946.12843  24466200.1484                   24466191.7814
        34.2504         20.7504
 -17158065.19948 -13658741.69046  20625583.9694                   20625572.6724
        48.2504         41.7504
  -2313658.95945  -2027000.23345  25223796.2584                   25223787.1294
        35.5004         31.7504
 -18878080.09848 -14005581.02946  22185941.3364                   22185929.1024
        48.2504         37.0004
 -19480800.60147 -16836695.84148  21643160.5004                   21643151.6644
        47.5004         51.7504
  -5837768.98346  -4518517.45843  24551921.9924                   24551910.2274
        37.0004         18.2504
 -19665774.18048 -16101805.47948  21380801.8674                   21380790.5704
        48.0004         52.2504
 -14135147.85646 -12156781.80147  22195531.8444                   22195524.2384
        41.2504         44.0004
  -7760854.70145  -6268006.80245  23808323.7974                   23808315.1374
        34.5004         32.5004
 -17322073.83248 -19722336.04449  20859620.0474                   20859610.9774
        52.0004         54.7504
 23  1  7  1 37  0.0000000  0 10G23G22G03G21G10G12G31G01G25G32
   2500216.53645   -206580.94543  24484606.1334                   24484596.7114
        34.5004         21.7504
 -17172775.45948 -13670204.22346  20622785.0864                   20622773.1454
        48.7504         41.7504
  -2414547.96745  -2105615.02445  25204596.6884                   25204587.9104
        34.0004         30.7504
 -18885878.30247 -14011657.56446  22184457.5234                   22184445.1134
        47.5004         36.5004
 -19418020.61547 -16787776.39948  21655106.6804                   21655098.1374
        47.5004         51.2504
  -5864105.98146  -4539039.77343  24546911.8984                   24546898.4344
        37.5004         18.5004
 -19750814.68248 -16168070.80248  21364619.6884                   21364607.8634
        48.5004         52.2504
 -14192916.12547 -12201796.00247  22184540.5474                   22184531.3014
        43.2504         45.0004
  -7819336.19245  -6313576.81245  23797195.0944                   23797187.3134
        35.0004         33.0004
 -17287489.82948 -19695387.47749  20866201.4384                   20866192.0744
        52.2504         55.0004
 23  1  7  1 37 30.0000000  0 10G23G22G03G21G10G12G31G01G25G32
   2597076.93445   -131105.46243  24503038.3754                   24503029.3054
        34.5004         21.5004
 -17187177.16448 -13681426.32746  20620044.9844                   20620032.9264
        48.7504         41.7504
  -2515460.26345  -2184247.94445  25185394.7734                   25185385.2344
        34.7504         30.5004
 -18893189.41947 -14017354.54446  22183066.3674                   22183053.9574
        46.7504         37.0004
 -19354911.09647 -16738600.18048  21667116.4614                   21667107.1564
        47.5004         51.2504
  -5889916.55646  -4559151.88143  24541999.3364                   24541987.0434
        36.7504         19.0004
 -19835408.63147 -16233988.16348  21348521.4844                   21348509.9534
        47.5004         52.5004
 -14250139.35747 -12246385.56747  22173651.5864                   22173641.6954
        43.0004         44.5004
  -7877410.87045  -6358829.80245  23786142.9774                   23786136.3094
        35.2504         32.5004
 -17252632.96448 -19668226.28149  20872834.4924                   20872824.7774
        51.5004         55.0004
 23  1  7  1 38  0.0000000  0 10G23G22G03G21G10G12G31G01G25G32
   2694077.31845    -55520.89943  24521496.7274                   24521487.8914
        35.7504         20.7504
 -17201271.51848 -13692408.93746  20617362.2424                   20617350.2424
        48.7504         41.7504
  -2616395.22846  -2262898.57045  25166187.4924                   25166178.3054
        36.0004         31.5004
 -18900014.13647 -14022672.51246  22181767.0704                   22181754.9534
        46.2504         37.2504
 -19291472.96647 -16689167.89048  21679188.0634                   21679179.5784
        47.5004         51.0004
  -5915199.14146  -4578852.57443  24537187.7664                   24537175.5314
        36.2504         18.2504
 -19919553.82548 -16299555.84548  21332509.0864                   21332497.7894
        48.0004         52.7504
 -14306816.17047 -12290549.30247  22162864.6804                   22162857.0744
        42.5004         44.7504
  -7935076.34245  -6403763.95545  23775170.8674                   23775163.3794
        35.2504         33.5004
 -17217504.74248 -19640853.64749  20879518.6724                   20879509.4844
        52.0004         54.7504
 23  1  7  1 38 30.0000000  0 10G23G22G03G21G10G12G31G01G25G32
   2791218.34345     20173.25943  24539981.8134                   24539973.6214
        34.2504         20.5004
 -17215057.42348 -13703151.20147  20614739.6174                   20614726.6804
        49.0004         42.2504
  -2717350.40745  -2341564.93644  25146976.2504                   25146966.8284
        34.5004         29.2504
 -18906351.14847 -14027610.45046  22180561.4144                   22180549.3554
        46.5004         37.2504
 -19227704.96047 -16639478.57048  21691322.7114                   21691313.8754
        46.7504         51.0004
  -5939950.62045  -4598139.46942  24532476.8054                   24532466.2114
        35.0004         17.2504
 -20003246.39647 -16364770.83248  21316583.3524                   21316571.5864
        47.7504         52.7504
 -14362942.87647 -12334284.39147  22152186.4694                   22152176.8134
        43.5004         45.2504
  -7992328.22345  -6448375.77845  23764275.9774                   23764269.4264
        35.5004         34.2504
 -17182104.79748 -19613269.28149  20886255.0944                   20886245.9064
        51.2504         54.7504
 23  1  7  1 39  0.0000000  0 10G23G22G03G21G10G12G31G01G25G32
   2888497.81046     95975.30543  24558495.0394                   24558484.6214
        36.7504         20.2504
 -17228536.88348 -13713654.67347  20612174.2424                   20612162.0084
        48.5004         42.0004
  -2818325.68045  -2420246.94345  25127761.8364                   25127752.5314
        35.5004         30.7504
 -18912201.43947 -14032169.13146  22179448.0314                   22179436.0904
        47.0004         37.2504
 -19163608.46247 -16589533.28548  21703520.5864                   21703511.3984
        47.2504         51.0004
  -5964170.83446  -4617012.28143  24527868.8284                   24527857.0634
        36.5004         18.2504
 -20086484.87547 -16429631.96548  21300743.5394                   21300731.9494
        47.5004         53.0004
 -14418518.58347 -12377590.14447  22141609.2194                   22141600.3244
        42.7504         45.0004
  -8049164.89146  -6492664.08545  23753461.5164                   23753452.6804
        36.2504         34.2504
 -17146435.19648 -19585474.78549  20893042.8284                   20893033.8754
        52.0004         55.0004
 23  1  7  1 39 30.0000000  0 10G23G22G03G21G10G12G31G01G25G32
   2985914.49245    171884.26043  24577032.1094                   24577022.8634
        35.2504         20.0004
 -17241710.78448 -13723920.04747  20609666.5704                   20609655.0984
        49.0004         42.0004
  -2919320.34845  -2498944.09845  25108541.4144                   25108533.1054
        33.7504         30.5004
 -18917564.49547 -14036348.13346  22178428.2194                   22178415.6334
        47.0004         37.5004
 -19099184.31647 -16539332.67648  21715780.2424                   21715770.6454
        47.2504         50.7504
  -5987858.39946  -4635470.07843  24523361.6174                   24523350.6134
        36.0004         19.2504
 -20169267.19348 -16494137.66448  21284990.5394                   21284979.1844
        48.2504         53.0004
 -14473541.57547 -12420465.19147  22131138.5554                   22131129.9534
        43.2504         45.0004
  -8105583.85145  -6536626.93645  23742724.1094                   23742716.6214
        35.5004         33.5004
 -17110497.38748 -19557471.30949  20899882.0234                   20899872.4264
        51.5004         54.7504
 23  1  7  1 40  0.0000000  0 10G23G22G03G21G10G12G31G01G25G32
   3083469.09445    247900.69643  24595596.1094                   24595586.6294
        35.5004         21.5004
 -17254578.01848 -13733946.46447  20607218.3834                   20607206.3834
        48.5004         42.0004
  -3020331.62245  -2577654.14344  25089319.8054                   25089311.2034
        34.2504         29.0004
 -18922439.00647 -14040146.46646  22177500.1254                   22177487.7734
        47.0004         37.0004
 -19034431.30847 -16488875.81748  21728101.3754                   21728092.7734
        47.0004         50.5004
  -6011009.88146  -4653510.24642  24518956.4534                   24518945.0984
        37.5004         17.2504
 -20251589.04847 -16558284.55448  21269325.1334                   21269313.8954
        47.7504         53.0004
 -14528008.15447 -12462906.67447  22120775.1174                   22120765.8714
        44.0004         45.5004
  -8161580.76246  -6580260.90045  23732068.3914                   23732060.5514
        36.0004         33.2504
 -17074290.77648 -19529258.37649  20906771.7894                   20906762.4844
        52.0004         54.7504
 23  1  7  1 40 30.0000000  0 10G23G22G03G21G10G12G31G01G25G32
   3181158.72146    324022.31143  24614187.5634                   24614176.1484
        36.5004         20.5004
 -17267141.02148 -13743735.81647  20604827.8674                   20604816.0434
        48.7504         42.2504
  -3121360.11345  -2656377.63845  25070094.4224                   25070086.4654
        35.2504         30.0004
 -18926826.44147 -14043565.25346  22176665.3204                   22176652.8524
        46.2504         37.0004
 -18969351.72447 -16438164.48348  21740486.2034                   21740476.8984
        47.0004         50.5004
  -6033625.67746  -4671132.92442  24514652.4534                   24514639.6914
        36.2504         16.2504
 -20333450.12448 -16622072.39948  21253747.7344                   21253735.9694
        48.0004         53.2504
 -14581918.08447 -12504914.41747  22110515.3594                   22110506.8164
        43.0004         45.5004
  -8217154.50845  -6623565.15045  23721492.8284                   23721484.2854
        34.7504         33.0004
 -17037818.18148 -19500838.17849  20913712.1804                   20913702.7584
        51.5004         54.7504
 23  1  7  1 41  0.0000000  0 10G23G22G03G21G10G12G31G01G25G32
   3278983.86645    400249.55143  24632802.2814                   24632792.8014
        35.2504         21.0004
 -17279398.71648 -13753287.26547  20602494.9774                   20602483.6804
        49.0004         42.2504
  -3222403.36745  -2735112.61044  25050866.7814                   25050858.7664
        35.0004         29.2504
 -18930725.24147 -14046603.27546  22175923.5784                   22175910.7584
        47.0004         36.7504
 -18903944.42747 -16387197.79348  21752932.9224                   21752923.5594
        47.5004         50.5004
  -6055702.76846  -4688335.83543  24510452.1414                   24510438.9104
        37.0004         19.0004
 -20414846.30448 -16685497.99048  21238258.1564                   21238246.6844
        48.2504         53.2504
 -14635268.02447 -12546485.77447  22100363.1884                   22100353.9414
        43.2504         45.5004
  -8272300.97446  -6666536.41645  23710999.2584                   23710991.5944
        36.2504         34.0004
 -17001079.21148 -19472210.41449  20920703.3204                   20920693.6054
        52.0004         55.0004
 23  1  7  1 41 30.0000000  0 10G23G22G03G21G10G12G31G01G25G32
   3376942.44246    476580.73543  24651443.7034                   24651433.8714
        37.0004         20.0004
 -17291353.20848 -13762602.44947  20600220.2344                   20600208.7034
        48.2504         42.2504
  -3323461.29645  -2813859.02445  25031635.8524                   25031627.7194
        34.0004         30.7504
 -18934136.47547 -14049261.39646  22175273.7504                   22175261.6334
        46.5004         37.0004
 -18838211.07547 -16335977.03348  21765441.0704                   21765432.2934
        46.2504         50.2504
  -6077240.98345  -4705118.85343  24506350.2664                   24506341.1954
        33.7504         18.5004
 -20495776.35447 -16748560.34748  21222857.4534                   21222846.1564
        47.5004         53.2504
 -14688057.00647 -12587620.06947  22090318.5784                   22090309.0984
        44.0004         46.0004
  -8327018.48246  -6709173.46045  23700587.4844                   23700579.9384
        37.0004         34.7504
 -16964076.00448 -19443376.76449  20927745.1724                   20927735.7504
        52.0004         54.7504
 23  1  7  1 42  0.0000000  0 10G23G22G03G21G10G12G31G01G25G32
   3475034.09946    553015.61843  24670110.0634                   24670099.9384
        36.7504         20.7504
 -17303004.29148 -13771681.20947  20598002.9844                   20597991.8634
        48.2504         42.2504
  -3424532.03045  -2892615.41144  25012402.6954                   25012394.4454
        33.0004         29.7504
 -18937059.70147 -14051539.24446  22174718.1254                   22174705.4224
        47.5004         37.0004
 -18772151.60647 -16284502.16548  21778012.0554                   21778003.0434
        46.5004         50.0004
  -6098238.11745  -4721480.29843  24502357.2974                   24502345.7664
        35.7504         19.0004
 -20576237.51547 -16811257.35048  21207546.6724                   21207534.9064
        47.7504         53.5004
 -14740282.56347 -12628315.31047  22080379.5944                   22080371.1094
        42.5004         45.7504
  -8381303.54245  -6751473.51745  23690256.0634                   23690248.8674
        35.5004         34.0004
 -16926809.00248 -19414337.54549  20934836.4614                   20934827.1564
        51.7504         54.7504
 23  1  7  1 42 30.0000000  0 10G23G22G03G21G10G12G31G01G25G32
   3573257.99945    629553.58443  24688800.0864                   24688791.4264
        35.5004         20.0004
 -17314352.63548 -13780524.07747  20595843.6334                   20595831.9264
        49.0004         42.5004
  -3525614.38945  -2971380.84545  24993166.6954                   24993159.7934
        33.5004         30.0004
 -18939494.51747 -14053436.50246  22174254.9224                   22174242.5704
        46.2504         36.7504
 -18705766.09447 -16232773.21548  21790644.7664                   21790635.9304
        46.5004         50.0004
  -6118692.04945  -4737418.41543  24498463.4304                   24498454.1844
        34.5004         20.5004
 -20656227.04248 -16873586.84148  21192324.8594                   21192313.3284
        48.0004         53.2504
 -14791942.51447 -12668569.79347  22070548.8204                   22070539.9844
        43.2504         46.0004
  -8435153.42745  -6793434.48045  23680008.9924                   23680002.5594
        35.7504         34.5004
 -16889279.01548 -19385093.41149  20941978.1174                   20941968.8134
        51.7504         54.7504
 23  1  7  1 43  0.0000000  0 10G23G22G03G21G10G12G31G01G25G32
   3671612.53046    706193.30443  24707517.9384                   24707507.7544
        37.0004         20.2504
 -17325399.26648 -13789131.83947  20593741.5944                   20593729.9454
        48.5004         42.5004
  -3626707.59445  -3050154.77344  24973931.6884                   24973921.6214
        35.0004         29.0004
 -18941441.28147 -14054953.47446  22173884.0704                   22173871.7194
        47.7504         37.2504
 -18639055.72947 -16180791.15848  21803338.9844                   21803330.6764
        46.0004         50.0004
  -6138602.88845  -4752933.41743  24494676.1804                   24494665.7034
        35.7504         19.2504
 -20735742.92447 -16935547.25348  21177193.5394                   21177182.5354
        47.5004         53.2504
 -14843035.57447 -12708382.57647  22060827.2974                   22060817.3484
        44.0004         46.0004
  -8488565.94246  -6835054.62945  23669845.8754                   23669837.4494
        36.5004         34.0004
 -16851487.71848 -19355645.65449  20949169.7504                   20949160.0944
        53.5004         54.7504
 23  1  7  1 43 30.0000000  0 10G23G22G03G21G10G12G31G01G25G32
   3770097.66645    782934.80643  24726257.8284                   24726249.6374
        35.0004         19.5004
 -17336143.88148 -13797504.26647  20591696.6094                   20591685.3134
        48.7504         42.5004
  -3727809.61845  -3128935.54544  24954690.5164                   24954683.1454
        33.5004         29.5004
 -18942899.13547 -14056089.46546  22173606.5944                   22173594.4184
        47.0004         37.2504
 -18572019.79747 -16128555.41148  21816096.1334                   21816087.1804
        46.7504         50.0004
  -6157967.92046  -4768023.04543  24490993.2344                   24490979.5944
        38.2504         19.0004
 -20814781.91048 -16997136.07548  21162153.2734                   21162141.3324
        48.2504         53.5004
 -14893558.73547 -12747751.28147  22051212.7734                   22051203.0004
        43.2504         46.0004
  -8541537.27846  -6876331.01745  23659765.8134                   23659757.6214
        36.0004         34.0004
 -16813435.01448 -19325994.20749  20956410.8524                   20956401.4884
        52.0004         54.7504
 23  1  7  1 44  0.0000000  0 10G23G22G03G21G10G12G31G01G25G32
   3868710.54345    859775.83243  24745023.5554                   24745014.8364
        35.5004         20.0004
 -17346588.97548 -13805643.30447  20589709.2814                   20589697.8094
        49.0004         42.5004
  -3828921.18045  -3207723.75445  24935449.5784                   24935442.2664
        34.2504         31.0004
 -18943869.93247 -14056845.94146  22173422.2424                   22173409.4224
        47.0004         37.5004
 -18504660.74247 -16076067.86148  21828914.5944                   21828905.0554
        46.5004         50.0004
  -6176787.80446  -4782687.92543  24487410.5944                   24487397.4804
        37.5004         18.5004
 -20893343.84448 -17058353.15448  21147203.4534                   21147191.7464
        48.0004         53.5004
 -14943512.20747 -12786676.06047  22041706.2424                   22041697.6994
        42.7504         46.0004
  -8594066.88446  -6917263.18145  23649767.9844                   23649761.0234
        36.0004         33.2504
 -16775124.01248 -19296141.49749  20963701.3444                   20963691.8634
        51.7504         54.7504
 23  1  7  1 44 30.0000000  0 10G23G22G03G21G10G12G31G01G25G32
   3967452.51945    936717.48343  24763813.2034                   24763804.4844
        34.7504         20.7504
 -17356732.66448 -13813547.47247  20587779.0084                   20587767.7704
        48.5004         42.5004
  -3930038.54745  -3286516.49844  24916207.3524                   24916200.0394
        33.2504         29.7504
 -18944351.22347 -14057220.98746  22173330.0864                   22173317.9104
        47.5004         37.0004
 -18436976.94047 -16023327.28148  21841793.2424                   21841784.7584
        46.2504         49.7504
  -6195058.06246  -4796924.49443  24483933.9534                   24483921.5434
        37.7504         19.7504
 -20971423.58548 -17119194.50848  21132345.0704                   21132333.5984
        48.0004         53.5004
 -14992891.50147 -12825153.42147  22032310.8134                   22032301.2154
        43.7504         46.0004
  -8646149.39245  -6957846.94845  23639857.5554                   23639850.8284
        35.0004         34.7504
 -16736553.12048 -19266086.27249  20971041.1334                   20971031.5944
        52.2504         54.7504
 23  1  7  1 45  0.0000000  0 10G23G22G03G21G10G12G31G01G25G32
   4066321.27245   1013757.87743  24782628.2344                   24782619.5744
        34.7504         20.7504
 -17366577.06248 -13821218.43247  20585905.8524                   20585894.0274
        48.7504         43.0004
  -4031161.94045  -3365313.92445  24896964.9534                   24896956.8794
        34.2504         30.7504
 -18944344.78147 -14057215.97746  22173331.3594                   22173319.2424
        47.2504         37.7504
 -18368969.90847 -15970334.82748  21854735.0394                   21854726.2034
        47.2504         50.0004
  -6212779.40446  -4810733.32743  24480561.3284                   24480549.7384
        36.5004         19.2504
 -21049020.42248 -17179659.56748  21117578.9384                   21117567.2894
        48.0004         53.5004
 -15041696.32847 -12863183.17247  22023022.7114                   22023013.7584
        43.2504         46.0004
  -8697783.72646  -6998081.48645  23630032.2814                   23630025.1454
        37.7504         34.7504
 -16697724.92248 -19235830.54549  20978429.9224                   20978420.3834
        52.5004         54.7504
 23  1  7  1 45 30.0000000  0 10G23G22G03G21G10G12G31G01G25G32
   4165315.94146   1090896.39143  24801466.7424                   24801457.3204
        36.0004         19.2504
 -17376122.48948 -13828656.42547  20584089.0554                   20584077.6994
        49.5004         42.7504
  -4132289.89245  -3444114.90745  24877721.3834                   24877713.0744
        33.2504         31.0004
 -18943850.09147 -14056830.51246  22173425.9774                   22173413.6254
        46.7504         37.5004
 -18300640.21747 -15917090.95148  21867737.9694                   21867729.3094
        47.5004         49.7504
  -6229950.13046  -4824113.21043  24477296.5944                   24477282.9534
        39.5004         20.2504
 -21126131.74448 -17239746.30848  21102904.8134                   21102893.4574
        49.0004         53.5004
 -15089924.68847 -12900763.70247  22013844.2274                   22013836.0354
        42.5004         46.0004
  -8748967.02946  -7037964.58645  23620292.1564                   23620285.3134
        36.5004         34.5004
 -16658640.18948 -19205374.92249  20985867.6884                   20985857.7974
        53.2504         55.0004
 23  1  7  1 46  0.0000000  0 10G23G22G03G21G10G12G31G01G25G32
   4264435.33746   1168132.13443  24820327.8204                   24820319.6294
        36.0004         20.0004
 -17385369.75948 -13835862.09447  20582329.3444                   20582318.0474
        49.2504         42.7504
  -4233421.32845  -3522918.58145  24858476.0234                   24858467.7734
        34.7504         31.0004
 -18942866.99547 -14056064.47046  22173613.0704                   22173600.3094
        47.2504         37.5004
 -18231988.06947 -15863595.80148  21880801.4774                   21880793.0514
        46.5004         49.5004
  -6246569.20746  -4837063.14842  24474131.6564                   24474118.2504
        38.2504         17.7504
 -21202755.47648 -17299453.11248  21088324.3754                   21088312.4344
        49.0004         53.7504
 -15137574.69947 -12937893.57747  22004778.3594                   22004769.0554
        44.0004         46.2504
  -8799696.58646  -7077494.08445  23610639.2424                   23610632.2814
        37.2504         34.5004
 -16619299.87048 -19174720.14049  20993353.7814                   20993343.9494
        53.0004         54.7504
 23  1  7  1 46 30.0000000  0 11G17G23G22G03G21G10G12G31G01G25G32
    223119.49355    185846.37752  25883458.6884                   25883447.3324
        31.5004         15.5004
   4363679.09245   1245464.74143  24839212.9224                   24839204.9064
        35.0004         19.0004
 -17394318.99148 -13842835.52547  20580626.6024                   20580614.8954
        49.2504         42.7504
  -4334554.35045  -3601723.53745  24839232.0314                   24839222.7854
        34.5004         31.7504
 -18941396.01647 -14054918.26046  22173893.2974                   22173880.7114
        46.2504         37.5004
 -18163013.66447 -15809849.55048  21893927.4304                   21893918.4774
        46.7504         50.0004
  -6262634.24246  -4849581.33143  24471074.5234                   24471059.5944
        38.2504         18.5004
 -21278888.81048 -17358777.78348  21073836.4454                   21073824.8554
        48.7504         53.7504
 -15184644.03347 -12974570.99547  21995820.6644                   21995811.7114
        43.0004         46.2504
  -8849969.32046  -7116667.61045  23601071.5394                   23601064.8714
        36.5004         34.5004
 -16579704.52148 -19143866.63049  21000888.4064                   21000879.0434
        52.7504         54.7504
 23  1  7  1 47  0.0000000  0 11G17G23G22G03G21G10G12G31G01G25G32
    204389.19255    171251.34452  25879894.2274                   25879884.0434
        31.5004         16.7504
   4463046.19745   1322893.46743  24858122.1484                   24858113.6644
        35.0004         19.5004
 -17402970.76848 -13849577.16547  20578980.2504                   20578968.9534
        49.7504         42.5004
  -4435687.81245  -3680528.76445  24819985.9224                   24819977.9654
        34.2504         31.5004
 -18939437.14147 -14053391.86946  22174265.7734                   22174253.4804
        47.0004         37.5004
 -18093717.48347 -15755852.55948  21907114.0944                   21907105.2584
        47.2504         49.5004
  -6278144.70646  -4861667.48743  24468123.3674                   24468111.3674
        38.2504         21.0004
 -21354529.44048 -17417718.53549  21059443.2034                   21059431.2624
        50.0004         54.0004
 -15231131.09947 -13010794.66547  21986974.0634                   21986965.6954
        43.0004         46.2504
  -8899782.62246  -7155483.15845  23591593.3594                   23591586.2234
        37.0004         34.2504
 -16539855.14348 -19112815.17849  21008471.2894                   21008462.1604
        53.5004         54.7504
 23  1  7  1 47 30.0000000  0 11G17G23G22G03G21G10G12G31G01G25G32
    186122.96155    157017.94152  25876417.3754                   25876408.4804
        31.0004         14.7504
   4562534.72145   1400416.79543  24877054.5314                   24877046.9844
        34.7504         19.2504
 -17411326.51248 -13856088.13747  20577390.2734                   20577378.5084
        48.5004         43.0004
  -4536821.09345  -3759333.89745  24800741.7584                   24800732.4534
        35.2504         32.2504
 -18936990.12947 -14051485.11446  22174731.2974                   22174719.0044
        47.0004         38.0004
 -18024100.91147 -15701605.92048  21920361.5634                   21920352.6684
        47.5004         49.5004
  -6293099.86046  -4873320.91143  24465275.5084                   24465265.6174
        36.5004         18.2504
 -21429675.49448 -17476273.90449  21045142.4614                   21045130.5784
        50.0004         54.0004
 -15277034.78147 -13046563.76547  21978239.3754                   21978230.4804
        45.0004         46.5004
  -8949134.85046  -7193939.42445  23582200.2894                   23582193.6214
        36.0004         34.0004
 -16499753.52949 -19081567.18249  21016102.6094                   21016093.1884
        54.0004         54.7504
 23  1  7  1 48  0.0000000  0 11G17G23G22G03G21G10G12G31G01G25G32
    168321.34245    143146.50942  25873029.7664                   25873021.5164
        30.7504         15.5004
  -7941216.16055  -8342765.89753  24896010.2504                   24896002.0594
        35.5004         19.2504
 -17419386.77148 -13862368.85547  20575856.4534                   20575844.5124
        49.2504         42.5004
  -4637952.93545  -3838137.90945  24781495.6254                   24781488.0204
        34.2504         31.7504
 -18934055.29547 -14049198.24346  22175289.9224                   22175277.2194
        47.2504         37.7504
 -17954164.49447 -15647110.05048  21933670.1884                   21933661.2934
        47.7504         49.5004
  -6307498.19246  -4884540.37942  24462538.7504                   24462523.0004
        39.7504         17.2504
 -21504325.20048 -17534442.50449  21030937.3204                   21030925.6724
        50.5004         54.2504
 -15322353.27147 -13081876.88947  21969615.8834                   21969606.5204
        44.7504         46.7504
  -8998023.04546  -7232034.09745  23572898.8984                   23572890.4734
        36.7504         34.5004
 -16459400.53448 -19050123.30449  21023781.6174                   21023772.0784
        53.2504         55.0004
 23  1  7  1 48 30.0000000  0 11G17G23G22G03G21G10G12G31G01G25G32
    150985.76945    129638.25242  25869731.0554                   25869722.5124
        31.2504         14.7504
  -7841486.47445  -8265054.63743  24914987.3204                   24914979.5984
        35.2504         19.0004
 -17427151.10448 -13868418.99347  20574378.9454                   20574367.1804
        49.0004         43.0004
  -4739080.95646  -3916938.91945  24762252.8524                   24762243.7814
        36.0004         32.7504
 -18930632.10247 -14046530.82646  22175941.1724                   22175928.8794
        47.5004         38.0004
 -17883907.35847 -15592364.26048  21947039.6414                   21947030.7464
        46.5004         49.5004
  -6321337.78646  -4895324.50942  24459901.8284                   24459889.3014
        38.0004         16.7504
 -21578475.03948 -17592221.59349  21016826.9844                   21016814.8094
        51.2504         54.2504
 -15367083.83547 -13116731.87447  21961102.7974                   21961094.1374
        43.7504         46.5004
  -9046443.67346  -7269764.43245  23563685.0864                   23563677.4224
        36.5004         34.5004
 -16418796.08348 -19018483.49449  21031508.5004                   21031498.7274
        53.5004         54.7504
 23  1  7  1 49  0.0000000  0 11G17G23G22G03G21G10G12G31G01G25G32
    134116.23245    116493.15642  25866521.4844                   25866513.0594
        30.7504         16.2504
  -7741638.10445  -8187250.93843  24933988.7274                   24933981.0044
        34.5004         18.5004
 -17434620.88548 -13874239.59847  20572957.5784                   20572945.8134
        49.2504         43.0004
  -4840204.69545  -3995736.61045  24743009.6884                   24743000.5004
        35.0004         32.5004
 -18926721.53348 -14043483.64646  22176685.1414                   22176672.9064
        48.5004         38.0004
 -17813331.31048 -15537369.98848  21960469.7274                   21960461.1254
        48.5004         49.5004
  -6334618.50446  -4905673.11043  24457377.7584                   24457363.3554
        39.5004         19.5004
 -21652123.65348 -17649610.12349  21002812.2274                   21002800.7544
        50.2504         54.2504
 -15411225.70347 -13151128.11947  21952704.9534                   21952694.9454
        44.5004         46.7504
  -9094395.11746  -7307129.15645  23554559.8594                   23554551.6094
        36.7504         34.2504
 -16377942.05649 -18986649.19849  21039282.7194                   21039273.0044
        54.0004         54.7504
 23  1  7  1 49 30.0000000  0 11G17G23G22G03G21G10G12G31G01G25G32
    117712.88445    103711.28642  25863400.6334                   25863391.9144
        31.2504         16.2504
  -7641671.66945  -8109355.17842  24953011.1024                   24953002.8524
        33.7504         17.7504
 -17441796.21148 -13879830.76747  20571591.9534                   20571580.1294
        49.0004         42.7504
  -4941322.29546  -4074529.49845  24723767.8524                   24723758.7234
        36.2504         33.7504
 -18922323.54848 -14040056.65546  22177522.0004                   22177509.9414
        48.0004         38.0004
 -17742436.16047 -15482127.04548  21973960.5784                   21973951.8594
        47.7504         49.2504
  -6347338.23346  -4915584.61843  24454954.5784                   24454944.4534
        36.5004         19.0004
 -21725268.29148 -17706605.93549  20988893.8524                   20988882.1454
        50.7504         54.5004
 -15454776.50047 -13185063.81847  21944417.3284                   21944407.9654
        45.7504         47.0004
  -9141874.21646  -7344125.85045  23545524.2974                   23545516.7504
        36.5004         34.5004
 -16336838.81348 -18954620.70749  21047104.2894                   21047094.7504
        53.5004         54.7504
 23  1  7  1 50  0.0000000  0 11G17G23G22G03G21G10G12G31G01G25G32
    101775.38254     91292.44652  25860366.0314                   25860358.4264
        29.2504         15.5004
  -7541588.50245  -8031368.46943  24972055.7114                   24972049.1024
        32.2504         18.5004
 -17448678.50848 -13885193.60447  20570282.7344                   20570270.6764
        50.2504         42.7504
  -5042433.01046  -4153317.05445  24704526.8284                   24704517.6994
        37.0004         32.5004
 -18917438.58548 -14036250.20846  22178451.5234                   22178439.5234
        48.7504         38.5004
 -17671223.26648 -15426636.52848  21987512.2504                   21987503.3554
        48.0004         49.0004
  -6359496.80046  -4925058.87443  24452641.5634                   24452630.9104
        37.2504         19.0004
 -21797907.35948 -17763207.80749  20975070.6024                   20975058.6604
        50.7504         54.5004
 -15497735.26747 -13218538.19547  21936240.7504                   21936232.2664
        45.5004         47.0004
  -9188879.09846  -7380753.00645  23536581.0394                   23536572.1454
        36.7504         34.5004
 -16295487.98248 -18922399.29649  21054973.1254                   21054963.2344
        53.7504         54.7504
 23  1  7  1 50 30.0000000  0 11G17G23G22G03G21G10G12G31G01G25G32
     86304.91944     79237.53942  25857422.0474                   25857414.6764
        29.2504         13.7504
  -7441389.32645  -7953291.41343  24991125.9844                   24991116.7974
        35.2504         19.0004
 -17455267.58648 -13890327.95147  20569028.3204                   20569016.9064
        49.2504         43.0004
  -5143534.91346  -4232097.69045  24685287.3594                   24685278.2304
        37.2504         32.5004
 -18912066.08748 -14032063.84846  22179474.0084                   22179462.3594
        48.0004         38.2504
 -17599692.31647 -15370898.17748  22001124.5164                   22001115.5634
        46.2504         48.7504
  -6371092.06646  -4934094.14643  24450435.6254                   24450423.2734
        38.0004         18.5004
 -21870038.08548 -17819413.56349  20961344.5864                   20961332.8204
        50.5004         54.7504
 -15540099.73447 -13251549.45147  21928179.3674                   21928170.5904
        45.2504         47.0004
  -9235406.57446  -7417008.16745  23527725.8524                   23527718.0124
        36.0004         34.5004
 -16253889.85048 -18889985.18649  21062888.8134                   21062879.2734
        52.7504         55.0004
 23  1  7  1 51  0.0000000  0 11G17G23G22G03G21G10G12G31G01G25G32
     71300.393 4                  25854568.313
        28.750
  -7341076.23745  -7875125.56842  25010212.8054                   25010205.5514
        34.2504         17.2504
 -17461565.53648 -13895235.45347  20567830.4304                   20567818.3714
        49.7504         43.0004
  -5244627.84346  -4310871.39945  24666050.9694                   24666041.0204
        38.2504         32.5004
 -18906207.73348 -14027498.90946  22180588.9144                   22180576.8554
        48.7504         38.5004
 -17527845.37547 -15314913.58348  22014796.0704                   22014787.0594
        46.5004         48.7504
  -6382124.36046  -4942690.68043  24448337.2894                   24448323.2384
        38.2504         19.0004
 -21941659.86848 -17875222.75249  20947715.3204                   20947703.3794
        50.0004         54.7504
 -15581869.53647 -13284097.35647  21920231.1724                   21920222.3954
        44.7504         47.2504
  -9281455.52346  -7452890.45645  23518963.3134                   23518955.4144
        36.7504         34.5004
 -16212046.69448 -18857380.15449  21070851.3524                   21070841.9304
        52.5004         54.7504
 23  1  7  1 51 30.0000000  0 11G17G23G22G03G21G10G12G31G01G25G32
     56763.809 5                  25851802.219
        31.000
  -7240648.97945  -7796870.83043  25029324.5554                   25029317.1844
        34.0004         18.2504
 -17467571.12148 -13899915.13347  20566687.0634                   20566675.5314
        49.2504         43.0004
  -5345709.12346  -4389635.96645  24646814.6484                   24646805.9884
        37.2504         33.0004
 -18899862.23148 -14022554.36746  22181796.8594                   22181784.2154
        48.0004         38.2504
 -17455681.32747 -15258681.89848  22028528.5164                   22028519.9734
        47.5004         48.5004
  -6392591.58746  -4950847.01043  24446344.7734                   24446331.7774
        38.2504         19.0004
 -22012768.82048 -17930632.32649  20934183.3914                   20934172.2114
        50.5004         54.7504
 -15623041.62047 -13316179.50547  21912395.8054                   21912387.4384
        45.2504         47.5004
  -9327021.90146  -7488396.72545  23510292.6804                   23510284.4304
        37.2504         35.0004
 -16169957.95648 -18824583.74549  21078861.0864                   21078851.2544
        53.0004         54.7504
 23  1  7  1 52  0.0000000  0 11G17G23G22G03G21G10G12G31G01G25G32
     42694.738 5                  25849128.102
        30.500
  -7140108.73445  -7718527.90843  25048455.3204                   25048449.2384
        31.5004         18.5004
 -17473285.55248 -13904367.93747  20565599.7194                   20565588.0124
        48.7504         42.7504
  -5446777.46446  -4468390.47645  24627582.5164                   24627573.6214
        37.5004         32.5004
 -18893030.21148 -14017230.72746  22183096.4614                   22183084.3444
        48.5004         38.7504
 -17383201.25947 -15202203.98148  22042321.3834                   22042312.0204
        47.0004         48.5004
  -6402492.70346  -4958562.19343  24444458.8674                   24444449.0944
        36.0004         21.0004
 -22083363.10248 -17985640.85649  20920750.0634                   20920738.3554
        50.5004         54.7504
 -15663614.70247 -13347794.90047  21904675.3594                   21904666.6414
        44.5004         47.2504
  -9372103.52446  -7523525.26545  23501713.3834                   23501705.6024
        36.7504         34.5004
 -16127624.86448 -18791596.94149  21086916.5164                   21086907.2704
        52.5004         55.0004
 23  1  7  1 52 30.0000000  0 11G17G23G22G03G21G10G12G31G01G25G32
     29092.458 4                  25846536.797
        29.750
  -7039457.81746  -7640098.84443  25067612.2274                   25067602.3364
        36.0004         19.0004
 -17478710.61648 -13908595.28047  20564567.2114                   20564555.6214
        49.0004         43.0004
  -5547832.81646  -4547134.89345  24608351.1254                   24608343.1094
        36.7504         33.2504
 -18885713.06648 -14011529.07446  22184489.2034                   22184476.7934
        48.5004         38.7504
 -17310406.72447 -15145481.01748  22056173.7664                   22056164.5784
        47.0004         48.2504
  -6411827.95546  -4965836.42843  24442681.7034                   24442673.5124
        36.0004         20.0004
 -22153441.92648 -18040247.73049  20907414.7894                   20907402.8484
        50.5004         54.7504
 -15703588.40547 -13378943.22847  21897068.7274                   21897060.1844
        44.5004         47.5004
  -9416699.11446  -7558275.10745  23493227.2034                   23493219.1294
        36.5004         34.7504
 -16085049.59248 -18758421.41349  21095018.4064                   21095008.3984
        52.0004         54.7504
 23  1  7  1 53  0.0000000  0 11G17G23G22G03G21G10G12G31G01G25G32
     15958.703 4                  25844036.313
        29.250
  -6938695.81545  -7561583.29843  25086784.5944                   25086777.8094
        34.5004         19.0004
 -17483845.45048 -13912596.45247  20563590.1884                   20563578.3634
        49.5004         43.0004
  -5648872.37646  -4625866.95245  24589126.3984                   24589116.4494
        37.5004         33.5004
 -18877909.68448 -14005448.52946  22185974.0474                   22185961.8714
        49.0004         38.7504
 -17237296.89147 -15088512.35548  22070085.7504                   22070077.0314
        46.5004         48.2504
  -6420594.92746  -4972667.81243  24441015.8444                   24441005.3094
        37.7504         20.0004
 -22223001.53348 -18094450.02449  20894177.7114                   20894166.2384
        50.2504         54.7504
 -15742959.78147 -13409622.22947  21889577.4384                   21889567.4884
        45.5004         47.5004
  -9460804.86346  -7592643.24745  23484833.1724                   23484825.5664
        36.5004         34.5004
 -16042231.57248 -18725056.74349  21103166.3914                   21103156.6764
        52.2504         54.7504
