     2.10           OBSERVATION DATA    G (GPS)             RINEX VERSION / TYPE
teqc  2004Apr5                          20041208 15:58:23UTCPGM / RUN BY / DATE
OBSERVATION MODE: Permanent                                 COMMENT
CHUM Chumysh (CHUM)                                         MARKER NAME
25601M001                                                   MARKER NUMBER
T136                ROGUE SNR-8000       3.20               REC # / TYPE / VERS
113                 AOAD/M_T        NONE                    ANT # / TYPE
        0.0900        0.0000        0.0000                  ANTENNA: DELTA H/E/N
  1228950.8666  4508079.8930  4327868.4923                  APPROX POSITION XYZ
  74.75109760  42.99850107  716.3263  LonLatAlt  S/W        COMMENT
Linux 2.0.36|Pentium II|gcc -static|Linux|486/DX+           COMMENT
BIT 2 OF LLI FLAGS DATA COLLECTED UNDER A/S CONDITION       COMMENT
Konovalov           IVTAN                                   OBSERVER / AGENCY
     1     1                                                WAVELENGTH FACT L1/2
     5    L1    L2    C1    P2    P1                        # / TYPES OF OBSERV
    30.0000                                                 INTERVAL
    P1 =    P1  TurboRogue; =    Y1  Benchmark              COMMENT
    L1 = L1(P1) TurboRogue; = L1(Y1) Benchmark              COMMENT
    P2 =    P2  TurboRogue; =    Y2  Benchmark              COMMENT
    L2 = L2(P2) TurboRogue; = L2(Y2) Benchmark              COMMENT
 SNR is mapped to RINEX snr flag value [1,4-9]              COMMENT
    SNR:  >=316 >=100 >=31.6 >=10 >=3.2    >0 bad=0         COMMENT
L1 & L2:      9     8     7     6     5     4     1         COMMENT
  2002     1    10     0     0    0.0000000     GPS         TIME OF FIRST OBS
  2002     1    10    23    59   30.0000000     GPS         TIME OF LAST OBS
                                                            END OF HEADER
 02  1 10  0  0  0.0000000  0  8G20G22G29G11G25G 1G30G14
 -21421755.58549 -16692274.37747  21269534.416    21269534.300
 -12088318.73848  -9419469.50745  22576036.944    22576038.660
  -7277257.90349  -5670587.70446  22057098.935    22057098.869
 -10023347.37848  -7810402.59844  23457038.327    23457037.299
 -23114265.97749 -18011108.34047  20685016.309    20685015.933
  -9012734.76048  -7022907.39145  23374943.991    23374945.146
   1594273.56748   1242291.93944  24039291.785    24039296.319
  -1218535.91748   -949506.54145  23368966.764    23368966.632
 02  1 10  0  0 30.0000000  0  8G20G22G29G11G25G 1G30G14
 -21481171.57149 -16738572.54947  21258228.114    21258227.894
 -12194108.40248  -9501903.02945  22555906.687    22555907.318
  -7215079.53149  -5622137.04546  22068930.932    22068931.250
  -9948256.79148  -7751890.45544  23471328.042    23471327.385
 -23082631.76049 -17986458.30147  20691036.038    20691035.790
  -9091009.82748  -7083900.93845  23360048.630    23360050.819
   1664171.41648   1296757.82044  24052594.717    24052593.096
  -1139496.24748   -887917.23745  23384007.334    23384006.932
 02  1 10  0  1  0.0000000  0  8G20G22G29G11G25G 1G30G14
 -21540140.60349 -16784522.45347  21247006.290    21247006.089
 -12299660.47348  -9584151.40745  22535820.718    22535821.983
  -7152710.66349  -5573537.94146  22080799.350    22080799.892
  -9872907.52148  -7693176.75844  23485665.955    23485668.831
 -23050614.52149 -17961509.80747  20697128.859    20697128.688
  -9169199.10648  -7144827.63545  23345169.098    23345170.668
   1734527.69148   1351580.90544  24065982.562    24065982.726
  -1060332.47948   -826231.21645  23399072.150    23399073.395
 02  1 10  0  1 30.0000000  0  8G20G22G29G11G25G 1G30G14
 -21598664.35649 -16830125.38047  21235869.717    21235869.821
 -12404975.83848  -9666215.33045  22515779.487    22515781.339
  -7090155.60549  -5524793.75346  22092703.657    22092703.864
  -9797306.32948  -7634266.77644  23500052.978    23500052.338
 -23018219.86849 -17936267.22447  20703293.193    20703292.899
  -9247306.19348  -7205690.28845  23330306.451    23330307.552
   1805336.13448   1406756.28344  24079457.846    24079458.288
   -981049.38748   -764452.20445  23414159.095    23414158.789
 02  1 10  0  2  0.0000000  0  8G20G22G29G11G25G 1G30G14
 -21656743.71949 -16875382.02947  21224817.799    21224818.022
 -12510054.09349  -9748094.48845  22495784.253    22495785.721
  -7027417.65349  -5475907.05846  22104641.802    22104641.730
  -9721459.31248  -7575165.24744  23514485.847    23514487.801
 -22985452.49749 -17910734.20847  20709528.589    20709528.443
  -9325333.69448  -7266490.92845  23315458.288    23315459.325
   1876591.42948   1462279.87844  24093017.326    24093018.457
   -901650.05648   -702582.61945  23429268.454    23429268.533
 02  1 10  0  2 30.0000000  0  8G20G22G29G11G25G 1G30G14
 -21714386.90849 -16920298.80347  21213848.648    21213848.602
 -12614902.64148  -9829794.67045  22475831.304    22475833.040
  -6964507.30049  -5426886.02746  22116613.520    22116613.748
  -9645379.87748  -7515882.59444  23528962.703    23528965.540
 -22952324.36949 -17884920.07947  20715832.905    20715832.804
  -9403291.76748  -7327237.47145  23300623.021    23300625.045
   1948280.56548   1518141.55244  24106658.002    24106659.488
   -822145.37348   -640630.95045  23444397.338    23444397.510
 02  1 10  0  3  0.0000000  0  8G20G22G29G11G25G 1G30G14
 -21771601.47349 -16964881.58947  21202961.007    21202960.986
 -12719527.90048  -9911320.84145  22455921.648    22455924.640
  -6901434.85149  -5377738.68546  22128615.869    22128616.278
  -9569080.83448  -7456428.80544  23543482.454    23543484.247
 -22918846.75049 -17858833.62147  20722203.418    20722203.247
  -9481189.73848  -7387937.15245  23285799.462    23285802.207
   2020391.55448   1574331.88944  24120380.660    24120380.290
   -742545.78948   -578605.32745  23459544.836    23459543.798
 02  1 10  0  3 30.0000000  0  8G20G22G29G11G25G 1G30G14
 -21828362.52549 -17009110.98647  21192159.916    21192159.925
 -12823903.80849  -9992652.71945  22436060.635    22436061.410
  -6838177.67849  -5328447.39846  22140653.005    22140653.632
  -9492542.43348  -7396788.50944  23558046.209    23558044.350
 -22884998.31949 -17832458.21947  20728643.890    20728643.958
  -9559004.49248  -7448572.00545  23270992.102    23270993.088
   2092944.82148   1630866.99844  24134186.267    24134185.968
   -662828.82348   -516488.24345  23474714.783    23474714.674
 02  1 10  0  4  0.0000000  0  8G20G22G29G11G25G 1G30G14
 -21884685.30049 -17052998.86847  21181441.997    21181442.192
 -12928044.39549 -10073801.22545  22416242.793    22416245.213
  -6774753.11249  -5279025.67846  22152722.450    22152722.142
  -9415784.78348  -7336977.38944  23572653.509    23572651.589
 -22850797.88549 -17805808.52847  20735152.201    20735152.166
  -9636752.69248  -7509155.01545  23256196.868    23256197.530
   2165920.77448   1687731.34944  24148074.024    24148072.977
   -583012.03048   -454293.36445  23489902.885    23489902.243
 02  1 10  0  4 30.0000000  0  8G20G22G29G11G25G 1G30G14
 -21940550.98649 -17096530.57547  21170810.882    21170810.750
 -13031930.01749 -10154751.07745  22396474.112    22396475.893
  -6711145.08849  -5229461.00746  22164827.111    22164827.562
  -9338794.40948                  23587302.718
 -22816230.80349 -17778873.13547  20741730.454    20741730.445
  -9714417.72448  -7569673.20645  23241417.107    23241419.986
   2239333.41948   1744935.99844  24162043.501    24162042.974
   -503079.40048   -392008.23745  23505114.328    23505113.458
 02  1 10  0  5  0.0000000  0  8G20G22G29G11G25G 1G30G14
 -21995936.06949 -17139687.78747  21160271.521    21160271.601
 -13135535.85849 -10235482.89945  22376758.387    22376760.415
  -6647332.48749  -5179736.92346  22176969.527    22176969.823
  -9261552.82248  -7216796.66344  23602003.295    23602003.771
 -22781277.19149 -17751636.54847  20748381.810    20748381.884
  -9791977.71948  -7630109.54045  23226658.584    23226660.343
   2313201.81148   1802495.78144  24176100.549    24176101.424
   -423009.87148   -329616.41845  23520350.497    23520351.027
 02  1 10  0  5 30.0000000  0  8G20G22G29G11G25G 1G30G14
 -22050840.26949 -17182470.28247  21149823.568    21149823.544
 -13238860.67549 -10315995.74445  22357096.180    22357099.187
  -6583317.17949  -5129854.88446  22189151.890    22189151.781
  -9184064.98148                  23616746.534
 -22745940.29249 -17724101.29847  20755106.103    20755106.262
  -9869433.95848  -7690465.03745  23211918.974    23211920.833
   2387521.70048   1860407.41844  24190243.397    24190244.056
   -342805.73748   -267119.72145  23535613.367    23535613.430
 02  1 10  0  6  0.0000000  0  8G20G22G29G11G25G 1G30G14
 -22105262.31949 -17224877.07947  21139467.611    21139467.717
 -13341902.10049 -10396287.76445  22337488.163    22337489.137
  -6519100.40849  -5079815.86446  22201372.017    22201371.399
  -9106334.67348  -7095847.49344  23631539.931    23631539.613
 -22710222.67349 -17696269.37947  20761903.335    20761903.056
  -9946786.91548  -7750740.06545  23197199.704    23197200.763
   2462289.80748   1918668.23044  24204470.083    24204470.759
   -262468.57448   -204519.35745  23550900.731    23550900.402
 02  1 10  0  6 30.0000000  0  8G20G22G29G11G25G 1G30G14
 -22159220.92149 -17266922.74647  21129199.565    21129199.499
 -13444677.70049 -10476372.65045  22317930.493    22317932.727
  -6454703.17049  -5029636.21646  22213625.984    22213625.630
  -9028385.69548  -7035108.16444  23646373.309    23646374.009
 -22674146.62349 -17668158.16847  20768768.191    20768768.184
 -10024056.94048  -7810950.44445  23182495.173    23182498.199
   2537482.89648   1977260.29644  24218780.627    24218780.300
   -182019.29048   -141831.62745  23566210.087    23566209.128
 02  1 10  0  7  0.0000000  0  8G20G22G29G11G25G 1G30G14
 -22212728.52549 -17308616.98747  21119017.407    21119017.524
 -13547198.72549 -10556259.14745  22298421.852    22298423.683
  -6390140.35549  -4979327.55646  22225912.197    22225912.642
  -8950235.51648                  23661244.556
 -22637728.22549 -17639780.19047  20775698.323    20775698.302
 -10101258.17348  -7871107.23745  23167804.984    23167806.056
   2613083.98048   2036170.24244  24233166.550    24233167.152
   -101472.78048    -79068.15245  23581537.531    23581536.402
 02  1 10  0  7 30.0000000  0  8G20G22G29G11G25G 1G30G14
 -22265770.36249 -17349948.29247  21108924.350    21108924.177
 -13649449.05549 -10635934.73745  22278963.784    22278965.383
  -6325399.39149  -4928880.07146  22238231.655    22238232.041
  -8871874.49148                  23676156.936
 -22600956.47049 -17611126.86947  20782696.003    20782695.868
 -10178377.60548  -7931200.29545  23153128.858    23153130.577
   2689103.33248   2095406.05644  24247633.516    24247633.550
    -20816.83248    -16219.39245  23596885.514    23596885.596
 02  1 10  0  8  0.0000000  0  8G20G22G29G11G25G 1G30G14
 -22318334.63249 -17390907.46547  21098921.321    21098921.352
 -13751416.23649 -10715389.67145  22259560.374    22259562.847
  -6260471.07549  -4878286.59646  22250587.472    22250587.639
  -8793296.18148                  23691108.478
 -22563823.47149 -17582192.06047  20789761.928    20789761.834
 -10255405.24548  -7991221.81545  23138471.295    23138473.474
   2765547.99648   2154973.38444  24262180.104    24262181.446
     59957.86848     46721.89545  23612256.283    23612255.634
 02  1 10  0  8 30.0000000  0  8G20G22G29G11G25G 1G30G14
 -22370417.95049 -17431491.87047  21089009.768    21089009.604
 -13853095.20149 -10794620.03545  22240211.236    22240213.206
  -6195354.16249  -4827546.16546  22262978.323    22262978.455
  -8714501.83348  -6790522.30844  23706104.140    23706101.316
 -22526329.25749 -17552975.78047  20796896.935    20796896.860
 -10332339.05648  -8051170.21645  23123831.547    23123833.074
   2842417.08848   2214871.38644  24276807.171    24276807.170
    140852.07048    109756.32345  23627650.924    23627650.384
 02  1 10  0  9  0.0000000  0  8G20G22G29G11G25G 1G30G14
 -22422046.26349 -17471721.72947  21079185.449    21079185.320
 -13954511.09749 -10873645.41245  22220912.832    22220914.423
  -6130076.94649  -4776680.82946  22275400.413    22275400.906
  -8635522.89548                  23721132.473
 -22488503.67849 -17523501.30047  20804095.190    20804095.230
 -10409206.87948  -8111067.22945  23109203.259    23109204.686
   2919679.80448   2275076.07944  24291510.842    24291508.777
    221837.31148    172861.66245  23643061.030    23643061.563
 02  1 10  0  9 30.0000000  0  8G20G22G29G11G25G 1G30G14
 -22473207.65449 -17511587.75647  21069449.793    21069449.700
 -14055650.65549 -10952455.44946  22201665.852    22201668.429
  -6064629.72049  -4725683.00846  22287855.010    22287854.663
  -8556352.01948  -6667288.77744  23736198.655    23736200.201
 -22450338.16149 -17493761.94047  20811357.368    20811357.410
 -10485998.05249  -8170904.48545  23094591.697    23094592.253
   2997343.83548   2335593.50344  24306288.642    24306290.726
    302923.40548    236045.59445  23658491.253    23658491.351
 02  1 10  0 10  0.0000000  0  8G20G22G29G11G25G 1G30G14
 -22523892.26249 -17551082.25647  21059804.993    21059804.919
 -14156502.62049 -11031041.38145  22182475.435    22182477.069
  -5999004.68349  -4674546.63646  22300342.389    22300341.967
  -8476984.58048                  23751300.756
 -22411826.51049 -17463752.85847  20818685.877    20818685.887
 -10562704.31749  -8230675.59145  23079994.177    23079995.922
   3075414.39848   2396427.68244  24321146.116    24321143.152
    384117.73648    299313.88445  23673943.265    23673941.689
 02  1 10  0 10 30.0000000  0  8G20G22G29G11G25G 1G30G14
 -22574109.90549 -17590212.89247  21050248.728    21050248.735
 -14257076.02749 -11109410.26446  22163336.578    22163338.889
  -5933214.17549  -4623281.32446  22312862.331    22312862.430
  -8397435.61548                  23766440.497
 -22372982.24849 -17433484.59847  20826077.411    20826077.384
 -10639337.28148  -8290389.57245  23065410.783    23065411.995
   3153877.13648   2457567.50844  24336076.352    24336076.440
    465407.70448    362656.67445  23689410.894    23689410.575
 02  1 10  0 11  0.0000000  0  8G20G22G29G11G25G 1G30G14
 -22623854.07849 -17628974.58847  21040782.860    21040782.873
 -14357362.93249 -11187555.89646  22144252.944    22144254.670
  -5867254.09649  -4571883.88546  22325414.313    22325414.853
  -8317703.58748                  23781611.525
 -22333802.66449 -17402955.05247  20833533.558    20833533.508
 -10715891.93749  -8350042.53846  23050843.437    23050844.711
   3232733.96948   2519014.39544  24351081.633    24351078.731
    546797.55748    426077.29845  23704898.736    23704900.578
 02  1 10  0 11 30.0000000  0  8G20G22G29G11G25G 1G30G14
 -22673098.58949 -17667346.93647  21031411.857    21031412.020
 -14457335.92149 -11265456.92846  22125228.277    22125229.567
  -5801100.30949  -4520335.49946  22338002.506    22338003.638
  -8237767.29548                  23796823.129
 -22294265.22749 -17372146.66047  20841057.140    20841057.069
 -10792343.59249  -8409615.23545  23036295.177    23036296.768
   3312006.56248   2580785.24544  24366167.814    24366167.269
    628311.19248    489594.37245  23720411.557    23720411.253
 02  1 10  0 12  0.0000000  0  8G20G22G29G11G25G 1G30G14
 -22721847.45849 -17705333.07447  21022135.116    21022135.350
 -14556997.86149 -11343115.56346  22106263.069    22106264.582
  -5734759.01949  -4468641.00946  22350627.200    22350627.258
  -8157635.86648                  23812073.251
 -22254377.38649 -17341065.22747  20848647.216    20848647.218
 -10868697.97649  -8469112.12645  23021765.427    23021767.092
   3391686.43848   2642873.48244  24381330.456    24381330.985
    709941.98848    553202.76245  23735944.601    23735944.360
 02  1 10  0 12 30.0000000  0  8G20G22G29G11G25G 1G30G14
 -22770099.97349 -17742932.44147  21012953.218    21012953.319
 -14656346.83149 -11420530.32746  22087357.874    22087358.934
  -5668232.05449  -4416801.82446  22363287.145    22363288.313
  -8077313.39248                  23827357.152
 -22214141.98849 -17309712.97047  20856303.825    20856303.803
 -10944955.82149  -8528533.81245  23007255.249    23007254.528
   3471769.66948   2705275.93544  24396570.267    24396568.923
    791688.43248    616901.26145  23751500.389    23751501.803
 02  1 10  0 13  0.0000000  0  8G20G22G29G11G25G 1G30G14
 -22817850.44549 -17780140.60147  21003866.634    21003866.771
 -14755376.02249 -11497695.92346  22068513.094    22068514.681
  -5601515.77249  -4364815.14546  22375982.016    22375982.410
  -7996799.45348                  23842678.084
 -22173557.16349 -17278088.42847  20864027.094    20864027.089
 -11021112.94749  -8587877.01145  22992761.273    22992763.606
   3552257.28148   2767993.64844  24411885.319    24411887.425
    873553.90648    680692.48945  23767079.554    23767078.414
 02  1 10  0 13 30.0000000  0  8G20G22G29G11G25G 1G30G14
 -22865095.74549 -17816955.12947  20994876.130    20994876.093
 -14854080.61449 -11574608.57646  22049730.413    22049731.618
  -5534609.04649  -4312680.05146  22388714.587    22388715.276
  -7916095.48348                  23858035.223
 -22132623.22049 -17246191.85547  20871816.535    20871816.250
 -11097167.42349  -8647140.21346  22978290.040    22978290.752
   3633148.37548   2831025.60444  24427278.691    24427278.002
    955539.25248    744577.13745  23782679.871    23782679.430
 02  1 10  0 14  0.0000000  0  8G20G22G29G11G25G 1G30G14
 -22911855.48749 -17853391.29547  20985978.026    20985977.732
 -14952479.24849 -11651282.82546  22031005.728    22031007.326
  -5467534.04249  -4260413.83146  22401478.973    22401479.202
  -7835226.30948                  23873424.845
 -22091363.28449 -17214041.25447  20879668.224    20879667.942
 -11173140.57049  -8706340.06946  22963832.651    22963832.941
   3714418.40248   2894352.89344  24442744.456    24442743.281
   1037622.27148    808537.89645  23798300.621    23798301.059
 02  1 10  0 14 30.0000000  0  8G20G22G29G11G25G 1G30G14
 -22958122.59549 -17889443.59247  20977173.846    20977173.879
 -15050563.47049 -11727712.07646  22012341.406    22012341.872
  -5400285.58649  -4208012.46246  22414275.199    22414274.961
  -7754189.65647                  23888842.808
 -22049773.86449 -17181633.91147  20887582.363    20887582.019
 -11249026.73248  -8765472.11746  22949390.384    22949392.802
   3796070.03648   2957977.59944  24458281.127    24458280.064
   1119807.81248    872578.54745  23813940.039    23813940.316
 02  1 10  0 15  0.0000000  0  8G20G22G29G11G25G 1G30G14
 -23003875.97249 -17925095.58147  20968467.196    20968467.222
 -15148311.25949 -11803879.16946  21993739.566    21993742.370
  -5332845.05049  -4155461.41546  22427108.565    22427109.799
  -7672969.64148                  23904302.395
 -22007837.80449 -17148956.46647  20895562.689    20895562.364
 -11324806.30249  -8824521.12146  22934972.011    22934972.517
   3878119.63048   3021912.26244  24473894.981    24473892.934
   1202114.45148    936713.55745  23829602.066    23829602.237
 02  1 10  0 15 30.0000000  0  8G20G22G29G11G25G 1G30G14
 -23049116.96449 -17960348.30447  20959858.145    20959858.392
 -15245722.20549 -11879783.78846  21975203.670    21975205.427
  -5265215.76149  -4102763.28646  22439978.532    22439978.804
  -7591572.23947                  23919789.454
 -21965559.60649 -17116012.42147  20903607.922    20903607.578
 -11400481.83748  -8883489.04146  22920569.625    22920571.437
   3960561.65848   3086152.91744  24489583.592    24489583.353
   1284538.62148   1000940.12445  23845286.889    23845285.629
 02  1 10  0 16  0.0000000  0  8G20G22G29G11G25G 1G30G14
 -23093865.54049 -17995217.32947  20951342.780    20951342.659
 -15342815.13649 -11955440.60746  21956726.787    21956728.496
  -5197419.71549  -4049935.22446  22452879.770    22452878.715
  -7510022.41047                  23935308.471
 -21922962.49149 -17082819.87047  20911713.741    20911713.460
 -11476074.75349  -8942392.57845  22906185.444    22906186.264
   4043371.67848   3150680.14344  24505342.230    24505340.269
   1367058.42648   1065241.25545  23860990.508    23860990.570
 02  1 10  0 16 30.0000000  0  8G20G22G29G11G25G 1G30G14
 -23138138.31849 -18029715.60747  20942917.638    20942917.717
 -15439605.37449 -12030861.55746  21938308.043    21938309.744
  -5129475.87849  -3996991.98746  22465808.365    22465808.431
  -7428341.65347                  23950850.400
 -21880066.91749 -17049394.75347  20919876.553    20919876.211
 -11551603.01749  -9001245.76146  22891813.982    22891815.008
   4126528.43448   3215477.63644  24521166.009    24521166.347
   1449654.57748   1129601.86145  23876707.391    23876708.107
 02  1 10  0 17  0.0000000  0  8G20G22G29G11G25G 1G30G14
 -23181908.09249 -18063821.92747  20934588.786    20934588.645
 -15536064.57249 -12106024.55046  21919952.832    21919954.504
  -5061359.09749  -3943913.99846  22478770.591    22478770.363
  -7346507.68948                  23966424.434
 -21836849.37049 -17015718.74947  20928100.664    20928100.587
 -11627040.97348  -9060028.54146  22877456.290    22877458.593
   4210054.65148   3280562.98944  24537059.724    24537060.496
   1532351.92048   1194041.29545  23892444.119    23892443.769
 02  1 10  0 17 30.0000000  0  8G20G22G29G11G25G 1G30G14
 -23225151.97949 -18097518.46747  20926359.922    20926359.757
 -15632168.32449 -12180910.56646  21901665.060    21901667.066
  -4993048.64549  -3890685.09846  22491770.533    22491770.798
  -7264502.63947                  23982028.491
 -21793290.46349 -16981776.75047  20936389.930    20936389.713
 -11702367.07149  -9118724.17745  22863124.154    22863124.600
   4293968.74648   3345950.58244  24553028.778    24553026.161
   1615171.27348   1258575.80845  23908204.602    23908202.966
 02  1 10  0 18  0.0000000  0  8G20G22G29G11G25G 1G30G14
 -23267871.86549 -18130806.69447  20918230.350    20918230.162
 -15727917.05049 -12255519.95546  21883444.874    21883446.408
  -4924548.30149  -3837308.22745  22504804.959    22504804.801
  -7182332.86948                  23997666.608
 -21749395.19749 -16947572.65247  20944742.648    20944742.390
 -11777584.26449  -9177334.97545  22848810.874    22848811.808
   4378264.41148   3411635.52444  24569069.476    24569070.403
   1698108.72848   1323202.37745  23923986.978    23923986.634
 02  1 10  0 18 30.0000000  0  8G20G22G29G11G25G 1G30G14
 -23310074.64149 -18163691.97747  20910199.774    20910199.670
 -15823316.62949 -12329857.26146  21865290.097    21865292.533
  -4855867.38349  -3783790.63745  22517874.676    22517875.292
  -7100010.69348                  24013331.333
 -21705174.35249 -16913114.85747  20953157.306    20953157.364
 -11852701.03748  -9235867.50146  22834514.450    22834517.032
   4462930.19848   3477608.85444  24585180.337    24585180.770
   1781154.59948   1387913.43345  23939790.154    23939791.336
 02  1 10  0 19  0.0000000  0  8G20G22G29G11G25G 1G30G14
 -23351768.54649 -18196180.73647  20902265.444    20902265.612
 -15918373.79649 -12403927.75346  21847202.088    21847203.463
  -4787015.95649  -3730140.21245  22530976.544    22530977.505
  -7017548.80248                  24029023.591
 -21660639.44449 -16878412.33747  20961632.184    20961632.259
 -11927726.72949  -9294329.06246  22820239.500    22820239.578
   4547953.35248   3543860.66044  24601360.525    24601360.451
   1864298.75348   1452701.02245  23955611.749    23955612.961
 02  1 10  0 19 30.0000000  0  8G20G22G29G11G25G 1G30G14
 -23392952.95049 -18228272.48047  20894428.334    20894428.476
 -16013086.64349 -12477729.94646  21829178.189    21829180.005
  -4717995.45749  -3676358.02745  22544111.525    22544111.921
  -6934951.42048                  24044741.102
 -21615793.17349 -16843467.19647  20970166.116    20970166.046
 -12002661.94349  -9352720.13246  22805979.504    22805980.589
   4633330.09948   3610387.99144  24617606.684    24617606.292
   1947539.51048   1517563.91445  23971453.305    23971452.766
 02  1 10  0 20  0.0000000  0  8G20G22G29G11G25G 1G30G14
 -23433618.56249 -18259959.97247  20886689.731    20886689.769
 -16107444.54649 -12551255.55646  21811223.162    21811224.553
  -4648798.96249  -3622438.70745  22557278.057    22557279.066
  -6852214.20148                  24060485.799
 -21570629.96649 -16808275.09247  20978760.395    20978760.090
 -12077498.84848  -9411034.56746  22791737.374    22791739.340
   4719065.28048   3677194.63244  24633921.570    24633922.514
   2030884.22648   1582507.82445  23987311.135    23987310.806
 02  1 10  0 20 30.0000000  0  8G20G22G29G11G25G 1G30G14
 -23473733.99349 -18291218.75047  20879055.955    20879056.208
 -16201414.61449 -12624478.96046  21793340.741    21793342.544
  -4579396.77449  -3568359.11045  22570485.767    22570485.217
  -6769310.26248                  24076262.872
 -21525121.93749 -16772814.29847  20987420.036    20987419.991
 -12152207.05049  -9469248.73646  22777522.714    22777523.090
   4805185.93448   3744301.62044  24650310.375    24650309.140
   2114361.82748   1647555.24745  24003197.667    24003197.452
 02  1 10  0 21  0.0000000  0  8G20G22G29G11G25G 1G30G14
 -23513323.85849 -18322068.00047  20871522.657    20871522.618
 -16295019.94849 -12697418.14946  21775528.630    21775529.665
  -4509815.55649  -3514140.00145  22583727.136    22583726.431
  -6686268.98748                  24092064.396
 -21479296.65649 -16737106.29247  20996140.347    20996140.099
 -12226812.21948  -9527382.62546  22763323.640    22763325.678
   4891663.02448   3811686.37344  24666765.590    24666764.502
   2197945.75248   1712685.53145  24019103.341    24019102.367
 02  1 10  0 21 30.0000000  0  8G20G22G29G11G25G 1G30G14
 -23552402.91649 -18352519.21947  20864086.217    20864086.239
 -16388274.15849 -12770083.73346  21757782.573    21757784.438
  -4440072.13248  -3459794.50445  22596997.292    22596998.390
  -6603110.09048                  24107888.285
 -21433172.52949 -16701165.42047  21004917.577    21004917.405
 -12301330.70348  -9585448.94946  22749143.461    22749145.189
   4978477.31348   3879333.91044  24683286.282    24683286.442
   2281618.92948   1777885.36944  24035024.931    24035025.511
 02  1 10  0 22  0.0000000  0  8G20G22G29G11G25G 1G30G14
 -23590970.04849 -18382571.53247  20856746.712    20856746.926
 -16481174.69849 -12842473.72746  21740104.347    21740105.609
  -4370167.40549  -3405323.32145  22610300.418    22610300.797
  -6519837.20748                  24123736.237
 -21386751.83749 -16664993.45447  21013751.057    21013751.033
 -12375762.23949  -9643447.54146  22734981.794    22734982.389
   5065625.48148   3947241.52244  24699869.567    24699870.650
   2365380.36448   1843153.98045  24050964.282    24050963.635
 02  1 10  0 22 30.0000000  0  8G20G22G29G11G25G 1G30G14
 -23629006.49049 -18412210.32047  20849508.656    20849508.717
 -16573701.40349 -12914572.43246  21722497.360    21722498.463
  -4300084.64949  -3350713.40045  22623637.310    22623636.622
  -6436436.29448                  24139606.368
 -21340019.49549 -16628578.64247  21022644.351    21022644.015
 -12450089.53048  -9701364.89946  22720835.213    22720837.016
   5153122.00648   4015420.66844  24716519.860    24716516.012
   2449246.60048   1908504.26945  24066924.385    24066924.359
 02  1 10  0 23  0.0000000  0  8G20G22G29G11G25G 1G30G14
 -23666525.30249 -18441445.75847  20842369.245    20842369.334
 -16665865.83649 -12986388.84046  21704958.486    21704960.094
  -4229838.93948  -3295976.51645  22637003.625    22637004.885
  -6352924.93848                  24155497.169
 -21292991.51949 -16591933.47047  21031593.454    21031593.128
 -12524326.60549  -9759211.94546  22706709.683    22706711.017
   5240949.08748   4083857.34544  24733232.541    24733235.200
   2533202.70148   1973924.55545  24082900.383    24082901.755
 02  1 10  0 23 30.0000000  0  8G20G22G29G11G25G 1G30G14
 -23703493.96749 -18470252.51347  20835334.351    20835334.191
 -16757633.84149 -13057896.35746  21687496.270    21687497.409
  -4159399.32748  -3241088.53545  22650408.340    22650409.651
  -6269275.30748                  24171415.468
 -21245638.71049 -16555035.17947  21040604.260    21040603.820
 -12598441.76349  -9816964.01246  22692606.655    22692607.264
   5329135.37248   4152573.89144  24750013.704    24750012.843
   2617279.19648   2039438.64845  24098899.013    24098898.470
 02  1 10  0 24  0.0000000  0  8G20G22G29G11G25G 1G30G14
 -23739930.45349 -18498644.58147  20828400.617    20828400.582
 -16849022.19549 -13129108.03846  21670105.016    21670106.780
  -4088785.85748  -3186065.07745  22663845.474    22663845.871
  -6185510.10748  -4819880.27444  24187355.649    24187357.086
 -21197982.50549 -16517900.48147  21049673.060    21049672.605
 -12672454.22749  -9874636.04646  22678520.952    22678522.707
   5417658.38448   4221552.83844  24766859.653    24766861.456
   2701455.79848   2105030.76345  24114918.836    24114918.295
 02  1 10  0 24 30.0000000  0  7G22G20G29G11G25G 1G14
 -16940030.24549 -13200023.38146  21652787.269    21652788.775
 -23775835.58549 -18526622.60647  20821567.877    20821567.928
  -4018001.61149  -3130908.55745  22677315.909    22677316.441
  -6101634.79948                  24203317.254
 -21150026.62149 -16480532.26247  21058798.572    21058798.129
 -12746365.92449  -9932229.56246  22664457.336    22664458.520
   2785729.72548   2170698.74745  24130954.544    24130954.715
 02  1 10  0 25  0.0000000  0  7G20G22G29G11G25G 1G14
 -23811195.13049 -18554175.50047  20814839.176    20814839.142
 -17030642.25649 -13270630.12746  21635544.130    21635546.053
  -3947034.01248  -3075609.15345  22690820.343    22690821.184
  -6017639.87548                  24219299.281
 -21101760.55149 -16442922.34147  21067983.301    21067982.904
 -12820163.55649  -9989734.19846  22650413.483    22650414.517
   2870113.08848   2236451.95445  24147012.214    24147012.159
 02  1 10  0 25 30.0000000  0  8G20G22G29G11G25G 1G 4G14
 -23846021.29049 -18581312.76947  20808212.146    20808211.998
 -17120869.03349 -13340936.68046  21618374.586    21618375.990
  -3875897.01948  -3020177.77345  22704356.552    22704358.846
  -5933541.88848  -4623541.50344  24235304.314    24235301.228
 -21053199.57049 -16405082.62347  21077224.112    21077223.734
 -12893860.30949 -10047160.21546  22636389.310    22636391.535
        -1.12158                  25320034.835
   2954591.68848   2302279.39544  24163088.767    24163088.892
 02  1 10  0 26  0.0000000  0  8G20G22G29G11G25G 1G 4G14
 -23880308.35149 -18608029.96247  20801687.645    20801687.499
 -17210703.48149 -13410937.52446  21601279.267    21601280.909
  -3804587.10048  -2964611.61845  22717927.355    22717927.542
  -5849339.63548                  24251325.556
 -21004341.25649 -16367011.21647  21086521.725    21086521.274
 -12967451.71349 -10104504.15346  22622385.905    22622386.794
    -53046.43948                  25309941.697
   3039169.27848   2368183.97244  24179182.172    24179181.580
 02  1 10  0 26 30.0000000  0  8G20G22G29G11G25G 1G 4G14
 -23914061.48849 -18634331.10847  20795264.487    20795264.577
 -17300149.27949 -13480635.51646  21584258.490    21584259.800
  -3733111.27548  -2908916.20145  22731528.198    22731528.678
  -5765043.31848                  24267368.493
 -20955194.30849 -16328714.89647  21095873.865    21095873.556
 -13040943.96849 -10161770.83646  22608400.468    22608401.569
   -105644.17548                  25299933.090
   3123838.60148   2434160.01945  24195294.684    24195293.387
 02  1 10  0 27  0.0000000  0  8G20G22G29G11G25G 1G 4G14
 -23947274.73149 -18660211.55947  20788944.130    20788944.303
 -17389198.81049 -13550024.74046  21567312.637    21567314.204
  -3661465.39648  -2853088.25945  22745161.644    22745163.337
  -5680651.31848  -4426484.01444  24283427.272    24283428.000
 -20905755.81649 -16290191.39947  21105281.843    21105281.370
 -13114331.74049 -10218956.09246  22594434.579    22594436.174
   -157788.02848                  25290009.189
   3208603.55148   2500210.60345  24211424.945    24211424.575
 02  1 10  0 27 30.0000000  0  8G20G22G29G11G25G 1G 4G14
 -23979934.75949 -18685660.93247  20782729.265    20782729.259
 -17477837.37149 -13619093.71846  21550445.829    21550446.896
  -3589637.85748  -2797118.78145  22758830.553    22758830.104
  -5596154.86548                  24299507.288
 -20856016.14149 -16251433.21547  21114747.032    21114746.809
 -13187602.81549 -10276050.41646  22580492.440    22580493.480
   -209464.86448                  25280175.980
   3293475.62848   2566344.62544  24227575.516    24227577.930
 02  1 10  0 28  0.0000000  0  8G20G22G29G11G25G 1G 4G14
 -24012045.73349 -18710682.47247  20776619.069    20776618.958
 -17566067.55849 -13687844.49146  21533655.249    21533656.981
  -3517634.62148  -2741012.39345  22772532.143    22772532.971
  -5511562.57648  -4294726.60044  24315603.447    24315602.293
 -20805982.26049 -16212445.77847  21124267.770    21124267.562
 -13260762.24949 -10333057.75446  22566570.098    22566570.984
   -260678.86248                  25270431.343
   3378448.74948   2632557.40244  24243745.682    24243745.793
 02  1 10  0 28 30.0000000  0  8G20G22G29G11G25G 1G 4G14
 -24043614.08649 -18735281.19147  20770611.845    20770611.589
 -17653894.07249 -13756280.71746  21516943.368    21516945.161
  -3445463.71548  -2684775.36845  22786265.418    22786266.348
  -5426885.37448                  24331717.450
 -20755663.19449 -16173236.11647  21133843.483    21133843.138
 -13333817.03749 -10389983.55146  22552668.475    22552669.760
   -311435.97848                  25260772.387
   3463514.74148   2698842.55745  24259932.711    24259933.167
 02  1 10  0 29  0.0000000  0  8G20G22G29G11G25G 1G 4G14
 -24074637.62349 -18759455.37547  20764708.032    20764707.937
 -17741313.60449 -13824399.80546  21500307.317    21500309.002
  -3373125.02548  -2628407.59645  22800031.450    22800031.167
  -5342125.64348                  24347845.966
 -20705060.38149 -16133805.35647  21143473.005    21143472.844
 -13406766.16849 -10446827.00946  22538786.941    22538787.284
   -361734.45848                  25251200.444
   3548673.51048   2765199.98644  24276137.915    24276138.417
 02  1 10  0 29 30.0000000  0  8G20G22G29G11G25G 1G 4G14
 -24105109.46549 -18783199.67147  20758909.329    20758909.238
 -17828317.44649 -13892194.99246  21483751.136    21483753.258
  -3300613.57548  -2571905.17445  22813830.343    22813831.086
  -5257280.80748                  24363991.256
 -20654169.97649 -16094150.49847  21153156.671    21153156.790
 -13479603.47549 -10503583.34346  22524926.093    22524927.641
   -411567.31648                  25241717.774
   3633930.04048   2831633.61744  24292362.361    24292362.065
 02  1 10  0 30  0.0000000  0  8G20G22G29G11G25G 1G 4G14
 -24135010.71549 -18806499.34947  20753219.244    20753219.182
 -17914885.20949 -13959650.37346  21467277.896    21467279.427
  -3227911.82048  -2515254.49345  22827663.821    22827665.986
  -5172336.21448                  24380156.530
 -20602976.17549 -16054259.23047  21162898.638    21162898.423
 -13552310.83449 -10560238.41746  22511090.832    22511091.959
   -460915.32948                  25232327.354
   3719301.52948   2898156.80844  24308607.578    24308607.266
 02  1 10  0 30 30.0000000  0  8G20G22G29G11G25G 1G 4G14
 -24164359.30049 -18829368.38147  20747634.285    20747634.474
 -18001033.49449 -14026778.89246  21450884.716    21450885.914
  -3155039.74348  -2458471.08445  22841532.972    22841533.276
  -5087314.62848                  24396335.581
 -20551500.15749 -16014148.04947  21172694.323    21172694.461
 -13624907.04049 -10616806.87246  22497276.224    22497276.715
   -509796.69448                  25223025.102
   3804768.19348   2964754.12944  24324871.257    24324871.002
 02  1 10  0 31  0.0000000  0  8G20G22G29G11G25G 1G 4G14
 -24193152.96849 -18851805.00747  20742155.421    20742155.402
 -18086758.22549 -14093577.36846  21434571.506    21434572.845
  -3081996.86548  -2401554.58345  22855431.502    22855432.060
  -5002218.04148                  24412528.847
 -20499742.62549 -15973817.50547  21182543.082    21182543.142
 -13697390.55149 -10673287.51546  22483482.207    22483483.534
   -558209.13148                  25213811.236
   3890330.42148   3031425.99444  24341153.169    24341150.057
 02  1 10  0 31 30.0000000  0  8G20G22G29G11G25G 1G 4G14
 -24221387.30949 -18873805.79647  20736782.606    20736782.506
 -18172053.41149 -14160041.12846  21418340.337    21418341.769
  -3008780.04948  -2344502.55245  22869363.025    22869365.367
  -4917046.32348                  24428737.296
 -20447702.13949 -15933266.48247  21192446.180    21192446.405
 -13769757.62549 -10729677.41946  22469712.117    22469713.157
   -606148.13448                  25204690.136
   3975990.86448   3098174.31744  24357455.134    24357453.987
 02  1 10  0 32  0.0000000  0  8G20G22G29G11G25G 1G 4G14
 -24249051.47249 -18895362.28947  20731518.185    20731518.041
 -18256906.81249 -14226160.64246  21402193.380    21402194.361
  -2935380.42948  -2287308.08045  22883332.740    22883333.372
  -4831793.11648                  24444959.120
 -20395370.95849 -15892488.94047  21202404.672    21202404.924
 -13841998.37749 -10785968.90446  22455964.672    22455965.903
   -653602.57348                  25195660.293
   4061758.35748   3165006.08644  24373774.711    24373776.828
 02  1 10  0 32 30.0000000  0  8G20G22G29G11G25G 1G 4G14
 -24276166.76149 -18916491.08747  20726358.331    20726358.210
 -18341337.92849 -14291951.10746  21386126.708    21386128.187
  -2861820.97448  -2229989.05545  22897330.027    22897330.916
  -4746483.76848                  24461193.888
 -20342773.54649 -15851503.94747  21212413.392    21212413.764
 -13914134.44849 -10842178.80946  22442237.472    22442238.555
   -700266.83747                  25186718.888
   4147610.10848   3231903.51144  24390111.730    24390111.037
 02  1 10  0 33  0.0000000  0  8G20G22G29G11G25G 1G 4G14
 -24302743.17649 -18937199.98847  20721300.952    20721301.031
 -18425355.40549 -14357419.25346  21370139.037    21370140.067
  -2788113.42548  -2172554.62845  22911355.055    22911356.127
  -4661132.90848                  24477435.375
 -20289922.97849 -15810321.68447  21222470.748    21222471.053
 -13986176.54549 -10898315.47746  22428528.486    22428529.977
   -746055.06947                  25177863.761
   4233534.01848   3298857.16144  24406464.003    24406461.931
 02  1 10  0 33 30.0000000  0  7G20G22G29G11G25G 1G14
 -24328740.71049 -18957457.81247  20716353.532    20716353.703
 -18508917.48449 -14422532.54846  21354237.023    21354237.867
  -2714219.12048  -2114974.70545  22925417.749    22925417.734
  -4575704.54548                  24493691.940
 -20236782.22549 -15768913.30847  21232583.253    21232583.412
 -14058085.30249 -10954348.25646  22414845.186    22414845.810
   4319568.55548   3365897.00344  24422834.692    24422835.111
 02  1 10  0 34  0.0000000  0  7G20G22G29G11G25G 1G14
 -24354163.28849 -18977267.61747  20711515.554    20711515.683
 -18592026.48849 -14487292.78646  21338422.246    21338423.760
  -2640143.86448  -2057253.75545  22939514.353    22939515.032
  -4490207.00248                  24509962.407
 -20183357.92849 -15727283.98647  21242749.178    21242749.492
 -14129865.37449 -11010280.76346  22401184.881    22401185.899
   4405708.00548   3433018.60044  24439226.243    24439228.185
 02  1 10  0 34 30.0000000  0  8G20G22G29G11G25G 1G 4G14
 -24379025.77349 -18996640.98447  20706784.615    20706784.966
 -18674695.73349 -14551710.35146  21322690.657    21322692.140
  -2565904.12448  -1999404.62845  22953640.469    22953641.835
  -4404659.39648                  24526239.795
 -20129667.92449 -15685447.62247  21252966.467    21252966.533
 -14201532.39649 -11066125.17446  22387547.878    22387548.078
         -.26758                  25151851.165
   4491935.71848   3500208.93544  24455635.796    24455633.671
 02  1 10  0 35  0.0000000  0  7G22G20G29G11G25G 1G14
 -18756915.43549 -14615777.62946  21307044.846    21307046.442
 -24403320.07649 -19015571.61547  20702161.601    20702161.912
  -2491493.29548  -1941422.19945  22967801.114    22967800.700
  -4319057.65048                  24542531.587
 -20075706.90449 -15643400.06947  21263234.833    21263234.883
 -14273078.76049 -11121875.56746  22373932.651    22373933.446
   4578258.01548   3567473.05744  24472061.938    24472061.894
 02  1 10  0 35 30.0000000  0  7G20G22G29G11G25G 1G14
 -24427071.18149 -19034078.97647  20697642.206    20697642.396
 -18838708.91949 -14679512.78746  21291479.909    21291481.489
  -2416937.97048  -1883327.17445  22981988.461    22981987.954
  -4233431.02848                  24558823.664
 -20021502.78549 -15601163.09047  21273549.399    21273549.447
 -14344529.92749 -11177551.77646  22360335.355    22360336.161
   4664648.27648   3634790.02344  24488500.596    24488502.924
 02  1 10  0 36  0.0000000  0  7G20G22G29G11G25G 1G14
 -24450248.41449 -19052139.16447  20693231.732    20693232.070
 -18920044.02949 -14742890.77246  21276002.799    21276003.829
  -2342208.95848  -1825096.81245  22996208.344    22996208.705
  -4147753.05348                  24575129.597
 -19967028.23149 -15558715.38647  21283915.646    21283915.532
 -14415855.84049 -11233130.38846  22346763.112    22346763.703
   4751135.57648   3702182.73144  24504960.332    24504959.751
 02  1 10  0 36 30.0000000  0  7G20G22G29G11G25G 1G14
 -24472833.48549 -19069737.92647  20688933.846    20688934.031
 -19000900.63149 -14805895.89746  21260615.726    21260616.989
  -2267289.50148  -1766718.03445  23010465.919    23010467.179
  -4062009.50248                  24591443.890
 -19912267.37749 -15516044.58747  21294336.376    21294336.209
 -14487038.54249 -11288597.40046  22333217.226    22333218.472
   4837736.72848   3769664.07644  24521439.110    24521438.424
 02  1 10  0 37  0.0000000  0  7G20G22G29G11G25G 1G14
 -24494852.50749 -19086895.61247  20684743.639    20684743.760
 -19081303.29549 -14868547.30446  21245316.238    21245317.641
  -2192207.34948  -1708212.49645  23024753.039    23024755.172
  -3976230.60148                  24607768.348
 -19857249.35049 -15473173.39847  21304805.760    21304805.845
 -14558104.65749 -11343973.56646  22319693.648    22319695.321
   4924423.72948   3837212.28844  24537934.792    24537935.219
 02  1 10  0 37 30.0000000  0  8G20G22G29G11G25G 1G13G14
 -24516303.09549 -19103610.36547  20680661.757    20680662.055
 -19161247.96049 -14930841.83246  21230102.638    21230103.879
  -2116961.50948  -1649579.39345  23039072.813    23039073.415
  -3890418.22348                  24624096.868
 -19801974.36049 -15430101.97947  21315324.148    21315324.157
 -14629052.36749 -11399257.46746  22306193.614    22306194.630
         -.49657                  25220257.352
   5011197.40848   3904828.05944  24554447.477    24554447.030
 02  1 10  0 38  0.0000000  0  7G20G22G29G11G25G 1G14
 -24537165.03349 -19119866.42947  20676692.100    20676692.260
 -19240712.72349 -14992762.40546  21214980.888    21214982.631
  -2041533.38448  -1590804.25445  23053425.928    23053426.134
  -3804555.92847                  24640434.878
 -19746424.90749 -15386816.69047  21325895.242    21325895.271
 -14699861.76949 -11454433.60746  22292718.303    22292718.839
   5098076.44448   3972525.94644  24570980.297    24570981.943
 02  1 10  0 38 30.0000000  0  8G20G22G29G11G25G 1G13G14
 -24557430.33449 -19135657.57947  20672836.075    20672836.234
 -19319687.93949 -15054301.51546  21199952.611    21199954.020
  -1965916.29448  -1531881.90145  23067814.718    23067815.159
  -3718639.96048                  24656785.691
 -19690596.03349 -15343313.66847  21336518.942    21336519.031
 -14770525.17849 -11509495.97746  22279271.360    22279272.193
         -.38257                  25185359.208
   5185067.20248   4040310.87344  24587533.909    24587534.059
 02  1 10  0 39  0.0000000  0  8G20G22G29G11G25G 1G13G14
 -24577127.62449 -19151006.12747  20669087.204    20669087.527
 -19398200.40549 -15115480.04546  21185012.237    21185013.624
  -1890140.28548  -1472835.69045  23082234.936    23082236.477
  -3632702.96147                  24673137.908
 -19634518.86749 -15299617.17647  21347190.237    21347190.160
 -14841071.52849 -11564467.13146  22265847.854    22265848.456
    -91721.00447                  25167905.151
   5272139.36748   4108159.23244  24604104.099    24604105.143
 02  1 10  0 39 30.0000000  0  7G20G22G29G11G25G 1G14
 -24596259.36749 -19165913.98647  20665446.398    20665446.756
 -19476251.16149 -15176298.79046  21170159.501    21170161.353
  -1814209.40648  -1413668.79745  23096684.115    23096685.408
  -3546751.43548                  24689496.228
 -19578199.00549 -15255731.56947  21357907.459    21357907.482
 -14911503.70749 -11619349.32446  22252444.221    22252445.544
   5359289.17048   4176068.11444  24620687.358    24620687.110
 02  1 10  0 40  0.0000000  0  6G20G22G29G25G 1G14
 -24614815.78649 -19180373.53947  20661915.559    20661915.709
 -19553828.62249 -15236748.73946  21155396.855    21155398.221
  -1738115.32648  -1354374.75045  23111163.899    23111164.048
 -19521629.25149 -15211651.24447  21368671.801    21368672.188
 -14981812.28149 -11674135.20646  22239064.931    22239065.726
   5446524.93848   4244043.92944  24637288.034    24637286.081
 02  1 10  0 40 30.0000000  0  8G20G22G29G 4G25G 1G13G14
 -24632818.03349 -19194401.27047  20658489.989    20658490.109
 -19630952.15149 -15296844.97346  21140720.917    21140722.563
  -1661880.51748  -1294971.02145  23125671.581    23125672.605
        -1.13358                  25056119.867
 -19464832.95649 -15167394.39447  21379480.357    21379480.366
 -15052018.62649 -11728841.42846  22225705.901    22225706.641
        -1.20257                  25115511.598
   5533823.81048   4312068.96544  24653901.535    24653898.801
 02  1 10  0 41  0.0000000  0  8G22G20G29G 4G25G 1G13G14
 -19707607.05649 -15356576.04846  21126133.720    21126135.485
 -24650253.03549 -19207986.99347  20655171.740    20655171.954
  -1585493.11448  -1235448.42145  23140206.826    23140208.307
    -38763.01148                  25048742.662
 -19407799.77949 -15122952.96247  21390333.186    21390333.321
 -15122109.90649 -11783457.99246  22212367.083    22212368.160
    -91836.81548                  25098038.112
   5621197.37148   4380152.18044  24670527.340    24670527.944
 02  1 10  0 41 30.0000000  0  8G22G20G29G 4G25G 1G13G14
 -19783748.73549 -15415907.21246  21111645.198    21111646.373
 -24667077.99349 -19221097.35747  20651969.890    20651970.158
  -1508911.76348  -1175774.69445  23154780.621    23154780.780
    -76999.66048    -59998.69744  25041467.005    25041465.696
 -19350489.91749 -15078295.92947  21401238.762    21401239.000
 -15192043.42749 -11837951.62746  22199059.260    22199060.357
   -183657.82448                  25080564.562
   5708687.02648   4448325.87044  24687176.137    24687178.628
 02  1 10  0 42  0.0000000  0  8G22G20G29G 4G25G 1G13G14
 -19859379.33349 -15474840.13046  21097252.203    21097253.815
 -24683296.77649 -19233735.38047  20648883.977    20648884.080
  -1432141.65448  -1115953.86645  23169388.588    23169389.147
   -114714.73948                  25034290.357
 -19292910.00149 -15033428.46347  21412196.160    21412196.184
 -15261823.33349 -11892325.56646  22185780.662    22185781.242
   -275468.59648                  25063093.104
   5796287.37448   4516585.79144  24703845.840    24703846.598
 02  1 10  0 42 30.0000000  0  7G22G20G29G 4G25G 1G14
 -19934526.73449 -15533396.52446  21082952.635    21082953.842
 -24698939.06349 -19245924.18647  20645907.417    20645907.393
  -1355213.71448  -1056010.04445  23184028.454    23184028.979
   -151937.77848                  25027206.757
 -19235091.98149 -14988375.46447  21423198.627    21423198.511
 -15331479.49749 -11946603.06946  22172525.248    22172526.355
   5883967.51348   4584907.89944  24720531.106    24720533.286
 02  1 10  0 43  0.0000000  0  7G20G22G29G 4G25G 1G14
 -24714001.11849 -19257660.85947  20643041.212    20643041.542
 -20009185.43849 -15591572.12346  21068745.841    21068746.929
  -1278125.71248   -995941.50245  23198697.681    23198697.900
   -188665.34148                  25020217.764
 -19177034.39649 -14943135.78947  21434246.297    21434246.438
 -15401008.41149 -12000781.41846  22159294.485    22159295.523
   5971729.68748   4653293.92444  24737231.877    24737231.662
 02  1 10  0 43 30.0000000  0  7G22G20G29G 4G25G 1G14
 -20083353.80149 -15649365.63646  21054631.903    21054633.244
 -24728482.80149 -19268945.29847  20640285.538    20640285.499
  -1200878.52948   -935748.91245  23213396.022    23213397.269
   -224896.97648   -175243.41044  25013323.313    25013322.325
 -19118739.87549 -14897711.48847  21445339.528    21445339.461
 -15470409.95749 -12054860.50746  22146088.482    22146089.513
   6059572.79148   4721743.03344  24753947.800    24753949.455
 02  1 10  0 44  0.0000000  0  8G22G20G29G 4G25G 1G13G14
 -20157017.14749 -15706765.63246  21040613.775    21040615.288
 -24742371.36449 -19279767.56347  20637642.699    20637642.844
  -1123460.98348   -875423.61045  23228129.883    23228129.160
   -260619.84348   -203079.46444  25006526.435    25006525.861
 -19060198.03849 -14852094.46947  21456479.915    21456479.619
 -15539671.61549 -12108830.60446  22132907.093    22132908.064
          .03658                  24993177.212
   6147507.96848   4790263.81044  24770682.146    24770681.008
 02  1 10  0 44 30.0000000  0  8G22G20G29G 4G25G 1G13G14
 -20230160.53049 -15763760.45846  21026695.638    21026697.100
 -24755653.78149 -19290117.50747  20635115.187    20635115.399
  -1045860.96148   -814956.07445  23242896.267    23242897.587
   -295820.88348                  24999827.432
 -19001398.70949 -14806276.81647  21467668.931    21467668.849
 -15608780.05149 -12162681.31546  22119757.168    22119758.236
    -91861.72148                  24975696.655
   6235547.19648   4858865.79144  24787434.491    24787438.019
 02  1 10  0 45  0.0000000  0  8G22G20G29G 4G25G 1G13G14
 -20302798.29249 -15820361.29546  21012872.637    21012873.811
 -24768345.72449 -19300007.34047  20632699.786    20632699.927
   -968095.69548   -754359.80445  23257693.448    23257695.131
   -330515.87048                  24993224.316
 -18942360.15849 -14760272.75247  21478903.530    21478903.533
 -15677751.34749 -12216425.15446  22106632.841    22106633.602
   -183731.73648                  24958215.060
   6323673.10448   4927535.18744  24804204.264    24804205.079
 02  1 10  0 45 30.0000000  0  8G22G20G29G 4G25G 1G13G14
 -20374908.59949 -15876551.12646  20999150.176    20999151.851
 -24780427.47049 -19309421.69947  20630400.590    20630400.939
   -890146.42248   -693620.16845  23272528.639    23272529.800
   -364684.90148                  24986722.423
 -18883064.49249 -14714068.34347  21490187.141    21490187.140
 -15746565.57349 -12270046.60646  22093536.901    22093537.587
   -275590.26848                  24940734.203
   6411904.23948   4996286.63644  24820995.243    24820996.424
 02  1 10  0 46  0.0000000  0  8G29G25G 1G20G22G 4G13G14
   -812033.92848   -632753.32645  23287391.470    23287393.643
 -18823533.71649 -14667680.73247  21501515.339    21501515.648
 -15815242.25649 -12323560.87646  22080467.998    22080469.022
 -24791918.73649 -19318375.93947  20628213.681    20628213.954
 -20446509.19749 -15932343.78546  20985525.309    20985526.788
   -398347.32948   -310399.69444  24980316.470    24980315.382
   -367457.30148                  24923251.905
   6500219.82048   5065103.85544  24837800.907    24837803.022
 02  1 10  0 46 30.0000000  0  8G29G25G 1G20G22G 4G13G14
   -733774.81848   -571772.23045  23302283.733    23302284.373
 -18763785.81949 -14621123.93447  21512884.954    21512884.901
 -15883796.84449 -12376980.00746  22067423.575    22067424.135
 -24802834.73049 -19326881.91547  20626136.697    20626136.939
 -20517613.78449 -15987749.93846  20971994.832    20971996.296
   -431518.38548                  24974004.325
   -459348.38448                  24905765.540
   6588603.23848   5133973.97544  24854619.296    24854619.331
 02  1 10  0 47  0.0000000  0  8G29G25G 1G20G22G 4G13G14
   -655351.98048   -510663.55345  23317208.024    23317209.227
 -18703804.85449 -14574385.52447  21524299.166    21524299.230
 -15952211.05349 -12430289.75946  22054404.074    22054405.515
 -24813157.31949 -19334925.50047  20624172.328    20624172.676
 -20588202.44949 -16042754.07046  20958561.969    20958563.359
   -464179.96148   -361697.88944  24967789.761    24967789.752
   -551245.89948                  24888278.673
   6677071.47348   5202910.15944  24871454.898    24871456.823
 02  1 10  0 47 30.0000000  0  8G29G25G 1G20G22G 4G13G14
   -576776.22148   -449435.71845  23332159.792    23332162.813
 -18643602.81549 -14527474.85047  21535755.210    21535755.386
 -16020494.30349 -12483497.45946  22041409.355    22041410.545
 -24822896.00649 -19342514.09947  20622318.781    20622319.132
 -20658282.84849 -16097362.15146  20945226.207    20945227.958
   -496341.47148   -386758.85044  24961668.768    24961668.040
   -643159.38148                  24870788.635
   6765613.67648   5271903.98344  24888304.047    24888307.140
 02  1 10  0 48  0.0000000  0  8G29G25G 1G20G22G 4G13G14
   -498035.53048   -388079.41845  23347143.070    23347144.336
 -18583169.00549 -14480383.57147  21547255.059    21547255.136
 -16088633.54449 -12536592.95746  22028444.340    22028444.952
 -24832038.00049 -19349637.74147  20620579.294    20620579.336
 -20727840.37249 -16151562.79646  20931989.908    20931991.522
   -527989.99248   -411420.04244  24955646.874    24955648.543
   -735076.12748                  24853296.194
   6854241.63348   5340964.64744  24905169.057    24905168.366
 02  1 10  0 48 30.0000000  0  8G29G25G 1G20G22G 4G13G14
   -419139.09348   -326601.69145  23362158.065    23362159.173
 -18522513.32149 -14433119.40347  21558797.579    21558797.685
 -16156636.56049 -12589582.29646  22015503.510    22015504.414
 -24840591.12749 -19356302.52747  20618951.982    20618952.210
 -20796881.01949 -16205360.67546  20918851.703    20918852.950
   -559133.30448                  24949720.628
   -827004.22348                  24835805.171
   6942946.21048   5410084.99944  24922049.451    24922051.711
 02  1 10  0 49  0.0000000  0  8G29G25G 1G20G22G 4G13G14
   -340084.16448   -265000.48745  23377200.417    23377201.249
 -18461634.70549 -14385681.52447  21570382.382    21570382.414
 -16224499.52149 -12642462.49046  22002588.599    22002590.262
 -24848551.75349 -19362505.62447  20617437.046    20617437.205
 -20865399.41549 -16258751.60946  20905813.385    20905814.314
   -589767.46948                  24943891.366
   -918940.02848                  24818307.136
   7031729.88848   5479266.97444  24938944.613    24938944.655
 02  1 10  0 49 30.0000000  0  8G29G25G 1G20G22G 4G13G14
   -260873.76448   -203278.15444  23392273.989    23392275.475
 -18400537.17749 -14338073.06547  21582008.825    21582008.918
 -16292224.11749 -12695234.85746  21989702.095    21989702.868
 -24855921.78549 -19368248.52147  20616034.796    20616035.133
 -20933395.47349 -16311735.53446  20892873.918    20892875.354
   -619894.37948                  24938158.424
  -1010885.34548                  24800812.289
   7120589.64448   5548508.22444  24955853.675    24955853.775
 02  1 10  0 50  0.0000000  0  8G29G25G 1G20G22G 4G13G14
   -181503.29348   -141431.09444  23407378.223    23407377.921
 -18339217.56249 -14290291.54847  21593677.690    21593677.397
 -16359804.41849 -12747894.84646  21976841.918    21976842.346
 -24862695.50549 -19373526.75647  20614745.822    20614745.993
 -21000861.76449 -16364306.63047  20880035.378    20880036.792
   -649508.46148   -506109.80744  24932522.909    24932522.436
  -1102834.92948                  24783314.566
   7209529.97948   5617812.23144  24972778.260    24972780.687
 02  1 10  0 50 30.0000000  0  8G29G25G 1G20G22G 4G13G14
   -101955.88748    -79446.13245  23422515.079    23422517.806
 -18277659.86249 -14242324.51647  21605391.656    21605391.681
 -16427222.22149 -12800428.17946  21964012.195    21964012.990
 -24868855.10249 -19378326.45547  20613573.600    20613573.932
 -21067778.62749 -16416449.61447  20867301.962    20867303.029
   -678591.59348   -528772.00944  24926987.703    24926988.337
  -1194771.00648                  24765818.297
   7298567.77448   5687192.24444  24989722.314    24989722.837
 02  1 10  0 51  0.0000000  0  8G25G29G 1G20G22G 4G13G14
 -18215887.75249 -14194190.41147  21617146.863    21617146.804
    -22254.22748    -17340.99545  23437682.523    23437682.900
 -16494498.79849 -12852851.47346  21951209.799    21951211.259
 -24874422.35849 -19382664.58847  20612513.910    20612514.305
 -21134166.01249 -16468180.01647  20854668.135    20854669.562
   -707165.31948   -551037.22844  24921551.063    24921556.903
  -1286715.04548                  24748323.955
   7387680.09648                  25006679.860
 02  1 10  0 51 30.0000000  0  8G29G25G20G22G 4G 1G13G14
     57603.04248     44885.41344  23452878.676    23452880.250
 -18153901.40149 -14145889.36647  21628942.296    21628942.513
 -24879395.10849 -19386539.47047  20611567.583    20611567.901
 -21200019.73649 -16519494.57547  20842137.028    20842138.291
   -735227.31248   -572903.77144  24916211.253    24916212.070
 -16561631.71149 -12905162.81546  21938435.156    21938435.809
  -1378664.76548                  24730824.721
   7476868.25848                  25023650.704
 02  1 10  0 52  0.0000000  0  8G29G25G20G22G 4G 1G13G14
    137628.32148    107242.73144  23468107.059    23468108.203
 -18091689.47449 -14097412.55047  21640780.784    21640780.936
 -24883759.83049 -19389940.56147  20610737.222    20610737.456
 -21265324.54949 -16570381.41947  20829709.908    20829711.013
   -762764.16148   -594361.14244  24910971.654    24910969.390
 -16628607.08249 -12957351.41146  21925690.162    21925690.845
  -1470606.55648                  24713329.506
   7566144.57248   5895693.26144  25040640.378    25040640.685
 02  1 10  0 52 30.0000000  0  8G29G25G20G22G 4G 1G13G14
    217815.76748    169726.35945  23483366.629    23483367.181
 -18029258.68549 -14048765.19047  21652661.060    21652660.831
 -24887521.25749 -19392871.55347  20610021.467    20610021.683
 -21330083.46549 -16620842.88147  20817386.241    20817387.619
   -789780.52048                  24905830.373
 -16695429.23449 -13009420.61346  21912973.948    21912975.209
  -1562545.35148                  24695834.363
   7655503.35248   5965323.38344  25057644.863    25057646.098
 02  1 10  0 53  0.0000000  0  8G29G25G20G22G 4G 1G13G14
    298162.88748    232334.48044  23498655.862    23498655.440
 -17966612.76249 -13999950.19346  21664582.132    21664582.205
 -24890681.23349 -19395333.88347  20609419.938    20609420.325
 -21394296.45849 -16670878.94547  20805167.180    20805168.595
   -816278.07048                  24900786.759
 -16762099.58949 -13061371.53046  21900286.810    21900288.238
  -1654482.69848                  24678339.404
   7744941.72048   6035015.48844  25074664.450    25074663.726
 02  1 10  0 53 30.0000000  0  8G29G25G20G22G 4G 1G13G14
    378667.36648    295065.16744  23513974.752    23513976.208
 -17903755.24549 -13950970.31746  21676543.442    21676543.473
 -24893241.21449 -19397328.68847  20608932.776    20608933.159
 -21457962.81149 -16720489.06347  20793052.140    20793053.230
   -842258.00648                  24895843.522
 -16828619.11749 -13113204.91546  21887629.302    21887630.083
  -1746420.20148                  24660846.540
   7834457.43948   6104767.79644  25091698.193    25091697.733
 02  1 10  0 54  0.0000000  0  7G25G29G20G22G 4G 1G14
 -17840690.94449 -13901829.31346  21688544.286    21688543.996
    459325.27348    357915.41245  23529323.992    23529326.110
 -24895204.31749 -19398858.39247  20608559.457    20608559.765
 -21521083.88249 -16769674.28347  20781040.046    20781041.113
   -867723.22248   -676147.45344  24890999.102    24890995.903
 -16894990.24049 -13164922.66146  21874998.623    21874999.565
   7924046.29148   6174577.21444  25108747.576    25108748.483
 02  1 10  0 54 30.0000000  0  8G29G20G22G 4G25G 1G13G14
    540152.51848    420897.64344  23544705.156    23544705.556
 -24896553.45749 -19399909.67947  20608302.651    20608302.990
 -21583640.86849 -16818419.95647  20769136.193    20769137.220
   -892656.82948   -695576.25744  24886255.597    24886252.307
 -17777405.21749 -13852515.76446  21700586.980    21700587.323
 -16961195.73449 -13216511.35346  21862400.238    21862400.874
        -1.05658                  24625856.965
   8013724.35748                  25125812.386
 02  1 10  0 55  0.0000000  0  8G25G20G22G29G 4G 1G13G14
 -17713922.84049 -13803048.98746  21712667.378    21712667.060
 -24897312.02649 -19400500.78347  20608157.908    20608158.281
 -21645655.15749 -16866742.75247  20757335.318    20757336.111
    621125.22548    483993.19544  23560113.317    23560115.705
   -917082.03648   -714608.95844  24881606.636    24881606.564
 -17027258.22149 -13267988.60546  21849829.100    21849829.972
    -91935.19548                  24608360.240
   8103467.50948   6314385.58644  25142889.340    25142891.025
 02  1 10  0 55 30.0000000  0  8G25G20G22G29G 4G 1G13G14
 -17650226.23849 -13753415.27746  21724788.330    21724788.475
 -24897460.16149 -19400616.22647  20608129.812    20608130.185
 -21707105.20349 -16914625.87947  20745641.293    20745642.515
    702262.26048    547216.80444  23575553.315    23575552.989
   -940978.78348                  24877056.777
 -17093157.31449 -13319338.54446  21837288.944    21837289.900
   -183858.10548   -143265.72444  24590869.486    24590868.897
   8193294.61148                  25159984.580
 02  1 10  0 56  0.0000000  0  8G25G20G22G29G 4G 1G13G14
 -17586328.31349 -13703624.69846  21736947.388    21736947.759
 -24897009.16049 -19400264.80647  20608215.865    20608216.165
 -21768000.38549 -16962076.64847  20734053.562    20734054.734
    783551.58548    610559.06345  23591022.680    23591023.400
   -964358.12348                  24872607.046
 -17158903.76549 -13370569.52646  21824777.244    21824778.933
   -275780.40048   -214893.47144  24573376.885    24573376.419
   8283193.61848                  25177091.140
 02  1 10  0 56 30.0000000  0  8G25G20G22G29G 4G 1G13G14
 -17522232.11549 -13653679.61346  21749144.894    21749144.960
 -24895960.10649 -19399447.37547  20608415.796    20608416.160
 -21828339.47449 -17009094.09647  20722571.689    20722572.424
    864991.54248    674018.70944  23606519.223    23606521.095
   -987221.07148                  24868258.026
 -17224497.86649 -13421681.79746  21812295.881    21812296.396
   -367702.98748                  24555883.828
   8373162.72848   6524537.24444  25194210.927    25194211.362
 02  1 10  0 57  0.0000000  0  8G25G20G22G29G 4G 1G13G14
 -17457935.27249 -13603578.18546  21761380.146    21761379.780
 -24894308.60749 -19398160.50347  20608729.976    20608730.286
 -21888116.54149 -17055673.60447  20711196.188    20711197.419
    946585.54148    737598.38744  23622047.587    23622046.836
  -1009563.15748                  24864007.924
 -17289934.65449 -13472671.48846  21799843.752    21799844.077
   -459621.03348                  24538393.502
   8463205.34148                  25211346.160
 02  1 10  0 57 30.0000000  0  8G25G20G22G29G 4G 1G13G14
 -17393431.50749 -13553315.52646  21773654.567    21773654.698
 -24892046.94649 -19396398.18147  20609160.314    20609160.699
 -21947322.04349 -17101807.73747  20699929.935    20699931.087
   1028340.72248    801303.67344  23637604.220    23637606.418
  -1031376.41148   -803669.57544  24859858.510    24859856.173
 -17355205.82249 -13523532.12246  21787422.484    21787423.832
   -551525.45548                  24520903.234
   8553328.43948                  25228496.411
 02  1 10  0 58  0.0000000  0  8G25G20G22G29G 4G 1G13G14
 -17328722.82449 -13502893.18546  21785968.479    21785968.330
 -24889175.38349 -19394160.61547  20609706.475    20609706.866
 -22005954.04749 -17147494.99047  20688772.724    20688773.582
   1110256.12948    865133.79544  23653191.944    23653193.988
  -1052660.93248                  24855807.289
 -17420310.62149 -13574263.11646  21775033.633    21775034.314
   -643417.84048   -501364.14944  24503418.423    24503420.090
   8643531.16848                  25245660.642
 02  1 10  0 58 30.0000000  0  8G25G20G22G29G 4G 1G13G14
 -17263813.23349 -13452314.29446  21798320.459    21798320.653
 -24885696.17049 -19391449.55247  20610368.579    20610368.850
 -22064013.03949 -17192735.74247  20677724.488    20677725.632
   1192328.85648    929086.51844  23668810.379    23668810.065
  -1073418.89448                  24851854.777
 -17485250.56849 -13624865.65746  21762676.105    21762676.587
   -735299.41548   -572960.23244  24485932.672    24485934.051
   8733810.50948                  25262841.248
 02  1 10  0 59  0.0000000  0  8G25G20G22G29G 4G 1G13G14
 -17198693.15149 -13401571.38446  21810712.345    21810712.433
 -24881598.11449 -19388256.27547  20611148.697    20611149.045
 -22121486.10049 -17237519.92347  20666787.374    20666788.612
   1274569.23548    993169.82544  23684459.634    23684460.948
  -1093639.10148                  24848005.801
 -17550013.76649 -13675330.46346  21750352.257    21750353.195
   -827158.29148                  24468452.174
   8824176.40748   6875975.69144  25280037.533    25280037.949
 02  1 10  0 59 30.0000000  0  8G25G 1G20G22G29G 4G13G14
 -17133371.34849 -13350671.28246  21823142.884    21823142.909
 -17614606.27749 -13725662.27046  21738060.457    21738061.069
 -24876888.16949 -19384586.19747  20612045.136    20612045.378
 -22178378.04249 -17281851.28347  20655961.176    20655962.180
   1356969.99748   1057378.19744  23700140.005    23700141.838
  -1113328.24248                  24844260.674
   -919000.77348   -716103.99244  24450977.097    24450976.256
   8914621.78748                  25297247.933
 02  1 10  1  0  0.0000000  0  8G25G 1G20G22G29G 4G13G14
 -17067863.97449 -13299626.58646  21835608.259    21835608.353
 -17679041.88449 -13775871.81846  21725798.748    21725799.399
 -24871580.93449 -19380450.70047  20613055.025    20613055.354
 -22234701.47949 -17325739.65747  20645243.243    20645243.825
   1439515.78848   1121699.51444  23715849.161    23715848.358
  -1132500.54148   -882467.62144  24840613.537    24840615.645
  -1010840.94848   -787667.73044  24433498.633    24433499.683
   9005131.12248                  25314472.081
 02  1 10  1  0 30.0000000  0  8G25G 1G20G22G29G 4G13G14
 -17002174.85449 -13248440.26746  21848108.219    21848108.345
 -17743322.16949 -13825960.33646  21713567.049    21713567.714
 -24865679.07049 -19375851.85847  20614178.036    20614178.260
 -22290457.14549 -17369185.61347  20634633.252    20634634.220
   1522203.36848   1186131.31644  23731583.048    23731585.400
  -1151158.59148                  24837063.906
  -1102680.72548                  24416022.805
   9095701.34548                  25331707.083
 02  1 10  1  1  0.0000000  0  8G25G 1G20G22G29G 4G13G14
 -16936296.98449 -13197106.87246  21860644.779    21860644.835
 -17807437.27349 -13875920.14046  21701366.048    21701366.722
 -24859173.46049 -19370782.56447  20615415.975    20615416.032
 -22345634.23849 -17412180.72947  20624133.650    20624134.731
   1605041.42448   1250680.39844  23747346.255    23747347.064
  -1169293.22048   -911137.31744  24833612.387    24833608.622
  -1194510.60848   -930786.85244  24398548.308    24398545.092
   9186340.83848                  25348955.071
 02  1 10  1  1 30.0000000  0  8G25G 1G20G22G29G 4G13G14
 -16870239.48249 -13145633.50346  21873215.088    21873215.196
 -17871394.22649 -13925756.70546  21689195.077    21689195.796
 -24852072.05049 -19365249.01047  20616767.391    20616767.773
 -22400238.81549 -17454729.72947  20613742.627    20613743.815
   1688021.13348   1315339.83944  23763138.311    23763141.611
  -1186912.39048                  24830258.337
  -1286338.04848  -1002340.68744  24381073.851    24381072.528
   9277041.00648                  25366216.200
 02  1 10  1  2  0.0000000  0  8G25G 1G20G22G29G 4G13G14
 -16803991.32049 -13094011.57146  21885821.724    21885822.010
 -17935178.86949 -13975459.00446  21677057.658    21677058.287
 -24844361.76849 -19359241.01047  20618234.617    20618234.695
 -22454255.65349 -17496820.75147  20603463.000    20603464.249
   1771155.35748   1380119.68644  23778956.929    23778958.918
  -1204002.68848                  24827005.431
  -1378148.94748  -1073881.59344  24363603.160    24363603.176
   9367814.39948                  25383488.224
 02  1 10  1  2 30.0000000  0  8G25G 1G20G22G29G 4G13G14
 -16737552.44749 -13042241.02946  21898464.820    21898464.902
 -17998789.40049 -14025025.63946  21664952.851    21664953.419
 -24836041.63049 -19352757.80147  20619817.950    20619818.255
 -22507681.85749 -17538451.54147  20593297.024    20593297.675
   1854444.44548   1445020.19844  23794807.838    23794808.790
  -1220562.73648                  24823854.121
  -1469941.75048  -1145408.39444  24346134.499    24346135.000
   9458661.51548                  25400776.683
 02  1 10  1  3  0.0000000  0  8G25G 1G20G22G29G 4G13G14
 -16670914.31449 -12990315.21846  21911145.291    21911145.879
 -18062214.54849 -14074447.81846  21652883.186    21652883.778
 -24827101.49749 -19345791.47747  20621519.482    20621519.781
 -22560505.38749 -17579612.71747  20583244.759    20583245.311
   1937897.99248   1510048.88644  23810688.026    23810691.945
  -1236582.51948                  24820806.282
  -1561705.42348  -1216912.53744  24328672.792    24328673.955
   9549591.63848                  25418081.084
 02  1 10  1  3 30.0000000  0  8G25G 1G20G22G29G 4G13G14
 -16604079.08849 -12938235.83346  21923863.850    21923864.236
 -18125453.69549 -14123725.06446  21640849.916    21640850.308
 -24817541.85249 -19338342.41747  20623338.331    20623338.645
 -22612724.81749 -17620303.16447  20573307.822    20573308.802
   2021515.08248   1575204.92344  23826598.921    23826599.721
  -1252062.22048                  24817862.091
  -1653439.77948  -1288393.75244  24311216.689    24311216.189
   9640604.02548                  25435400.137
 02  1 10  1  4  0.0000000  0  8G25G 1G20G22G29G 4G13G14
 -16537053.28349 -12886007.95346  21936618.130    21936618.267
 -18188510.93749 -14172860.56646  21628850.396    21628850.669
 -24807367.97149 -19330414.73047  20625274.324    20625274.673
 -22664343.52449 -17660525.51547  20563484.987    20563485.841
   2105289.88048   1640483.92144  23842542.497    23842544.732
  -1267007.06448                  24815018.053
  -1745149.58648  -1359855.92644  24293764.822    24293765.609
   9731692.82248                  25452733.853
 02  1 10  1  4 30.0000000  0  8G25G 1G20G22G29G 4G13G14
 -16469857.97049 -12833647.98246  21949404.884    21949405.146
 -18251405.21949 -14221869.08946  21616880.865    21616881.954
 -24796599.97249 -19322024.09747  20627323.712    20627323.988
 -22715379.76249 -17700293.99647  20553773.623    20553774.263
   2189202.07148   1705869.94344  23858509.496    23858509.998
  -1281436.89348   -998522.17144  24812272.329    24812270.391
  -1836853.67548  -1431313.61144  24276313.583    24276315.602
   9822837.63748                  25470078.770
 02  1 10  1  5  0.0000000  0  8G25G 1G20G22G29G 4G13G14
 -16402495.87349 -12781158.04446  21962223.555    21962223.865
 -18314136.78949 -14270750.82246  21604944.043    21604944.916
 -24785239.26349 -19313171.61447  20629485.481    20629485.561
 -22765832.67349 -17739607.93947  20544172.688    20544173.097
   2273250.09148   1771361.84844  23874504.036    23874505.296
  -1295352.82748                  24809623.446
  -1928552.63948  -1502767.31244  24258864.274    24258865.127
   9914036.61348                  25487432.664
 02  1 10  1  5 30.0000000  0  8G25G 1G20G22G29G 4G13G14
 -16334956.92449 -12728530.31146  21975075.811    21975076.244
 -18376693.05649 -14319495.95146  21593040.717    21593041.350
 -24773274.37049 -19303848.33547  20631762.193    20631762.610
 -22815689.14249 -17778457.12047  20534685.176    20534685.837
   2357444.69248   1836967.94244  23890525.741    23890528.072
  -1308743.23148                  24807074.884
  -2020234.37148  -1574207.55844  24241417.526    24241416.681
  10005300.87448                  25504800.138
 02  1 10  1  6  0.0000000  0  8G25G 1G20G22G29G 4G13G14
 -16267231.67049 -12675757.39946  21987963.936    21987963.955
 -18439061.95149 -14368095.08346  21581171.497    21581172.050
 -24760694.33449 -19294045.72647  20634156.141    20634156.436
 -22864936.20649 -17816831.44247  20525313.267    20525314.078
   2441796.41348   1902696.45044  23906576.777    23906577.251
  -1321597.35648                  24804627.867
  -2111886.85048  -1645625.08144  24223976.828    24223975.942
  10096640.75948                  25522182.318
 02  1 10  1  6 30.0000000  0  8G25G 1G20G22G29G 4G13G14
 -16199340.92549 -12622855.54046  22000883.210    22000883.250
 -18501261.62649 -14416562.34546  21569335.162    21569335.776
 -24747518.82249 -19283779.11047  20636663.486    20636663.817
 -22913591.45749 -17854744.61447  20516054.726    20516055.452
   2526285.52548   1968532.03144  23922656.259    23922654.996
  -1333934.15148  -1039429.22344  24802280.766    24802280.640
  -2203528.26948  -1717033.91944  24206538.557    24206536.517
  10188036.24548                  25539573.472
 02  1 10  1  7  0.0000000  0  7G25G 1G20G22G29G 4G13
 -16131274.45949 -12569816.74546  22013835.557    22013835.384
 -18563279.27749 -14464887.77946  21557534.085    21557534.324
 -24733736.11649 -19273039.35347  20639286.346    20639286.643
 -22961641.49849 -17892186.19147  20506911.060    20506911.704
   2610923.06948   2034483.32344  23938761.001    23938764.859
  -1345741.99648                  24800034.147
  -2295146.83948  -1788425.00344  24189103.057    24189100.101
 02  1 10  1  7 30.0000000  0  7G25G 1G20G22G29G 4G13
 -16063011.58049 -12516624.90646  22026825.621    22026825.485
 -18625092.04149 -14513053.56246  21545771.235    21545771.744
 -24719324.74749 -19261809.72847  20642028.555    20642029.033
 -23009062.77249 -17929137.82147  20497887.194    20497888.153
   2695730.49248   2100566.88644  23954898.765    23954903.939
  -1356999.21048                  24797892.524
  -2386719.56048  -1859780.30444  24171678.386    24171677.530
 02  1 10  1  8  0.0000000  0  7G25G 1G20G22G29G 4G13
 -15994575.28349 -12463297.93846  22039848.760    22039848.607
 -18686720.28349 -14561075.55946  21534044.215    21534044.337
 -24704306.53949 -19250107.24147  20644886.248    20644886.711
 -23055875.05649 -17965614.91247  20488978.866    20488979.988
   2780685.64548   2166765.62244  23971066.471    23971066.288
  -1367727.30348  -1065761.63744  24795852.265    24795852.606
  -2478267.11548  -1931116.01344  24154256.144    24154257.935
 02  1 10  1  8 30.0000000  0  7G25G 1G20G22G29G 4G13
 -15925978.69149 -12409846.06146  22052902.047    22052901.867
 -18748174.72649 -14608962.12846  21522349.245    21522349.960
 -24688693.54649 -19237941.29047  20647857.341    20647857.623
 -23102088.42749 -18001625.31647  20480184.740    20480185.688
   2865776.35748   2233069.95144  23987257.537    23987258.087
  -1377937.97348  -1073718.02444  24793909.227    24793906.025
  -2569800.16648  -2002440.46344  24136839.544    24136838.355
 02  1 10  1  9  0.0000000  0  7G25G 1G20G22G29G 4G13
 -15857219.21649 -12356267.26946  22065986.696    22065986.645
 -18809450.34149 -14656709.35346  21510689.245    21510689.710
 -24672482.00849 -19225308.93947  20650942.748    20650943.026
 -23147697.51649 -18037164.85347  20471505.813    20471506.571
   2951005.81648   2299482.41744  24003477.571    24003476.986
  -1387627.79948  -1081268.57844  24792065.235    24792065.180
  -2661314.19548  -2073750.07044  24119423.839    24119423.633
 02  1 10  1  9 30.0000000  0  7G25G 1G20G22G29G 4G13
 -15788271.74249 -12302541.97946  22079106.821    22079106.602
 -18870519.33749 -14704295.58246  21499068.131    21499068.860
 -24655645.81949 -19212189.84547  20654146.757    20654146.998
 -23192673.93349 -18072211.40047  20462946.911    20462947.632
   3036400.10148   2366023.36944  24019726.989    24019727.562
  -1396769.78048                  24790325.285
  -2752782.22148  -2145023.84744  24102018.545    24102018.491
 02  1 10  1 10  0.0000000  0  7G25G 1G20G22G29G 4G13
 -15719129.92349 -12248665.25846  22092264.332    22092264.533
 -18931373.33749 -14751714.26946  21487487.873    21487488.354
 -24638177.81849 -19198578.42847  20657470.639    20657470.929
 -23237008.90049 -18106758.11947  20454510.177    20454511.061
   3121966.16148   2432698.07744  24036009.412    24036009.693
  -1405357.29948  -1095083.79444  24788690.109    24788689.979
  -2844195.97048  -2216255.30144  24084623.905    24084623.650
 02  1 10  1 10 30.0000000  0  7G25G 1G20G22G29G 4G13
 -15649829.98749 -12194665.32246  22105451.633    22105451.864
 -18992045.75649 -14798991.46946  21475941.979    21475942.815
 -24620113.24249 -19184502.15147  20660907.814    20660908.385
 -23280735.46049 -18140830.74947  20446189.567    20446190.442
   3207668.70948   2499479.16644  24052318.996    24052320.524
  -1413424.90348                  24787154.180
  -2935588.49048  -2287470.23244  24067231.090    24067232.114
 02  1 10  1 11  0.0000000  0  7G25G 1G20G22G29G 4G13
 -15580394.74249 -12140559.96146  22118664.264    22118664.169
 -19052557.02349 -14846143.09846  21464427.275    21464427.720
 -24601473.96549 -19169978.05347  20664454.459    20664455.055
 -23323873.41149 -18174444.72647  20437980.604    20437981.703
   3293485.66348   2566349.42344  24068648.636    24068651.744
  -1420994.29848  -1107268.51144  24785712.876    24785719.290
  -3026981.12248  -2358685.22244  24049840.795    24049839.690
 02  1 10  1 11 30.0000000  0  7G25G 1G20G22G29G 4G13
 -15510810.64149 -12086338.59646  22131906.263    22131905.820
 -19112890.45449 -14893156.15046  21452946.698    21452947.115
 -24582244.85349 -19154994.34747  20668114.118    20668114.589
 -23366405.96749 -18207586.96547  20429886.937    20429887.768
   3379432.17148   2633320.61044  24085004.175    24085005.963
  -1428050.18648                  24784371.469
  -3118357.38148  -2429887.51144  24032450.596    24032453.864
 02  1 10  1 12  0.0000000  0  7G25G 1G20G22G29G 4G13
 -15441054.16849 -12031982.91446  22145180.390    22145180.368
 -19173020.37549 -14940010.61846  21441503.862    21441504.465
 -24562401.84849 -19139532.27947  20671890.265    20671890.729
 -23408306.92049 -18240237.04547  20421913.437    20421914.296
   3465531.95548   2700411.22344  24101387.742    24101388.346
  -1434568.07448                  24783130.818
  -3209691.63348  -2501057.02144  24015070.916    24015072.047
 02  1 10  1 12 30.0000000  0  7G25G 1G20G22G29G 4G13
 -15371114.09349 -11977484.17246  22158489.294    22158489.204
 -19232933.61249 -14986696.24747  21430102.905    21430103.659
 -24541933.26349 -19123582.74647  20675785.013    20675785.504
 -23449562.66549 -18272384.36547  20414062.425    20414063.117
   3551796.65948   2767630.34944  24117804.237    24117805.947
  -1440536.30748                  24781996.177
  -3300970.94848  -2572183.72944  23997701.560    23997702.142
 02  1 10  1 13  0.0000000  0  7G25G 1G20G22G29G 4G13
 -15301023.41449 -11922868.07746  22171827.422    22171826.971
 -19292660.32849 -15033236.52447  21418737.277    21418737.858
 -24520870.80749 -19107170.45547  20679793.366    20679793.799
 -23490203.15349 -18304052.26747  20406328.990    20406329.688
   3638194.36348   2834953.12344  24134245.035    24134245.652
  -1445986.42848                  24780959.212
  -3392225.92948  -2643291.49244  23980335.579    23980333.193
 02  1 10  1 13 30.0000000  0  8G25G 1G20G22G29G 4G13G 6
 -15230822.30049 -11868165.93046  22185186.043    22185185.659
 -19352238.31349 -15079660.91347  21407399.174    21407400.028
 -24499254.17349 -19090326.33947  20683906.729    20683907.090
 -23530265.98249 -18335270.04247  20398705.266    20398706.051
   3724685.73348   2902348.83344  24150703.654    24150705.164
  -1450957.74748                  24780012.781
  -3483494.36448  -2714409.74444  23962968.835    23962972.481
          .14458                  25534455.999
 02  1 10  1 14  0.0000000  0  8G25G 1G20G22G29G 4G13G 6
 -15160454.08349 -11813333.56446  22198577.117    22198576.819
 -19411608.12149 -15125923.08647  21396102.425    21396102.955
 -24477025.54949 -19073005.34847  20688136.497    20688137.026
 -23569691.58449 -18365991.27947  20391202.653    20391203.513
   3811328.14748   2969862.29944  24167191.854    24167193.785
  -1455392.33848                  24779169.372
  -3574717.19848  -2785492.42044  23945608.030    23945610.451
    -10541.91648                  25532450.048
 02  1 10  1 14 30.0000000  0  8G25G 1G20G22G29G 4G13G 6
 -15089902.78049 -11758358.53546  22212002.047    22212002.145
 -19470751.18949 -15172008.58447  21384847.397    21384848.089
 -24454168.19949 -19055194.44347  20692486.235    20692486.805
 -23608461.10349 -18396201.28047  20383825.250    20383826.073
   3898138.37348   3037506.45944  24183711.083    24183714.865
  -1459273.31148                  24778430.624
  -3665876.27448  -2856525.42844  23928262.672    23928261.186
    -20593.76248                  25530537.463
 02  1 10  1 15  0.0000000  0  8G25G 1G20G22G29G 4G13G 6
 -15019195.68049 -11703262.11446  22225457.419    22225457.433
 -19529692.92149 -15217937.19747  21373631.214    21373631.841
 -24430709.30149 -19036914.80147  20696950.216    20696950.581
 -23646599.67249 -18425919.63147  20376568.070    20376568.719
   3985089.62648   3105260.53244  24200257.299    24200260.875
  -1462627.41148                  24777793.024
  -3756997.29748  -2927528.80044  23910921.501    23910921.189
    -30181.00348                  25528712.799
 02  1 10  1 15 30.0000000  0  8G25G 1G20G22G29G 4G13G 6
 -14948348.25749 -11648056.34346  22238939.293    22238939.146
 -19588446.21049 -15263718.97047  21362451.334    21362451.810
 -24406663.49049 -19018177.82247  20701526.373    20701526.862
 -23684119.99949 -18455156.24047  20369427.774    20369428.722
   4072167.09848   3173112.96044  24216828.936    24216831.311
  -1465468.93748  -1141924.28544  24777251.785    24777251.148
  -3848093.19348  -2998512.60444  23893587.217    23893584.068
    -39316.90848                  25526974.601
 02  1 10  1 16  0.0000000  0  8G25G 1G20G22G29G 4G13G 6
 -14877344.76049 -11592728.95346  22252450.695    22252451.196
 -19646992.56649 -15309339.49547  21351309.985    21351310.545
 -24382014.02049 -18998970.46147  20706216.639    20706217.149
 -23721003.63349 -18483896.72147  20362409.111    20362410.007
   4159387.49548   3241076.72744  24233424.768    24233425.476
  -1467781.24948  -1143726.09044  24776812.702    24776811.586
  -3939145.60948  -3069462.51044  23876260.301    23876259.905
    -47983.37647                  25525325.357
 02  1 10  1 16 30.0000000  0  8G25G 1G20G22G29G 4G13G 6
 -14806185.11549 -11537279.89546  22265992.201    22265992.124
 -19705329.39449 -15354796.75547  21340208.756    21340209.529
 -24356760.23649 -18979292.20747  20711022.593    20711023.025
 -23757247.98149 -18512139.05447  20355511.846    20355512.564
   4246751.66148   3309152.51744  24250051.366    24250055.332
  -1469563.27848  -1145114.73344  24776472.434    24776469.318
  -4030152.37548  -3140376.85044  23858941.723    23858941.201
    -56178.20147                  25523765.660
 02  1 10  1 17  0.0000000  0  8G 1G25G20G22G29G 4G13G 6
 -19763444.63149 -15400081.34647  21329149.883    21329150.344
 -14734859.62449 -11481701.60446  22279565.034    22279565.087
 -24330892.13249 -18959135.26647  20715945.366    20715945.722
 -23792840.88949 -18539873.77247  20348738.614    20348739.400
   4334269.85248   3377348.30244  24266704.919    24266702.372
  -1470804.75548  -1146081.90244  24776236.135    24776236.055
  -4121101.56748  -3211246.32644  23841635.833    23841638.674
    -63889.79847                  25522298.662
 02  1 10  1 17 30.0000000  0  8G 1G25G20G22G29G 4G13G 6
 -19821344.87949 -15445198.41647  21318131.257    21318131.812
 -14663377.65049 -11426001.37946  22293167.317    22293167.507
 -24304418.21949 -18938506.26447  20720983.409    20720983.675
 -23827788.97049 -18567106.03147  20342088.628    20342089.295
   4421933.65048   3445657.58244  24283386.594    24283388.076
  -1471514.01348                  24776099.790
  -4212000.33648  -3282076.46744  23824337.354    23824337.080
    -71125.17747                  25520921.424
 02  1 10  1 18  0.0000000  0  8G 1G25G20G22G29G 4G13G 6
 -19879027.73749 -15490146.09047  21307154.924    21307155.564
 -14591738.87549 -11370178.97746  22306799.803    22306799.831
 -24277338.15649 -18917404.93647  20726136.245    20726136.595
 -23862089.94049 -18593834.04347  20335561.397    20335562.019
   4509743.30348   3514080.50644  24300097.878    24300097.674
  -1471690.26548                  24776066.087
  -4302846.59148  -3352865.76944  23807050.841    23807051.297
    -77882.54047                  25519635.439
 02  1 10  1 18 30.0000000  0  8G 1G25G20G22G29G 4G13G 6
 -19936499.74849 -15534929.46447  21296218.820    21296219.425
 -14519952.19949 -11314241.32446  22320460.452    22320460.687
 -24249660.11949 -18895837.65247  20731403.146    20731403.317
 -23895750.25749 -18620062.84647  20329156.110    20329156.736
   4597690.85148   3582610.89644  24316832.037    24316835.152
  -1471341.84648                  24776132.794
  -4393646.69748  -3423619.04844  23789770.873    23789774.100
    -84168.84347                  25518439.062
 02  1 10  1 19  0.0000000  0  8G 1G25G20G22G29G 4G13G 6
 -19993768.58649 -15579554.52547  21285320.779    21285321.329
 -14448027.83949 -11258196.38946  22334147.562    22334147.487
 -24221393.85749 -18873812.01147  20736782.352    20736782.773
 -23928777.67949 -18645798.48547  20322871.253    20322871.804
   4685766.84648                  24333593.033
  -1470477.82548                  24776297.415
  -4484408.73648  -3494342.68244  23772500.766    23772501.551
    -89992.21447    -70123.33244  25517331.112    25517328.659
 02  1 10  1 19 30.0000000  0  8G 1G25G20G22G29G 4G13G 6
 -20050847.70149 -15624031.74747  21274458.871    21274459.367
 -14375981.80349 -11202056.63846  22347856.602    22347856.747
 -24192554.89649 -18851340.11047  20742270.127    20742270.537
 -23961185.84849 -18671051.58947  20316703.821    20316704.335
   4773955.80948   3719959.79544  24350375.349    24350378.405
  -1469113.80548                  24776558.389
  -4575146.55748  -3565047.45645  23755233.257    23755232.121
    -95366.78647                  25516308.413
 02  1 10  1 20  0.0000000  0  7G 1G25G20G22G 4G13G 6
 -20107722.42849 -15668349.70147  21263636.303    21263636.850
 -14303802.68949 -11145813.19546  22361592.146    22361592.061
 -24163130.91749 -18828412.35847  20747869.371    20747869.766
 -23992960.47749 -18695811.02647  20310657.417    20310657.979
  -1467237.11948                  24776913.292
  -4665845.66748  -3635722.03744  23737973.611    23737973.116
   -100278.53047                  25515373.802
 02  1 10  1 20 30.0000000  0  8G 1G25G20G22G29G 4G13G 6
 -20164381.61749 -15712499.71047  21252854.004    21252854.471
 -14231481.05749 -11089458.70246  22375355.021    22375354.996
 -24133112.65149 -18805021.51647  20753581.324    20753581.825
 -24024090.39249 -18720068.09047  20304733.404    20304733.955
          .15358          .80754  24384013.045    24384016.188
  -1464838.16948                  24777371.394
  -4756494.80948  -3706357.70544  23720724.504    23720721.337
   -104716.79747                  25514529.375
 02  1 10  1 21  0.0000000  0  8G 1G25G20G22G29G 4G13G 6
 -20220821.40049 -15756478.75147  21242113.839    21242114.500
 -14159015.49049 -11032992.03246  22389144.064    22389144.783
 -24102498.45049 -18781166.31347  20759407.168    20759407.542
 -24054571.87849 -18743819.88247  20298932.705    20298933.319
     88587.01348                  24400869.728
  -1461914.87248  -1139155.08244  24777927.995    24777931.185
  -4847090.49548  -3776951.66044  23703484.030    23703482.349
   -108678.28548                  25513775.454
 02  1 10  1 21 30.0000000  0  8G 1G25G20G22G29G 4G13G 6
 -20277042.81549 -15800287.63947  21231415.540    21231416.136
 -14086409.57849 -10976416.02646  22402960.923    22402961.641
 -24071291.33749 -18756849.10447  20765345.825    20765346.039
 -24084406.21849 -18767067.40847  20293255.574    20293256.184
    177308.26148                  24417752.814
  -1458470.26648  -1136471.00644  24778583.569    24778586.392
  -4937634.04648  -3847505.04444  23686254.522    23686254.789
   -112164.85248                  25513112.036
 02  1 10  1 22  0.0000000  0  8G 1G25G20G22G29G 4G13G 6
 -20333026.09749 -15843910.96047  21220761.954    21220762.613
 -14013646.05549 -10919717.20946  22416807.758    22416807.978
 -24039473.95249 -18732056.35447  20771400.366    20771400.703
 -24113574.12149 -18789795.62947  20287705.276    20287705.781
    266181.52448                  24434666.406
  -1454486.55448                  24779342.260
  -5028105.86648  -3918002.56444  23669037.180    23669035.941
   -115157.29648                  25512542.510
 02  1 10  1 22 30.0000000  0  8G 1G25G20G22G29G 4G13G 6
 -20388784.76149 -15887359.26247  21210151.609    21210152.092
 -13940740.90449 -10862908.02346  22430680.294    22430680.808
 -24007061.97049 -18706800.28247  20777567.613    20777568.008
 -24142089.48449 -18812015.38647  20282278.857    20282279.476
    355191.23148                  24451603.121
  -1449979.23348  -1129854.67344  24780199.738    24780199.817
  -5118520.00248  -3988455.09544  23651833.435    23651832.984
   -117669.95448                  25512064.529
 02  1 10  1 23  0.0000000  0  8G 1G25G20G22G29G 4G13G 6
 -20444333.89949 -15930644.29747  21199581.114    21199581.595
 -13867711.71249 -10806002.17946  22444577.739    22444578.018
 -23974072.86149 -18681094.50347  20783845.761    20783846.297
 -24169967.80249 -18833738.73947  20276973.846    20276974.474
    444320.29948                  24468564.215
  -1444965.72948  -1125948.05044  24781155.229    24781154.466
  -5208891.78048  -4058874.64644  23634635.221    23634634.781
   -119718.74548                  25511674.476
 02  1 10  1 23 30.0000000  0  8G 1G25G20G22G29G 4G13G 6
 -20499679.91449 -15973771.05547  21189048.879    21189049.449
 -13794567.51049 -10749006.72946  22458496.899    22458496.685
 -23940515.31149 -18654945.78447  20790231.993    20790232.534
 -24197215.75049 -18854970.89547  20271788.893    20271789.510
    533560.67948                  24485546.805
  -1439454.24148                  24782203.873
  -5299227.42248  -4129266.02344  23617444.605    23617442.792
   -121310.86648                  25511371.629
 02  1 10  1 24  0.0000000  0  8G 1G25G20G22G29G 4G13G 6
 -20554812.42849 -16016731.44347  21178557.325    21178557.842
 -13721300.53149 -10691915.60746  22472438.674    22472439.056
 -23906381.09349 -18628347.71047  20796726.820    20796727.352
 -24223823.41449 -18875704.12947  20266725.326    20266725.768
    622920.74748                  24502550.476
  -1433436.15848                  24783348.833
  -5389516.91748  -4199621.45444  23600264.353    23600264.137
   -122436.45948                  25511157.364
 02  1 10  1 24 30.0000000  0  8G 1G25G20G22G29G 4G13G 6
 -20609720.24749 -16059516.74647  21168108.726    21168109.422
 -13647901.84849 -10634721.85546  22486406.081    22486406.502
 -23871661.44249 -18601293.45447  20803333.944    20803334.532
 -24249780.04549 -18895930.06547  20261786.190    20261786.725
    712409.73948                  24519581.054
  -1426902.69248  -1111872.99544  24784592.668    24784591.941
  -5479749.59648  -4269932.61144  23583092.195    23583093.293
   -123085.37748    -95910.60744  25511033.928    25511035.820
 02  1 10  1 25  0.0000000  0  8G 1G25G20G22G29G 4G13G 6
 -20664382.45849 -16102110.66847  21157706.849    21157707.398
 -13574352.67149 -10577410.83846  22500402.045    22500402.249
 -23836337.83349 -18573768.58447  20810056.182    20810056.516
 -24275065.24049 -18915632.80347  20256974.587    20256975.061
    802046.78148                  24536638.753
  -1419834.74148  -1106365.59744  24785936.975    24785933.779
  -5569904.39248  -4340183.07744  23565937.533    23565935.369
   -123237.43048                  25511005.062
 02  1 10  1 25 30.0000000  0  8G 1G20G22G29G 4G25G13G 6
 -20718809.25949 -16144521.15647  21147349.720    21147350.305
 -23800422.79249 -18545782.85547  20816890.735    20816891.269
 -24299689.73049 -18934820.71047  20252288.483    20252289.113
    891819.50148                  24553721.854
  -1412244.96948  -1100451.47944  24787381.855    24787381.332
 -13500666.04349 -10519992.70646  22514424.195    22514425.133
  -5659991.86548  -4410381.07144  23548793.498    23548792.911
   -122903.80948                  25511068.417
 02  1 10  1 26  0.0000000  0  8G 1G25G20G22G29G 4G13G 6
 -20773014.95649 -16186759.35447  21137034.981    21137035.485
 -13426858.71349 -10462480.53446  22528469.445    22528469.877
 -23763933.03349 -18517349.29947  20823834.015    20823834.659
 -24323668.19049 -18953505.21647  20247725.419    20247726.081
    981711.66448                  24570829.396
  -1404149.51648  -1094143.34844  24788922.099    24788922.639
  -5750026.55648  -4480537.98944  23531660.485    23531659.849
   -122099.53448                  25511221.828
 02  1 10  1 26 30.0000000  0  8G 1G25G20G22G29G 4G13G 6
 -20826979.99449 -16228810.02547  21126765.509    21126766.087
 -13352913.37149 -10404860.80346  22542540.431    22542540.547
 -23726851.30449 -18488454.46647  20830890.316    20830890.748
 -24346981.77649 -18971671.64047  20243289.170    20243289.697
   1071741.18648                  24587959.559
  -1395530.90548  -1087427.58744  24790562.250    24790560.972
  -5839988.60848  -4550638.27245  23514542.246    23514541.646
   -120805.89348                  25511467.831
 02  1 10  1 27  0.0000000  0  8G 1G25G20G22G29G 4G13G 6
 -20880702.25449 -16270671.51847  21116542.781    21116543.332
 -13278830.40949 -10347133.84946  22556638.055    22556638.847
 -23689178.11949 -18459098.75547  20838059.435    20838059.855
 -24369629.00449 -18989318.82547  20238979.660    20238980.205
   1161908.01348                  24605118.705
  -1386389.38548  -1080304.37844  24792302.692    24792299.504
  -5929876.49348  -4620680.77144  23497435.716    23497435.949
   -119021.63548                  25511807.345
 02  1 10  1 27 30.0000000  0  8G 1G25G20G22G29G 4G13G 6
 -20934189.42849 -16312349.82247  21106364.307    21106364.832
 -13204619.66749 -10289307.32946  22570759.776    22570760.174
 -23650923.59349 -18429290.05347  20845338.953    20845339.350
 -24391618.05549 -19006453.14547  20234795.217    20234795.862
   1252202.38248                  24622301.504
  -1376734.59448  -1072781.15044  24794139.378    24794142.776
  -6019697.88848  -4690671.43945  23480344.808    23480341.917
   -116755.39848                  25512238.867
 02  1 10  1 28  0.0000000  0  8G 1G25G13G20G22G29G 4G 6
 -20987465.99049 -16353864.01647  21096226.426    21096226.842
 -13130308.66749 -10231402.69246  22584900.903    22584900.919
  -6109477.75048  -4760629.69945  23463259.316    23463258.334
 -23612114.84749 -18399049.49347  20852724.058    20852724.641
 -24412974.24949 -19023094.32947  20230731.332    20230731.821
   1342598.07148                  24639502.185
  -1366593.61248                  24796068.514
   -114032.72848                  25512756.708
 02  1 10  1 28 30.0000000  0  8G 1G25G13G20G22G29G 4G 6
 -21040516.26449 -16395201.88347  21086130.984    21086131.523
 -13055883.69549 -10173409.22546  22599063.577    22599064.212
  -6199200.36648  -4830543.42645  23446186.291    23446185.118
 -23572738.70249 -18368366.80347  20860217.598    20860218.000
 -24433682.82649 -19039230.87547  20226790.737    20226791.181
   1433108.39748                  24656727.210
  -1355953.06248  -1056587.75844  24798093.956    24798093.440
   -110838.98648                  25513364.601
 02  1 10  1 29  0.0000000  0  8G 1G25G13G20G22G29G 4G 6
 -21093339.09249 -16436362.52247  21076079.177    21076079.704
 -12981346.59749 -10115328.40646  22613247.444    22613247.818
  -6288865.13248  -4900412.04045  23429123.253    23429123.540
 -23532796.77149 -18337243.24547  20867817.832    20867818.352
 -24453743.26649 -19054862.38347  20222973.360    20222973.851
   1523732.50648                  24673971.848
  -1344814.11348  -1047908.13644  24800213.898    24800207.758
   -107174.21948                  25514062.026
 02  1 10  1 29 30.0000000  0  8G 1G25G13G20G22G29G 4G 6
 -21145922.25449 -16477336.41047  21066072.481    21066073.150
 -12906687.43849 -10057152.46646  22627455.254    22627455.554
  -6378460.12448  -4970226.25545  23412073.664    23412073.486
 -23492279.56449 -18305671.41547  20875527.795    20875528.363
 -24473144.20549 -19069979.99447  20219281.213    20219281.812
   1614480.52948                  24691241.251
  -1333166.78648  -1038832.33244  24802430.178    24802429.225
   -103027.28848                  25514851.228
 02  1 10  1 30  0.0000000  0  8G 1G25G13G20G22G29G 4G 6
 -21198250.84849 -16518111.92847  21056114.993    21056115.713
 -12831893.62449  -9998871.60746  22641687.749    22641687.808
  -6467970.02348  -5039974.17645  23395041.031    23395038.746
 -23451174.42949 -18273641.46147  20883350.361    20883350.823
 -24491871.54749 -19084572.72547  20215717.738    20215718.273
   1705365.55448                  24708536.574
  -1320998.66048  -1029350.68444  24804745.180    24804742.741
    -98384.09748                  25515734.461
 02  1 10  1 30 30.0000000  0  8G 1G25G13G20G22G29G 4G 6
 -21250324.76749 -16558688.99447  21046206.215    21046206.794
 -12756967.15049  -9940487.38646  22655945.923    22655946.077
  -6557394.86848  -5109655.84945  23378022.943    23378023.158
 -23409483.95249 -18241155.40047  20891283.571    20891283.984
 -24509925.86549 -19098641.02247  20212282.001    20212282.578
   1796385.75548                  24725856.835
  -1308311.54948  -1019464.61244  24807159.768    24807159.300
    -93245.60048                  25516712.456
 02  1 10  1 31  0.0000000  0  8G 1G25G13G20G22G29G 4G 6
 -21302153.28349 -16599074.84447  21036343.081    21036343.705
 -12681920.01049  -9882009.12046  22670227.475    22670227.060
  -6646744.21448  -5179278.64945  23361022.097    23361022.089
 -23367220.23449 -18208222.65247  20899326.040    20899326.598
 -24527317.31049 -19112192.79447  20208972.400    20208972.977
   1887529.71348                  24743201.889
  -1295117.21548  -1009183.33944  24809670.414    24809670.041
    -87622.20848                  25517782.804
 02  1 10  1 31 30.0000000  0  7G 1G25G13G20G22G 4G 6
 -21353729.10249 -16639263.78847  21026528.184    21026528.815
 -12606747.58649  -9823433.24646  22684531.244    22684532.073
  -6736010.91148  -5248837.07845  23344032.906    23344033.241
 -23324378.53349 -18174839.53047  20907478.834    20907479.123
 -24544039.54149 -19125223.10147  20205790.578    20205791.202
  -1281411.08948   -998503.28944  24812278.726    24812277.705
    -81507.87148                  25518946.014
 02  1 10  1 32  0.0000000  0  7G 1G25G20G22G 4G13G 6
 -21405055.23549 -16679258.17147  21016761.098    21016761.875
 -12531454.78349  -9764763.56646  22698859.750    22698859.312
 -23280964.74849 -18141010.62847  20915740.143    20915740.599
 -24560096.47049 -19137734.99247  20202734.983    20202735.568
  -1267198.45148   -987428.49344  24814983.572    24814985.546
  -6825198.20448  -5318333.61145  23327062.878    23327062.544
    -74906.55547                  25520202.372
 02  1 10  1 32 30.0000000  0  7G 1G25G13G20G22G 4G 6
 -21456149.77949 -16719072.09647  21007038.236    21007038.855
 -12456062.43549  -9706016.31646  22713206.162    22713207.020
  -6914324.31948  -5387782.47245  23310101.140    23310100.493
 -23236999.65349 -18106752.13447  20924106.069    20924106.698
 -24575507.17549 -19149743.33147  20199802.371    20199802.945
  -1252499.79048   -975975.03844  24817780.619    24817777.572
    -67837.61347                  25521547.576
 02  1 10  1 33  0.0000000  0  7G 1G25G13G20G22G 4G 6
 -21507006.68649 -16758700.85047  20997360.637    20997361.242
 -12380567.22849  -9647188.93246  22727572.108    22727573.023
  -7003383.49248  -5457179.18245  23293155.080    23293154.095
 -23192480.22449 -18072061.69547  20932578.012    20932578.488
 -24590266.86649 -19161244.38547  20196993.698    20196994.169
  -1237311.76648   -964140.22544  24820670.791    24820671.364
    -60296.40347                  25522982.450
 02  1 10  1 33 30.0000000  0  8G25G13G20G22G27G 4G 1G 6
 -12304971.73349  -9588283.39946  22741957.711    22741957.397
  -7092376.17248  -5526524.08845  23276219.484    23276219.703
 -23147409.45549 -18036941.63947  20941155.049    20941155.515
 -24604376.78549 -19172239.12547  20194308.748    20194309.246
         -.25958         -.50254  25613351.274    25613347.733
  -1221637.12348   -951926.21344  24823653.291    24823653.134
 -21557626.32049 -16798144.71547  20987728.164    20987728.722
    -52284.49247                  25524507.109
 02  1 10  1 34  0.0000000  0  8G25G13G20G22G27G 4G 1G 6
 -12229265.49449  -9529291.55846  22756364.092    22756363.607
  -7181289.82048  -5595807.38545  23259300.016    23259301.349
 -23101777.66449 -18001384.42347  20949837.808    20949838.716
 -24617825.37749 -19182718.54547  20191749.441    20191749.981
    -84856.27548    -66122.06844  25597202.893    25597210.213
  -1205465.77448   -939325.22544  24826730.357    24826730.306
 -21607996.04549 -16837393.84847  20978143.038    20978143.547
    -43790.46748                  25526123.511
 02  1 10  1 34 30.0000000  0  8G25G13G20G22G27G 4G 1G 6
 -12153441.17049  -9470207.71846  22770793.165    22770794.494
  -7270114.58248  -5665021.45445  23242397.971    23242396.058
 -23055577.87549 -17965384.61247  20958629.657    20958630.311
 -24630604.04049 -19192675.94147  20189317.706    20189318.244
   -169648.99448                  25581067.777
  -1188790.56048   -926331.58444  24829902.468    24829906.381
 -21658106.03949 -16876440.59147  20968607.364    20968607.813
    -34805.70048                  25527833.320
 02  1 10  1 35  0.0000000  0  8G25G20G22G27G 4G 1G13G 6
 -12077494.21449  -9411028.32946  22785245.741    22785245.349
 -23008805.75149 -17928938.82447  20967530.684    20967531.039
 -24642706.68349 -19202106.56947  20187014.758    20187015.277
   -254372.21648   -198212.43544  25564945.955    25564948.316
  -1171606.85948   -912941.70144  24833172.822    24833174.516
 -21707949.07849 -16915279.31747  20959122.478    20959122.959
  -7358843.55548  -5734160.89345  23225512.572    23225512.360
    -25324.33748                  25529637.419
 02  1 10  1 35 30.0000000  0  8G25G13G20G22G27G 4G 1G 6
 -12001446.13049  -9351770.11746  22799716.870    22799717.079
  -7447496.15248  -5803240.79045  23208642.739    23208642.690
 -22961483.35149 -17892064.25147  20976535.555    20976536.161
 -24654153.53849 -19211026.19447  20184836.472    20184836.965
   -339046.17248   -264192.09544  25548831.667    25548834.699
  -1153936.43248   -899172.58644  24836534.453    24836536.324
 -21757544.39849 -16953925.02147  20949685.123    20949685.765
    -15366.87648                  25531532.458
 02  1 10  1 36  0.0000000  0  8G20G25G22G27G 4G 1G13G 6
 -22913597.47049 -17854750.60447  20985647.820    20985648.415
 -11925282.60849  -9292421.96846  22814210.027    22814210.149
 -24664929.51749 -19219423.05747  20182785.923    20182786.515
   -423655.41348   -330121.34344  25532731.962    25532734.486
  -1135765.36248                  24839991.257
 -21806875.54349 -16992364.87247  20940297.624    20940298.208
  -7536056.07348  -5872248.49645  23191790.347    23191788.269
     -4918.40448                  25533520.823
 02  1 10  1 36 30.0000000  0  8G20G25G22G27G 4G 1G13G 6
 -22865144.03249 -17816994.70247  20994868.559    20994869.026
 -11848999.74249  -9232980.82646  22828727.227    22828726.873
 -24675029.23149 -19227292.96047  20180863.761    20180864.404
   -508194.45748   -395995.94644  25516644.415    25516648.502
  -1117089.80948                  24843545.639
 -21855935.77849 -17030593.61847  20930961.501    20930962.295
  -7624516.42448  -5941178.59545  23174956.485    23174955.419
      5840.28547                  25535605.871
 02  1 10  1 37  0.0000000  0  7G20G25G22G27G 4G 1G13
 -22816133.48949 -17778804.69647  21004194.932    21004195.578
 -11772607.33149  -9173454.32346  22843263.393    22843262.988
 -24684461.08749 -19234642.45647  20179069.025    20179069.485
   -592671.49748                  25500569.586
  -1097919.70248                  24847193.312
 -21904732.36349 -17068616.92447  20921676.066    20921676.703
  -7712884.72149  -6010036.98945  23158141.299    23158139.393
 02  1 10  1 37 30.0000000  0  7G20G25G22G27G 4G 1G13
 -22766573.74649 -17740186.74247  21013624.902    21013625.747
 -11696112.43449  -9113847.95846  22857820.101    22857820.000
 -24693231.48949 -19241476.53147  20177400.228    20177400.758
   -677092.74648   -527604.92644  25484504.308    25484510.218
  -1078262.68148                  24850933.470
 -21953270.43149 -17106438.79447  20912439.487    20912440.302
  -7801166.08448  -6078827.61645  23141340.941    23141340.326
 02  1 10  1 38  0.0000000  0  7G20G22G27G 4G25G 1G13
 -22716471.27149 -17701145.87647  21023160.340    21023160.771
 -24701344.93149 -19247798.68847  20175856.082    20175856.613
   -761462.39848   -593347.47844  25468448.898    25468453.461
  -1058124.59748                  24854766.122
 -11619520.69349  -9054166.13246  22872395.198    22872396.123
 -22001553.10249 -17144061.64847  20903251.850    20903252.509
  -7889363.95049  -6147553.21745  23124558.400    23124557.278
 02  1 10  1 38 30.0000000  0  7G20G25G22G27G 4G 1G13
 -22665828.17549 -17661683.75147  21032796.861    21032797.860
 -11542833.70149  -8994410.09246  22886987.830    22886989.097
 -24708802.06149 -19253609.43647  20174437.192    20174437.702
   -845780.64848   -659049.98644  25452404.591    25452405.378
  -1037507.74648                  24858690.079
 -22049579.54849 -17181484.84947  20894112.494    20894113.082
  -7977477.50648  -6216213.10245  23107790.011    23107788.801
 02  1 10  1 39  0.0000000  0  7G20G25G22G27G 4G 1G13
 -22614634.94949 -17621792.95247  21042538.257    21042539.217
 -11466041.34149  -8934571.95246  22901601.138    22901601.643
 -24715591.55649 -19258899.94647  20173145.342    20173145.836
   -930036.04548   -724703.53344  25436370.112    25436375.303
  -1016401.95548   -792003.02244  24862705.929    24862706.292
 -22097337.11149 -17218698.53247  20885024.564    20885025.352
  -8065494.27649  -6284797.58145  23091041.913    23091041.398
 02  1 10  1 39 30.0000000  0  7G20G25G22G27G 4G 1G13
 -22562923.35449 -17581498.22647  21052379.511    21052380.124
 -11389174.50349  -8874675.76946  22916228.506    22916229.511
 -24721743.63149 -19263693.76847  20171974.439    20171975.055
  -1014258.28948   -790331.15944  25420343.430    25420344.083
   -994838.89348   -775200.62244  24866809.248    24866812.407
 -22144854.57049 -17255725.12547  20875982.191    20875982.839
  -8153442.60549  -6353328.71045  23074306.043    23074304.877
 02  1 10  1 40  0.0000000  0  7G20G25G22G27G 4G 1G13
 -22510682.93449 -17540791.43147  21062320.232    21062320.866
 -11312222.23149  -8814713.01746  22930872.034    22930873.048
 -24727246.37449 -19267981.61947  20170926.971    20170927.595
  -1098434.92448   -855923.30044  25404325.745    25404332.034
   -972807.91548   -758033.67244  24871002.398    24871002.716
 -22192118.50549 -17292554.16347  20866987.871    20866988.927
  -8241309.74648  -6421796.59245  23057583.522    23057583.774
 02  1 10  1 40 30.0000000  0  7G20G25G22G27G 4G 1G13
 -22457864.07949 -17499633.90947  21072371.013    21072371.724
 -11235134.07249  -8754644.38146  22945541.336    22945541.711
 -24732047.96949 -19271723.12047  20170013.265    20170013.821
  -1182513.99148   -921439.39444  25388325.725    25388328.064
   -950258.55948   -740462.72044  24875293.315    24875292.711
 -22239075.63649 -17329144.14047  20858052.267    20858053.188
  -8329042.35149  -6490159.64145  23040891.141    23040889.735
 02  1 10  1 41  0.0000000  0  7G20G25G22G27G 4G 1G13
 -22404522.39349 -17458068.98347  21082522.292    21082522.549
 -11157964.35549  -8694512.19546  22960226.603    22960226.837
 -24736202.63849 -19274960.52347  20169222.771    20169223.401
  -1266549.13748   -986921.30044  25372334.325    25372335.662
   -927246.45148   -722531.24444  24879673.224    24879673.615
 -22285778.66349 -17365536.11147  20849165.499    20849166.361
  -8416693.02649  -6558458.83545  23024210.114    23024209.804
 02  1 10  1 41 30.0000000  0  7G20G25G22G27G 4G 1G13
 -22350634.68049 -17416078.58047  21092776.431    21092777.089
 -11080689.30049  -8634297.92845  22974931.879    22974932.399
 -24739685.44549 -19277674.39747  20168560.254    20168560.818
  -1350515.14048  -1052349.29744  25356355.657    25356361.720
   -903747.75248   -704220.60244  24884145.405    24884142.885
 -22332201.05549 -17401709.40547  20840331.399    20840332.179
  -8504235.44549  -6626673.66645  23007551.985    23007550.563
 02  1 10  1 42  0.0000000  0  7G20G25G22G27G 4G 1G13
 -22296210.46849 -17373670.12747  21103132.693    21103133.389
 -11003317.88448  -8574008.58646  22989654.343    22989655.421
 -24742504.46749 -19279871.03747  20168023.510    20168023.995
  -1434419.51548  -1117729.27344  25340389.906    25340391.080
   -879772.11448   -685538.28744  24888706.543    24888706.078
 -22378349.12249 -17437668.94247  20831549.459    20831550.295
  -8591676.01749  -6694809.17145  22990912.383    22990910.014
 02  1 10  1 42 30.0000000  0  7G20G25G22G27G 4G 1G13
 -22241271.41949 -17330860.50147  21113587.963    21113588.324
 -10925870.73548  -8513660.23045  23004392.400    23004392.956
 -24744679.68049 -19281566.01347  20167609.622    20167610.241
  -1518281.67148  -1183076.39644  25324430.796    25324433.840
   -855340.67448   -666500.84644  24893355.999    24893355.601
 -22424241.38649 -17473429.15047  20822816.826    20822817.393
  -8679033.28349  -6762879.73645  22974288.726    22974288.322
 02  1 10  1 43  0.0000000  0  8G20G25G22G27G 4G 1G13G 3
 -22185802.29949 -17287637.83447  21124143.143    21124143.563
 -10848331.64848  -8453240.22345  23019148.055    23019147.934
 -24746194.04749 -19282746.04147  20167321.575    20167322.111
  -1602084.28648  -1248377.01444  25308483.210    25308487.586
   -830437.89448   -647096.04244  24898094.782    24898093.569
 -22469859.33949 -17508975.60947  20814135.734    20814136.433
  -8766288.62749  -6830870.88145  22957685.008    22957684.439
         -.45358                  25217602.287
 02  1 10  1 43 30.0000000  0  8G20G25G22G27G 4G 1G13G 3
 -22129771.82149 -17243977.74546  21134805.241    21134805.667
 -10770668.01148  -8392723.18545  23033925.970    23033927.748
 -24747014.83249 -19283385.61747  20167165.357    20167165.979
  -1685793.63148  -1313605.06544  25292555.076    25292556.814
   -805032.12848   -627299.36444  24902929.368    24902926.508
 -22515168.35349 -17544281.33647  20805514.050    20805514.620
  -8853407.61549  -6898755.77745  22941105.931    22941105.549
    -89388.51648                  25200592.233
 02  1 10  1 44  0.0000000  0  8G20G25G13G22G27G 4G 1G 3
 -22073201.67349 -17199897.13046  21145570.025    21145570.638
 -10692901.10449  -8332125.65545  23048726.024    23048726.368
  -8940408.66749  -6966548.79045  22924551.124    22924549.676
 -24747162.23649 -19283500.48047  20167137.122    20167137.810
  -1769429.53548  -1378775.83744  25276638.782    25276641.923
   -779144.96548                  24907855.099
 -22560186.98449 -17579360.78947  20796947.236    20796947.724
   -178834.36348                  25183571.418
 02  1 10  1 44 30.0000000  0  8G20G25G13G22G27G 4G 1G 3
 -22016102.41749 -17155404.22746  21156436.116    21156436.603
 -10615040.06648  -8271454.80045  23063542.023    23063542.481
  -9027298.84549  -7034255.38645  22908015.127    22908014.678
 -24746645.13549 -19283097.55047  20167235.144    20167236.121
  -1853000.21348  -1443895.78744  25260735.910    25260740.542
   -752786.29348   -586588.35444  24912871.109    24912872.100
 -22604922.33649 -17614219.50647  20788434.261    20788434.838
   -268343.94548                  25166537.934
 02  1 10  1 45  0.0000000  0  8G20G25G13G22G27G 4G 1G 3
 -21958488.47649 -17110510.27246  21167399.208    21167399.916
 -10537098.69648  -8210721.35445  23078373.014    23078374.614
  -9114089.23649  -7101884.24545  22891500.430    22891499.170
 -24745476.09349 -19282186.61847  20167458.078    20167459.005
  -1936517.60348  -1508974.26844  25244842.947    25244846.587
   -725970.21448                  24917973.121
 -22649385.18849 -17648865.89047  20779973.653    20779973.997
   -357926.76548                  25149490.477
 02  1 10  1 45 30.0000000  0  7G20G22G27G 4G25G 1G13
 -21900363.14349 -17065217.83146  21178460.072    21178460.570
 -24743657.09149 -19280769.21947  20167804.017    20167804.786
  -2019983.09748  -1574012.26444  25228959.977    25228962.858
   -698700.00648                  24923163.150
 -10459079.20548  -8149927.01345  23093221.243    23093220.984
 -22693575.70749 -17683300.06247  20771564.274    20771564.627
  -9200779.70449  -7169435.24145  22875003.550    22875002.966
 02  1 10  1 46  0.0000000  0  7G20G22G27G 4G25G 1G13
 -21841737.00549 -17019535.15046  21189616.439    21189617.396
 -24741197.29149 -19278852.49947  20168272.413    20168273.372
  -2103404.95348  -1639016.23444  25213085.521    25213090.560
   -670985.72248   -522847.76144  24928438.161    24928440.039
 -10380990.90948  -8089079.07245  23108080.283    23108081.281
 -22737501.02449 -17717527.57747  20763205.120    20763205.621
  -9287377.46449  -7236913.97845  22858524.445    22858524.491
 02  1 10  1 46 30.0000000  0  7G20G25G13G22G27G 4G 1
 -21782583.30749 -16973441.38546  21200872.940    21200874.208
 -10302805.84848  -8028155.74645  23122958.256    23122959.152
  -9373852.91049  -7304297.43245  22842069.595    22842068.795
 -24738068.19449 -19276414.24747  20168867.842    20168868.762
  -2186754.20248  -1703963.66344  25197225.265    25197229.793
   -642800.44248   -500885.17244  24933801.614    24933801.948
 -22781130.98549 -17751524.95347  20754902.893    20754903.499
 02  1 10  1 47  0.0000000  0  7G20G25G13G22G27G 4G 1
 -21722891.94249 -16926928.65946  21212231.592    21212232.625
 -10224513.09148  -7967148.48845  23137857.509    23137857.362
  -9460192.28149  -7371574.83945  22825638.716    22825639.598
 -24734258.19149 -19273445.42047  20169592.903    20169593.887
  -2270018.40648  -1768844.81044  25181380.417    25181382.747
   -614133.64248   -478547.45744  24939256.106    24939255.983
 -22824452.09649 -17785281.66347  20746659.049    20746659.583
 02  1 10  1 47 30.0000000  0  8G20G25G13G22G27G 4G 1G 3
 -21662697.35249 -16880023.81146  21223686.408    21223687.516
 -10146145.76148  -7906083.11445  23152769.519    23152771.194
  -9546426.29149  -7438770.13145  22809229.344    22809229.767
 -24729800.27849 -19269971.72447  20170440.468    20170441.460
  -2353229.74248  -1833684.77344  25165545.122    25165552.757
   -585019.40848   -455861.08844  24944796.381    24944797.431
 -22867495.08149 -17818821.65647  20738468.134    20738468.908
         -.70558                  25064077.619
 02  1 10  1 48  0.0000000  0  7G20G25G13G22G27G 4G 1
 -21601992.15249 -16832721.08246  21235238.453    21235239.490
 -10067695.64348  -7844953.24845  23167698.970    23167700.100
  -9632544.19149  -7505874.97745  22792841.445    22792838.809
 -24724685.53349 -19265986.21847  20171414.281    20171415.478
  -2436378.61948  -1898476.03944  25149723.016    25149721.941
   -555449.91248   -432819.86244  24950423.480    24950425.084
 -22910249.38249 -17852136.70047  20730332.529    20730333.188
 02  1 10  1 48 30.0000000  0  8G20G25G13G22G27G 4G 1G 3
 -21540746.72149 -16784997.39846  21246892.838    21246893.997
  -9989131.38748  -7783734.44745  23182649.435    23182649.720
  -9718512.65449  -7572863.36845  22776482.011    22776481.986
 -24718882.61449 -19261464.47047  20172518.453    20172519.666
  -2519432.67048  -1963193.46745  25133918.066    25133917.414
   -525395.25948                  24956142.687
 -22952681.39949 -17885200.61647  20722258.113    20722258.672
         -.69158                  25029852.436
 02  1 10  1 49  0.0000000  0  8G20G25G13G22G27G 4G 1G 3
 -21478980.24949 -16736867.70346  21258646.958    21258648.112
  -9910471.71648  -7722441.28745  23197617.314    23197617.595
  -9804347.52849  -7639747.66345  22760148.674    22760147.710
 -24712409.60749 -19256420.57247  20173750.241    20173751.210
  -2602409.10948  -2027850.35944  25118128.254    25118133.691
   -494874.63648   -385618.39844  24961949.828    24961947.073
 -22994807.27049 -17918025.97047  20714242.010    20714242.478
    -89965.33548                  25012730.746
 02  1 10  1 49 30.0000000  0  8G20G25G13G22G27G 4G 1G 3
 -21416702.89249 -16688339.91846  21270497.907    21270499.009
  -9831725.13248  -7661080.39745  23212602.753    23212603.685
  -9890055.16849  -7706532.81045  22743838.556    22743837.800
 -24705274.84149 -19250861.02047  20175108.169    20175109.149
  -2685315.38048  -2092452.62144  25102351.750    25102353.285
   -463897.60848   -361480.46144  24967843.782    24967845.282
 -23036633.40949 -17950617.77047  20706282.601    20706283.205
   -179964.14348                  24995603.402
 02  1 10  1 50  0.0000000  0  8G20G25G13G22G27G 4G 1G 3
 -21353937.53249 -16639431.87446  21282441.421    21282442.650
  -9752913.29948  -7599668.68345  23227600.729    23227600.654
  -9975654.95049  -7773233.92445  22727549.895    22727548.844
 -24697499.88249 -19244802.61647  20176587.652    20176588.602
  -2768172.17248  -2157016.29745  25086584.821    25086587.634
   -432486.67248                  24973822.001
 -23078179.18149 -17982991.10047  20698376.329    20698376.924
   -270015.25348                  24978469.863
 02  1 10  1 50 30.0000000  0  8G20G25G13G22G27G 4G 1G 3
 -21290692.89649 -16590150.37046  21294477.116    21294477.915
  -9674043.39048  -7538211.70145  23242607.906    23242608.545
 -10061151.91249  -7839854.91645  22711279.406    22711278.994
 -24689091.76949 -19238250.84547  20178187.342    20178188.430
  -2850985.55348  -2221546.15344  25070825.564    25070828.664
   -400650.15348   -312196.71744  24979880.659    24979881.996
 -23119449.68449 -18015149.94047  20690522.784    20690523.337
   -360122.54048                  24961321.739
 02  1 10  1 51  0.0000000  0  8G20G25G13G22G27G 4G 1G 3
 -21226949.34349 -16540480.09946  21306606.652    21306607.881
  -9595094.57248  -7476693.24945  23257632.613    23257633.695
 -10146522.91249  -7906377.74746  22695035.205    22695033.142
 -24680029.47649 -19231189.32447  20179911.476    20179912.669
  -2933733.57248  -2286025.08544  25055078.917    25055082.273
   -368368.15348   -287041.95744  24986024.271    24986025.831
 -23160421.72849 -18047076.21447  20682726.299    20682726.856
   -450261.17648                  24944169.488
 02  1 10  1 51 30.0000000  0  8G20G25G13G22G27G 4G 1G 3
 -21162709.41049 -16490423.04146  21318830.971    21318831.708
  -9516068.02248  -7415114.19945  23272670.960    23272672.186
 -10231766.73449  -7972801.48846  22678812.651    22678811.689
 -24670314.25849 -19223619.02747  20181760.225    20181761.430
  -3016416.59248  -2350453.34344  25039345.139    25039349.113
   -335642.91648   -261541.78244  24992251.643    24992251.634
 -23201094.35149 -18078769.16847  20674986.863    20674987.319
   -540428.90848                  24927011.534
 02  1 10  1 52  0.0000000  0  8G20G25G13G22G27G 4G 1G 3
 -21097972.96149 -16439979.08846  21331150.269    21331151.420
  -9436962.36748  -7353473.54145  23287723.103    23287724.846
 -10316879.83149  -8039123.36645  22662616.360    22662615.975
 -24659944.51349 -19215538.71247  20183733.699    20183734.770
  -3099031.92048  -2414828.87145  25023623.769    25023625.223
   -302474.11548   -235695.99244  24998563.544    24998563.377
 -23241463.64449 -18110225.77147  20667304.921    20667305.329
   -630620.66748                  24909847.232
 02  1 10  1 52 30.0000000  0  8G20G25G13G22G27G 4G 1G 3
 -21032752.63549 -16389158.08346  21343561.460    21343562.505
  -9357788.86348  -7291780.01245  23302790.921    23302790.461
 -10401870.79749  -8105350.07246  22646443.997    22646442.141
 -24648931.36249 -19206957.04447  20185830.063    20185831.074
  -3181589.65748  -2479159.53744  25007914.206    25007916.204
   -268873.76348   -209513.88144  25004957.114    25004958.714
 -23281538.55649 -18141452.98247  20659678.934    20659679.452
   -720843.75848                  24892679.418
 02  1 10  1 53  0.0000000  0  8G20G25G13G22G27G 4G 1G 3
 -20967038.30949 -16337952.15146  21356066.195    21356066.991
  -9278535.82848  -7230024.50245  23317871.935    23317873.042
 -10486725.81249  -8171470.83646  22630295.042    22630295.146
 -24637263.51849 -19197865.22647  20188050.794    20188051.623
  -3264077.34448  -2543435.62844  24992216.456    24992216.845
   -234831.88348   -182987.78444  25011435.696    25011436.109
 -23321305.45649 -18172440.18647  20652111.447    20652111.895
   -811083.30448                  24875507.257
 02  1 10  1 53 30.0000000  0  8G20G25G13G22G27G 4G 1G 3
 -20900840.46849 -16286369.45046  21368663.518    21368664.373
  -9199212.35948  -7168214.13745  23332966.223    23332968.256
 -10571451.45149  -8237490.79945  22614173.875    22614173.070
 -24624949.59049 -19188269.96747  20190393.513    20190394.163
  -3346502.76148  -2607663.15844  24976531.814    24976533.234
   -200358.15448                  25017994.689
 -23360770.98349 -18203192.55647  20644601.263    20644601.671
   -901344.48348                  24858330.608
 02  1 10  1 54  0.0000000  0  8G20G25G13G22G27G 4G 1G 3
 -20834148.56549 -16234401.76846  21381354.679    21381355.577
  -9119806.70448  -7106339.68945  23348077.735    23348078.053
 -10656033.65549  -8303399.00245  22598077.351    22598076.804
 -24611977.89449 -19178162.16447  20192862.129    20192863.053
  -3428852.82648  -2671831.99444  24960860.528    24960865.409
   -165441.74948                  25024639.038
 -23399920.82249 -18233698.93447  20637151.473    20637151.931
   -991611.87448                  24841153.633
 02  1 10  1 54 30.0000000  0  8G20G25G13G22G27G 4G 1G 3
 -20766966.29149 -16182051.97946  21394138.836    21394140.089
  -9040321.03148  -7044402.92445  23363202.050    23363203.978
 -10740472.12449  -8369195.20446  22582009.714    22582009.325
 -24598350.88049 -19167543.72347  20195455.173    20195456.045
  -3511129.03148  -2735943.27844  24945204.473    24945206.379
   -130086.41448   -101367.93844  25031367.442    25031368.548
 -23438755.20949 -18263959.50747  20629761.668    20629762.088
  -1081884.16348                  24823974.816
 02  1 10  1 55  0.0000000  0  8G20G25G13G22G27G 4G 1G 3
 -20699286.35049 -16129314.40046  21407017.852    21407019.090
  -8960746.21048  -6982396.68645  23378344.833    23378346.528
 -10824755.76549  -8434870.75646  22565971.142    22565970.158
 -24584059.78749 -19156407.81947  20198174.709    20198175.670
  -3593321.46248  -2799989.28044  24929562.992    24929567.166
    -94284.10148                  25038181.202
 -23477262.77549 -18293965.41547  20622433.839    20622434.198
  -1172148.53448                  24806798.407
 02  1 10  1 55 30.0000000  0  8G20G25G13G22G27G 4G 1G 3
 -20631113.47849 -16076192.72146  21419990.942    21419992.198
  -8881085.73348  -6920323.70245  23393504.858    23393504.920
 -10908885.64849  -8500426.49346  22549961.104    22549960.375
 -24569107.97149 -19144757.06347  20201019.998    20201020.891
  -3675432.30448  -2863971.75944  24913938.477    24913939.358
    -58039.50548                  25045078.770
 -23515444.82549 -18323717.67647  20615167.791    20615168.264
  -1262404.77448                  24789622.213
 02  1 10  1 56  0.0000000  0  8G20G13G25G22G27G 4G 1G 3
 -20562456.00549 -16022693.43046  21433055.779    21433056.756
 -10992866.22749  -8565865.89246  22533981.166    22533979.700
  -8801346.97448  -6858189.72345  23408677.380    23408680.157
 -24553502.53349 -19132596.99947  20203989.693    20203990.649
  -3757467.21548  -2927894.99144  24898327.063    24898331.086
    -21360.57248    -16646.56444  25052058.306    25052058.753
 -23553305.83749 -18353219.77747  20607963.401    20607963.958
  -1352656.37648                  24772448.937
 02  1 10  1 56 30.0000000  0  8G20G25G13G22G27G 4G 1G 3
 -20493327.02449 -15968826.72946  21446210.728    21446211.686
  -8721540.86648  -6796003.28345  23423864.752    23423865.915
 -11076706.36049  -8631195.85246  22518026.221    22518025.464
 -24537254.98849 -19119936.59247  20207081.264    20207082.378
  -3839436.64048  -2991767.21744  24882729.768    24882731.374
     15740.18148     12263.15544  25059117.757    25059124.663
 -23590855.07549 -18382478.94047  20600817.849    20600818.407
  -1442910.87748                  24755274.383
 02  1 10  1 57  0.0000000  0  8G20G25G13G22G27G 4G 1G 3
 -20423731.31349 -15914596.34446  21459454.406    21459455.327
  -8641670.55448  -6733766.80245  23439063.446    23439064.737
 -11160406.84749  -8696416.99146  22502098.652    22502097.403
 -24520368.79749 -19106778.53747  20210294.590    20210295.614
  -3921342.75048  -3055590.14144  24867142.082    24867144.676
     53258.14048                  25066255.716
 -23628093.39649 -18411495.82947  20593731.603    20593732.183
  -1533167.63248                  24738099.199
 02  1 10  1 57 30.0000000  0  8G20G25G13G22G27G 4G 1G 3
 -20353669.44849 -15860002.72846  21472786.960    21472787.771
  -8561735.46948  -6671479.87645  23454273.868    23454275.623
 -11243964.56849  -8761526.90546  22486198.235    22486196.864
 -24502843.45749 -19093122.44647  20213629.889    20213630.747
  -4003183.87348  -3119362.41844  24851570.027    24851571.785
     91192.89348                  25073473.359
 -23665017.94749 -18440268.22147  20586705.360    20586705.893
  -1623422.44848                  24720924.219
 02  1 10  1 58  0.0000000  0  8G20G25G13G22G27G 4G 1G 3
 -20283142.20449 -15805046.47246  21486207.917    21486208.678
  -8481734.14248  -6609141.29445  23469499.373    23469500.681
 -11327376.40349  -8826523.11746  22470325.135    22470324.721
 -24484678.09649 -19078967.63747  20217086.627    20217087.465
  -4084957.83348  -3183082.37444  24836006.931    24836010.186
    129544.15448                  25080773.005
 -23701625.37849 -18468793.50747  20579739.095    20579739.736
  -1713670.35348                  24703749.719
 02  1 10  1 58 30.0000000  0  8G20G25G13G22G27G 4G 1G 3
 -20212145.24049 -15749724.20346  21499718.418    21499719.268
  -8401660.75348  -6546746.60445  23484735.683    23484738.155
 -11410633.76849  -8891398.97246  22454483.234    22454481.311
 -24465867.45949 -19064310.01847  20220666.176    20220667.059
  -4166657.92748  -3246744.76644  24820461.367    24820463.131
    168316.55048                  25088152.753
 -23737907.63949 -18497065.41847  20572834.551    20572835.389
  -1803901.96848                  24686579.934
 02  1 10  1 59  0.0000000  0  8G20G25G13G22G27G 4G 1G 3
 -20140701.22249 -15694053.58746  21513313.521    21513314.326
  -8321536.33548  -6484312.12145  23499982.874    23499983.821
 -11493755.33749  -8956169.03346  22438663.933    22438662.728
 -24446432.50949 -19049165.92047  20224364.578    20224365.567
  -4248303.79448  -3310364.92044  24804924.718    24804926.010
    207488.02948    161677.98644  25095607.308    25095603.116
 -23773883.28749 -18525098.40547  20565988.644    20565989.565
  -1894134.82148                  24669409.016
 02  1 10  1 59 30.0000000  0  8G20G25G22G27G 4G 1G13G 3
 -20068795.38949 -15638023.10846  21526996.771    21526997.622
  -8241344.88248  -6421825.40545  23515243.964    23515244.556
 -24426357.79449 -19033523.30647  20228184.766    20228185.659
  -4329878.38548  -3373929.47544  24789400.554    24789402.187
    247073.35848                  25103139.761
 -23809534.12249 -18552878.29247  20559204.597    20559205.425
 -11576722.40649  -9020818.67646  22422876.636    22422875.852
  -1984348.89148                  24652242.644
 02  1 10  2  0  0.0000000  0  8G20G25G22G27G 4G 1G13G 3
 -19996441.73049 -15581643.68146  21540765.384    21540766.051
  -8161098.69548  -6359296.05645  23530512.933    23530516.144
 -24405655.82649 -19017391.92447  20232124.227    20232125.029
  -4411392.90348  -3437447.28044  24773890.115    24773891.915
    287058.81248                  25110746.845
 -23844869.99749 -18580412.75847  20552480.089    20552480.834
 -11659544.84449  -9085355.63446  22407116.067    22407115.067
  -2074552.53648                  24635076.737
 02  1 10  2  0 30.0000000  0  7G20G22G27G25G 1G13G 3
 -19923612.54449 -15524893.71246  21554624.099    21554625.015
 -24384297.39149 -19000749.01247  20236188.570    20236189.590
  -4492817.09248  -3500894.66844  24758394.127    24758398.866
  -8080768.03648  -6296700.89445  23545800.514    23545802.143
 -23879859.35049 -18607677.20647  20545822.140    20545822.935
 -11742190.89349  -9149755.15746  22391388.644    22391386.936
  -2164712.45448                  24617920.198
 02  1 10  2  1  0.0000000  0  7G20G25G22G27G 1G13G 3
 -19850330.36349 -15467790.75446  21568569.594    21568570.312
  -8000373.37848  -6234055.87045  23561099.076    23561099.942
 -24362303.86149 -18983611.22047  20240373.608    20240374.556
  -4574170.63948  -3564287.00144  24742913.696    24742915.107
 -23914520.75649 -18634686.10947  20539226.482    20539227.128
 -11824678.99249  -9214031.59946  22375693.047    22375691.584
  -2254846.07248                  24600768.500
 02  1 10  2  1 30.0000000  0  7G20G22G27G25G 1G13G 3
 -19776619.74449 -15410353.95046  21582596.068    21582596.995
 -24339698.53049 -18965996.69947  20244675.320    20244676.417
  -4655475.41748  -3627641.36544  24727441.445    24727443.504
  -7919937.82448  -6171378.95945  23576404.870    23576407.970
 -23948874.97049 -18661455.64447  20532688.908    20532689.552
 -11907029.55649  -9278200.86346  22360020.622    22360020.238
  -2344972.75148  -1827249.16144  24583618.288    24583621.488
 02  1 10  2  2  0.0000000  0  7G20G22G27G25G 1G13G 3
 -19702457.74549 -15352565.42946  21596708.595    21596709.765
 -24316457.06249 -18947886.49347  20249098.062    20249099.013
  -4736705.73448  -3690937.68644  24711984.991    24711988.206
  -7839436.79248  -6108651.06245  23591725.120    23591726.991
 -23982895.00349 -18687964.77647  20526215.157    20526215.752
 -11989215.40949  -9342241.78846  22344382.113    22344380.593
  -2435063.98748                  24566473.949
 02  1 10  2  2 30.0000000  0  7G20G22G27G25G 1G13G 3
 -19627817.73849 -15294404.43146  21610912.077    21610913.436
 -24292552.06349 -18929259.24547  20253647.119    20253647.990
  -4817832.34648  -3754153.19644  24696546.350    24696550.639
  -7758841.74548  -6045849.87545  23607061.211    23607062.474
 -24016550.31249 -18714189.71047  20519810.922    20519811.597
 -12071205.85549  -9406130.44546  22328779.825    22328778.905
  -2525088.03248                  24549342.461
 02  1 10  2  3  0.0000000  0  7G20G22G27G25G 1G13G 3
 -19552721.00249 -15235887.54146  21625203.014    21625203.927
 -24268003.32149 -18910130.38347  20258318.584    20258319.523
  -4898873.78848                  24681124.153
  -7678172.19948  -5982990.64145  23622411.880    23622415.392
 -24049858.11149 -18740143.85547  20513472.597    20513473.134
 -12153018.10549  -9469880.24946  22313210.007    22313209.798
  -2615060.35748                  24532221.311
 02  1 10  2  3 30.0000000  0  7G20G22G27G25G 1G13G 3
 -19477185.16749 -15177028.50046  21639576.557    21639577.847
 -24242827.62149 -18890512.98347  20263109.263    20263110.306
  -4979844.86948  -3880396.61844  24665717.600    24665719.871
  -7597443.78548  -5920085.56345  23637775.024    23637778.191
 -24082832.12349 -18765837.91147  20507197.702    20507198.344
 -12234665.31749  -9533501.45346  22297675.178    22297673.555
  -2704993.22948                  24515108.073
 02  1 10  2  4  0.0000000  0  7G20G22G27G25G 1G13G 3
 -19401210.27449 -15117827.33246  21654034.592    21654035.785
 -24217023.60549 -18870405.98847  20268019.616    20268020.548
  -5060742.98748  -3943434.07944  24650320.600    24650321.608
  -7516654.71848  -5857133.22445  23653148.516    23653150.428
 -24115468.49749 -18791268.87147  20500987.359    20500987.945
 -12316143.55049  -9596990.97646  22282169.045    22282167.959
  -2794880.80348                  24498001.968
 02  1 10  2  4 30.0000000  0  7G20G22G27G25G 1G13G 3
 -19324807.03749 -15058292.39746  21668573.426    21668574.585
 -24190600.71849 -18849816.75647  20273047.801    20273048.833
  -5141575.87748                  24634939.288
  -7435813.96348  -5794140.60045  23668532.043    23668534.135
 -24147773.83449 -18816441.88147  20494839.580    20494840.295
 -12397459.23849  -9660353.85846  22266695.069    22266694.875
  -2884728.41548                  24480905.283
 02  1 10  2  5  0.0000000  0  7G20G22G27G25G 1G13G 3
 -19247974.10049 -14998422.62546  21683194.552    21683195.545
 -24163556.51549 -18828743.38147  20278194.322    20278195.225
  -5222339.42748                  24619570.454
  -7354918.44648  -5731105.31245  23683926.352    23683928.161
 -24179742.88649 -18841352.85147  20488755.972    20488756.616
 -12478606.62249  -9723585.58446  22251254.279    22251252.671
  -2974529.42648                  24463816.301
 02  1 10  2  5 30.0000000  0  7G20G22G27G25G 1G13G 3
 -19170711.93849 -14938218.39846  21697897.003    21697898.100
 -24135890.15849 -18807185.21047  20283459.239    20283460.146
  -5303031.32448                  24604215.934
  -7273966.28748  -5668025.90145  23699331.565    23699333.165
 -24211371.96949 -18865998.91047  20482737.174    20482737.783
 -12559581.67349  -9786683.02846  22235843.759    22235843.239
  -3064278.59848                  24446737.245
 02  1 10  2  6  0.0000000  0  7G20G22G27G25G 1G13G 3
 -19093008.93649 -14877670.65946  21712683.281    21712684.232
 -24107589.00349 -18785132.39447  20288844.546    20288845.578
  -5383637.11648  -4195037.83245  24588875.483    24588872.140
  -7192944.15748  -5604891.97345  23714749.269    23714752.205
 -24242645.54049 -18890367.94847  20476786.439    20476787.167
 -12640368.89849  -9849634.11946  22220471.550    22220470.497
  -3153958.70848  -2457627.26044  24429672.139    24429675.027
 02  1 10  2  6 30.0000000  0  7G20G22G27G25G 1G13G 3
 -19014891.67549 -14816800.12246  21727548.739    21727549.620
 -24078678.81949 -18762605.01047  20294345.738    20294346.875
  -5464180.75648  -4257791.40546  24573549.609    24573549.004
  -7111876.91548  -5541722.88245  23730176.619    23730178.013
 -24273586.17049 -18914477.55247  20470898.590    20470899.198
 -12720990.38449  -9912456.06646  22205129.337    22205128.598
  -3243591.09948                  24412614.662
 02  1 10  2  7  0.0000000  0  7G20G22G27G25G 1G13G 3
 -18936339.07949 -14755590.36246  21742496.584    21742497.411
 -24049137.21749 -18739585.61447  20299967.296    20299968.299
  -5544638.24848  -4320489.28545  24558239.950    24558238.944
  -7030741.26748  -5478500.46745  23745615.484    23745617.728
 -24304168.80049 -18938308.19747  20465078.763    20465079.428
 -12801420.72649  -9975129.06346  22189823.893    22189822.871
  -3333010.56648                  24395566.146
 02  1 10  2  7 30.0000000  0  7G20G22G27G25G 1G13G 3
 -18857360.30549 -14694048.51946  21757526.126    21757527.170
 -24018972.37549 -18716080.58247  20305707.644    20305708.601
  -5625016.01448  -4383125.96044  24542943.643    24542941.700
  -6949544.36448  -5415230.39145  23761066.890    23761070.852
 -24334398.52049 -18961863.84647  20459326.522    20459327.157
 -12881664.72849 -10037656.86346  22174554.582    22174553.550
  -3421746.95048                  24378546.214
 02  1 10  2  8  0.0000000  0  6G20G27G25G22G 1G13
 -18777970.61349 -14632186.47846  21772633.327    21772633.990
  -5705326.31748                  24527661.426
  -6868299.52248  -5351922.92845  23776528.198    23776530.024
 -23988198.23949 -18692100.77647  20311563.719    20311564.853
 -24364286.35249 -18985153.08747  20453638.963    20453639.629
 -12961733.17249 -10100047.86146  22159316.886    22159316.399
 02  1 10  2  8 30.0000000  0  6G20G22G27G25G 1G13
 -18698186.54649 -14570017.13846  21787815.675    21787816.879
 -23956830.53449 -18667658.44747  20317532.864    20317533.657
  -5785583.15248                  24512388.882
  -6787021.61848  -5288589.67544  23791994.793    23791996.377
 -24393845.10249 -19008185.90547  20448013.852    20448014.708
 -13041638.40249 -10162311.68146  22144112.277    22144111.229
 02  1 10  2  9  0.0000000  0  7G20G22G27G25G 1G13G 3
 -18617993.11449 -14507528.80746  21803076.015    21803077.153
 -23924853.18349 -18642741.06747  20323618.309    20323619.150
  -5865768.42248  -4570725.57744  24497130.237    24497134.030
  -6705693.13048  -5225217.04844  23807470.246    23807474.608
 -24423055.45549 -19030947.24547  20442455.275    20442456.133
 -13121361.00649 -10224433.19946  22128940.986    22128940.445
         -.76158                  24327525.819
 02  1 10  2  9 30.0000000  0  7G20G22G27G25G 1G13G 3
 -18537367.46949 -14444703.68646  21818418.923    21818419.964
 -23892242.18749 -18617329.94647  20329824.135    20329824.912
  -5945856.41448  -4633131.76844  24481890.737    24481891.901
  -6624289.78848  -5161786.07845  23822962.281    23822964.017
 -24451890.51649 -19053416.14947  20436968.200    20436968.974
 -13200873.67049 -10286391.11746  22113810.648    22113809.676
    -89204.43748    -69509.33844  24310550.724    24310554.288
 02  1 10  2 10  0.0000000  0  7G20G22G27G25G 1G13G 3
 -18456322.24549 -14381551.63246  21833841.021    21833842.157
 -23859009.19149 -18591434.14547  20336148.032    20336148.846
  -6025856.71148  -4695469.66644  24466667.269    24466670.360
  -6542821.67348  -5098304.59044  23838464.673    23838464.743
 -24480358.66949 -19075599.15247  20431551.112    20431551.927
 -13280184.24549 -10348191.57646  22098718.888    22098718.050
   -178315.19548                  24293593.426
 02  1 10  2 10 30.0000000  0  7G20G22G27G25G 1G13G 3
 -18374868.68249 -14318081.38846  21849341.029    21849342.935
 -23825164.21849 -18565061.48147  20342588.552    20342589.326
  -6105777.93848  -4757745.90544  24451457.997    24451462.629
  -6461298.21948  -5034779.54444  23853977.361    23853978.455
 -24508467.36649 -19097502.06247  20426202.604    20426203.261
 -13359299.89549 -10409840.15146  22083662.628    22083662.474
   -267338.86148                  24276652.579
 02  1 10  2 11  0.0000000  0  8G20G22G27G 2G25G 1G13G 3
 -18293010.86249 -14254296.13746  21864918.091    21864919.717
 -23790710.61949 -18538214.56547  20349145.054    20349145.946
  -6185621.35748  -4819961.55844  24436264.900    24436265.258
         -.83057                  24875436.375
  -6379721.32048  -4971213.93944  23869502.874    23869504.434
 -24536216.47749 -19119124.77347  20420922.155    20420922.818
 -13438220.20349 -10471336.50046  22068645.335    22068644.273
   -356273.68848   -277615.12344  24259728.486    24259734.580
 02  1 10  2 11 30.0000000  0  8G20G13G22G27G 2G25G 1G 3
 -18210751.43149 -14190197.94246  21880571.503    21880573.441
 -13516943.47149 -10532679.32346  22053664.643    22053664.003
 -23755650.02149 -18510894.66447  20355816.957    20355817.821
  -6265386.54948  -4882116.22544  24421085.912    24421088.863
    -99572.30848                  24856488.359
  -6298091.52448  -4907606.52344  23885035.588    23885039.108
 -24563604.55449 -19140466.15947  20415710.284    20415710.912
   -445116.63848   -346843.36444  24242822.143    24242829.757
 02  1 10  2 12  0.0000000  0  7G20G13G22G27G25G 1G 3
 -18128097.99449 -14125792.73246  21896300.288    21896301.196
 -13595472.38249 -10593870.69046  22038720.530    22038719.910
 -23719988.72449 -18483106.68747  20362602.925    20362603.886
  -6345078.08448  -4944213.53544  24405921.250    24405925.065
  -6216413.95348  -4843961.90344  23900577.808    23900581.942
 -24590634.85749 -19161528.76247  20410566.498    20410567.409
   -533869.25448                  24225933.772
 02  1 10  2 12 30.0000000  0  8G20G13G22G27G 2G25G 1G 3
 -18045046.09949 -14061077.03546  21912104.855    21912106.348
 -13673798.07149 -10654903.70646  22023816.585    22023815.258
 -23683721.58949 -18454846.62647  20369504.356    20369505.318
  -6424688.76248  -5006247.81944  24390770.759    24390771.215
         -.87058                  24818639.442
  -6134682.55648  -4780275.31444  23916132.917    23916135.069
 -24617298.89349 -19182305.96047  20405492.384    20405493.109
   -622521.51048   -485080.96544  24209063.614    24209067.329
 02  1 10  2 13  0.0000000  0  8G20G13G22G27G 2G25G 1G 3
 -17961616.28549 -13996066.86346  21927980.653    21927981.701
 -13751936.68449 -10715790.94646  22008946.980    22008946.175
 -23646868.02549 -18426129.60847  20376517.546    20376518.424
  -6504236.17648  -5068232.82644  24375635.038    24375637.274
    -99334.13647                  24799735.558
  -6052915.42548  -4716560.90444  23931691.654    23931696.229
 -24643613.10449 -19202810.57047  20400484.989    20400485.685
   -711088.18748                  24192209.406
 02  1 10  2 13 30.0000000  0  8G20G13G22G27G 2G25G 1G 3
 -17877798.18849 -13930754.12846  21943931.322    21943932.357
 -13829873.02349 -10776520.56946  21994115.910    21994114.958
 -23609416.73449 -18396946.82947  20383644.252    20383645.364
  -6583706.82748  -5130157.98144  24360511.275    24360515.280
   -198580.84948                  24780851.087
  -5971100.22448  -4652809.05045  23947260.537    23947264.509
 -24669562.99349 -19223031.29147  20395546.724    20395547.488
   -799553.03148   -623027.71044  24175376.450    24175379.361
 02  1 10  2 14  0.0000000  0  8G20G13G22G27G 2G25G 1G 3
 -17793595.36649 -13865141.60846  21959954.254    21959955.894
 -13907606.31049 -10837091.98446  21979324.223    21979323.237
 -23571370.43049 -18367300.40547  20390884.043    20390885.166
  -6663101.32248  -5192023.79244  24345402.981    24345404.267
   -297740.12847                  24761981.071
  -5889238.24348  -4589020.71445  23962839.768    23962843.050
 -24695147.70249 -19242967.45647  20390678.273    20390678.990
   -887913.89948   -691880.34944  24158561.051    24158566.961
 02  1 10  2 14 30.0000000  0  8G20G13G22G27G 2G25G 1G 3
 -17709001.41449 -13799224.31246  21976052.540    21976053.611
 -13985125.60949 -10897496.65446  21964572.298    21964571.689
 -23532721.63949 -18337184.51147  20398238.427    20398239.582
  -6742410.39548  -5253823.10044  24330311.535    24330311.900
   -396801.11647                  24743129.957
  -5807320.80048  -4525189.20044  23978426.566    23978429.818
 -24720356.86849 -19262610.99247  20385881.285    20385882.093
   -976158.75848   -760642.70144  24141769.274    24141779.202
 02  1 10  2 15  0.0000000  0  8G20G13G22G27G 2G25G 1G 3
 -17624019.56249 -13733004.75646  21992223.377    21992225.043
 -14062429.21349 -10957733.24846  21949862.247    21949861.459
 -23493472.73749 -18306600.99747  20405707.467    20405708.556
  -6821634.12048  -5315555.85744  24315235.192    24315237.063
   -495762.33447                  24724298.353
  -5725349.09748  -4461315.39945  23994026.712    23994029.664
 -24745189.60849 -19281961.20947  20381155.861    20381156.489
  -1064284.82948   -829312.47944  24124999.576    24125002.449
 02  1 10  2 15 30.0000000  0  8G20G13G22G27G 2G25G 1G 3
 -17538658.25449 -13666489.52146  22008467.534    22008468.838
 -14139521.20249 -11017804.95446  21935192.097    21935190.750
 -23453631.48849 -18275555.91347  20413289.233    20413290.209
  -6900778.11648  -5377226.50344  24300175.108    24300176.734
   -594657.51247                  24705499.172
  -5643329.20048  -4397404.04845  24009635.129    24009638.153
 -24769650.22649 -19301021.46147  20376501.220    20376501.838
  -1152294.68648   -897891.63244  24108251.087    24108261.512
 02  1 10  2 16  0.0000000  0  7G20G22G27G25G 1G13G 3
 -17452926.52449 -13599685.65146  22024781.610    22024783.040
 -23413205.78849 -18244055.41447  20420981.807    20420982.773
  -6979848.37048  -5438839.68044  24285128.425    24285127.148
  -5561268.24648  -4333460.71445  24025249.686    24025253.377
 -24793743.61649 -19319795.56147  20371916.512    20371917.266
 -14216406.11449 -11077715.29746  21920561.498    21920560.838
  -1240191.45048   -966382.71544  24091526.138    24091531.387
 02  1 10  2 16 30.0000000  0  7G20G13G22G27G25G 1G 3
 -17366808.34049 -13532580.64546  22041169.176    22041171.150
 -14293062.97149 -11137447.93446  21905974.325    21905973.390
 -23372178.74049 -18212086.33147  20428788.792    20428789.881
  -7058825.89648  -5500380.63344  24270099.067    24270101.113
  -5479147.78848  -4269470.99245  24040878.242    24040882.359
 -24817449.50449 -19338267.71547  20367405.448    20367406.142
  -1327953.12948  -1034768.45144  24074823.802    24074832.986
 02  1 10  2 17  0.0000000  0  8G20G13G22G27G 2G25G 1G 3
 -17280350.73849 -13465211.16446  22057622.216    22057622.842
 -14369534.10449 -11197035.85246  21891421.860    21891421.229
 -23330596.46149 -18179684.60447  20436701.662    20436703.028
  -7137754.56648  -5561883.50445  24255079.458    24255081.732
         -.96557                  24649151.088
  -5397012.15148  -4205469.44945  24056508.106    24056511.593
 -24840810.80049 -19356471.35747  20362959.951    20362960.553
  -1415621.20748                  24058142.592
 02  1 10  2 17 30.0000000  0  8G20G13G22G27G 2G25G 1G 3
 -17193542.17049 -13397568.19946  22074140.891    22074142.708
 -14445803.50649 -11256466.58846  21876908.831    21876907.775
 -23288446.60249 -18146840.60647  20444722.706    20444723.980
  -7216620.17348  -5623337.21744  24240072.011    24240073.506
    -98508.69047                  24630406.557
  -5314847.78748  -4141445.54745  24072143.235    24072147.496
 -24863811.63949 -19374394.12347  20358582.889    20358583.595
  -1503178.19148  -1171307.54444  24041481.117    24041485.472
 02  1 10  2 18  0.0000000  0  8G20G13G22G27G 2G25G 1G 3
 -17106367.95949 -13329640.31546  22090730.006    22090731.837
 -14521851.91649 -11315725.12246  21862437.183    21862436.638
 -23245713.39249 -18113542.05047  20452854.571    20452855.691
  -7295404.78348  -5684727.82744  24225079.716    24225080.316
   -196911.59847                  24611681.210
  -5232637.70448  -4077385.99844  24087787.913    24087790.997
 -24886433.06649 -19392021.24847  20354278.078    20354278.695
  -1590603.32248  -1239430.99144  24024843.856    24024852.543
 02  1 10  2 18 30.0000000  0  8G20G13G22G27G 2G25G 1G 3
 -17018813.44949 -13261416.10246  22107391.146    22107392.952
 -14597659.59549 -11374796.06646  21848011.333    21848010.854
 -23202381.54049 -18079777.01947  20461100.245    20461101.410
  -7374090.73148  -5746041.59745  24210106.266    24210108.262
   -295190.49648                  24592980.120
  -5150365.12048  -4013277.75745  24103443.812    24103446.800
 -24908656.33149 -19409338.11947  20350049.096    20350049.702
  -1677876.07848  -1307435.71744  24008237.657    24008242.669
 02  1 10  2 19  0.0000000  0  8G20G13G22G27G 2G25G 1G 3
 -16930885.43349 -13192900.84846  22124122.851    22124124.475
 -14673228.91049 -11433681.27446  21833631.259    21833630.124
 -23158457.02749 -18045550.17647  20469458.815    20469460.455
  -7452681.92048  -5807281.48244  24195151.616    24195150.974
   -393348.02248                  24574300.332
  -5068034.66248  -3949124.44344  24119110.490    24119113.650
 -24930484.20549 -19426346.88847  20345895.437    20345896.226
  -1764997.63748  -1375322.58644  23991657.913    23991661.174
 02  1 10  2 19 30.0000000  0  8G20G13G22G27G 2G25G 1G 3
 -16842602.98049 -13124109.40646  22140922.804    22140923.876
 -14748574.10449 -11492391.84946  21819293.008    21819292.016
 -23113957.97649 -18010875.64047  20477926.862    20477928.380
  -7531194.18048  -5868459.92544  24180209.532    24180212.748
   -491398.32248                  24555642.305
  -4985662.77348  -3884938.84945  24134786.302    24134789.809
 -24951931.39349 -19443059.02147  20341814.400    20341815.087
  -1851980.54348  -1443101.40644  23975105.655    23975111.636
 02  1 10  2 20  0.0000000  0  8G20G13G22G27G 2G25G 1G 3
 -16753972.33949 -13055046.64846  22157788.515    22157790.571
 -14823696.65749 -11550928.93046  21804998.384    21804997.727
 -23068889.93249 -17975757.73447  20486503.039    20486504.574
  -7609630.72648  -5929579.29444  24165283.702    24165285.876
   -589343.09248                  24537005.281
  -4903253.37348  -3820724.00645  24150468.242    24150471.311
 -24972999.97449 -19459476.13547  20337805.274    20337806.060
  -1938825.15148  -1510772.47344  23958579.655    23958585.225
 02  1 10  2 20 30.0000000  0  8G20G13G22G27G 2G25G 1G 3
 -16664981.66749 -12985703.34246  22174723.118    22174724.325
 -14898580.17649 -11609279.75346  21790748.163    21790747.535
 -23023240.15449 -17940186.53147  20495189.769    20495191.335
  -7687976.86348  -5990628.27944  24150375.100    24150375.138
   -687166.04748                  24518388.682
  -4820792.32148  -3756468.95145  24166159.731    24166164.958
 -24993673.99049 -19475585.80047  20333871.229    20333871.893
  -2025513.97148  -1578322.12244  23942082.570    23942093.492
 02  1 10  2 21  0.0000000  0  8G20G13G22G27G 2G25G 1G 3
 -16575644.54149 -12916090.07946  22191723.620    22191724.823
 -14973233.02649 -11667450.82746  21776542.237    21776541.036
 -22977021.45449 -17904172.00947  20503984.861    20503986.622
  -7766242.84648  -6051614.74644  24135482.253    24135487.216
   -784876.07748                  24499796.231
  -4738290.94248  -3692182.44845  24181859.751    24181864.011
 -25013962.77149 -19491395.28147  20330010.304    20330011.099
  -2112054.78448  -1645756.42144  23925614.671    23925618.647
 02  1 10  2 21 30.0000000  0  8G20G13G22G27G 2G25G 1G 3
 -16485962.30049 -12846207.89446  22208789.215    22208791.076
 -15047652.16049 -11725439.79446  21762381.216    21762379.723
 -22930234.20149 -17867714.46147  20512888.392    20512890.154
  -7844426.96848  -6112537.47544  24120603.280    24120607.473
   -882469.91448                  24481223.806
  -4655748.00848  -3627863.58345  24197567.470    24197573.527
 -25033863.55949 -19506902.43147  20326223.310    20326224.072
  -2198442.87548  -1713071.74544  23909175.550    23909181.449
 02  1 10  2 22  0.0000000  0  8G20G13G22G27G 2G25G 1G 3
 -16395940.03649 -12776060.76146  22225920.320    22225921.813
 -15121837.79249 -11783246.80446  21748263.824    21748263.406
 -22882882.94849 -17830817.43047  20521899.075    20521900.727
  -7922531.42648  -6173398.11744  24105741.169    24105744.121
   -979947.98248                  24462674.637
  -4573166.54848  -3563514.70645  24213282.636    24213286.118
 -25053377.23649 -19522107.93747  20322510.276    20322511.054
  -2284677.33648  -1780267.31144  23892765.490    23892770.389
 02  1 10  2 22 30.0000000  0  8G20G13G22G27G 2G25G 1G 3
 -16305579.16849 -12705649.77546  22243115.385    22243116.959
 -15195786.54749 -11840869.24046  21734191.794    21734191.413
 -22834968.56949 -17793481.59847  20531016.970    20531018.579
  -8000554.54948  -6234195.35844  24090893.912    24090896.777
  -1077307.34648                  24444147.386
  -4490545.26548  -3499134.80245  24229005.572    24229009.742
 -25072500.94249 -19537009.56847  20318871.233    20318872.022
  -2370753.72248  -1847339.75044  23876385.578    23876391.861
 02  1 10  2 23  0.0000000  0  8G20G13G22G27G 2G25G 1G 3
 -16214876.55949 -12634972.51946  22260375.121    22260377.225
 -15269490.46849 -11898300.89246  21720166.632    21720165.734
 -22786486.84449 -17755703.67847  20540242.816    20540244.468
  -8078489.93148  -6294924.23744  24076063.090    24076066.882
  -1174540.18548                  24425645.106
  -4407878.69648  -3434719.60345  24244735.832    24244741.229
 -25091227.24149 -19551601.53347  20315307.665    20315308.619
  -2456663.03748  -1914282.00244  23860037.700    23860045.303
 02  1 10  2 23 30.0000000  0  8G20G13G22G27G 2G25G 1G 3
 -16123844.36849 -12564038.42745  22277698.396    22277700.289
 -15342956.78549 -11955547.40946  21706186.362    21706185.396
 -22737449.51049 -17717492.81047  20549574.830    20549576.507
  -8156346.84848  -6355591.97944  24061247.528    24061248.171
  -1271654.20948                  24407164.806
  -4325176.73648  -3370276.84644  24260474.370    24260477.827
 -25109564.20749 -19565890.12547  20311818.253    20311819.092
  -2542411.19848  -1981098.66444  23843720.195    23843727.516
 02  1 10  2 24  0.0000000  0  8G20G13G22G27G 2G25G 1G 3
 -16032477.69649 -12492843.70146  22295085.105    22295086.398
 -15416175.72549 -12012601.15846  21692253.326    21692252.992
 -22687850.52349 -17678844.29747  20559012.941    20559014.558
  -8234117.05848  -6416192.15244  24046448.694    24046451.955
  -1368639.70048                  24388708.944
  -4242432.24748  -3305800.93045  24276220.835    24276224.415
 -25127502.63249 -19579868.16947  20308404.725    20308405.635
  -2627987.14548  -2047781.13944  23827436.165    23827439.358
 02  1 10  2 24 30.0000000  0  8G20G13G22G27G 2G25G 1G 3
 -15940810.47949 -12421414.79545  22312529.192    22312530.874
 -15489176.47949 -12069484.89246  21678361.681    21678360.959
 -22637723.09249 -17639784.00947  20568552.033    20568553.464
  -8311831.18948  -6476748.64545  24031660.973    24031662.086
  -1465525.95548                  24370272.157
  -4159676.30348  -3241316.12045  24291967.134    24291972.634
 -25145072.12049 -19593558.72747  20305061.198    20305062.239
  -2713418.94948  -2114351.32044  23811178.653    23811182.522
 02  1 10  2 25  0.0000000  0  8G20G13G22G27G 2G25G 1G 3
 -15848827.59049 -12349739.91545  22330032.256    22330033.696
 -15561939.04449 -12126183.03146  21664515.256    21664514.713
 -22587051.15649 -17600299.42647  20578194.332    20578195.878
  -8389471.30648  -6537247.41944  24016885.717    24016887.863
  -1562293.25248                  24351858.238
  -4076891.33048  -3176808.70945  24307722.654    24307724.580
 -25162253.40149 -19606946.78447  20301791.783    20301792.940
  -2798685.54548  -2180792.76844  23794953.165    23794959.269
 02  1 10  2 25 30.0000000  0  8G20G13G22G27G 2G25G 1G 3
 -15756517.40949 -12277809.98945  22347598.787    22347601.445
 -15634446.95349 -12182682.74546  21650717.706    21650717.316
 -22535822.54349 -17560381.06747  20587943.274    20587944.814
  -8467022.72348  -6597677.13645  24002128.927    24002130.632
  -1658925.31548  -1292668.43344  24333469.557    24333469.804
  -3994063.33048  -3112267.71145  24323484.315    24323488.681
 -25179030.74049 -19620020.08147  20298599.134    20298600.257
  -2883769.47748  -2247091.88844  23778761.731    23778769.618
 02  1 10  2 26  0.0000000  0  8G20G13G22G27G 2G25G 1G 3
 -15663877.79649 -12205623.37145  22365227.227    22365229.750
 -15706693.18749 -12238978.55346  21636969.443    21636969.070
 -22484034.65049 -17520026.90847  20597798.256    20597799.649
  -8544479.90948  -6658033.41044  23987388.421    23987392.685
  -1755415.55148  -1367855.72744  24315107.916    24315109.917
  -3911187.59748  -3047689.53945  24339253.989    24339260.493
 -25195397.73549 -19632773.63247  20295484.536    20295485.780
  -2968662.27548  -2313242.10944  23762607.684    23762614.368
 02  1 10  2 26 30.0000000  0  8G20G13G22G27G 2G25G 1G 3
 -15570917.26248 -12133186.71345  22382917.258    22382919.929
 -15778681.58149 -12295073.44646  21623270.780    21623270.155
 -22431695.19949 -17479242.96347  20607757.971    20607759.488
  -8621848.35748  -6718320.51745  23972666.939    23972668.090
  -1851767.84148  -1442935.41544  24296774.643    24296777.638
  -3828270.27748  -2983078.99145  24355034.696    24355038.375
 -25211358.77749 -19645210.85647  20292447.364    20292448.522
  -3053366.40548  -2379245.31644  23746489.355    23746492.404
 02  1 10  2 27  0.0000000  0  8G20G13G22G27G 2G25G 1G 3
 -15477632.30948 -12060497.22445  22400669.114    22400670.269
 -15850403.46449 -12350960.68046  21609622.549    21609621.779
 -22378800.15449 -17438026.08847  20617823.147    20617824.905
  -8699121.54648  -6778533.40445  23957961.848    23957963.959
  -1947974.23148                  24278465.062
  -3745305.58148  -2918431.50845  24370821.798    24370826.991
 -25226906.15149 -19657325.74347  20289488.983    20289490.185
  -3137872.44448  -2445094.19044  23730407.893    23730414.282
 02  1 10  2 27 30.0000000  0  8G20G13G22G27G 2G25G 1G 3
 -15384034.48448 -11987563.97845  22418480.055    22418481.912
 -15921865.75049 -12406645.62346  21596023.727    21596023.223
 -22325360.10849 -17396384.53747  20627992.766    20627994.287
  -8776307.86748  -6838678.57445  23943273.459    23943275.450
  -2044041.62148                  24260184.871
  -3662302.63248  -2853754.21445  24386616.431    24386622.249
 -25242047.28149 -19669124.07247  20286607.650    20286608.817
  -3222185.67348  -2510792.80045  23714363.688    23714367.855
 02  1 10  2 28  0.0000000  0  8G20G13G22G27G 2G25G 1G 3
 -15290129.06348 -11914391.01445  22436349.899    22436350.442
 -15993068.62049 -12462128.42946  21582474.306    21582473.873
 -22271380.02149 -17354322.18247  20638264.917    20638266.300
  -8853409.33048  -6898757.69245  23928602.360    23928602.839
  -2140172.34247                  24241932.215
  -3579263.78848  -2789049.02245  24402419.443    24402425.109
 -25256783.21949 -19680606.66947  20283803.584    20283804.826
  -3306305.45648  -2576340.68545  23698357.382    23698361.114
 02  1 10  2 28 30.0000000  0  7G20G13G22G27G25G 1G 3
 -15195922.82248 -11840983.65545  22454276.807    22454279.019
 -16064013.98449 -12517410.57846  21568973.491    21568973.103
 -22216865.74949 -17311843.57747  20648638.669    20648640.298
  -8930429.51348  -6958773.46845  23913944.790    23913946.697
  -3496193.08548  -2724318.90144  24418226.888    24418232.825
 -25271116.31649 -19691775.36547  20281076.182    20281077.366
  -3390232.59448  -2641738.48544  23682385.002    23682393.690
 02  1 10  2 29  0.0000000  0  7G20G13G22G27G25G 1G 3
 -15101431.52748 -11767354.18645  22472258.173    22472260.053
 -16134712.55249 -12572500.41546  21555520.762    21555520.153
 -22161832.50349 -17268960.58147  20659111.168    20659112.733
  -9007381.15848  -7018735.79245  23899302.526    23899303.553
  -3413103.93548  -2659574.48144  24434037.483    24434044.850
 -25285058.09249 -19702639.13547  20278423.198    20278424.259
  -3473976.64848  -2706993.61845  23666449.980    23666453.526
 02  1 10  2 29 30.0000000  0  7G20G22G27G25G 1G13G 3
 -15006651.51248 -11693499.72645  22490294.325    22490296.172
 -22106275.96449 -17225669.82547  20669683.255    20669684.914
  -9084257.40748  -7078639.38545  23884673.529    23884675.532
  -3329990.77748  -2594811.32745  24449855.420    24449858.919
 -25298600.95249 -19713192.06747  20275846.106    20275847.323
 -16205155.69349 -12627391.22146  21542115.285    21542114.960
  -3557528.17648  -2772098.76545  23650550.410    23650556.414
 02  1 10  2 30  0.0000000  0  7G20G22G27G25G 1G13G 3
 -14911584.58548 -11619421.69245  22508384.579    22508386.532
 -22050197.31649 -17181972.23547  20680354.716    20680356.380
  -9161057.04848  -7138483.27945  23870058.417    23870059.943
  -3246852.44048  -2530028.58444  24465675.793    24465682.236
 -25311742.31649 -19723432.14147  20273345.486    20273346.654
 -16275340.32749 -12682080.59346  21528760.147    21528759.722
  -3640883.00148  -2837050.64645  23634690.064    23634694.101
 02  1 10  2 30 30.0000000  0  7G13G20G22G27G25G 1G 3
 -16345234.06849 -12736543.28846  21515460.179    21515459.418
 -14816203.19348 -11545098.65245  22526535.406    22526538.087
 -21993568.48749 -17137845.93547  20691130.739    20691132.534
  -9237749.27348  -7198243.52745  23855464.931    23855468.149
  -3163658.91248  -2465202.81245  24481506.916    24481514.057
 -25324450.49049 -19733334.66347  20270927.296    20270928.578
  -3724007.40748  -2901822.93445  23618870.212    23618876.321
 02  1 10  2 31  0.0000000  0  6G20G13G27G22G25G 1
 -14720520.61948 -11470540.91245  22544742.968    22544744.659
 -16414845.16849 -12790785.75246  21502212.519    21502212.256
  -9314344.22848  -7257927.89344  23840888.238    23840890.980
 -21936401.90649 -17093300.61047  20702009.450    20702011.121
  -3080421.18048  -2400342.60744  24497346.853    24497354.319
 -25336734.72749 -19742906.84847  20268589.696    20268590.774
 02  1 10  2 31 30.0000000  0  6G13G20G22G27G25G 1
 -16484168.38449 -12844803.88646  21489021.370    21489020.758
 -14624536.95148 -11395748.54445  22563008.292    22563011.190
 -21878696.88249 -17048335.72347  20712990.253    20712992.081
  -9390838.48548  -7317533.86745  23826333.715    23826333.506
  -2997136.00348  -2335445.44344  24513196.212    24513202.849
 -25348590.61549 -19752145.25247  20266333.567    20266334.743
 02  1 10  2 32  0.0000000  0  6G13G20G27G25G22G 1
 -16553236.26949 -12898623.06446  21475878.644    21475877.755
 -14528289.14448 -11320750.36545  22581324.067    22581327.071
  -9467266.13048  -7377087.90045  23811788.190    23811791.253
  -2913838.04448  -2270538.31744  24529047.291    24529053.835
 -21820490.24449 -17002979.96847  20724066.707    20724068.453
 -25360051.28149 -19761075.69347  20264152.819    20264153.977
 02  1 10  2 32 30.0000000  0  6G13G20G22G27G25G 1
 -16622038.15149 -12952234.95846  21462785.705    21462785.332
 -14431771.49948 -11245541.93645  22599690.525    22599693.319
 -21761775.64349 -16957228.40047  20735239.809    20735241.490
  -9543618.29348  -7436583.14145  23797260.271    23797263.157
  -2830519.11748  -2205614.85644  24544902.497    24544910.350
 -25371106.61249 -19769690.28847  20262048.958    20262050.140
 02  1 10  2 33  0.0000000  0  7G13G20G22G27G 2G25G 1
 -16690584.99649 -13005648.12946  21449741.674    21449741.050
 -14335000.34648 -11170135.94645  22618105.625    22618107.493
 -21702568.71149 -16911093.20147  20746506.690    20746508.395
  -9619907.96748  -7496029.68545  23782741.633    23782745.093
         -.55857                  24060863.555
  -2747193.04848  -2140685.84744  24560759.671    24560766.966
 -25381768.74649 -19777998.49847  20260019.972    20260021.129
 02  1 10  2 33 30.0000000  0  7G13G20G22G27G 2G25G 1
 -16758843.36149 -13058836.50646  21436752.403    21436751.668
 -14237946.96148 -11094510.04845  22636574.430    22636577.000
 -21642840.25849 -16864551.62447  20757872.405    20757874.268
  -9696103.37548  -7555402.76645  23768242.277    23768243.009
    -94338.43547                  24042913.047
  -2663828.53948  -2075726.88344  24576623.279    24576630.081
 -25392004.97149 -19785974.83347  20258072.035    20258073.120
 02  1 10  2 34  0.0000000  0  7G13G20G22G27G 2G25G 1
 -16826817.16249 -13111803.14546  21423817.632    21423817.228
 -14140620.82348 -11018671.61445  22655095.410    22655098.370
 -21582598.92949 -16817610.41147  20769336.219    20769337.949
  -9772210.50948  -7614707.04845  23753759.835    23753761.598
   -188517.42947                  24024991.373
  -2580432.40648  -2010743.26444  24592492.825    24592502.505
 -25401820.31049 -19793623.20447  20256204.465    20256205.598
 02  1 10  2 34 30.0000000  0  7G13G20G22G27G 2G25G 1
 -16894508.20649 -13164549.45746  21410936.414    21410936.203
 -14043028.17148 -10942625.50745  22673666.485    22673669.589
 -21521850.71249 -16770274.21747  20780896.402    20780898.115
  -9848232.63948  -7673945.11845  23739293.093    23739295.309
   -282539.31548                  24007099.350
  -2497008.02548  -1945737.64644  24608369.440    24608376.009
 -25411217.14749 -19800945.46847  20254416.454    20254417.448
 02  1 10  2 35  0.0000000  0  7G13G20G22G27G 2G25G 1
 -16961899.65249 -13217062.31846  21398112.566    21398111.946
 -13945156.95948 -10866362.35945  22692290.758    22692292.489
 -21460583.33449 -16722533.48547  20792555.042    20792556.847
  -9924154.58848  -7733105.12845  23724846.154    23724848.816
   -376387.72348                  23989240.693
  -2413541.31048  -1880699.01744  24624251.687    24624258.715
 -25420179.39949 -19807929.09447  20252711.002    20252712.029
 02  1 10  2 35 30.0000000  0  7G13G20G22G27G 2G25G 1
 -17028993.17149 -13269343.02746  21385344.959    21385344.435
 -13847014.17048 -10789887.57745  22710967.259    22710968.244
 -21398802.84049 -16674392.91947  20804311.509    20804313.556
  -9999979.90148  -7792189.85945  23710416.342    23710419.167
   -470064.63648                  23971414.621
  -2330036.24748  -1815630.52444  24640142.497    24640151.433
 -25428709.55449 -19814576.01947  20251087.773    20251088.667
 02  1 10  2 36  0.0000000  0  8G13G20G22G27G 2G25G 1G31
 -17095802.42249 -13321402.23446  21372631.468    21372631.306
 -13748618.77948 -10713215.97745  22729690.906    22729692.992
 -21336527.57649 -16625866.82347  20816162.019    20816163.863
 -10075724.35448  -7851211.54245  23696002.686    23696004.131
   -563584.38048   -439156.86344  23953618.984    23953615.265
  -2246508.92548  -1750544.72944  24656038.414    24656046.272
 -25436822.66249 -19820897.97447  20249543.836    20249544.732
         -.81858                  25074514.271
 02  1 10  2 36 30.0000000  0  8G13G20G22G27G 2G25G 1G31
 -17162320.57549 -13373234.60846  21359973.488    21359973.099
 -13649968.70548 -10636345.90745  22748464.087    22748466.377
 -21273755.13549 -16576953.31547  20828107.339    20828109.300
 -10151382.62548  -7910166.07045  23681605.664    23681608.498
   -656940.46148   -511901.85344  23935852.824    23935857.654
  -2162955.20448  -1685438.31244  24671937.742    24671946.926
 -25444512.42249 -19826890.05147  20248080.679    20248081.714
   -104593.00748                  25054610.480
 02  1 10  2 37  0.0000000  0  8G13G20G22G27G 2G25G 1G31
 -17228545.06949 -13424838.15746  21347371.252    21347371.116
 -13551066.39848 -10559279.28245  22767283.621    22767286.032
 -21210487.54749 -16527653.97847  20840146.918    20840148.987
 -10226954.11848  -7969053.01645  23667224.765    23667226.795
   -750130.68948   -584517.72244  23918119.735    23918122.522
  -2079374.86248  -1620311.19944  24687842.664    24687849.224
 -25451777.35849 -19832551.09247  20246698.310    20246699.529
   -209282.93848   -163077.37944  25034689.179    25034695.010
 02  1 10  2 37 30.0000000  0  8G13G20G22G27G 2G25G 1G31
 -17294470.89349 -13476208.97646  21334826.450    21334826.170
 -13451912.03648 -10482016.28044  22786152.238    22786156.044
 -21146724.38149 -16477968.47947  20852280.760    20852282.736
 -10302435.78448  -8027869.92245  23652861.185    23652863.070
   -843150.80248                  23900418.206
  -1995765.12148  -1555161.12844  24703755.067    24703758.530
 -25458613.43749 -19837877.96147  20245397.343    20245398.459
   -314065.01848   -244725.58844  25014750.275    25014757.497
 02  1 10  2 38  0.0000000  0  8G13G20G22G27G 2G25G 1G31
 -17360094.68049 -13527344.44346  21322338.820    21322338.585
 -13352507.12948 -10404558.06645  22805068.779    22805072.355
 -21082466.81649 -16427897.73547  20864508.547    20864510.566
 -10377825.60448  -8086615.32345  23638515.968    23638517.293
   -935997.52948                  23882750.641
  -1912124.66748  -1489987.12244  24719671.079    24719678.918
 -25465017.84149 -19842868.45647  20244178.437    20244179.689
   -418934.91148                  24994793.009
 02  1 10  2 38 30.0000000  0  8G13G20G22G27G 2G25G 1G31
 -17425423.41749 -13578250.00246  21309906.642    21309906.249
 -13252863.76348 -10326914.00244  22824030.551    22824032.108
 -21017726.35249 -16377450.70647  20876828.373    20876830.284
 -10453132.74248  -8145296.26645  23624184.553    23624186.348
  -1028678.46548   -801567.98544  23865114.351    23865119.318
  -1828463.15448  -1424796.77744  24735591.359    24735602.032
 -25470998.87149 -19847529.05047  20243040.505    20243041.826
   -523898.90348                  24974819.454
 02  1 10  2 39  0.0000000  0  8G13G20G22G27G 2G25G 1G31
 -17490454.83649 -13628923.88146  21297531.813    21297531.422
 -13152984.74448 -10249086.32345  22843037.265    22843040.552
 -20952505.17549 -16326629.09547  20889239.473    20889241.588
 -10528356.47948  -8203912.20745  23609870.164    23609870.311
  -1121191.73948                  23847509.535
  -1744780.54848  -1359589.95244  24751516.357    24751521.876
 -25476555.05849 -19851858.59947  20241983.283    20241984.517
   -628953.76848                  24954827.751
 02  1 10  2 39 30.0000000  0  8G13G20G22G27G 2G25G 1G31
 -17555183.46749 -13679361.82146  21285214.721    21285214.308
 -13052869.71748 -10171074.71144  22862087.195    22862092.259
 -20886802.53349 -16275432.32047  20901742.074    20901744.336
 -10603493.40048  -8262460.51645  23595572.179    23595573.766
  -1213532.57948   -945610.21944  23829938.027    23829939.465
  -1661074.11248  -1294364.52744  24767444.942    24767451.744
 -25481682.04549 -19855853.70547  20241007.693    20241008.988
   -734093.51848                  24934820.525
 02  1 10  2 40  0.0000000  0  8G13G20G22G27G 2G25G 1G31
 -17619603.65849 -13729559.41846  21272955.724    21272955.404
 -12952517.92348 -10092878.63644  22881184.803    22881188.000
 -20820617.33849 -16223859.53147  20914337.103    20914338.971
 -10678539.63748  -8320938.16045  23581291.614    23581294.008
  -1305695.86648  -1017425.77644  23812399.411    23812406.836
  -1577340.42448  -1229117.93444  24783379.155    24783386.566
 -25486375.08949 -19859510.67547  20240114.493    20240115.799
   -839311.97348                  24914798.011
 02  1 10  2 40 30.0000000  0  8G13G20G22G27G 2G25G 1G31
 -17683723.91249 -13779523.29546  21260753.662    21260753.466
 -12851943.00548 -10014508.69044  22900322.816    22900325.653
 -20753962.45849 -16171920.75447  20927021.195    20927023.409
 -10753505.45548  -8379353.11345  23567026.638    23567027.752
  -1397690.36848                  23794893.333
  -1493590.17848  -1163858.42944  24799316.783    24799323.444
 -25490643.45449 -19862836.72547  20239302.217    20239303.659
   -944616.68848                  24894758.487
 02  1 10  2 41  0.0000000  0  8G13G20G22G27G 2G25G 1G31
 -17747531.23449 -13829243.33447  21248612.200    21248611.753
 -12751136.85548  -9935958.57044  22919506.658    22919509.879
 -20686829.52949 -16119609.47347  20939796.218    20939798.501
 -10828379.48948  -8437696.57945  23552778.056    23552778.612
  -1489503.51548                  23777422.622
  -1409812.58948  -1098577.56544  24815259.608    24815266.614
 -25494475.10649 -19865822.48147  20238573.066    20238574.370
  -1049993.52548                  24874705.753
 02  1 10  2 41 30.0000000  0  8G13G20G22G27G 2G25G 1G31
 -17811016.79849 -13878712.64847  21236531.345    21236530.955
 -12650095.75548  -9857225.39844  22938732.603    22938736.695
 -20619214.48649 -16066922.52147  20952663.121    20952665.385
 -10903154.76348  -8495963.06645  23538548.564    23538551.119
  -1581127.12648  -1232047.68944  23759986.443    23759989.165
  -1326001.82448                  24831208.038
 -25497862.09049 -19868461.74447  20237928.594    20237929.926
  -1155433.09148   -900335.50644  24854641.302    24854648.783
 02  1 10  2 42  0.0000000  0  8G13G20G22G27G 2G25G 1G31
 -17874183.28049 -13927933.33147  21224510.801    21224510.558
 -12548827.76348  -9778315.42044  22958004.784    22958008.885
 -20551124.80649 -16013865.72247  20965620.153    20965622.569
 -10977836.02648  -8554156.30345  23524338.363    23524338.857
  -1672564.59148  -1303297.66444  23742586.472    23742589.605
  -1242162.68848   -967942.13844  24847163.219    24847174.389
 -25500808.46949 -19870757.68147  20237367.924    20237369.543
  -1260937.36148                  24834564.504
 02  1 10  2 42 30.0000000  0  8G22G20G27G 2G25G 1G13G31
 -20482563.42249 -15960441.35847  20978666.707    20978669.311
 -12447336.26548  -9699231.25744  22977317.750    22977320.271
 -11052423.42448  -8612276.39445  23510144.144    23510145.268
  -1763814.80648  -1374401.74644  23725222.892    23725223.118
  -1158295.74048   -902591.71944  24863122.503    24863128.550
 -25503313.58649 -19872709.77747  20236891.264    20236892.970
 -17937029.19549 -13976904.22047  21212551.754    21212551.303
  -1366504.23148  -1064806.02944  24814474.930    24814484.611
 02  1 10  2 43  0.0000000  0  8G22G13G20G27G 2G25G 1G31
 -20413536.95549 -15906654.59347  20991802.324    20991804.727
 -17999556.23249 -14025626.63147  21200653.571    21200653.239
 -12345627.89648  -9619978.12944  22996672.609    22996674.030
 -11126920.40348  -8670326.05545  23495968.668    23495971.279
  -1854879.91048  -1445361.59644  23707892.846    23707898.951
  -1074405.15248   -837222.82044  24879086.321    24879092.039
 -25505380.36349 -19874320.31147  20236498.044    20236499.623
  -1472134.36248                  24794374.449
 02  1 10  2 43 30.0000000  0  8G22G13G20G27G 2G25G 1G31
 -20344055.96849 -15852513.65346  21005024.217    21005026.275
 -18061770.47449 -14074105.30347  21188814.441    21188814.362
 -12243713.73848  -9540564.63944  23016066.343    23016068.246
 -11201334.89148  -8728311.41945  23481807.628    23481810.008
  -1945766.56348  -1516182.38544  23690598.315    23690600.541
   -990499.40948                  24895053.947
 -25507015.89749 -19875594.81147  20236187.080    20236188.771
  -1577833.21748                  24774260.877
 02  1 10  2 44  0.0000000  0  8G22G13G20G27G 2G25G 1G31
 -20274117.32249 -15798016.09646  21018332.956    21018335.416
 -18123664.03449 -14122334.09747  21177036.831    21177036.709
 -12141591.23548  -9460988.77544  23035499.778    23035502.855
 -11275661.00548  -8786227.92045  23467663.239    23467665.051
  -2036467.45548  -1586858.41044  23673338.571    23673339.071
   -906573.21148                  24911024.859
 -25508213.56649 -19876528.11947  20235959.154    20235960.872
  -1683592.04548                  24754134.829
 02  1 10  2 44 30.0000000  0  8G22G13G20G27G 2G25G 1G31
 -20203727.12349 -15743166.67346  21031727.969    21031730.581
 -18185238.78749 -14170314.46347  21165319.401    21165319.130
 -12039266.90148  -9381255.64644  23054971.200    23054973.527
 -11349901.84948  -8844077.98445  23453536.993    23453538.567
  -2126984.70448  -1657391.32244  23656113.439    23656118.276
   -822630.03648   -641035.71344  24926998.771    24927007.955
 -25508975.78049 -19877122.11347  20235813.979    20235815.695
  -1789411.32248  -1394343.12144  24733998.839    24734004.942
 02  1 10  2 45  0.0000000  0  8G22G13G20G27G 2G25G 1G31
 -20132887.34949 -15687966.93846  21045208.828    21045210.907
 -18246491.41649 -14218043.82747  21153663.764    21153663.541
 -11936743.21948  -9301367.22544  23074481.024    23074482.382
 -11424056.66548  -8901860.99445  23439424.684    23439426.941
  -2217316.20448  -1727779.48644  23638924.651    23638927.883
   -738670.07548                  24942976.735
 -25509301.00249 -19877375.59147  20235752.061    20235753.900
  -1895287.81848  -1476844.09544  24713850.035    24713858.226
 02  1 10  2 45 30.0000000  0  8G22G13G20G27G 2G25G 1G31
 -20061598.02949 -15632416.90446  21058774.274    21058776.671
 -18307417.48849 -14265518.73047  21142069.484    21142069.410
 -11834020.71048  -9221323.81244  23094028.539    23094034.374
 -11498122.79148  -8959574.89345  23425330.551    23425331.981
  -2307457.88648  -1798019.81444  23621770.664    23621775.047
   -654690.91948   -510174.92344  24958956.891    24958966.323
 -25509185.69749 -19877285.79847  20235774.263    20235776.104
  -2001215.83748  -1559385.24744  24693692.415    24693700.854
 02  1 10  2 46  0.0000000  0  8G22G13G20G27G 2G25G 1G31
 -19989851.93249 -15576510.94646  21072427.284    21072430.113
 -18368005.35649 -14312730.09647  21130540.032    21130540.077
 -11731092.38548  -9141120.05644  23113615.395    23113617.758
 -11572089.95748  -9017211.69145  23411255.181    23411257.785
  -2397398.33548  -1868103.26744  23604655.545    23604658.798
   -570682.96848                  24974943.375
 -25508618.95649 -19876844.24247  20235881.985    20235883.869
  -2107182.65848  -1641956.60344  24673528.218    24673535.328
 02  1 10  2 46 30.0000000  0  8G22G13G20G27G 2G25G 1G31
 -19917640.00149 -15520241.99446  21086169.153    21086171.455
 -18428241.08449 -14359667.07347  21119077.852    21119077.687
 -11627949.37248  -9060749.07444  23133242.543    23133242.909
 -11645945.90948  -9074761.83545  23397200.525    23397203.351
  -2487124.34948  -1938019.67544  23587581.065    23587584.465
   -486634.55348   -379222.77444  24990938.312    24990946.503
 -25507588.11449 -19876041.04747  20236077.967    20236080.005
  -2213173.63048  -1724546.89344  24653358.808    24653370.474
 02  1 10  2 47  0.0000000  0  8G22G13G20G27G 2G25G 1G31
 -19844991.20649 -15463632.62746  21099993.428    21099996.050
 -18488149.14049 -14406348.72047  21107677.403    21107677.299
 -11524621.09248  -8980233.64444  23152904.936    23152909.696
 -11719716.96548  -9132245.80745  23383162.721    23383164.459
  -2576660.70448  -2007788.27544  23570542.932    23570546.112
   -402572.34248                  25006935.195
 -25506118.55749 -19874895.99647  20236357.614    20236359.549
  -2319212.29948  -1807174.28744  24633180.224    24633189.160
 02  1 10  2 47 30.0000000  0  8G22G13G20G27G 2G25G 1G31
 -19771906.15749 -15406683.32746  21113900.897    21113903.431
 -18547725.13649 -14452771.62647  21096340.854    21096340.652
 -11421108.51748  -8899574.58944  23172603.409    23172609.086
 -11793400.84148  -9189661.86245  23369140.847    23369143.509
  -2666003.99348  -2077406.41644  23553541.379    23553545.706
   -318494.54848                  25022934.776
 -25504207.25349 -19873406.73047  20236721.583    20236723.544
  -2425293.45548  -1889834.86944  24612993.990    24612999.190
 02  1 10  2 48  0.0000000  0  8G22G13G20G27G 2G25G 1G31
 -19698388.91449 -15349397.24746  21127891.114    21127893.635
 -18606968.70449 -14498935.49747  21085066.916    21085066.803
 -11317416.22548  -8818775.56244  23192335.624    23192336.345
 -11866998.86448  -9247011.01145  23355135.848    23355137.634
  -2755154.48348  -2146874.37544  23536577.036    23536579.700
   -234403.20448                  25038936.970
 -25501854.95649 -19871573.83247  20237169.243    20237171.213
  -2531415.95548  -1972527.66644  24592798.268    24592804.941
 02  1 10  2 48 30.0000000  0  8G22G13G20G27G 2G25G 1G31
 -19624441.08349 -15291775.65046  21141962.779    21141965.728
 -18665876.54149 -14544837.75747  21073857.039    21073856.950
 -11213546.13648  -8737837.98744  23212101.687    23212100.392
 -11940509.60848  -9304292.15245  23341147.612    23341150.583
  -2844109.46248  -2216189.95444  23519648.882    23519654.816
   -150297.36548                  25054942.194
 -25499059.45849 -19869395.57847  20237701.139    20237703.272
  -2637575.48548  -2055249.29744  24572597.168    24572601.997
 02  1 10  2 49  0.0000000  0  8G22G13G20G27G 2G25G 1G31
 -19550072.06749 -15233825.85946  21156114.914    21156117.651
 -18724453.30449 -14590482.04147  21062710.688    21062710.580
 -11109507.85648  -8656769.36944  23231899.173    23231906.650
 -12013939.35748  -9361510.20845  23327173.755    23327176.164
  -2932874.00248  -2285357.13144  23502757.939    23502763.134
    -66183.83248                  25070947.982
 -25495826.61749 -19866876.54047  20238316.309    20238318.495
  -2743775.78348  -2138002.73844  24552386.977    24552398.643
 02  1 10  2 49 30.0000000  0  8G20G22G27G 2G25G 1G13G31
 -11005297.42848  -8575566.56544  23251731.170    23251734.180
 -19475277.23049 -15175544.25746  21170348.335    21170351.375
 -12087280.87748  -9418659.50045  23313217.534    23313219.958
  -3021439.57848  -2354369.29244  23485904.333    23485909.481
     17944.13048     13952.90344  25086958.261    25086965.797
 -25492148.51649 -19864010.54847  20239016.656    20239018.748
 -18782689.74949 -14635861.14247  21051628.402    21051628.521
  -2850007.06048  -2220780.29544  24532172.518    24532181.950
 02  1 10  2 50  0.0000000  0  8G22G13G20G27G 2G25G 1G31
 -19400048.39449 -15116924.48246  21184663.733    21184666.748
 -18840572.68249 -14680964.77847  21040613.618    21040613.316
 -10900906.64048  -8494223.23644  23271595.502    23271601.768
 -12160522.70948  -9475731.12045  23299280.284    23299282.657
  -3109793.61448  -2423216.63144  23469090.995    23469095.965
    102097.58648                  25102972.277
 -25488013.11549 -19860788.22147  20239803.827    20239805.767
  -2956254.76048  -2303570.66544  24511954.126    24511963.310
 02  1 10  2 50 30.0000000  0  8G22G13G20G27G 2G25G 1G31
 -19324373.69549 -15057957.27646  21199064.202    21199066.888
 -18898085.86149 -14725780.29547  21029669.287    21029669.276
 -10796324.01748  -8412730.46944  23291496.658    23291498.710
 -12233650.07548  -9532713.53545  23285364.511    23285367.377
  -3197920.31548  -2491886.78844  23452321.689    23452324.693
    186290.67348                  25118993.384
 -25483405.13449 -19857197.64547  20240680.701    20240682.568
  -3062501.63348  -2386360.33444  24491735.925    24491745.606
 02  1 10  2 51  0.0000000  0  8G22G13G20G27G 2G25G 1G31
 -19248264.22749 -14998651.29046  21213547.047    21213549.911
 -18955235.58349 -14770312.59547  21018794.564    21018794.560
 -10691560.92648  -8331097.05444  23311432.413    23311433.909
 -12306671.00549  -9589613.01245  23271469.960    23271472.173
  -3285826.80548  -2560385.35544  23435593.160    23435596.322
    270514.53048                  25135020.382
 -25478332.06949 -19853244.66847  20241645.873    20241647.747
  -3168753.06748  -2469153.60644  24471517.395    24471523.811
 02  1 10  2 51 30.0000000  0  8G22G13G20G27G 2G25G 1G31
 -19171741.85549 -14939023.56146  21228109.171    21228112.109
 -19012038.73449 -14814574.84147  21007985.166    21007985.069
 -10586639.71048  -8249340.39144  23331398.684    23331399.792
 -12379604.54648  -9646444.41245  23257590.656    23257592.667
  -3373530.80248  -2628726.15145  23418903.779    23418910.530
    354749.49248                  25151050.981
 -25472812.36949 -19848943.66547  20242696.278    20242698.446
  -3275025.17648  -2551962.95744  24451294.407    24451300.845
 02  1 10  2 52  0.0000000  0  8G22G13G20G27G 2G25G 1G31
 -19094807.78549 -14879075.03646  21242748.972    21242751.802
 -19068491.99249 -14858564.44747  20997242.147    20997242.404
 -10481561.74648  -8167461.67344  23351394.137    23351401.354
 -12452448.94548  -9703206.31845  23243727.787    23243730.133
  -3461029.28148  -2696906.79545  23402253.647    23402255.439
    438996.87648                  25167082.901
 -25466843.67149 -19844292.79647  20243832.139    20243834.058
  -3381313.40048  -2634784.86744  24431067.899    24431075.275
 02  1 10  2 52 30.0000000  0  8G22G20G27G 2G25G 1G13G31
 -19017455.31649 -14818800.47946  21257469.181    21257472.177
 -10376320.83748  -8085455.91244  23371420.785    23371421.475
 -12525194.71549  -9759891.36945  23229885.767    23229888.093
  -3548311.42248  -2764918.86545  23385644.053    23385649.302
    523265.84648                  25183119.143
 -25460415.90949 -19839284.21547  20245055.620    20245057.519
 -19124583.95649 -14902272.52047  20986568.765    20986568.773
  -3487605.36348  -2717609.63344  24410841.568    24410850.752
 02  1 10  2 53  0.0000000  0  8G22G20G27G 2G25G 1G13G31
 -18939684.87549 -14758200.24246  21272268.433    21272271.613
 -10270917.64648                  23391478.193
 -12597839.17148  -9816497.48645  23216061.815    23216065.058
  -3635373.88548  -2832759.76845  23369076.846    23369079.995
    607558.48548                  25199160.428
 -25453525.90249 -19833915.44347  20246366.728    20246368.761
 -19180310.39249 -14945695.77047  20975964.291    20975964.425
  -3593895.93748  -2800433.28244  24390614.607    24390621.488
 02  1 10  2 53 30.0000000  0  8G22G20G27G 2G25G 1G13G31
 -18861510.77049 -14697285.45846  21287144.648    21287147.140
 -10165366.60648  -7921076.31444  23411565.434    23411569.715
 -12670393.49648  -9873033.36045  23202254.940    23202257.724
  -3722226.81448  -2900437.38145  23352549.846    23352553.018
    691863.34448                  25215202.332
 -25446184.60349 -19828195.01047  20247763.675    20247765.650
 -19235680.49749 -14988841.35747  20965427.304    20965427.497
  -3700193.50748  -2883262.44444  24370387.468    24370394.980
 02  1 10  2 54  0.0000000  0  8G22G20G27G 2G25G 1G13G31
 -18782939.01349 -14636060.81446  21302096.171    21302099.197
 -10059674.12248                  23431676.261
 -12742860.56149  -9929501.25145  23188465.921    23188467.589
  -3808871.92548  -2967953.06045  23336061.140    23336065.194
    776176.55348                  25231247.753
 -25438394.41449 -19822124.79247  20249246.052    20249248.048
 -19290695.69149 -15031710.39247  20954958.555    20954958.829
  -3806498.17848  -2966097.06844  24350157.763    24350163.873
 02  1 10  2 54 30.0000000  0  8G22G20G27G 2G25G 1G13G31
 -18703958.71149 -14574517.83346  21317125.921    21317129.001
  -9953829.46448  -7756242.52744  23451819.611    23451825.989
 -12815226.64748  -9985890.44545  23174693.958    23174695.724
  -3895294.18948  -3035295.09145  23319615.625    23319619.427
    860511.74948                  25247296.082
 -25430141.00449 -19815693.62547  20250816.802    20250818.842
 -19345340.45249 -15074290.77947  20944559.832    20944560.079
  -3912793.60748  -3048924.51744  24329930.708    24329936.746
 02  1 10  2 55  0.0000000  0  8G22G20G27G 2G25G 1G13G31
 -18624577.11349 -14512662.15146  21332231.774    21332234.623
  -9847840.27048                  23471987.491
 -12887496.02848 -10042204.29545  23160941.619    23160944.825
  -3981496.91448  -3102466.09845  23303212.637    23303216.296
    944863.53848                  25263349.057
 -25421428.12249 -19808904.42547  20252474.875    20252476.790
 -19399617.16349 -15116584.37647  20934231.491    20934231.756
  -4019081.23148  -3131745.87444  24309703.803    24309709.272
 02  1 10  2 55 30.0000000  0  8G22G20G27G 2G25G 1G13G31
 -18544807.31849 -14450503.97346  21347411.397    21347414.274
  -9741719.98748  -7590962.75544  23492182.230    23492186.363
 -12959678.75749 -10098450.62345  23147207.011    23147208.951
  -4067489.08248  -3169472.99345  23286847.749    23286851.280
   1029221.94548                  25279401.802
 -25412265.26949 -19801764.59947  20254218.544    20254220.353
 -19453533.87949 -15158597.45547  20923971.360    20923971.509
  -4125368.25448  -3214566.75344  24289479.105    24289486.023
 02  1 10  2 56  0.0000000  0  8G22G20G27G 2G25G 1G13G31
 -18464648.14249 -14388042.38046  21362665.367    21362668.472
  -9635467.65348                  23512400.977
 -13031770.77748 -10154626.28345  23133486.828    23133489.976
  -4153265.51248  -3236311.80345  23270526.060    23270529.997
   1113590.44648                  25295456.855
 -25402648.17149 -19794270.81247  20256048.905    20256050.831
 -19507085.32349 -15200325.90547  20913781.017    20913781.372
  -4231647.95548  -3297381.96644  24269253.702    24269261.306
 02  1 10  2 56 30.0000000  0  8G22G20G27G 2G25G 1G13G31
 -18384100.99049 -14325278.46946  21377993.191    21377996.179
  -9529085.08148                  23532645.621
 -13103770.29549 -10210729.82545  23119787.175    23119789.333
  -4238823.59348  -3302980.46645  23254244.760    23254247.909
   1197970.01648                  25311514.153
 -25392574.72049 -19786421.42847  20257965.707    20257967.537
 -19560267.83249 -15241766.87547  20903660.722    20903660.880
  -4337915.95848  -3380188.01544  24249032.260    24249039.914
 02  1 10  2 57  0.0000000  0  8G22G20G27G 2G25G 1G13G31
 -18303163.27249 -14262210.21846  21393395.173    21393398.356
  -9422569.61448                  23552914.754
 -13175671.58649 -10266756.85745  23106104.755    23106108.775
  -4324156.49748  -3369473.65445  23238005.579    23238011.128
   1282365.65448                  25327574.981
 -25382038.75349 -19778211.63847  20259970.832    20259972.707
 -19613074.12449 -15282914.68947  20893612.118    20893612.258
  -4444163.50848  -3462978.20544  24228813.492    24228818.129
 02  1 10  2 57 30.0000000  0  8G22G20G27G 2G25G 1G13G31
 -18221854.58749 -14198852.91346  21408867.767    21408870.745
  -9315941.39948  -7259187.90044  23573205.377    23573209.036
 -13247491.47048 -10322720.43645  23092436.370    23092440.622
  -4409279.83448  -3435803.54545  23221807.749    23221811.793
   1366760.55448                  25343633.992
 -25371056.55549 -19769654.13747  20262060.799    20262062.665
 -19665518.99349 -15323780.87047  20883632.208    20883632.578
  -4550404.57348  -3545763.34344  24208596.348    24208603.698
 02  1 10  2 58  0.0000000  0  8G22G20G27G 2G25G 1G13G31
 -18140158.06549 -14135193.39346  21424414.264    21424416.909
  -9209183.71048  -7176000.25244  23593521.427    23593526.208
 -13319209.97249 -10378605.02445  23078790.849    23078791.827
  -4494172.48648  -3501953.68545  23205652.622    23205656.665
   1451174.16548                  25359697.619
 -25359607.83949 -19760733.11047  20264239.182    20264241.069
 -19717580.67649 -15364348.46747  20873725.382    20873725.619
  -4656616.68148  -3628525.88744  24188384.469    24188394.149
 02  1 10  2 58 30.0000000  0  8G22G20G27G 2G25G 1G13G31
 -18058066.42249 -14071225.98346  21440035.889    21440039.057
  -9102289.63148                  23613862.233
 -13390816.80549 -10434402.61046  23065164.033    23065166.527
  -4578823.49048  -3567915.52845  23189544.392    23189548.982
   1535615.98648                  25375767.584
 -25347682.10949 -19751440.38647  20266508.685    20266510.679
 -19769247.42249 -15404608.32147  20863893.139    20863893.718
  -4762786.48348  -3711255.48444  24168181.780    24168187.049
 02  1 10  2 59  0.0000000  0  8G22G20G27G 2G25G 1G13G31
 -17975589.87249 -14006958.64946  21455730.594    21455733.424
  -8995269.49648  -7009314.21644  23634228.275    23634233.786
 -13462319.20748 -10490118.80045  23051556.275    23051560.276
  -4663238.98248  -3633693.84145  23173480.706    23173484.288
   1620078.28648                  25391840.514
 -25335286.07549 -19741781.19847  20268867.662    20268869.480
 -19820524.49249 -15444564.53147  20854135.800    20854136.201
  -4868918.25048  -3793955.44944  24147984.370    24147990.140
 02  1 10  2 59 30.0000000  0  8G22G20G27G 2G25G 1G13G31
 -17892738.23449 -13942399.03146  21471496.773    21471499.797
  -8888133.43948  -6925831.79544  23654616.421    23654619.008
 -13533723.71349 -10545758.70445  23037970.431    23037972.089
  -4747424.41048  -3699292.89345  23157460.805    23157466.475
   1704554.12048                  25407915.951
 -25322426.11649 -19731760.51047  20271314.870    20271316.825
 -19871416.90049 -15484221.00147  20844451.253    20844451.672
  -4975015.99048  -3876628.88444  24127795.534    24127803.725
 02  1 10  3  0  0.0000000  0  8G22G20G27G 2G25G 1G13G31
 -17809512.36149 -13877547.81146  21487334.131    21487337.687
  -8780882.29948  -6842259.65044  23675024.111    23675028.870
 -13605028.28149 -10601320.76745  23024400.463    23024403.670
  -4831376.91048  -3764710.43245  23141484.909    23141489.403
   1789044.67948                  25423995.368
 -25309099.68849 -19721376.33847  20273851.142    20273853.061
 -19921920.98749 -15523574.88347  20834840.817    20834841.144
  -5081074.67848  -3959271.91844  24107612.552    24107618.537
 02  1 10  3  0 30.0000000  0  8G22G20G27G 2G25G 1G13G31
 -17725907.76849 -13812401.48546  21503243.808    21503246.881
  -8673512.06448  -6758594.72844  23695458.319    23695460.036
 -13676225.43149 -10656799.10545  23010852.193    23010855.404
  -4915088.04248  -3829939.90445  23125555.589    23125560.269
   1873557.11848                  25440077.502
 -25295299.13849 -19710622.72547  20276477.237    20276479.163
 -19972027.32349 -15562618.83247  20825305.979    20825306.451
  -5187084.02448  -4041876.47744  24087439.604    24087447.009
 02  1 10  3  1  0.0000000  0  8G22G20G27G 2G25G 1G13G31
 -17641932.79049 -13746966.54746  21519223.730    21519226.835
  -8566031.40948  -6674843.76744  23715909.439    23715913.194
 -13747320.30049 -10712197.74845  22997324.321    22997326.056
  -4998562.01648  -3894984.58045  23109670.556    23109675.461
   1958086.16048   1525743.18844  25456163.509    25456166.544
 -25281029.44949 -19699503.54847  20279192.639    20279194.571
 -20021739.80949 -15601355.88147  20815845.768    20815846.060
  -5293046.64248  -4124444.65045  24067276.234    24067282.070
 02  1 10  3  1 30.0000000  0  8G22G20G27G 2G25G 1G13G31
 -17557583.30049 -13681239.78446  21535275.186    21535278.347
  -8458436.26048  -6591003.59644  23736385.696    23736390.023
 -13818305.78849 -10767511.16346  22983815.537    22983818.221
  -5081790.73448  -3959838.13945  23093833.544    23093837.206
   2042637.75448   1591630.45545  25472253.158    25472256.618
 -25266283.29449 -19688013.10447  20281998.762    20282000.601
 -20071049.45449 -15639779.02747  20806462.734    20806463.075
  -5398952.28248  -4206968.39544  24047123.151    24047127.103
 02  1 10  3  2  0.0000000  0  7G22G20G27G 2G25G 1G13
 -17472874.02349 -13615232.66946  21551394.573    21551397.657
  -8350741.62648  -6507085.90944  23756878.038    23756881.939
 -13889193.62849 -10822748.47146  22970325.834    22970327.943
  -5164784.88948  -4024508.89945  23078039.435    23078044.007
   2127199.92448   1657518.17844  25488345.600    25488348.296
 -25251072.16849 -19676160.34547  20284893.457    20284895.209
 -20119966.21549 -15677896.02747  20797154.203    20797154.633
 02  1 10  3  2 30.0000000  0  7G22G20G27G 2G25G 1G13
 -17387816.04249 -13548953.83046  21567580.989    21567583.986
  -8242958.72448  -6423099.38444  23777389.628    23777392.410
 -13959991.63749 -10877915.80546  22956853.878    22956856.076
  -5247551.41448  -4089002.30945  23062290.042    23062293.823
   2211764.44048                  25504437.705
 -25235403.62149 -19663951.15347  20287875.043    20287877.147
 -20168496.48849 -15715711.87147  20787919.281    20787919.734
 02  1 10  3  3  0.0000000  0  7G22G20G27G 2G25G 1G13
 -17302424.73249 -13482415.26246  21583830.379    21583833.558
  -8135103.12348  -6339056.24844  23797913.865    23797920.216
 -14030712.25749 -10933022.81345  22943396.017    22943397.977
  -5330101.86448  -4153327.34745  23046581.005    23046585.123
   2296318.52448                  25520528.312
 -25219289.74949 -19651394.95647  20290941.530    20290943.475
 -20216650.93349 -15753234.86247  20778755.675    20778756.144
 02  1 10  3  3 30.0000000  0  7G22G20G27G 2G25G 1G13
 -17216680.97149 -13415602.05446  21600146.905    21600150.305
  -8027156.14848  -6254941.90444  23818455.253    23818461.943
 -14101333.25949 -10988052.20846  22929957.377    22929960.449
  -5412413.20048  -4217466.06145  23030917.899    23030921.488
   2380883.47448                  25536620.981
 -25202708.32149 -19638474.43047  20294096.895    20294098.861
 -20264405.53049 -15790446.28247  20769668.376    20769668.964
 02  1 10  3  4  0.0000000  0  7G22G20G27G 2G25G 1G13
 -17130592.46249 -13348520.21346  21616529.080    21616532.195
  -7919125.52148  -6170762.39744  23839013.115    23839016.681
 -14171859.46349 -11043007.72046  22916536.717    22916539.005
  -5494489.01148  -4281421.23445  23015299.514    23015303.440
   2465454.02048                  25552714.540
 -25185663.99749 -19625193.20647  20297340.116    20297342.084
 -20311763.56549 -15827348.68747  20760656.568    20760656.885
 02  1 10  3  4 30.0000000  0  7G22G20G27G 2G25G 1G13
 -17044139.38349 -13281154.29846  21632980.640    21632983.890
  -7810991.84548                  23859590.134
 -14242267.71549 -11097871.33246  22903137.799    22903140.627
  -5576305.73848  -4345174.54345  22999729.798    22999734.530
   2550052.89848                  25568813.571
 -25168133.63249 -19611533.24347  20300676.278    20300678.113
 -20358700.44849 -15863922.92447  20751724.964    20751725.170
 02  1 10  3  5  0.0000000  0  7G22G20G27G 2G25G 1G13
 -16957338.31049 -13213517.21146  21649498.582    21649501.786
  -7702771.46248  -6002175.23544  23880184.604    23880193.043
 -14312571.49249 -11152653.53646  22889760.109    22889763.011
  -5657875.93948  -4408735.74445  22984207.953    22984211.635
   2634666.22148                  25584915.093
 -25150130.46949 -19597504.86947  20304102.442    20304104.442
 -20405228.01549 -15900178.21447  20742871.061    20742871.451
 02  1 10  3  5 30.0000000  0  7G22G20G27G 2G25G 1G13
 -16870183.75949 -13145604.69746  21666083.297    21666086.502
  -7594459.47148  -5917776.44244  23900795.519    23900800.014
 -14382762.37149 -11207347.76446  22876403.449    22876406.185
  -5739190.12848  -4472097.46245  22968734.277    22968738.829
   2719301.96048                  25601020.719
 -25131645.87049 -19583101.34547  20307619.921    20307621.959
 -20451335.98649 -15936106.55447  20734097.188    20734097.172
 02  1 10  3  6  0.0000000  0  7G22G20G27G 2G25G 1G13
 -16782687.57149 -13077425.97446  21682733.617    21682736.829
  -7486067.77548  -5833315.60444  23921421.220    23921425.003
 -14452848.99449 -11261960.73946  22863065.752    22863068.831
  -5820256.08848  -4535265.75645  22953307.994    22953313.382
   2803950.86448                  25617129.986
 -25112688.38749 -19568329.34447  20311227.355    20311229.393
 -20497031.53149 -15971713.52147  20725401.718    20725401.914
 02  1 10  3  6 30.0000000  0  7G22G20G27G 2G25G 1G13
 -16694883.67449 -13009007.47046  21699442.257    21699445.537
  -7377630.57948  -5748819.27144  23942057.430    23942063.817
 -14522862.52949 -11316516.76846  22849743.303    22849745.910
  -5901104.12248  -4598264.22945  22937923.033    22937927.019
   2888581.48148                  25633234.765
 -25093288.86949 -19553212.89847  20314918.945    20314921.171
 -20542344.31749 -16007022.23047  20716778.821    20716779.003
 02  1 10  3  7  0.0000000  0  7G22G20G27G 2G25G 1G13
 -16606751.87249 -12940333.46646  21716213.255    21716217.076
  -7269127.85948  -5664271.93344  23962704.200    23962709.011
 -14592779.34649 -11370997.43646  22836438.010    22836441.231
  -5981709.97048  -4661073.99145  22922583.559    22922588.798
   2973217.04248                  25649339.708
 -25073423.82149 -19537733.70147  20318699.269    20318701.264
 -20587249.17749 -16042013.07647  20708233.755    20708234.134
 02  1 10  3  7 30.0000000  0  6G22G20G27G 2G 1G13
 -16518276.85049 -12871392.02046  21733049.463    21733052.666
  -7160544.33248  -5579661.56744  23983367.833    23983371.005
 -14662581.22849 -11425388.54246  22823154.717    22823157.659
  -6062054.34149  -4723680.01245  22907295.560    22907299.728
 -25053075.02649 -19521877.55647  20322571.501    20322573.639
 -20631726.22649 -16076670.56247  20699770.002    20699770.469
 02  1 10  3  8  0.0000000  0  6G22G20G27G 2G 1G13
 -16429455.65249 -12802180.82046  21749951.444    21749955.230
  -7051877.55648  -5494986.40044  24004046.107    24004052.719
 -14732262.24049 -11479685.46446  22809896.157    22809898.583
  -6142130.61048  -4786077.11645  22892056.964    22892061.066
 -25032236.45649 -19505639.76847  20326536.810    20326539.062
 -20675767.72849 -16110988.66647  20691389.250    20691389.561
 02  1 10  3  8 30.0000000  0  7G22G20G27G 2G31G 1G13
 -16340313.20849 -12732719.31246  21766914.705    21766918.334
  -6943152.40648  -5410265.66144  24024736.441    24024741.045
 -14801844.01849 -11533905.07046  22796654.696    22796657.852
  -6221959.77748  -4848281.68845  22876865.911    22876870.903
          .15058          .79954  23766181.892    23766190.332
 -25010929.96249 -19489037.36747  20330591.344    20330593.609
 -20719394.06149 -16144983.25947  20683087.239    20683087.569
 02  1 10  3  9  0.0000000  0  7G20G22G27G 2G31G 1G13
  -6834369.15848  -5325499.73344  24045437.163    24045442.226
 -16250849.50049 -12663007.45346  21783939.987    21783943.739
 -14871323.48549 -11588044.94546  22783432.906    22783435.992
  -6301537.87749  -4910290.58945  22861722.793    22861726.667
   -104845.64348    -81697.14045  23746231.269    23746234.724
 -24989152.31949 -19472067.83947  20334735.666    20334737.999
 -20762600.48149 -16178650.64747  20674865.165    20674865.610
 02  1 10  3  9 30.0000000  0  7G20G22G27G 2G31G 1G13
  -6725534.22248  -5240693.50844  24066148.134    24066152.266
 -16161071.09549 -12593050.39646  21801023.453    21801027.603
 -14940703.91649 -11642107.65546  22770230.971    22770232.958
  -6380867.42649  -4972105.84846  22846627.049    22846631.375
   -209599.44748   -163323.45145  23726297.089    23726303.869
 -24966906.87649 -19454733.78847  20338968.957    20338971.204
 -20805388.90449 -16211992.32647  20666723.252    20666723.697
 02  1 10  3 10  0.0000000  0  8G20G22G27G 2G31G 1G13G 8
  -6616631.88048  -5155834.73744  24086871.183    24086875.226
 -16070961.71849 -12522835.43546  21818171.750    21818175.478
 -15009966.18149 -11696078.26046  22757050.020    22757053.234
  -6459928.71749  -5033712.06545  22831582.321    22831587.134
   -314238.96348   -244860.69945  23706385.341    23706389.974
 -24944174.51749 -19437020.32847  20343294.511    20343296.927
 -20847738.65249 -16244992.18447  20658664.324    20658664.768
         -.62958                  24942635.955
 02  1 10  3 10 30.0000000  0  8G20G22G27G 2G31G 1G13G 8
  -6507679.64948  -5070937.08044  24107604.643    24107613.331
 -15980538.87849 -12452376.21246  21835377.851    21835382.206
 -15079124.66049 -11749968.02546  22743889.879    22743892.975
  -6538735.13349  -5095119.68646  22816585.968    22816589.976
   -418775.81148   -326317.97345  23686492.478    23686499.376
 -24920969.66849 -19418938.69047  20347710.279    20347712.764
 -20889662.41549 -16277660.10747  20650686.899    20650687.325
    -92798.86548                  24924976.611
 02  1 10  3 11  0.0000000  0  8G20G22G27G 2G31G 1G13G 8
  -6398676.84748  -4986000.03844  24128347.118    24128352.473
 -15889801.57649 -12381671.96646  21852644.906    21852649.030
 -15148175.25349 -11803773.71846  22730750.663    22730753.360
  -6617281.98549  -5156325.04446  22801639.014    22801642.665
   -523203.18048   -407689.93745  23666621.101    23666625.445
 -24897288.46149 -19400485.86347  20352216.625    20352219.412
 -20931155.08149 -16309992.11347  20642790.729    20642791.211
   -185567.10148                  24907323.888
 02  1 10  3 11 30.0000000  0  8G20G22G27G 2G31G 1G13G 8
  -6289637.02048  -4901034.16044  24149096.830    24149103.456
 -15798763.03049 -12310732.98846  21869969.248    21869973.384
 -15217128.11849 -11857503.26646  22717628.563    22717631.737
  -6695578.69949  -5217335.48546  22786739.420    22786742.317
   -627528.35948   -488982.27245  23646767.988    23646772.796
 -24873141.15449 -19381669.84247  20356811.717    20356814.383
 -20972224.83149 -16341994.57547  20634975.365    20634975.861
   -278315.03348                  24889675.136
 02  1 10  3 12  0.0000000  0  8G20G22G27G 2G31G 1G13G 8
  -6180559.07748  -4816038.56044  24169853.917    24169859.865
 -15707422.29949 -12239558.52946  21887350.919    21887354.607
 -15285979.15949 -11911153.47046  22704526.193    22704529.548
  -6773620.41449  -5278147.23946  22771889.000    22771893.083
   -731744.26448   -570189.47445  23626936.453    23626941.463
 -24848523.73049 -19362487.49847  20361496.426    20361499.057
 -21012866.06049 -16373663.12547  20627241.718    20627242.243
   -371038.74448                  24872029.110
 02  1 10  3 12 30.0000000  0  8G20G22G27G 2G31G 1G13G 8
  -6071453.71548  -4731021.55344  24190616.260    24190621.629
 -15615789.74549 -12168156.69346  21904787.985    21904791.814
 -15354735.64249 -11964729.99246  22691443.158    22691446.349
  -6851413.58249  -5338765.29646  22757085.444    22757089.602
   -835855.06348   -651314.78145  23607125.057    23607130.825
 -24823443.51849 -19342944.54147  20366269.233    20366271.773
 -21053084.60849 -16405002.31547  20619588.712    20619589.054
   -463745.34948                  24854388.876
 02  1 10  3 13  0.0000000  0  8G20G22G27G 2G31G 1G13G 8
  -5962305.49548  -4645971.25944  24211386.245    24211390.179
 -15523849.81749 -12096515.34246  21922283.759    21922287.729
 -15423378.97449 -12018218.35546  22678380.862    22678383.266
  -6928938.96849  -5399174.71346  22742332.549    22742336.566
   -939839.29148   -732341.45545  23587337.558    23587343.475
 -24797882.20249 -19323026.69947  20371133.450    20371136.016
 -21092860.57349 -16435996.63647  20612019.700    20612020.069
   -556416.04148                  24836754.611
 02  1 10  3 13 30.0000000  0  8G20G22G27G 2G31G 1G13G 8
  -5853112.98948  -4560886.36944  24232165.173    24232173.364
 -15431600.99649 -12024633.30646  21939838.206    21939842.516
 -15491904.43949 -12071614.87246  22665340.442    22665343.746
  -7006191.37949  -5459371.40746  22727632.017    22727636.420
  -1043689.78648   -813263.94345  23567575.675    23567582.079
 -24771835.21149 -19302730.40947  20376089.986    20376092.694
 -21132187.71649 -16466641.22747  20604535.739    20604536.144
   -649046.34948                  24819126.929
 02  1 10  3 14  0.0000000  0  7G20G22G27G 2G31G 1G13
  -5743883.52248  -4475772.72044  24252951.380    24252956.413
 -15339050.53449 -11952516.21646  21957450.110    21957454.203
 -15560316.32049 -12124922.88946  22652322.776    22652325.955
  -7083174.12649  -5519357.96746  22712982.256    22712986.798
  -1147407.73848   -894083.11545  23547838.257    23547843.879
 -24745306.89549 -19282059.06247  20381138.336    20381140.953
 -21171068.86949 -16496938.28947  20597136.891    20597137.416
 02  1 10  3 14 30.0000000  0  7G20G22G27G 2G31G 1G13
  -5634625.32648  -4390636.66444  24273742.033    24273746.457
 -15246206.37249 -11880170.28846  21975117.911    21975122.153
 -15628619.41249 -12178146.11546  22639324.439    22639327.818
  -7159891.67549  -5579137.87946  22698383.573    22698388.363
  -1250994.96948   -974800.47145  23528126.501    23528132.955
 -24718302.25649 -19261016.55747  20386277.132    20386279.820
 -21209507.41949 -16526890.46547  20589822.417    20589822.839
 02  1 10  3 15  0.0000000  0  7G20G22G27G 2G31G 1G13
  -5525348.68748  -4305486.28244  24294537.433    24294543.891
 -15153078.53749 -11807603.31046  21992839.565    21992843.715
 -15696820.63149 -12231289.97346  22626346.303    22626349.604
  -7236350.16249  -5638715.92346  22683834.233    22683838.812
  -1354455.42848  -1055419.00445  23508437.997    23508444.653
 -24690828.54749 -19239608.54047  20391505.598    20391508.317
 -21247508.92949 -16556502.09247  20582591.109    20582591.428
 02  1 10  3 15 30.0000000  0  8G20G22G27G 2G31G 1G13G 8
  -5416037.80348  -4220309.13944  24315338.038    24315345.519
 -15059650.95649 -11734802.76346  22010618.493    22010622.725
 -15764900.75749 -12284339.47046  22613392.138    22613395.198
  -7312529.90849  -5698076.76446  22669337.685    22669341.418
  -1457767.36548  -1135921.80445  23488779.669    23488786.133
 -24662866.95349 -19217820.35247  20396826.363    20396828.943
 -21285052.81549 -16585757.12347  20575446.790    20575447.235
         -.77158                  24748683.396
 02  1 10  3 16  0.0000000  0  8G20G22G27G 2G31G 1G13G 8
  -5306707.84448  -4135117.20244  24336143.762    24336148.198
 -14965939.04149 -11661780.65646  22028451.284    22028455.906
 -15832872.13049 -12337304.21846  22600457.055    22600460.387
  -7388442.50949  -5757229.43646  22654891.695    22654896.332
  -1560939.81748  -1216315.91445  23469145.922    23469150.808
 -24634429.91049 -19195661.68247  20402237.569    20402240.257
 -21322150.28049 -16614664.29347  20568387.632    20568388.072
    -92463.77148                  24731088.125
 02  1 10  3 16 30.0000000  0  8G20G22G27G 2G31G 1G13G 8
  -5197367.84648                  24356950.412
 -14871951.39849 -11588543.71046  22046337.165    22046341.843
 -15900740.32349 -12390188.57746  22587541.811    22587545.124
  -7464092.79649  -5816177.70746  22640496.420    22640500.392
  -1663975.68448  -1296603.59145  23449538.700    23449544.014
 -24605523.28249 -19173137.10347  20407738.432    20407741.119
 -21358804.92249 -16643226.40747  20561412.374    20561412.892
   -184900.66448                  24713498.460
 02  1 10  3 17  0.0000000  0  8G20G22G27G 2G31G 1G13G 8
  -5088035.55348                  24377755.214
 -14777705.56149 -11515105.56746  22064271.351    22064275.843
 -15968519.55849 -12443003.62246  22574644.373    22574647.283
  -7539494.64749  -5874932.40446  22626147.461    22626152.845
  -1766886.39148  -1376793.74245  23429955.580    23429961.454
 -24576161.67049 -19150257.99447  20413325.785    20413328.563
 -21395029.84949 -16671453.67447  20554518.801    20554519.243
   -277326.04948                  24695911.040
 02  1 10  3 17 30.0000000  0  8G20G22G27G 2G31G 1G13G 8
  -4978693.79148  -3879522.48144  24398562.569    24398567.947
 -14683184.28349 -11441452.80946  22082258.533    22082262.637
 -16036189.60749 -12495733.58446  22561767.068    22561770.136
  -7614627.14449  -5933477.21146  22611850.211    22611854.661
  -1869648.69848  -1456868.24545  23410400.378    23410407.098
 -24546325.30349 -19127008.94547  20419003.877    20419006.532
 -21430803.77449 -16699329.50947  20547711.760    20547712.253
   -369719.52948                  24678328.207
 02  1 10  3 18  0.0000000  0  8G20G22G27G 2G31G 1G13G 8
  -4869347.17148                  24419371.187
 -14588392.30049 -11367589.09446  22100296.939    22100300.832
 -16103752.06049 -12548379.68546  22548910.482    22548913.444
  -7689491.26349  -5991812.89546  22597604.233    22597609.039
  -1972261.32848  -1536826.12045  23390874.291    23390879.549
 -24516016.01249 -19103391.38547  20424771.384    20424774.039
 -21466126.87849 -16726854.05447  20540989.867    20540990.317
   -462082.49848                  24660752.895
 02  1 10  3 18 30.0000000  0  8G20G22G27G 2G31G 1G13G 8
  -4759987.34648                  24440181.213
 -14493320.76849 -11293507.55946  22118388.511    22118393.484
 -16171195.23149 -12600932.85646  22536076.440    22536079.552
  -7764074.74149  -6049929.90046  22583411.528    22583415.845
  -2074709.52148  -1616655.87245  23371378.605    23371384.793
 -24485222.41249 -19079396.44047  20430631.113    20430633.863
 -21500985.63549 -16754016.76647  20534356.207    20534356.768
   -554403.14248                  24643185.134
 02  1 10  3 19  0.0000000  0  8G20G22G27G 2G31G 1G13G 8
  -4650625.38548                  24460992.833
 -14397980.76649 -11219216.82646  22136531.030    22136535.192
 -16238527.05549 -12653399.26046  22523263.368    22523266.165
  -7838385.07149  -6107834.05246  22569270.629    22569275.315
  -2176998.66448  -1696361.65045  23351913.612    23351918.609
 -24453952.69149 -19055030.49147  20436581.555    20436584.350
 -21535386.90649 -16780822.99747  20527809.908    20527810.439
   -646689.71748                  24625622.726
 02  1 10  3 19 30.0000000  0  8G20G22G27G 2G31G 1G13G 8
  -4541262.61348  -3538667.93844  24481804.114    24481808.676
 -14302373.29449 -11144717.66646  22154724.593    22154730.063
 -16305745.42149 -12705777.25546  22510472.476    22510475.486
  -7912419.54449  -6165523.25246  22555182.393    22555186.972
  -2279123.63448  -1775939.54645  23332480.027    23332486.875
 -24422205.29249 -19030292.32847  20442623.192    20442625.828
 -21569327.55949 -16807270.30147  20521351.022    20521351.680
   -738939.78448                  24608069.070
 02  1 10  3 20  0.0000000  0  8G20G22G27G 2G31G 1G13G 8
  -4431905.21448                  24502613.944
 -14206504.48249 -11070014.87046  22172968.222    22172972.981
 -16372853.33449 -12758069.18346  22497702.541    22497705.629
  -7986180.70249  -6222999.48746  22541146.118    22541150.650
  -2381084.58048  -1855389.61845  23313076.871    23313083.557
 -24389983.58149 -19005184.57047  20448755.041    20448757.654
 -21602809.02449 -16833359.79547  20514980.000    20514980.737
   -831156.56048                  24590521.077
 02  1 10  3 20 30.0000000  0  8G20G22G27G 2G31G 1G13G 8
  -4322532.38948                  24523427.242
 -14110353.45449 -10995092.18046  22191265.573    22191269.697
 -16439826.86349 -12810256.39446  22484957.555    22484960.727
  -8059644.04149  -6280243.64846  22527166.623    22527170.949
  -2482854.51348  -1934690.85145  23293711.359    23293717.891
 -24357264.04349 -18979688.89447  20454981.172    20454983.910
 -21635806.22149 -16859071.93347  20508700.842    20508701.471
   -923316.12548                  24572982.461
 02  1 10  3 21  0.0000000  0  8G20G22G27G 2G31G 1G13G 8
  -4213170.57548                  24544238.530
 -14013946.39649 -10919969.97146  22209610.812    22209616.146
 -16506688.84549 -12862356.66846  22472233.743    22472236.849
  -8132832.24349  -6337273.42046  22513239.325    22513244.236
  -2584453.65148  -2013858.99945  23274377.467    23274383.575
 -24324070.17149 -18953823.60947  20461297.739    20461300.542
 -21668340.86549 -16884423.64047  20502509.906    20502510.529
  -1015441.29448                  24555453.269
 02  1 10  3 21 30.0000000  0  8G20G22G27G 2G31G 1G13G 8
  -4103830.45148                  24565045.023
 -13917293.98149 -10844656.59246  22228003.307    22228008.623
 -16573447.06749 -12914376.09846  22459531.125    22459533.962
  -8205752.44849  -6394094.37646  22499362.831    22499367.206
  -2685887.04448  -2092897.98845  23255075.654    23255080.827
 -24290410.14949 -18927595.09247  20467703.155    20467705.897
 -21700419.14849 -16909419.73647  20496405.581    20496406.126
  -1107539.80548                  24537926.288
 02  1 10  3 22  0.0000000  0  8G20G22G27G 2G31G 1G13G 8
  -3994504.86648  -3112624.10744  24585849.427    24585858.611
 -13820388.79949 -10769146.24946  22246444.250    22246448.518
 -16640090.92749 -12966306.43246  22446848.942    22446851.766
  -8278393.60149  -6450697.87346  22485539.642    22485544.277
  -2787141.11648  -2171797.24945  23235807.206    23235814.241
 -24256273.97349 -18900995.54447  20474199.057    20474201.928
 -21732029.65949 -16934051.33847  20490390.341    20490390.900
  -1199601.12048                  24520408.522
 02  1 10  3 22 30.0000000  0  8G20G22G27G 2G31G 1G13G 8
  -3885196.41248                  24606650.327
 -13723233.25449 -10693440.81846  22264932.713    22264937.830
 -16706619.82149 -13018147.17546  22434188.785    22434191.974
  -8350754.52049  -6507083.00346  22471770.028    22471774.391
  -2888212.37448  -2250554.06145  23216574.449    23216580.550
 -24221661.51349 -18874024.86247  20480785.577    20480788.364
 -21763170.45249 -16958316.92647  20484464.648    20484465.056
  -1291624.65648                  24502897.627
 02  1 10  3 23  0.0000000  0  8G20G22G27G 2G31G 1G13G 8
  -3775912.49848  -2942292.88244  24627446.899    24627452.116
 -13625834.72949 -10617546.06646  22283466.903    22283471.545
 -16773037.97649 -13069901.61546  22421550.223    22421553.008
  -8422839.18649  -6563252.87346  22458052.627    22458057.660
  -2989102.24848  -2329169.53145  23197375.382    23197381.695
 -24186577.60149 -18846686.81947  20487462.254    20487464.884
 -21793844.66949 -16982218.94547  20478627.603    20478628.048
  -1383614.66848                  24485390.816
 02  1 10  3 23 30.0000000  0  8G20G22G27G 2G31G 1G13G 8
  -3666664.98848  -2857165.23244  24648235.715    24648244.155
 -13528204.88949 -10541471.06046  22302044.930    22302049.368
 -16839353.93349 -13121576.41646  22408930.575    22408933.508
  -8494655.69249  -6619213.80246  22444386.859    22444390.741
  -3089816.67448  -2407648.31945  23178210.293    23178216.514
 -24151031.38349 -18818988.53647  20494226.219    20494229.134
 -21824059.56549 -17005763.05447  20472877.813    20472878.249
  -1475579.68448  -1149804.81444  24467891.930    24467897.543
 02  1 10  3 24  0.0000000  0  8G20G22G27G 2G31G 1G13G 8
  -3557445.24148  -2772059.19744  24669020.058    24669025.235
 -13430335.00349 -10465209.01146  22320669.574    22320674.993
 -16905556.01849 -13173162.50846  22396332.738    22396335.926
  -8566191.85949  -6674956.26746  22430773.389    22430778.274
  -3190340.72048  -2485978.74945  23159081.028    23159087.422
 -24115011.80049 -18790921.39647  20501080.376    20501083.431
 -21853802.35649 -17028939.28947  20467217.619    20467218.189
  -1567507.91648  -1221437.41844  24450397.877    24450406.565
 02  1 10  3 24 30.0000000  0  8G20G22G27G 2G31G 1G13G 8
  -3448251.35548  -2686973.32144  24689798.959    24689807.646
 -13332222.92549 -10388758.25146  22339340.441    22339344.999
 -16971638.91049 -13224655.72246  22383757.718    22383760.648
  -8637442.02849  -6730475.88546  22417215.846    22417219.714
  -3290666.14748  -2564154.42045  23139989.806    23139996.514
 -24078514.04849 -18762481.65847  20508025.577    20508028.644
 -21883066.59849 -17051742.63347  20461648.949    20461649.523
  -1659394.16848  -1293037.25144  24432913.707    24432922.146
 02  1 10  3 25  0.0000000  0  8G20G22G27G 2G31G 1G13G 8
  -3339076.70348                  24710574.568
 -13233861.88749 -10312113.49246  22358057.383    22358062.500
 -17037592.79149 -13276048.39946  22371206.938    22371209.754
  -8708395.84849  -6785764.56446  22403713.150    22403717.607
  -3390780.33148  -2642165.48545  23120938.898    23120945.177
 -24041528.97649 -18733662.18647  20515063.873    20515066.933
 -21911841.36949 -17074164.57447  20456173.523    20456174.032
  -1751228.62548                  24415437.451
 02  1 10  3 25 30.0000000  0  8G20G22G27G 2G31G 1G13G 8
  -3229938.57948  -2516859.94944  24731342.903    24731351.590
 -13135269.15049 -10235288.18446  22376819.343    22376825.157
 -17103431.76249 -13327351.52646  22358678.161    22358681.218
  -8779067.29449  -6840833.21246  22390265.173    22390269.374
  -3490694.71548  -2720020.87545  23101925.421    23101931.952
 -24004071.48449 -18704474.59947  20522191.985    20522195.074
 -21940139.51349 -17096215.12247  20450788.778    20450789.335
  -1843025.57348  -1436127.04244  24397969.862    24397976.427
 02  1 10  3 26  0.0000000  0  8G20G22G27G 2G31G 1G13G 8
  -3120836.31848  -2431845.50244  24752104.497    24752109.842
 -13036443.98548 -10158281.76446  22395624.552    22395630.400
 -17169152.02949 -13378562.15646  22346172.321    22346175.543
  -8849452.10749  -6895678.53246  22376871.118    22376875.674
  -3590402.60448  -2797715.33745  23082951.986    23082957.172
 -23966138.28449 -18674916.32847  20529410.362    20529413.533
 -21967956.22949 -17117890.53447  20445495.409    20445496.057
  -1934780.91448  -1507624.85244  24380509.846    24380515.834
 02  1 10  3 26 30.0000000  0  8G20G22G27G 2G31G 1G13G 8
  -3011778.87848  -2346865.91644  24772857.783    24772865.220
 -12937395.01548 -10081100.95646  22414473.461    22414479.385
 -17234759.36349 -13429684.78946  22333686.972    22333690.196
  -8919555.60749  -6950304.64746  22363531.368    22363536.032
  -3689906.80148  -2875251.10045  23064016.660    23064023.848
 -23927735.64149 -18644992.26047  20536718.040    20536721.210
 -21995295.77049 -17139194.12547  20440292.786    20440293.419
  -2026500.57648  -1579094.89544  24363054.269    24363059.698
 02  1 10  3 27  0.0000000  0  8G20G22G27G 2G31G 1G13G 8
  -2902761.20148                  24793603.579
 -12838117.08348 -10003741.73746  22433365.731    22433371.052
 -17300245.44649 -13480712.92946  22321225.756    22321229.045
  -8989369.23449  -7004704.87346  22350245.767    22350250.462
  -3789196.17848  -2952619.44845  23045122.652    23045129.400
 -23888856.03549 -18614696.53247  20544116.522    20544119.710
 -22022149.20049 -17160118.93047  20435182.510    20435183.180
  -2118176.15548  -1650530.56744  24345611.254    24345615.656
 02  1 10  3 27 30.0000000  0  8G20G22G27G 2G31G 1G13G 8
  -2793784.13348  -2177000.41044  24814340.599    24814348.515
 -12738610.90348  -9926204.68245  22452300.978    22452306.849
 -17365607.84249 -13531644.68346  22308787.892    22308791.059
  -9058890.23549  -7058877.10246  22337016.892    22337020.576
  -3888265.24248  -3029816.11645  23026270.071    23026276.327
 -23849497.91449 -18584027.93847  20551606.290    20551609.437
 -22048513.00349 -17180662.20847  20430165.884    20430166.687
  -2209805.27848  -1721930.06444  24328173.973    24328179.767
 02  1 10  3 28  0.0000000  0  8G20G22G27G 2G31G 1G13G 8
  -2684853.30248  -2092119.57744  24835069.877    24835076.945
 -12638881.89148  -9848493.94445  22471278.874    22471284.371
 -17430848.96149 -13582481.94246  22296372.632    22296375.878
  -9128120.75649  -7112822.96646  22323842.061    22323847.011
  -3987113.97048  -3106841.06145  23007460.216    23007465.605
 -23809664.44449 -18552988.94247  20559186.659    20559189.810
 -22074388.71049 -17200825.15347  20425242.121    20425242.768
  -2301390.56048  -1793295.35744  24310746.800    24310749.967
 02  1 10  3 28 30.0000000  0  8G20G22G27G 2G31G 1G13G 8
  -2575977.57848  -2007281.62144  24855789.653    24855796.469
 -12538939.00348  -9770616.59846  22490297.537    22490303.700
 -17495974.62149 -13633229.21846  22283979.949    22283983.207
  -9197066.14749  -7166546.66746  22310722.681    22310727.118
  -4085745.04448  -3183696.38545  22988690.883    22988697.959
 -23769362.23649 -18521584.70347  20566856.061    20566859.199
 -22099780.75749 -17220611.21647  20420410.302    20420411.204
  -2392937.65748  -1864630.94844  24293326.103    24293331.054
 02  1 10  3 29  0.0000000  0  8G20G22G27G 2G31G 1G13G 8
  -2467148.09648                  24876498.061
 -12438773.12048  -9692565.47245  22509358.769    22509364.092
 -17560972.65649 -13683877.05546  22271611.424    22271614.483
  -9265713.99549  -7220038.49746  22297658.802    22297663.533
  -4184143.50548  -3260370.44945  22969966.395    22969973.226
 -23728579.72549 -18489806.20047  20574616.565    20574619.735
 -22124676.14749 -17240010.27047  20415672.951    20415673.543
  -2484434.55848  -1935927.35244  24275914.410    24275920.640
 02  1 10  3 29 30.0000000  0  8G20G22G27G 2G31G 1G13G 8
  -2358374.37848  -1837721.28344  24897197.762    24897203.630
 -12338393.42548  -9614347.74545  22528460.286    22528467.015
 -17625849.11449 -13734430.15146  22259265.397    22259268.588
  -9334070.26449  -7273303.13346  22284651.189    22284655.671
  -4282312.68948  -3336865.82045  22951284.959    22951291.448
 -23687323.92149 -18457658.90147  20582467.251    20582470.444
 -22149080.24149 -17259026.50047  20411029.121    20411029.752
  -2575887.46248  -2007189.51544  24258511.669    24258517.528
 02  1 10  3 30  0.0000000  0  8G20G22G27G 2G31G 1G13G 8
  -2249657.90548  -1753007.43744  24917886.648    24917889.815
 -12237801.49848  -9535964.64945  22547603.002    22547607.685
 -17690602.43149 -13784887.29346  22246943.649    22246947.008
  -9402133.38849  -7326339.34046  22271698.828    22271703.592
  -4380248.23548  -3413179.12945  22932648.947    22932654.971
 -23645594.22049 -18425142.33347  20590408.348    20590411.505
 -22172990.19949 -17277657.68547  20406478.971    20406479.542
  -2667294.65448  -2078416.09544  24241117.233    24241124.195
 02  1 10  3 30 30.0000000  0  8G20G22G27G 2G31G 1G13G 8
  -2141006.15248  -1668344.16044  24938561.867    24938563.933
 -12137004.73248  -9457421.92945  22566783.760    22566789.044
 -17755237.18949 -13835252.05246  22234644.006    22234647.145
  -9469907.54349  -7379150.37646  22258802.484    22258807.092
  -4477951.77648  -3489311.61845  22914056.253    22914063.562
 -23603396.02249 -18392260.70447  20598438.434    20598441.601
 -22196409.95349 -17295906.89147  20402022.354    20402023.025
  -2758660.77148  -2149610.61045  24223732.040    24223735.456
 02  1 10  3 31  0.0000000  0  8G20G22G27G 2G31G 1G13G 8
  -2032424.32048                  24959224.536
 -12036007.98148  -9378723.37145  22586003.675    22586009.025
 -17819755.22449 -13885525.86546  22222366.335    22222369.821
  -9537394.17849  -7431737.38046  22245959.812    22245964.339
  -4575422.54448  -3565262.73745  22895508.242    22895514.491
 -23560731.91149 -18359016.02747  20606557.330    20606560.513
 -22219339.81949 -17313774.36847  20397659.031    20397659.819
  -2849987.54448  -2220774.49944  24206352.807    24206357.944
 02  1 10  3 31 30.0000000  0  8G20G22G27G 2G31G 1G13G 8
  -1923907.91148                  24979875.372
 -11934806.83348  -9299865.56245  22605261.098    22605267.234
 -17884148.81849 -13935702.70546  22210112.594    22210115.957
  -9604585.43949  -7484094.21646  22233174.615    22233178.548
  -4672649.96548  -3641024.21845  22877005.660    22877012.376
 -23517595.04549 -18325402.97047  20614765.800    20614769.143
 -22241771.34249 -17331253.52747  20393390.589    20393391.268
  -2941267.66648  -2291901.99544  24188982.798    24188986.876
 02  1 10  3 32  0.0000000  0  8G20G22G27G 2G31G 1G13G 8
  -1815462.71348                  25000511.467
 -11833406.71948  -9220852.71245  22624557.725    22624563.657
 -17948420.54649 -13985784.58746  22197882.399    22197885.657
  -9671483.82249  -7536222.83746  22220443.302    22220448.462
  -4769633.63548  -3716595.77745  22858551.244    22858557.094
 -23473988.92449 -18291424.25847  20623064.113    20623067.267
 -22263706.55049 -17348345.94647  20389216.437    20389217.200
  -3032503.47548  -2362994.98644  24171621.387    24171624.509
 02  1 10  3 32 30.0000000  0  8G20G22G27G 2G31G 1G13G 8
  -1707098.47748  -1330235.57744  25021132.809    25021141.000
 -11731817.29948  -9141692.33645  22643888.719    22643894.862
 -18012576.80249 -14035776.49446  22185673.603    22185677.159
  -9738095.70749  -7588128.21746  22207768.449    22207771.953
  -4866377.40248  -3791980.38145  22840140.635    22840146.553
 -23429920.96949 -18257085.67147  20631450.141    20631453.344
 -22285150.82249 -17365055.81247  20385135.529    20385136.413
  -3123701.60148  -2434058.59644  24154266.255    24154271.783
 02  1 10  3 33  0.0000000  0  8G20G22G27G 2G31G 1G13G 8
  -1598816.41348                  25041738.444
 -11630039.74648  -9062385.39045  22663257.362    22663263.249
 -18076615.93949 -14085677.13846  22173487.432    22173490.985
  -9804419.02449  -7639808.73046  22195146.719    22195151.850
  -4962876.96448  -3867174.70445  22821777.641    22821783.334
 -23385390.54749 -18222386.72347  20639923.612    20639927.002
 -22306101.50849 -17381381.06747  20381148.819    20381149.804
  -3214860.33148  -2505091.55044  24136920.900    24136923.870
 02  1 10  3 33 30.0000000  0  8G20G22G27G 2G31G 1G13G 8
  -1490600.17548                  25062331.495
 -11528057.44448  -8982918.87845  22682663.331    22682669.553
 -18140518.24449 -14135471.16946  22161327.204    22161330.765
  -9870433.63349  -7691248.69646  22182585.008    22182589.682
  -5059109.60148  -3942161.05445  22803465.446    22803470.689
 -23340378.85049 -18187312.75247  20648489.223    20648492.561
 -22326538.29549 -17397305.88447  20377259.856    20377260.966
  -3305959.94148  -2576078.38445  24119584.538    24119589.675
 02  1 10  3 34  0.0000000  0  8G20G22G27G 2G31G 1G13G 8
  -1382464.51148  -1077275.08544  25082908.924    25082917.860
 -11425885.17948  -8903304.36045  22702106.987    22702112.623
 -18204295.33349 -14185167.62746  22149190.736    22149194.051
  -9936151.15949  -7742457.16746  22170079.162    22170083.630
  -5155084.26148  -4016946.38945  22785201.499    22785207.337
 -23294898.53149 -18151873.61847  20657143.963    20657147.211
 -22346471.99849 -17412838.68747  20373466.790    20373467.950
  -3397012.26248  -2647028.35244  24102257.954    24102263.435
 02  1 10  3 34 30.0000000  0  8G20G22G27G 2G31G 1G13G 8
  -1274415.15148                  25103469.499
 -11323528.39848  -8823546.05245  22721584.356    22721591.171
 -18267949.79449 -14234768.52546  22137077.956    22137081.149
 -10001574.07849  -7793436.06246  22157629.591    22157634.481
  -5250800.54048  -4091530.40345  22766987.284    22766993.696
 -23248953.13949 -18116072.08947  20665887.187    20665890.385
 -22365904.04649 -17427980.58747  20369769.117    20369770.149
  -3488019.78748  -2717943.41344  24084940.182    24084946.807
 02  1 10  3 35  0.0000000  0  8G20G22G27G 2G31G 1G13G 8
  -1166442.58048                  25124016.734
 -11220977.62848  -8743636.61145  22741099.589    22741107.150
 -18331468.83749 -14284263.90546  22124991.275    22124994.346
 -10066689.71949  -7844175.52346  22145238.363    22145243.071
  -5346243.09248  -4165901.14546  22748825.924    22748831.822
 -23202531.09749 -18079899.14247  20674720.960    20674724.184
 -22384821.28849 -17442721.33547  20366169.147    20366170.360
  -3578969.84248  -2788813.72344  24067632.724    24067637.432
 02  1 10  3 35 30.0000000  0  7G22G27G 2G31G 1G13G 8
 -11118245.20648  -8663585.60945  22760649.273    22760655.882
 -18394862.04649 -14333661.24546  22112927.485    22112930.771
 -10131507.58649  -7894682.94746  22132904.458    22132908.645
  -5441418.73948  -4240063.91545  22730713.835    22730718.878
 -23155642.89349 -18043362.94747  20683643.499    20683646.772
 -22403232.36849 -17457067.67747  20362665.537    20362666.692
  -3669872.03148  -2859646.67844  24050334.103    24050338.500
 02  1 10  3 36  0.0000000  0  7G22G27G 2G31G 1G13G 8
 -11015326.97448  -8583389.83145  22780233.876    22780240.442
 -18458122.00349 -14382954.75146  22100889.289    22100892.441
 -10196020.13249  -7944952.45646  22120627.470    22120632.241
  -5536317.26648  -4314010.76945  22712655.217    22712661.668
 -23108282.35749 -18006458.71047  20692656.377    20692659.584
 -22421129.20449 -17471013.30547  20359260.037    20359261.249
  -3760719.27548  -2930436.81545  24033046.912    24033051.476
 02  1 10  3 36 30.0000000  0  8G 3G22G27G 2G31G 1G13G 8
         -.89559         -.67456  22096553.357    22096557.976
 -10912223.96248  -8503050.06145  22799854.295    22799860.759
 -18521246.97149 -14432143.08046  22088877.284    22088880.396
 -10260225.66949  -7994982.73846  22108410.217    22108414.281
  -5630934.37748  -4387738.35245  22694650.048    22694656.644
 -23060448.73749 -17969185.83247  20701758.682    20701761.889
 -22438509.21349 -17484556.20847  20355952.738    20355953.936
  -3851509.55848  -3001182.55445  24015770.906    24015775.847
 02  1 10  3 37  0.0000000  0  8G 3G22G27G 2G31G 1G13G 8
    -30319.44149    -23625.55946  22090784.511    22090789.170
 -10808935.17448  -8422565.53945  22819509.112    22819515.911
 -18584232.82749 -14481223.01146  22076891.927    22076894.988
 -10324119.79249  -8044770.36046  22096251.016    22096255.773
  -5725262.92948  -4461241.09145  22676699.742    22676706.316
 -23012139.07549 -17931542.01547  20710951.699    20710954.901
 -22455367.45449 -17497692.54347  20352744.845    20352745.896
  -3942238.90048  -3071880.85045  23998504.767    23998510.496
 02  1 10  3 37 30.0000000  0  8G 3G22G27G 2G31G 1G13G 8
    -60082.19949    -46817.37046  22085122.062    22085126.619
 -10705467.79448  -8341941.85845  22839199.412    22839203.647
 -18647083.74149 -14530197.78146  22064931.642    22064934.718
 -10387706.52949  -8094318.45846  22084151.142    22084155.580
  -5819304.31848  -4534520.07245  22658804.658    22658809.634
 -22963358.72849 -17893531.43247  20720234.160    20720237.476
 -22471707.83449 -17510425.34747  20349635.323    20349636.671
  -4032911.69448  -3142535.05945  23981251.439    23981254.487
 02  1 10  3 38  0.0000000  0  8G 3G22G27G 2G31G 1G13G 8
    -89310.61449    -69592.80346  22079560.065    22079565.005
 -10601847.34348  -8261198.90745  22858916.675    22858923.762
 -18709822.10449 -14579084.85246  22052992.484    22052995.672
 -10451008.49649  -8143644.66346  22072105.019    22072109.881
  -5913078.44248  -4607590.81045  22640960.372    22640964.713
 -22914131.20749 -17855172.40247  20729602.258    20729605.648
 -22487551.98749 -17522771.48247  20346620.245    20346621.554
  -4123550.26548  -3213162.60345  23964002.298    23964008.503
 02  1 10  3 38 30.0000000  0  8G 3G22G27G 2G31G 1G13G 8
   -117999.36549    -91947.70346  22074100.597    22074104.963
 -10498072.04748  -8180335.31945  22878665.325    22878672.726
 -18772443.24849 -14627880.58846  22041076.107    22041079.216
 -10514021.13749  -8192745.42346  22060114.322    22060118.866
  -6006577.98848  -4680447.58946  22623167.630    22623174.340
 -22864453.04949 -17816462.23047  20739055.698    20739058.861
 -22502894.25649 -17534726.54047  20343700.624    20343702.005
  -4214150.11148  -3283759.99445  23946763.090    23946766.640
 02  1 10  3 39  0.0000000  0  8G 3G22G27G 2G31G 1G13G 8
   -146133.43149   -113870.38246  22068746.850    22068751.527
 -10394130.99848  -8099342.56245  22898444.601    22898451.740
 -18834933.15949 -14676574.06046  22029185.685    22029188.631
 -10576730.48249  -8241609.85446  22048181.185    22048185.713
  -6099786.14748  -4753077.31946  22605430.631    22605436.787
 -22814311.51849 -17777390.98747  20748597.297    20748600.636
 -22517720.31749 -17546279.35747  20340879.288    20340880.505
  -4304697.28048  -3354316.21844  23929531.473    23929536.701
 02  1 10  3 39 30.0000000  0  8G 3G22G27G 2G31G 1G13G 8
   -173713.76249   -135361.57646  22063498.361    22063502.601
 -10290028.82748  -8018224.24545  22918255.015    22918264.447
 -18897293.47649 -14725166.59146  22017318.926    22017321.802
 -10639138.27049  -8290239.27346  22036305.290    22036309.272
  -6192701.84448  -4825479.14246  22587749.481    22587753.883
 -22763709.50749 -17737960.93047  20758226.593    20758229.798
 -22532031.06249 -17557430.63547  20338156.186    20338157.262
  -4395193.63348  -3424832.95245  23912311.769    23912316.338
 02  1 10  3 40  0.0000000  0  8G 3G22G27G 2G31G 1G13G 8
   -200743.16549   -156423.46546  22058354.850    22058359.400
 -10185772.39048  -7936985.70945  22938094.687    22938101.379
 -18959527.99249 -14773661.04446  22005474.983    22005478.183
 -10701247.98749  -8338636.46746  22024486.300    22024490.885
  -6285325.90548  -4897653.73346  22570123.401    22570128.412
 -22712651.82249 -17698175.80147  20767942.787    20767946.083
 -22545829.80049 -17568182.94947  20335530.723    20335531.695
  -4485642.73548  -3495312.87945  23895098.632    23895105.444
 02  1 10  3 40 30.0000000  0  8G 3G22G27G 2G31G 1G13G 8
   -227217.52449   -177052.85546  22053316.541    22053321.891
 -10081361.09748  -7855626.53945  22957962.921    22957971.857
 -19021633.34849 -14822054.86646  21993657.135    21993660.338
 -10763056.49149  -8386798.94446  22012724.073    22012728.399
  -6377652.25348  -4969596.33746  22552554.979    22552560.387
 -22661136.31849 -17658033.93247  20777745.458    20777748.926
 -22559112.73149 -17578533.33447  20333003.396    20333004.496
  -4576041.48748  -3565753.52044  23877896.654    23877904.085
 02  1 10  3 41  0.0000000  0  8G 3G22G27G 2G31G 1G13G 8
   -253113.13549   -197231.26546  22048388.843    22048393.586
  -9976775.32748  -7774131.40045  22977866.362    22977872.880
 -19083586.86249 -14870330.37146  21981868.733    21981871.475
 -10824540.97649  -8434708.93346  22001024.225    22001028.497
  -6469655.64248  -5041287.28746  22535046.201    22535053.435
 -22609141.75949 -17617518.77247  20787640.167    20787643.597
 -22571856.46849 -17588463.56347  20330578.359    20330579.117
  -4666367.09948  -3636137.22345  23860708.955    23860716.406
 02  1 10  3 41 30.0000000  0  8G 3G22G27G 2G31G 1G13G 8
   -278425.61549   -216955.29246  22043571.864    22043576.551
  -9872014.39448  -7692499.75645  22997800.375    22997808.566
 -19145384.73449 -14918484.59346  21970108.231    21970111.252
 -10885697.68349  -8482363.50846  21989386.257    21989390.589
  -6561329.74548  -5112721.63846  22517602.115    22517606.962
 -22556665.71849 -17576628.43047  20797625.850    20797629.445
 -22584056.60649 -17597970.21447  20328256.710    20328257.635
  -4756616.10348  -3706461.18845  23843534.216    23843543.649
 02  1 10  3 42  0.0000000  0  8G 3G22G27G 2G31G 1G13G 8
   -303176.28749   -236241.53046  22038861.675    22038867.165
  -9767103.16048  -7610751.03145  23017766.173    23017771.250
 -19207049.01649 -14966534.72546  21958373.577    21958376.932
 -10946548.90549  -8529780.04846  21977806.942    21977811.288
  -6652693.87548  -5183914.45246  22500216.237    22500221.531
 -22503731.65549 -17535381.19247  20807698.958    20807702.639
 -22595734.69049 -17607070.07347  20326034.348    20326035.248
  -4846810.20648  -3776742.41945  23826372.711    23826375.880
 02  1 10  3 42 30.0000000  0  8G 3G22G27G 2G31G 1G13G 8
   -327381.36349   -255102.63346  22034255.686    22034261.326
  -9662061.69048  -7528900.79345  23037753.671    23037762.607
 -19268596.60449 -15014493.91846  21946661.424    21946664.849
 -11007111.68249  -8576971.82146  21966282.263    21966286.723
  -6743762.64048  -5254877.11946  22482885.489    22482891.650
 -22450357.85049 -17493791.29147  20817855.726    20817859.287
 -22606907.51549 -17615776.22047  20323908.230    20323909.381
  -4936966.86148  -3846994.46144  23809214.478    23809220.398
 02  1 10  3 43  0.0000000  0  8G 3G22G27G 2G31G 1G13G 8
   -351027.30649   -273528.04846  22029756.129    22029761.876
  -9556880.04348  -7446941.35745  23057770.631    23057777.122
 -19330014.49149 -15062352.03846  21934974.801    21934977.912
 -11067373.11349  -8623928.77646  21954814.807    21954819.233
  -6834520.20549  -5325597.28646  22465615.711    22465621.139
 -22396532.71949 -17451849.71347  20828097.997    20828102.146
 -22617561.47949 -17624078.05847  20321881.010    20321882.037
  -5027073.09448  -3917207.16845  23792069.738    23792074.312
 02  1 10  3 43 30.0000000  0  8G 3G22G27G 2G31G 1G13G 8
   -374108.17549   -291513.15246  22025363.946    22025369.287
  -9451555.72348  -7364870.73545  23077812.726    23077820.917
 -19391297.33349 -15110104.92946  21923312.973    21923316.207
 -11127328.04449  -8670646.90846  21943405.706    21943410.066
  -6924958.56948  -5396068.72646  22448405.287    22448411.019
 -22342252.25149 -17409553.32147  20838427.783    20838431.647
 -22627690.76749 -17631971.06147  20319953.418    20319954.422
  -5117123.54648  -3987376.40944  23774932.682    23774936.454
 02  1 10  3 44  0.0000000  0  8G 3G22G27G 2G31G 1G13G 8
   -396614.94349   -309050.90946  22021081.281    22021086.133
  -9346083.12548  -7282684.59245  23097883.874    23097890.969
 -19452436.53949 -15157745.88646  21911677.869    21911681.527
 -11186967.91249  -8717119.53446  21932056.387    21932061.127
  -7015066.50549  -5466282.68246  22431258.650    22431263.638
 -22287509.34349 -17366896.58847  20848844.720    20848848.790
 -22637286.40549 -17639448.23147  20318127.431    20318128.467
  -5207109.84048  -4057495.53745  23757808.821    23757815.382
 02  1 10  3 44 30.0000000  0  8G 3G22G27G 2G31G 1G13G 8
   -418553.19049   -326145.67446  22016906.957    22016911.842
  -9240471.47848  -7200390.08745  23117981.648    23117987.625
 -19513438.32549 -15205279.76146  21900069.966    21900073.141
 -11246299.01649  -8763351.56246  21920766.362    21920770.842
  -7104847.59249  -5536241.96746  22414173.679    22414179.788
 -22232311.43449 -17323885.31147  20859348.680    20859352.554
 -22646354.19049 -17646514.08547  20316401.754    20316402.712
  -5297038.23748  -4127569.91845  23740696.208    23740703.421
 02  1 10  3 45  0.0000000  0  8G 3G22G27G 2G31G 1G13G 8
   -439913.49749   -342790.09846  22012842.243    22012847.163
  -9134714.61848  -7117982.44445  23138105.919    23138114.855
 -19574293.58349 -15252699.46446  21888490.093    21888493.207
 -11305312.68449  -8809336.23946  21909536.330    21909540.869
  -7194290.20049  -5605937.48646  22397153.784    22397158.343
 -22176651.05449 -17280513.66347  20869940.647    20869944.335
 -22654884.58649 -17653161.19147  20314778.666    20314779.761
  -5386899.64848  -4197591.83945  23723595.207    23723603.894
 02  1 10  3 45 30.0000000  0  8G 3G22G27G 2G31G 1G13G 8
   -460691.31249   -358980.64046  22008888.224    22008893.027
  -9028811.94148  -7035461.18945  23158260.022    23158266.677
 -19634998.61849 -15300002.10746  21876938.125    21876941.451
 -11364005.51649  -8855070.91246  21898367.285    21898372.044
  -7283388.01149  -5675364.34446  22380198.919    22380203.632
 -22120526.05249 -17236779.97247  20880620.983    20880624.880
 -22662873.73549 -17659386.54847  20313258.129    20313259.179
  -5476690.57148  -4267558.86545  23706510.154    23706515.340
 02  1 10  3 46  0.0000000  0  8G 3G22G27G 2G31G 1G13G 8
   -480889.42049   -374719.46746  22005044.459    22005049.525
  -8922769.74448  -6952831.20845  23178437.785    23178447.465
 -19695556.79349 -15347190.31646  21865413.346    21865417.325
 -11422380.97249  -8900558.28146  21887258.956    21887263.560
  -7372141.94349  -5744523.24046  22363308.757    22363314.958
 -22063941.28049 -17192688.02047  20891388.620    20891392.624
 -22670324.49449 -17665192.38047  20311840.258    20311841.452
  -5566414.54948  -4337473.70445  23689434.962    23689442.388
 02  1 10  3 46 30.0000000  0  8G 3G22G27G 2G31G 1G13G 8
   -500527.37349   -390021.81246  22001307.498    22001312.567
  -8816610.77548  -6870110.25145  23198641.327    23198649.158
 -19755988.06249 -15394279.63346  21853913.860    21853917.364
 -11480458.92349  -8945813.82146  21876206.941    21876211.291
  -7460569.10349  -5813427.51246  22346482.717    22346488.509
 -22006918.13649 -17148254.48047  20902240.346    20902243.963
 -22677256.70349 -17670594.14347  20310521.389    20310522.630
  -5656091.50548  -4407351.93045  23672371.501    23672376.089
 02  1 10  3 47  0.0000000  0  8G 3G22G27G 2G31G 1G13G 8
   -519603.86849   -404886.66346  21997677.395    21997682.379
  -8710336.87848  -6787299.71245  23218863.484    23218873.413
 -19816291.31849 -15441269.20546  21842438.871    21842442.122
 -11538238.66349  -8990836.99046  21865211.961    21865216.520
  -7548665.69149  -5882074.20446  22329718.366    22329722.964
 -21949456.94249 -17103479.59947  20913174.511    20913178.515
 -22683668.97149 -17675590.76147  20309300.804    20309302.030
  -5745720.26748  -4477192.59245  23655314.890    23655320.588
 02  1 10  3 47 30.0000000  0  8G 3G22G27G 2G31G 1G13G 8
   -538108.03649   -419305.54846  21994155.992    21994161.197
  -8603940.75248  -6704393.97545  23239110.977    23239119.416
 -19876456.45249 -15488151.14946  21830989.863    21830993.120
 -11595710.35949  -9035620.12146  21854275.582    21854279.918
  -7636419.18448  -5950453.54546  22313018.045    22313024.416
 -21891549.22349 -17058356.77947  20924193.787    20924197.948
 -22689550.90249 -17680174.12647  20308181.849    20308183.122
  -5835290.85348  -4546987.90145  23638270.030    23638275.377
 02  1 10  3 48  0.0000000  0  8G 3G22G27G 2G31G 1G13G 8
   -556036.38049   -433275.74046  21990744.324    21990750.056
  -8497422.17948  -6621392.80445  23259381.017    23259389.208
 -19936480.04149 -15534922.80346  21819567.992    21819571.342
 -11652870.83649  -9080160.74646  21843397.995    21843402.505
  -7723823.70049  -6018560.94946  22296386.988    22296391.836
 -21833193.17849 -17012884.61547  20935299.409    20935302.880
 -22694898.64549 -17684341.23947  20307164.336    20307165.610
  -5924800.18848  -4616735.50745  23621237.285    23621242.965
 02  1 10  3 48 30.0000000  0  8G 3G22G27G 2G31G 1G13G 8
   -573396.98549   -446803.55046  21987440.601    21987445.789
  -8390792.31148  -6538304.92445  23279672.047    23279682.720
 -19996370.54049 -15581590.75046  21808171.046    21808174.322
 -11709728.86649  -9124465.69446  21832578.618    21832583.220
  -7810885.23649  -6086401.11946  22279819.445    22279824.329
 -21774398.90149 -16967070.96747  20946486.678    20946490.841
 -22699720.35449 -17688098.45547  20306246.686    20306247.972
  -6014256.51048  -4686441.75545  23604214.661    23604220.645
 02  1 10  3 49  0.0000000  0  8G 3G22G27G 2G31G 1G13G 8
   -590185.37749   -459885.48246  21984245.852    21984250.937
  -8284050.23048  -6455129.58245  23299984.692    23299993.131
 -20056123.84249 -15628151.79246  21796800.523    21796803.884
 -11766280.67849  -9168532.02746  21821816.792    21821821.481
  -7897597.02049  -6153968.75646  22263317.973    22263323.557
 -21715163.80449 -16920913.83247  20957759.299    20957763.293
 -22704012.06649 -17691442.68547  20305430.005    20305431.278
  -6103655.99748  -4756103.76545  23587203.210    23587206.524
 02  1 10  3 49 30.0000000  0  8G 3G22G27G 2G31G 1G13G 8
   -606373.27549   -472499.49546  21981165.475    21981170.669
  -8177170.63148  -6371847.09645  23320323.169    23320332.353
 -20115711.85449 -15674584.04946  21785461.222    21785464.408
 -11822498.43149  -9212338.05746  21811119.594    21811124.081
  -7983928.56749  -6221240.09646  22246890.770    22246896.013
 -21655461.39049 -16874392.55147  20969120.646    20969124.466
 -22707745.48549 -17694351.88247  20304719.441    20304720.649
  -6192970.59748  -4825699.60545  23570206.189    23570213.146
 02  1 10  3 50  0.0000000  0  8G 3G22G27G 2G31G 1G13G 8
   -621969.27149   -484652.29146  21978197.959    21978202.898
  -8070165.08248  -6288466.46545  23340686.103    23340696.032
 -20175143.29549 -15720894.30346  21774151.862    21774155.080
 -11878391.06249  -9255890.74146  21800482.970    21800487.696
  -8069885.88849  -6288219.85046  22230533.227    22230538.935
 -21595302.22549 -16827515.36147  20980568.374    20980572.364
 -22710929.00449 -17696832.58247  20304113.724    20304115.202
  -6282209.50448  -4895236.45345  23553224.496    23553233.183
 02  1 10  3 50 30.0000000  0  8G 3G22G27G 2G31G 1G13G 8
   -636977.23949   -496346.88046  21975342.457    21975347.758
  -7963040.86848  -6204993.36945  23361070.749    23361081.422
 -20234422.19549 -15767085.69046  21762871.672    21762874.862
 -11933962.99249  -9299193.53046  21789908.646    21789912.896
  -8155470.85149  -6354909.44546  22214246.361    22214251.815
 -21534692.06749 -16780286.75447  20992101.833    20992105.957
 -22713566.99449 -17698888.19447  20303612.179    20303613.632
  -6371376.47648  -4964717.27145  23536257.361    23536261.372
 02  1 10  3 51  0.0000000  0  8G 3G22G27G 2G31G 1G13G 8
   -651405.63649   -507589.85746  21972596.826    21972601.601
  -7855809.58548  -6121436.82845  23381477.380    23381484.844
 -20293557.36949 -15813165.08246  21751618.569    21751621.829
 -11989223.60249  -9342253.73046  21779392.498    21779396.845
  -8240689.70349  -6421313.77546  22198030.888    22198035.235
 -21473641.48649 -16732714.95847  21003719.689    21003723.628
 -22715667.89349 -17700525.29847  20303212.136    20303213.626
  -6460480.62348  -5034149.14045  23519301.337    23519307.293
 02  1 10  3 51 30.0000000  0  8G 3G22G27G 2G31G 1G13G 8
   -665240.41049   -518370.28146  21969964.251    21969969.188
  -7748460.09048  -6037788.16145  23401904.462    23401915.632
 -20352534.82049 -15859121.57846  21740395.462    21740398.885
 -12044159.22349  -9385060.69746  21768938.596    21768942.831
  -8325526.06849  -6487420.05246  22181886.168    22181892.108
 -21412138.08549 -16684790.31447  21015423.831    21015428.117
 -22717217.60449 -17701732.90547  20302917.177    20302918.619
  -6549507.91448  -5103521.09045  23502360.312    23502367.062
 02  1 10  3 52  0.0000000  0  8G 3G22G27G 2G31G 1G13G 8
   -678499.63449   -528702.22446  21967441.185    21967446.298
  -7641013.59448  -5954063.95345  23422351.873    23422359.632
 -20411372.97949 -15904969.53746  21729199.160    21729202.319
 -12098788.59549  -9427629.02546  21758543.339    21758547.355
  -8409995.88049  -6553240.70946  22165812.570    22165818.244
 -21350201.95649 -16636528.48447  21027209.424    21027213.591
 -22718234.51849 -17702525.34847  20302723.588    20302725.184
  -6638477.01448  -5172847.70845  23485428.964    23485436.015
 02  1 10  3 52 30.0000000  0  8G 3G22G27G 2G31G 1G13G 8
   -691193.56949   -538593.68546  21965025.491    21965030.722
  -7533483.57448  -5870274.62245  23442814.285    23442824.213
 -20470082.24749 -15950717.06346  21718027.289    21718030.657
 -12153122.43149  -9469967.06446  21748203.667    21748207.961
  -8494106.95449  -6618781.85446  22149806.609    22149811.764
 -21287845.41149 -16587939.05847  21039075.884    21039079.748
 -22718729.03749 -17702910.73047  20302629.499    20302631.133
  -6727398.39348  -5242137.11145  23468508.735    23468515.766
 02  1 10  3 53  0.0000000  0  8G 3G22G27G 2G31G 1G13G 8
   -703308.09649   -548033.65646  21962719.931    21962725.122
  -7425858.68848  -5786411.37645  23463294.563    23463303.995
 -20528648.36749 -15996353.03846  21706882.283    21706885.571
 -12207147.08049  -9512064.18647  21737923.237    21737927.389
  -8577842.76949  -6684030.56246  22133871.691    22133877.799
 -21225056.09449 -16539012.40647  21051024.024    21051028.164
 -22718687.16349 -17702878.14447  20302637.672    20302639.265
  -6816257.94648  -5311378.35745  23451599.531    23451604.654
 02  1 10  3 53 30.0000000  0  8G 3G22G27G 2G31G 1G13G 8
   -714820.76649   -557004.64746  21960529.519    21960534.690
  -7318119.40248  -5702458.98545  23483797.273    23483806.457
 -20587048.95449 -16041860.03346  21695769.037    21695772.221
 -12260840.30249  -9553903.05147  21727705.425    21727709.707
  -8661178.26149  -6748967.33546  22118014.789    22118020.635
 -21161813.28349 -16489732.38247  21063058.689    21063062.901
 -22718086.58249 -17702410.20047  20302752.205    20302753.766
  -6905033.44848  -5380554.10145  23434704.639    23434712.573
 02  1 10  3 54  0.0000000  0  8G 3G22G27G 2G31G 1G13G 8
   -725749.14649   -565520.35046  21958449.950    21958455.133
  -7210285.89548  -5618433.18845  23504316.575    23504328.241
 -20645301.23249 -16087251.45646  21684684.608    21684687.698
 -12314220.05849  -9595497.65647  21717547.816    21717552.304
  -8744128.49449  -6813603.90946  22102229.053    22102234.576
 -21098136.07349 -16440113.86547  21075176.519    21075180.723
 -22716944.05949 -17701519.96547  20302969.429    20302970.854
  -6993742.15748  -5449677.77845  23417825.148    23417832.720
 02  1 10  3 54 30.0000000  0  8G 3G22G27G 2G31G 1G13G 8
   -736089.77149   -573578.06346  21956482.267    21956487.212
  -7102357.73548  -5534333.62745  23524855.703    23524864.639
 -20703401.85849 -16132524.71447  21673628.506    21673631.604
 -12367283.50149  -9636845.78947  21707450.026    21707454.375
  -8826688.15549  -6877936.12746  22086518.305    22086524.633
 -21034023.13849 -16390155.82447  21087376.599    21087380.750
 -22715256.78149 -17700205.24447  20303290.671    20303292.280
  -7082380.92948  -5518746.97145  23400957.082    23400963.192
 02  1 10  3 55  0.0000000  0  8G 3G22G27G 2G31G 1G13G 8
   -745840.65549   -581176.24146  21954627.252    21954632.586
  -6994335.78348                  23545411.165
 -20761348.73649 -16177678.16547  21662601.105    21662604.454
 -12420028.91749  -9677946.11047  21697412.360    21697416.890
  -8908852.40949  -6941960.25346  22070883.607    22070889.268
 -20969473.87949 -16339857.78847  21099660.249    21099664.436
 -22713022.35549 -17698464.17947  20303715.937    20303717.423
  -7170947.86248  -5587760.18845  23384103.720    23384108.920
 02  1 10  3 55 30.0000000  0  8G 3G22G27G 2G31G 1G13G 8
   -754997.22749   -588311.30246  21952884.445    21952889.776
  -6886218.27948  -5365913.86745  23565986.163    23565995.595
 -20819137.41049 -16222708.33747  21651604.073    21651607.543
 -12472452.31749  -9718795.50947  21687437.063    21687441.141
  -8990614.26449  -7005670.80746  22055324.385    22055330.250
 -20904485.94949 -16289217.93247  21112027.259    21112031.355
 -22710236.91149 -17696293.75347  20304246.138    20304247.692
  -7259438.58548  -5656714.01445  23367264.423    23367271.928
 02  1 10  3 56  0.0000000  0  8G 3G22G27G 2G31G 1G13G 8
   -763563.23749   -594986.19046  21951254.791    21951259.837
  -6778011.84648                  23586576.687
 -20876771.56849 -16267618.10247  21640636.923    21640640.380
 -12524557.74749  -9759397.14147  21677521.525    21677525.794
  -9071975.14249  -7069068.90146  22039841.591    22039847.338
 -20839064.91449 -16238240.59247  21124476.031    21124480.599
 -22706904.05449 -17693696.77347  20304880.324    20304881.802
  -7347856.65748  -5725611.23545  23350438.804    23350445.529
 02  1 10  3 56 30.0000000  0  8G 3G22G27G 2G31G 1G13G 8
   -771532.51449   -601196.08146  21949738.095    21949742.449
  -6669712.80248  -5197208.93645  23607186.338    23607196.515
 -20934244.65949 -16312402.35847  21629700.420    21629703.557
 -12576339.39549  -9799746.47847  21667667.883    21667672.473
  -9152926.31949  -7132147.74046  22024437.793    22024443.392
 -20773206.22949 -16186922.22847  21137008.948    21137013.126
 -22703017.77549 -17690668.55447  20305619.931    20305621.508
  -7436195.97148  -5794447.03745  23333627.873    23333637.305
 02  1 10  3 57  0.0000000  0  8G 3G22G27G 2G31G 1G13G 8
   -778897.98949   -606935.47346  21948337.025    21948342.120
  -6561316.74648  -5112744.77445  23627813.368    23627824.290
 -20991549.24749 -16357055.32247  21618795.452    21618798.611
 -12627790.40949  -9839838.18447  21657877.383    21657881.622
  -9233458.26149  -7194899.89746  22009112.583    22009118.259
 -20706904.57249 -16135258.69047  21149625.900    21149630.082
 -22698570.55449 -17687203.23947  20306466.106    20306467.613
  -7524449.14448  -5863215.76145  23316833.661    23316842.597
 02  1 10  3 57 30.0000000  0  8G 3G22G27G 2G31G 1G13G 8
   -785674.55349   -612215.97446  21947047.343    21947051.885
  -6452841.26948  -5028218.74645  23648455.512    23648466.930
 -21048699.96249 -16401588.37547  21607919.830    21607923.171
 -12678925.90249  -9879684.02347  21648146.622    21648150.809
  -9313583.22849  -7257334.91846  21993865.401    21993871.594
 -20640176.53549 -16083262.91047  21162323.533    21162327.957
 -22693577.26049 -17683312.41347  20307416.415    20307418.039
  -7612631.11848  -5931928.98445  23300055.615    23300060.563
 02  1 10  3 58  0.0000000  0  8G 3G22G27G 2G31G 1G13G 8
   -791871.35349   -617044.70546  21945868.108    21945873.334
  -6344298.15148                  23669110.964
 -21105705.93449 -16446008.64447  21597072.236    21597075.510
 -12729755.53849  -9919291.53047  21638473.599    21638478.021
  -9393307.88949  -7319458.00846  21978694.636    21978700.186
 -20573033.16449 -16030943.48947  21175101.015    21175105.159
 -22688047.39049 -17679003.47647  20308468.594    20308470.201
  -7700751.02248  -6000593.87145  23283285.463    23283293.405
 02  1 10  3 58 30.0000000  0  8G 3G22G27G 2G31G 1G13G 8
   -797477.84349   -621413.44546  21944801.457    21944806.137
  -6235679.45048  -4859002.41745  23689780.623    23689792.041
 -21162556.36549 -16490307.71747  21586253.914    21586257.586
 -12780269.01749  -9958652.68747  21628861.248    21628865.467
  -9472619.28849  -7381259.05646  21963601.577    21963607.726
 -20505465.46349 -15978293.42747  21187958.514    21187962.819
 -22681970.25049 -17674268.09547  20309625.104    20309626.620
  -7788798.09848  -6069201.96345  23266529.551    23266536.268
 02  1 10  3 59  0.0000000  0  8G 3G22G27G 2G31G 1G13G 8
   -802490.30749   -625319.31446  21943847.621    21943852.724
  -6126984.00248  -4774304.89244  23710465.184    23710476.602
 -21219247.25349 -16534482.46847  21575466.087    21575469.534
 -12830463.14649  -9997764.99347  21619309.779    21619314.478
  -9551511.29249  -7442733.30146  21948589.500    21948594.725
 -20437471.58849 -15925311.28047  21200897.519    21200902.193
 -22675342.27549 -17669103.49547  20310886.419    20310888.008
  -7876768.66648  -6137750.49645  23249791.540    23249796.423
 02  1 10  3 59 30.0000000  0  8G 3G22G27G 2G31G 1G13G 8
   -806918.02349   -628769.52046  21943004.739    21943009.885
  -6018223.64048  -4689556.92744  23731161.381    23731173.047
 -21275787.53949 -16578539.87047  21564706.812    21564710.363
 -12880347.12249 -10036635.62147  21609817.134    21609821.496
  -9629990.44049  -7503885.83646  21933654.909    21933660.901
 -20369062.61949 -15872005.68047  21213915.456    21213919.471
 -22668172.59949 -17663516.78647  20312250.854    20312252.546
  -7964671.66748  -6206246.33345  23233062.539    23233069.631
 02  1 10  4  0  0.0000000  0  8G 3G22G27G 2G31G 1G13G 8
   -810745.48349   -631751.99146  21942276.758    21942281.599
  -5909385.19348                  23751872.994
 -21332161.33049 -16622467.53847  21553979.570    21553983.175
 -12929905.61049 -10075252.62847  21600386.444    21600391.138
  -9708038.48549  -7564702.43646  21918803.007    21918808.977
 -20300224.70249 -15818365.83647  21227014.724    21227019.089
 -22660445.70049 -17657495.88147  20313721.047    20313722.665
  -8052491.21848  -6274677.18945  23216352.290    23216356.937
 02  1 10  4  0 30.0000000  0  8G 3G22G27G 2G31G 1G13G 8
   -813977.34149   -634270.36446  21941661.637    21941666.546
  -5800475.75848  -4519883.89345  23772598.275    23772606.467
 -21388372.78049 -16666268.70047  21543282.646    21543285.965
 -12979143.48549 -10113619.80847  21591016.812    21591021.373
  -9785657.63149  -7625184.83046  21904032.883    21904038.315
 -20230964.05449 -15764396.59347  21240195.136    21240199.390
 -22652166.24549 -17651044.41447  20315296.734    20315298.450
  -8140231.66948  -6343046.41245  23199654.461    23199663.396
 02  1 10  4  1  0.0000000  0  8G 3G22G27G 2G31G 1G13G 8
   -816605.03849   -636317.95946  21941161.913    21941166.840
  -5691489.42948  -4434959.81844  23793338.013    23793345.479
 -21444413.27649 -16709936.66347  21532618.300    21532622.041
 -13028052.78149 -10151730.95247  21581709.805    21581714.437
  -9862836.74049  -7685324.33446  21889345.959    21889351.380
 -20161274.05849 -15710092.79047  21253456.326    21253460.849
 -22643325.77449 -17644155.79247  20316979.201    20316980.813
  -8227884.52148  -6411347.34745  23182975.409    23182980.520
 02  1 10  4  1 30.0000000  0  8G 3G22G27G 2G31G 1G13G 8
   -818647.41949   -637909.46746  21940773.016    21940777.994
  -5582447.26148                  23814087.784
 -21500300.90649 -16753485.50447  21521983.594    21521987.345
 -13076652.51749 -10189600.88147  21572461.190    21572466.031
  -9939592.05449  -7745133.60446  21874739.675    21874745.533
 -20091174.98249 -15655470.23047  21266795.651    21266800.406
 -22633943.19549 -17636844.74747  20318764.845    20318766.445
  -8315468.00248  -6479594.25045  23166309.469    23166314.452
 02  1 10  4  2  0.0000000  0  8G 3G22G27G 2G31G 1G13G 8
   -820107.77449   -639047.44346  21940495.122    21940500.510
  -5473354.82548  -4264985.48444  23834848.208    23834856.399
 -21556038.46649 -16796917.40247  21511377.409    21511380.571
 -13124946.03849 -10227232.19747  21563271.368    21563276.027
 -10015924.37749  -7804613.28246  21860214.669    21860219.872
 -20020671.91449 -15600532.87347  21280212.501    21280216.859
 -22624021.86549 -17629113.89647  20320652.753    20320654.416
  -8402985.23548  -6547789.54645  23149654.851    23149660.740
 02  1 10  4  2 30.0000000  0  8G 3G22G27G 2G31G 1G13G 8
   -820968.09849   -639717.85946  21940331.618    21940336.792
  -5364196.41248                  23855620.046
 -21611607.20349 -16840217.75847  21500802.625    21500805.966
 -13172915.17249 -10264610.74347  21554143.776    21554148.027
 -10091812.83549  -7863747.09746  21845772.707    21845778.569
 -19949748.26549 -15545267.78647  21293707.984    21293712.844
 -22613543.02549 -17620948.62047  20322646.934    20322648.566
  -8490417.56448  -6615918.66545  23133017.229    23133023.681
 02  1 10  4  3  0.0000000  0  8G 3G22G27G 2G31G 1G13G 8
   -821220.81049   -639914.80546  21940283.446    21940288.638
  -5254966.31548                  23876406.413
 -21666998.89249 -16883380.14447  21490261.734    21490265.280
 -13220552.32349 -10301730.60347  21545078.325    21545082.963
 -10167246.81449  -7922526.76946  21831418.739    21831424.568
 -19878397.69449 -15489670.04347  21307286.263    21307290.878
 -22602499.06849 -17612342.99747  20324748.766    20324750.411
  -8577756.77748  -6683975.24245  23116397.177    23116403.623
 02  1 10  4  3 30.0000000  0  8G 3G22G27G 2G31G 1G13G 8
   -820881.41949   -639650.38346  21940347.852    21940353.178
  -5145682.62548  -4009657.57944  23897202.371    23897212.300
 -21722228.70249 -16926416.39147  21479752.295    21479755.881
 -13267873.57349 -10338604.31147  21536072.972    21536077.794
 -10242239.38849  -7980962.49046  21817147.950    21817153.154
 -19806637.70349 -15433753.26647  21320941.898    21320946.422
 -22590905.97649 -17603309.47647  20326954.900    20326956.546
  -8665018.20748  -6751971.19945  23099792.507    23099798.966
 02  1 10  4  4  0.0000000  0  7G22G27G 2G31G 1G13G 8
  -5036343.46948                  23918009.750
 -21777291.93549 -16969322.83647  21469274.200    21469277.490
 -13314874.88449 -10375228.71847  21527129.475    21527133.651
 -10316783.97149  -8039049.13546  21802962.310    21802968.317
 -19734466.01449 -15377515.69746  21334675.598    21334680.232
 -22578759.08149 -17593844.42647  20329266.301    20329267.932
  -8752197.31048  -6819903.00245  23083203.267    23083207.706
 02  1 10  4  4 30.0000000  0  7G22G27G 2G31G 1G13G 8
  -4926933.92748  -3839204.77244  23938829.422    23938840.840
 -21832170.74349 -17012085.57247  21458831.250    21458834.677
 -13361539.30949 -10411590.61747  21518249.188    21518253.664
 -10390860.84449  -8096771.33646  21788866.526    21788871.625
 -19661867.12949 -15320945.24946  21348490.993    21348495.593
 -22566041.93749 -17583935.02647  20331686.138    20331687.829
  -8839276.57548  -6887756.96945  23066631.930    23066637.928
 02  1 10  4  5  0.0000000  0  7G22G27G 2G31G 1G13G 8
  -4817492.26248                  23959656.167
 -21886900.75549 -17054732.36947  21448416.407    21448419.799
 -13407903.03749 -10447718.20647  21509426.533    21509431.170
 -10464503.24149  -8154154.99746  21774851.523    21774857.442
 -19588878.71149 -15264071.26846  21362380.599    21362385.171
 -22552790.43449 -17573609.24147  20334207.850    20334209.526
  -8926291.53748  -6955560.86745  23050073.338    23050079.338
 02  1 10  4  5 30.0000000  0  8G28G22G27G 2G31G 1G13G 8
         -.97658                  25390290.260
  -4707996.62848                  23980491.940
 -21941457.44749 -17097244.10647  21438034.400    21438037.930
 -13453942.20749 -10483592.89447  21500665.632    21500670.117
 -10537684.80649  -8211179.55546  21760926.590    21760931.571
 -19515478.49549 -15206876.41246  21376348.051    21376352.774
 -22538980.50249 -17562848.31847  20336835.903    20336837.692
  -9013217.81548  -7023295.66845  23033532.132    23033539.698
 02  1 10  4  6  0.0000000  0  8G28G22G27G 2G31G 1G13G 8
   -101260.83948                  25371020.048
  -4598453.66648                  24001338.248
 -21995844.40449 -17139623.58047  21427685.022    21427688.556
 -13499661.44049 -10519218.28347  21491965.761    21491970.282
 -10610406.99249  -8267846.16746  21747088.068    21747093.543
 -19441672.50049 -15149365.36546  21390392.761    21390397.752
 -22524616.51949 -17551655.66647  20339569.412    20339571.008
  -9100059.22148  -7090964.32045  23017006.894    23017011.789
 02  1 10  4  6 30.0000000  0  8G28G22G27G 2G31G 1G13G 8
   -202426.00648                  25351770.103
  -4488852.23548                  24022194.536
 -22050047.77949 -17181860.00647  21417370.345    21417373.664
 -13545047.68949 -10554584.21147  21483329.057    21483333.163
 -10682654.00149  -8324142.51646  21733338.938    21733345.374
 -19367449.23549 -15091529.17546  21404517.108    21404521.892
 -22509685.39849 -17540021.08747  20342410.712    20342412.268
  -9186802.14348  -7158556.24645  23000500.144    23000505.006
 02  1 10  4  7  0.0000000  0  7G22G27G 2G31G 1G13G 8
  -4379196.72048                  24043061.589
 -22104069.19249 -17223954.65047  21407090.718    21407094.052
 -13590103.26849 -10589692.47147  21474755.468    21474759.911
 -10754425.30349  -8380068.18846  21719682.176    21719688.068
 -19292812.57849 -15033370.86346  21418719.969    21418724.856
 -22494189.31649 -17527946.27747  20345359.633    20345361.401
  -9273448.31948  -7226072.78145  22984011.492    22984018.937
 02  1 10  4  7 30.0000000  0  8G28G22G27G 2G31G 1G13G 8
         -.66258                  25313320.195
  -4269496.92948                  24063936.581
 -22157915.73749 -17265913.02947  21396844.125    21396847.596
 -13634836.14949 -10624549.27647  21466242.790    21466247.369
 -10825726.34449  -8435627.42846  21706113.910    21706118.931
 -19217772.07049 -14974897.86146  21433000.022    21433005.197
 -22478136.36449 -17515437.54747  20348414.313    20348416.050
  -9360004.93348  -7293519.52045  22967541.045    22967548.360
 02  1 10  4  8  0.0000000  0  8G28G22G27G 2G31G 1G13G 8
   -100908.04048                  25294116.858
  -4159765.31648                  24084819.050
 -22211596.92349 -17307742.56047  21386628.907    21386632.298
 -13679256.54649 -10659162.59347  21457789.979    21457794.387
 -10896564.85149  -8490826.25046  21692633.460    21692639.126
 -19142339.45649 -14916119.32946  21447354.115    21447359.327
 -22461536.66049 -17502502.77347  20351573.575    20351575.423
  -9446481.60548  -7360903.97145  22951084.932    22951090.291
 02  1 10  4  8 30.0000000  0  8G28G22G27G 2G31G 1G13G 8
   -201736.88648                  25274931.516
  -4050004.00548                  24105704.826
 -22265112.25549 -17349442.85647  21376445.275    21376448.978
 -13723364.91549 -10693532.77147  21449396.920    21449401.256
 -10966938.48449  -8545662.84046  21679242.122    21679247.367
 -19066516.80449 -14857036.87046  21461782.840    21461787.626
 -22444390.66449 -17489142.32147  20354836.424    20354838.220
  -9532878.17148  -7428226.00945  22934643.376    22934649.304
 02  1 10  4  9  0.0000000  0  8G28G22G27G 2G31G 1G13G 8
   -302476.85148                  25255760.069
  -3940205.37148                  24126601.100
 -22318451.40649 -17391005.86847  21366294.975    21366298.580
 -13767151.86049 -10727652.49247  21441064.260    21441068.876
 -11036834.79349  -8600127.48946  21665941.369    21665946.547
 -18990296.02849 -14797644.18846  21476287.414    21476292.401
 -22426688.85049 -17475348.76447  20358204.616    20358206.438
  -9619184.23148  -7495477.51145  22918220.532    22918226.436
 02  1 10  4  9 30.0000000  0  8G28G22G27G 2G31G 1G13G 8
   -403115.50748                  25236609.791
  -3830360.29048                  24147501.563
 -22371602.53649 -17432422.37447  21356180.495    21356184.364
 -13810606.52349 -10761513.28847  21432795.129    21432799.398
 -11106239.77149  -8654209.28946  21652733.543    21652738.947
 -18913667.70549 -14737933.94446  21490869.692    21490874.413
 -22408419.93349 -17461113.30847  20361680.975    20361683.041
  -9705388.14948  -7562649.41145  22901816.445    22901822.308
 02  1 10  4 10  0.0000000  0  7G22G27G 2G31G 1G13G 8
  -3720485.47148  -2899118.38544  24168412.533    24168422.461
 -22424579.33449 -17473703.03247  21346099.789    21346103.286
 -13853743.30449 -10795126.38947  21424586.103    21424590.718
 -11175165.49749  -8707917.64946  21639618.104    21639622.895
 -18836648.29049 -14677918.94846  21505525.724    21505530.563
 -22389598.88849 -17446447.62247  20365262.781    20365264.679
  -9791503.72348  -7629752.49045  22885429.341    22885435.182
 02  1 10  4 10 30.0000000  0  7G22G27G 2G31G 1G13G 8
  -3610575.31448                  24189327.023
 -22477373.58349 -17514841.44747  21336053.366    21336057.028
 -13896554.86249 -10828486.07047  21416439.558    21416444.132
 -11243602.07149  -8761244.84946  21626594.468    21626599.728
 -18759231.85649 -14617594.59546  21520257.921    21520262.975
 -22370218.08449 -17431345.76147  20368950.853    20368952.737
  -9877523.08348  -7696780.59545  22869060.191    22869067.305
 02  1 10  4 11  0.0000000  0  8G28G22G27G 2G31G 1G13G 8
        -1.11458                  25179260.402
  -3500640.85348                  24210245.404
 -22529993.49349 -17555844.00547  21326040.037    21326043.590
 -13939050.69649 -10861599.73147  21408352.663    21408357.415
 -11311555.96149  -8814195.93646  21613663.630    21613668.923
 -18681429.05849 -14556969.17946  21535062.830    21535068.582
 -22350286.91749 -17415815.04447  20372743.201    20372745.242
  -9963454.53348  -7763740.20245  22852708.616    22852714.506
 02  1 10  4 11 30.0000000  0  8G28G22G27G 2G31G 1G13G 8
   -100275.05448                  25160179.781
  -3390681.30348  -2642128.81244  24231172.963    24231183.884
 -22582435.63149 -17596708.04547  21316060.596    21316064.317
 -13981228.12449 -10894465.28147  21400326.695    21400331.324
 -11379021.96549  -8866766.83946  21600825.116    21600830.124
 -18603239.01749 -14496042.01946  21549942.671    21549947.315
 -22329802.84649 -17399853.49547  20376641.266    20376643.316
 -10049294.80548  -7830628.75345  22836373.285    22836379.319
 02  1 10  4 12  0.0000000  0  8G28G22G27G 2G31G 1G13G 8
   -200453.24848                  25141115.307
  -3280696.18348                  24252099.975
 -22634696.79949 -17637431.06947  21306115.468    21306119.162
 -14023084.79249 -10927080.88847  21392361.313    21392366.000
 -11445994.84349  -8918953.50046  21588080.481    21588085.719
 -18524661.07149 -14434812.59246  21564895.273    21564900.740
 -22308763.51149 -17383459.27447  20380645.253    20380647.239
 -10135040.65748  -7897443.73445  22820056.455    22820063.132
 02  1 10  4 12 30.0000000  0  8G28G22G27G 2G31G 1G13G 8
   -300537.21048                  25122071.243
  -3170689.83448                  24273036.219
 -22686778.49149 -17678014.24047  21296204.770    21296208.397
 -14064623.10649 -10959448.42447  21384456.519    21384461.337
 -11512474.33049  -8970755.69346  21575429.799    21575435.295
 -18445699.03149 -14373283.87146  21579921.692    21579927.333
 -22287171.69449 -17366634.54947  20384754.074    20384756.113
 -10220693.79248  -7964186.45645  22803757.739    22803765.040
 02  1 10  4 13  0.0000000  0  8G28G22G27G 2G31G 1G13G 8
   -400522.88248                  25103044.403
  -3060661.31748                  24293971.982
 -22738677.00449 -17718454.67647  21286329.194    21286332.794
 -14105840.37949 -10991565.79647  21376613.842    21376618.504
 -11578455.38049  -9022169.49046  21562874.385    21562879.524
 -18366351.96349 -14311455.12946  21595020.604    21595026.082
 -22265024.51149 -17349377.07047  20388968.400    20388970.480
 -10306250.91048  -8030854.36145  22787476.087    22787482.737
 02  1 10  4 13 30.0000000  0  8G28G22G27G 2G31G 1G13G 8
   -500406.22148                  25084036.424
  -2950609.30748                  24314916.180
 -22790388.50849 -17758749.39147  21276488.963    21276492.352
 -14146733.76349 -11023430.78447  21368832.072    21368836.698
 -11643932.33149  -9073190.48946  21550414.360    21550419.525
 -18286618.66349 -14249325.42546  21610193.740    21610199.505
 -22242319.17849 -17331684.66847  20393289.052    20393291.162
 -10391708.07649  -8097444.38945  22771215.260    22771219.861
 02  1 10  4 14  0.0000000  0  8G28G22G27G 2G31G 1G13G 8
   -600177.55448                  25065051.207
  -2840527.35548                  24335863.911
 -22841903.88149 -17798891.28147  21266685.731    21266689.403
 -14187295.22649 -11055037.13647  21361113.432    21361118.157
 -11708894.17749  -9123810.09646  21538052.553    21538057.903
 -18206492.32949 -14186889.45246  21625441.238    21625446.884
 -22219047.54949 -17313550.99947  20397717.687    20397719.893
 -10477056.17948  -8163949.43245  22754973.270    22754979.766
 02  1 10  4 14 30.0000000  0  8G28G22G27G 2G31G 1G13G 8
   -699840.85848                  25046086.124
  -2730422.53448                  24356815.772
 -22893227.41049 -17838883.68347  21256919.157    21256922.726
 -14227530.03449 -11086388.95147  21353456.857    21353461.456
 -11773343.55649  -9174030.38346  21525788.368    21525793.417
 -18125979.87349 -14124152.60246  21640762.184    21640768.098
 -22195215.33549 -17294980.51047  20402252.981    20402255.073
 -10562299.86248  -8230373.09945  22738751.569    22738757.625
 02  1 10  4 15  0.0000000  0  8G28G22G27G 2G31G 1G13G 8
   -799396.49748                  25027140.584
  -2620297.69948  -2041831.59844  24377773.148    24377783.573
 -22944359.09449 -17878726.59747  21247189.124    21247192.956
 -14267439.15949 -11117486.98847  21345862.587    21345867.140
 -11837278.92649  -9223850.13946  21513621.768    21513626.646
 -18045083.93949 -14061116.93946  21656156.571    21656162.017
 -22170823.66649 -17275974.08147  20406894.770    20406897.065
 -10647439.15548  -8296715.45945  22722550.253    22722554.989
 02  1 10  4 15 30.0000000  0  8G28G22G27G 2G31G 1G13G 8
   -898870.39048                  25008212.625
  -2510181.56948                  24398726.871
 -22995325.21149 -17918440.49847  21237490.345    21237494.176
 -14307050.05349 -11148352.64047  21338325.016    21338329.536
 -11900724.71149  -9273288.39846  21501548.277    21501553.322
 -17963833.60349 -13997805.10446  21671618.088    21671623.930
 -22145899.67949 -17256552.86447  20411637.649    20411639.758
 -10732500.64548  -8362997.17645  22706363.762    22706370.357
 02  1 10  4 16  0.0000000  0  8G28G22G27G 2G31G 1G13G 8
   -998244.11348                  24989300.845
  -2400059.15548                  24419683.381
 -23046107.86849 -17958011.44447  21227826.798    21227830.811
 -14346345.77449 -11178972.69947  21330847.132    21330851.846
 -11963661.45749  -9322330.00546  21489572.105    21489577.127
 -17882213.47749 -13934205.12746  21687149.772    21687156.050
 -22120426.69449 -17236703.85347  20416485.113    20416487.224
 -10817466.40549  -8429204.28045  22690195.750    22690202.443
 02  1 10  4 16 30.0000000  0  8G28G22G27G 2G31G 1G13G 8
  -1097510.29348                  24970411.617
  -2289925.71048                  24440640.268
 -23096699.47249 -17997433.51547  21218199.692    21218203.522
 -14385319.76249 -11209342.05247  21323430.733    21323435.136
 -12026080.26549  -9370968.02246  21477693.727    21477699.457
 -17800218.93049 -13870313.39046  21702752.835    21702758.769
 -22094398.51549 -17216422.22347  20421438.080    20421440.155
 -10902329.27649  -8495331.23846  22674047.595    22674052.900
 02  1 10  4 17  0.0000000  0  8G28G22G27G 2G31G 1G13G 8
  -1196666.83748                  24951542.461
  -2179781.84948                  24461601.213
 -23147098.26949 -18036705.35047  21208608.834    21208612.778
 -14423971.56749 -11239460.36547  21316075.844    21316080.311
 -12087977.87549  -9419199.90946  21465915.251    21465920.090
 -17717850.75549 -13806130.51146  21718427.060    21718433.294
 -22067814.85649 -17195707.75647  20426496.569    20426498.865
 -10987087.38848  -8561376.55245  22657917.119    22657924.574
 02  1 10  4 17 30.0000000  0  8G28G22G27G 2G31G 1G13G 8
  -1295705.78648                  24932696.296
  -2069622.77348                  24482562.976
 -23197296.60249 -18075820.97247  21199056.708    21199060.764
 -14462294.58849 -11269322.48647  21308783.348    21308787.814
 -12149345.12649  -9467018.53046  21454237.732    21454242.603
 -17635104.05649 -13741652.68346  21734173.223    21734179.175
 -22040669.12749 -17174555.31047  20431662.258    20431664.675
 -11071733.50949  -8627334.57446  22641811.274    22641816.588
 02  1 10  4 18  0.0000000  0  8G28G22G27G 2G31G 1G13G 8
  -1394623.08248                  24913872.275
  -1959447.01548                  24503529.457
 -23247290.51749 -18114777.30947  21189542.931    21189547.212
 -14500285.78649 -11298926.04147  21301553.536    21301557.959
 -12210176.37449  -9514419.48846  21442661.554    21442666.483
 -17551977.46749 -13676878.83746  21749991.842    21749998.006
 -22012958.66049 -17152962.81247  20436935.560    20436937.867
 -11156263.43048  -8693202.07046  22625724.585    22625730.227
 02  1 10  4 18 30.0000000  0  8G28G22G27G 2G31G 1G13G 8
  -1493428.37748                  24895069.972
  -1849267.14648                  24524496.146
 -23297089.63849 -18153581.86047  21180066.412    21180070.703
 -14537955.90549 -11328279.41247  21294385.369    21294389.853
 -12270479.75349  -9561409.11846  21431186.165    21431191.638
 -17468483.58149 -13611818.78446  21765880.310    21765886.928
 -21984694.56349 -17130938.91247  20442314.052    20442316.281
 -11240687.35648  -8758986.94645  22609658.820    22609665.541
 02  1 10  4 19  0.0000000  0  8G28G22G27G 2G31G 1G13G 8
  -1592129.00348                  24876288.222
  -1739093.24548                  24545461.235
 -23346701.62149 -18192240.58747  21170625.868    21170630.051
 -14575313.81949 -11357389.50947  21287276.418    21287280.723
 -12330261.60449  -9607992.36246  21419810.370    21419815.550
 -17384632.60449 -13546480.47546  21781836.535    21781842.584
 -21955885.59449 -17108490.43947  20447796.556    20447798.831
 -11325012.84649  -8824695.13246  22593613.692    22593618.815
 02  1 10  4 19 30.0000000  0  8G28G22G27G 2G31G 1G13G 8
  -1690720.67148                  24857527.416
  -1628923.97848                  24566426.746
 -23396122.25749 -18230750.20947  21161221.562    21161225.600
 -14612356.51049 -11386253.97647  21280227.166    21280231.785
 -12389516.41149  -9654164.93246  21408534.095    21408539.519
 -17300423.25749 -13480862.92646  21797861.877    21797867.497
 -21926529.06149 -17085615.29347  20453382.905    20453385.221
 -11409235.94848  -8890323.54045  22577584.644    22577592.221
 02  1 10  4 20  0.0000000  0  8G28G22G27G 2G31G 1G13G 8
  -1789198.29648                  24838788.090
  -1518756.99648                  24587390.626
 -23445346.58949 -18269106.86847  21151854.407    21151858.717
 -14649080.08049 -11414869.77147  21273239.104    21273243.625
 -12448237.77749  -9699921.82946  21397359.732    21397364.991
 -17215853.34649 -13414964.41046  21813954.325    21813960.945
 -21896621.36849 -17062310.67347  20459073.786    20459076.271
 -11493351.72949  -8955868.31346  22561579.819    22561584.815
 02  1 10  4 20 30.0000000  0  8G28G22G27G 2G31G 1G13G 8
  -1887555.55348                  24820070.422
  -1408588.35748                  24608354.367
 -23494368.05649 -18307305.44847  21142526.050    21142529.971
 -14685479.37749 -11443232.89347  21266312.209    21266316.876
 -12506417.89449  -9745256.97346  21386288.462    21386293.882
 -17130919.15549 -13348782.04946  21830117.697    21830123.101
 -21866157.58649 -17038572.73247  20464871.235    20464873.642
 -11577353.74348  -9021324.43045  22545593.883    22545600.364
 02  1 10  4 21  0.0000000  0  8G28G22G27G 2G31G 1G13G 8
  -1985794.60948                  24801375.616
  -1298423.55348                  24629320.457
 -23543189.57849 -18345348.22547  21133235.846    21133239.846
 -14721558.45649 -11471346.49247  21259446.995    21259451.636
 -12564058.03949  -9790171.36646  21375320.186    21375325.420
 -17045626.25049 -13282320.16446  21846348.059    21846353.879
 -21835141.93949 -17014404.77147  20470773.620    20470775.962
 -11661245.42748  -9086694.58345  22529628.919    22529635.732
 02  1 10  4 21 30.0000000  0  8G28G22G27G 2G31G 1G13G 8
  -2083911.12848                  24782705.897
  -1188260.60848                  24650281.249
 -23591806.56049 -18383231.61947  21123984.194    21123988.096
 -14757313.68649 -11499207.74647  21252643.254    21252647.743
 -12621152.32849  -9834660.41246  21364455.687    21364460.919
 -16959972.94449 -13215577.45046  21862647.234    21862653.637
 -21803571.26749 -16989804.31947  20476781.301    20476784.011
 -11745021.89549  -9151974.97746  22513689.258    22513693.742
 02  1 10  4 22  0.0000000  0  8G28G22G27G 2G31G 1G13G 8
  -2181902.71948                  24764057.884
  -1078099.84048                  24671245.985
 -23640216.79349 -18420953.90647  21114772.140    21114776.428
 -14792744.12749 -11526815.91647  21245900.875    21245905.532
 -12677697.26349  -9878721.39646  21353694.863    21353700.200
 -16873959.90849 -13148554.43146  21879015.215    21879021.115
 -21771444.87449 -16964770.83747  20482894.691    20482897.169
 -11828681.21748  -9217164.07545  22497767.395    22497774.074
 02  1 10  4 22 30.0000000  0  8G28G22G27G 2G31G 1G13G 8
  -2279766.80248                  24745435.921
   -967941.48848                  24692207.854
 -23688417.56749 -18458512.98047  21105599.694    21105603.771
 -14827848.36249 -11554169.89947  21239220.700    21239225.436
 -12733688.98849  -9922351.31046  21343040.374    21343045.468
 -16787587.30249 -13081251.22846  21895451.440    21895457.982
 -21738761.63949 -16939303.45547  20489113.877    20489116.436
 -11912220.84448  -9282259.90545  22481870.462    22481876.651
 02  1 10  4 23  0.0000000  0  8G28G22G27G 2G31G 1G13G 8
  -2377505.44948                  24726836.761
   -857790.49048                  24713168.635
 -23736411.24949 -18495910.68047  21096466.901    21096470.782
 -14862630.08749 -11581272.57847  21232602.134    21232606.843
 -12789128.30449  -9965550.78246  21332490.506    21332495.579
 -16700860.41849 -13013671.96446  21911954.863    21911961.806
 -21705525.49649 -16913405.23247  20495438.380    20495441.272
 -11995643.29949  -9347264.44546  22465996.581    22466002.450
 02  1 10  4 23 30.0000000  0  8G28G22G27G 2G31G 1G13G 8
  -2475130.26548                  24708258.583
   -747660.83448                  24734126.795
 -23784209.31349 -18533155.94547  21087371.492    21087375.638
 -14897101.78949 -11608133.68547  21226041.937    21226046.605
 -12844025.53949 -10008327.85246  21322044.160    21322049.574
 -16613793.69849 -12945827.89846  21928523.595    21928530.116
 -21671749.54549 -16887086.38147  20501865.995    20501868.699
 -12078960.22248  -9412186.75746  22450141.098    22450147.683
 02  1 10  4 24  0.0000000  0  8G28G22G27G 2G31G 1G13G 8
  -2572642.45048                  24689702.715
   -637556.32248                  24755078.405
 -23831812.97149 -18570249.73047  21078312.657    21078316.776
 -14931266.01949 -11634755.20247  21219541.075    21219545.901
 -12898380.74949 -10050682.56246  21311700.622    21311706.039
 -16526391.07349 -12877722.08846  21945155.441    21945161.997
 -21637436.47349 -16860348.99847  20508395.846    20508398.629
 -12162172.95749  -9477027.87446  22434306.594    22434311.941
 02  1 10  4 24 30.0000000  0  8G28G22G27G 2G31G 1G13G 8
  -2670022.11948                  24671172.976
   -527459.98348                  24776030.118
 -23879202.53249 -18607176.68047  21069294.618    21069298.923
 -14965104.49949 -11661122.89447  21213102.457    21213107.020
 -12952173.21349 -10092598.77346  21301463.886    21301469.542
 -16438635.86649 -12809341.53946  21961855.269    21961861.669
 -21602568.40449 -16833179.14847  20515030.808    20515033.705
 -12245261.89349  -9541772.54546  22418495.249    22418501.135
 02  1 10  4 25  0.0000000  0  8G28G22G27G 2G31G 1G13G 8
  -2767280.99448                  24652664.410
   -417386.13648                  24796975.706
 -23926389.67849 -18643945.91547  21060315.519    21060319.647
 -14998630.21649 -11687246.86947  21206722.531    21206727.156
 -13005413.56149 -10134084.77146  21291332.595    21291338.003
 -16350542.69449 -12740697.63846  21978618.817    21978624.922
 -21567158.55149 -16805587.13647  20521769.141    20521772.045
 -12328238.99748  -9606430.03846  22402703.762    22402712.697
 02  1 10  4 25 30.0000000  0  8G28G22G27G 2G31G 1G13G 8
  -2864416.34448                  24634179.988
   -307334.48448                  24817918.248
 -23973371.63949 -18680555.25447  21051374.830    21051379.078
 -15031841.60049 -11713125.91247  21200402.112    21200406.861
 -13058097.88549 -10175137.50346  21281307.555    21281312.761
 -16262111.75449 -12671790.53746  21995446.707    21995453.254
 -21531206.00749 -16777572.24347  20528611.096    20528613.719
 -12411101.50149  -9670998.24746  22386938.286    22386943.378
 02  1 10  4 26  0.0000000  0  8G28G22G27G 2G31G 1G13G 8
  -2961427.43948                  24615720.222
   -197307.09448                  24838857.652
 -24020147.65949 -18717004.11847  21042473.774    21042477.851
 -15064739.26649 -11738760.49547  21194141.881    21194146.714
 -13110224.47749 -10215755.64846  21271387.614    21271393.234
 -16173345.50549 -12602622.16146  22012338.408    22012344.967
 -21494712.01149 -16749135.44147  20535555.426    20535558.304
 -12493848.96649  -9735476.81046  22371190.440    22371197.770
 02  1 10  4 26 30.0000000  0  8G28G22G27G 2G31G 1G13G 8
  -3058309.41248                  24597283.112
    -87301.56747                  24859789.174
 -24066712.97349 -18753288.80047  21033612.711    21033616.969
 -15097319.67049 -11764147.86147  21187942.275    21187946.801
 -13161787.18249 -10255934.39646  21261575.573    21261580.965
 -16084241.97049 -12533190.97846  22029294.302    22029301.139
 -21457673.03049 -16720273.98147  20542603.543    20542606.567
 -12576476.67149  -9799862.04546  22355466.905    22355473.953
 02  1 10  4 27  0.0000000  0  8G28G22G27G 2G31G 1G13G 8
  -3155057.15348                  24578873.387
     22684.45948                  24880720.120
 -24113062.60949 -18789405.42047  21024792.778    21024796.987
 -15129579.20149 -11789285.20047  21181803.496    21181808.231
 -13212780.00749 -10295669.07946  21251872.044    21251877.765
 -15994799.13949 -12463495.40046  22046314.885    22046321.730
 -21420085.90949 -16690985.39747  20549756.429    20549759.230
 -12658979.71349  -9864150.15646  22339768.548    22339774.352
 02  1 10  4 27 30.0000000  0  8G28G22G27G 2G31G 1G13G 8
  -3251657.64148                  24560490.716
    132661.54448                  24901648.638
 -24159183.33849 -18825343.67747  21016016.200    21016020.095
 -15161505.90349 -11814163.18647  21175728.265    21175732.818
 -13263188.72449 -10334948.61746  21242280.107    21242285.334
 -15905006.83849 -12393527.51146  22063402.233    22063408.568
 -21381939.34949 -16661260.88747  20557015.934    20557018.614
 -12741345.04249  -9928330.94746  22324093.393    22324100.697
 02  1 10  4 28  0.0000000  0  8G28G22G27G 2G31G 1G13G 8
  -3348126.46948  -2608928.96344  24542133.034    24542139.815
    242611.64747                  24922569.798
 -24205090.94749 -18861115.85947  21007280.611    21007284.595
 -15193116.86849 -11838795.14047  21169713.106    21169717.568
 -13313027.90649 -10373784.36246  21232796.150    21232801.384
 -15814883.88049 -12323301.96946  22080551.464    22080558.355
 -21343250.98249 -16631114.19047  20564377.781    20564380.560
 -12823588.48049  -9992416.74746  22308443.824    22308449.463
 02  1 10  4 28 30.0000000  0  8G28G22G27G 2G31G 1G13G 8
  -3444459.88648                  24523801.392
    352535.98848                  24943490.555
 -24250781.51849 -18896718.93047  20998585.934    20998589.958
 -15224409.71249 -11863179.19947  21163758.007    21163762.495
 -13362292.61949 -10412172.46646  21223421.001    21223426.572
 -15724429.07449 -12252817.85546  22097765.026    22097771.501
 -21304018.63749 -16600543.61747  20571843.651    20571846.604
 -12905706.11149 -10056404.53846  22292816.814    22292823.457
 02  1 10  4 29  0.0000000  0  8G28G22G27G 2G31G 1G13G 8
  -3540655.75348                  24505496.360
    462434.20447                  24964401.868
 -24296252.80249 -18932151.12647  20989932.929    20989936.660
 -15255383.47549 -11887314.62247  21157863.688    21157868.437
 -13410979.68949 -10450110.46346  21214155.953    21214161.793
 -15633643.40049 -12182075.91746  22115040.779    22115047.608
 -21264241.89249 -16569548.83847  20579412.772    20579415.689
 -12987696.01449 -10120292.78946  22277214.831    22277221.681
 02  1 10  4 29 30.0000000  0  8G28G22G27G 2G31G 1G13G 8
  -3636732.02648                  24487213.005
    572285.96648                  24985307.282
 -24341522.76149 -18967426.43947  20981318.509    20981322.367
 -15286057.37949 -11911216.38747  21152026.846    21152031.542
 -13459106.44749 -10487611.84947  21204997.964    21205003.403
 -15542547.94949 -12111092.60146  22132376.288    22132382.985
 -21223940.69749 -16538145.39747  20587082.326    20587085.305
 -13069576.30149 -10184095.63846  22261633.889    22261639.910
 02  1 10  4 30  0.0000000  0  8G28G22G27G 2G31G 1G13G 8
  -3732665.79948  -2908570.18544  24468958.300    24468968.477
    682111.23248                  25006207.289
 -24386568.55149 -19002527.07847  20972746.541    20972750.474
 -15316409.99649 -11934867.79447  21146251.014    21146255.653
 -13506649.05349 -10524658.06047  21195951.150    21195956.378
 -15451122.92049 -12039852.48046  22149773.637    22149780.224
 -21183093.89649 -16506316.80347  20594855.383    20594858.204
 -13151324.17849 -10247795.30546  22246077.377    22246084.291
 02  1 10  4 30 30.0000000  0  8G28G22G27G 2G31G 1G13G 8
  -3828458.39248  -2983213.80444  24450729.100    24450736.333
    791906.75747                  25027099.617
 -24431391.14349 -19037453.79647  20964217.149    20964220.913
 -15346443.86149 -11958270.82647  21140535.417    21140540.053
 -13553607.72949 -10561249.26047  21187014.943    21187020.317
 -15359372.74449 -11968358.99946  22167233.647    22167240.625
 -21141704.73149 -16474065.59647  20602731.170    20602734.143
 -13232940.80449 -10311392.70246  22230545.964    22230553.078
 02  1 10  4 31  0.0000000  0  8G28G22G27G 2G31G 1G13G 8
  -3924107.87448  -3057745.84944  24432528.155    24432532.925
    901671.74548                  25047987.802
 -24475988.76449 -19072205.21647  20955730.205    20955734.210
 -15376158.46049 -11981425.07447  21134880.773    21134885.596
 -13599979.71149 -10597383.28947  21178190.532    21178195.896
 -15267298.49549 -11896612.99746  22184754.747    22184761.752
 -21099773.39249 -16441391.91447  20610710.138    20610713.203
 -13314424.48949 -10374886.48946  22215040.685    22215047.436
 02  1 10  4 31 30.0000000  0  8G28G22G27G 2G31G 1G13G 8
  -4019624.72748  -3132174.56644  24414351.360    24414359.551
   1011393.35047                  25068867.523
 -24520371.81549 -19106789.43347  20947284.308    20947288.728
 -15405565.55449 -12004339.70947  21129285.153    21129289.831
 -13645774.61149 -10633067.64546  21169476.442    21169481.698
 -15174913.67949 -11824625.01046  22202334.789    22202342.139
 -21057311.82549 -16408305.06647  20618790.683    20618793.542
 -13395785.60149 -10438284.77146  22199558.029    22199564.767
 02  1 10  4 32  0.0000000  0  8G28G22G27G 2G31G 1G13G 8
  -4114997.35548  -3206490.89444  24396203.030    24396206.010
   1121080.46348                  25089741.030
 -24564528.62949 -19141197.35847  20938881.649    20938885.819
 -15434654.99849 -12027006.82147  21123749.493    21123754.381
 -13690979.99249 -10668292.64047  21160874.060    21160879.669
 -15082209.76949 -11752388.36646  22219975.907    22219983.007
 -21014310.88149 -16374797.92547  20626973.794    20626976.657
 -13477012.67449 -10501578.59646  22184100.895    22184107.106
 02  1 10  4 32 30.0000000  0  8G28G22G27G 2G31G 1G13G 8
  -4210233.65048  -3280700.94744  24378079.313    24378086.778
   1230723.35247                  25110604.024
 -24608466.59849 -19175434.75347  20930520.541    20930524.727
 -15463435.81249 -12049433.44047  21118273.010    21118277.683
 -13735602.66349 -10703063.57446  21152382.429    21152387.917
 -14989197.32049 -11679911.33246  22237676.322    22237683.359
 -20970779.95149 -16340877.80847  20635257.223    20635260.370
 -13558113.46649 -10564774.02546  22168668.089    22168674.783
 02  1 10  4 33  0.0000000  0  8G28G22G27G 2G31G 1G13G 8
  -4305334.30648  -3354805.33544  24359983.480    24359989.448
   1340318.69247                  25131460.353
 -24652186.52349 -19209502.23547  20922200.662    20922204.908
 -15491910.20349 -12071621.28947  21112854.265    21112858.949
 -13779642.63049 -10737380.46746  21144002.674    21144007.510
 -14895880.26449 -11607196.92946  22255433.201    22255441.392
 -20926721.80549 -16306546.87247  20643641.139    20643644.341
 -13639088.69249 -10627871.60846  22153258.934    22153265.640
 02  1 10  4 33 30.0000000  0  8G28G22G27G 2G31G 1G13G 8
  -4400302.13048  -3428806.22644  24341910.776    24341918.967
   1449861.07848                  25152307.356
 -24695690.87249 -19243401.74747  20913922.249    20913926.544
 -15520082.49249 -12093573.73547  21107493.124    21107497.875
 -13823101.78749 -10771244.73547  21135732.546    21135737.412
 -14802264.44049 -11534249.72546  22273248.625    22273254.485
 -20882141.53049 -16271809.08847  20652125.055    20652128.091
 -13719941.27849 -10690873.61746  22137873.393    22137880.511
 02  1 10  4 34  0.0000000  0  7G28G 2G27G31G 1G13G 8
  -4495119.61248  -3502689.93144  24323868.372    24323875.147
 -15547936.15049 -12115277.90047  21102192.916    21102197.484
 -24738962.07549 -19277119.57247  20905687.870    20905692.167
 -13865961.82749 -10804642.19747  21127576.125    21127581.657
 -14708335.48549 -11461058.51846  22291121.937    22291130.128
 -20837023.05849 -16236651.92647  20660710.550    20660713.676
 -13800653.68349 -10753766.40046  22122514.423    22122520.103
 02  1 10  4 34 30.0000000  0  8G28G10G27G 2G31G 1G13G 8
  -4589768.06348  -3576441.94544  24305856.262    24305860.321
         -.19758          .22154  24323704.909    24323715.085
 -24781981.32749 -19310641.07347  20897501.848    20897506.061
 -15575453.90249 -12136720.32247  21096956.840    21096961.507
 -13908203.18149 -10837557.55547  21119537.603    21119542.889
 -14614077.77649 -11387611.16246  22309059.985    22309066.117
 -20791349.80349 -16201062.46347  20669402.214    20669405.144
 -13881206.94849 -10816535.16246  22107185.157    22107193.081
 02  1 10  4 35  0.0000000  0  8G28G10G27G 2G31G 1G13G 8
  -4684265.48948  -3650076.24344  24287874.982    24287882.147
    -14698.91548                  24320907.661
 -24824766.54849 -19343980.21147  20889360.335    20889364.324
 -15602655.30949 -12157916.24347  21091780.676    21091785.308
 -13949843.16149 -10870004.30647  21111613.880    21111619.072
 -14519512.40049 -11313924.05446  22327054.294    22327062.064
 -20745141.92349 -16165056.41447  20678195.064    20678198.231
 -13961619.13949 -10879193.99346  22091883.967    22091890.388
 02  1 10  4 35 30.0000000  0  8G28G10G27G 2G31G 1G13G 8
  -4778611.58248                  24269920.939
    -28837.70548    -22470.82844  24318218.115    24318227.796
 -24867317.22849 -19377136.59147  20881263.312    20881267.564
 -15629541.37849 -12178866.44847  21086663.938    21086668.769
 -13990880.78349 -10901981.68747  21103804.885    21103810.336
 -14424642.09849 -11239999.34746  22345108.303    22345115.818
 -20698401.18749 -16128635.15347  20687089.338    20687092.520
 -14041890.00149 -10941742.70746  22076608.384    22076614.390
 02  1 10  4 36  0.0000000  0  8G28G10G27G 2G31G 1G13G 8
  -4872826.95548  -3797007.20344  24251992.612    24252000.803
    -42438.29048    -33068.82144  24315630.846    24315641.767
 -24909653.85949 -19410126.18247  20873206.978    20873210.796
 -15656133.99749 -12199587.99347  21081603.500    21081608.270
 -14031336.07249 -10933505.29547  21096106.702    21096112.030
 -14329490.41149 -11165855.38546  22363215.144    22363222.123
 -20651150.30849 -16091816.37447  20696081.576    20696084.652
 -14122039.90749 -11004197.16346  22061355.941    22061363.230
 02  1 10  4 36 30.0000000  0  8G28G10G27G 2G31G 1G13G 8
  -4966897.27548  -3870308.72944  24234091.351    24234102.024
    -55486.95448    -43236.81845  24313148.081    24313157.265
 -24951761.87449 -19442937.63447  20865194.029    20865198.131
 -15682420.12849 -12220070.71347  21076601.494    21076606.433
 -14071193.93449 -10964563.37647  21088522.063    21088527.202
 -14234046.06849 -11091483.36446  22381377.703    22381385.570
 -20603376.83949 -16054590.37847  20705172.205    20705175.678
 -14202054.43449 -11066546.11746  22046130.484    22046136.667
