     2.11           OBSERVATION DATA    G (GPS)             RINEX VERSION / TYPE
teqc  2019Feb25     Salamtina Y.M.      20230920 03:20:32UTCPGM / RUN BY / DATE
OBSERVATION MODE: Permanent                                 COMMENT
CHUM Chumysh (CHUM)                                         MARKER NAME
25601M001                                                   MARKER NUMBER
4549261325          TRIMBLE NETRS        1.3-2              REC # / TYPE / VERS
237                 AOAD/M_T        NONE                    ANT # / TYPE
        0.0900        0.0000        0.0000                  ANTENNA: DELTA H/E/N
  1228950.3071  4508080.0116  4327868.5411                  APPROX POSITION XYZ
  74.75110460  42.99850159  716.3357  LonLatAlt  S/W        COMMENT
ANT ADDED FROM RCV_ANT.txt                                  COMMENT
Linux 2.6.32-573.12.1.x86_64|x86_64|gcc|Linux 64|=+         COMMENT
BIT 2 OF LLI FLAGS DATA COLLECTED UNDER A/S CONDITION       COMMENT
Konovalov S.M.      RS_RAS                                  OBSERVER / AGENCY
     1     1                                                WAVELENGTH FACT L1/2
     7    L1    L2    C1    P1    P2    S1    S2            # / TYPES OF OBSERV
    30.0000                                                 INTERVAL
    18                                                      LEAP SECONDS
TIME: 2023.01.03                                            COMMENT
TOUR: cont                                                  COMMENT
RSET: RAS02                                                 COMMENT
ASET: DS24                                                  COMMENT
OPER: skon (Konovalov S.M.)                                 COMMENT
SOUR: chum202301030000d.dat                                 COMMENT
SUPP: chum202301030000d.eph                                 COMMENT
SUPP: chum202301030000d.ion                                 COMMENT
SUPP: chum202301030000d.mes                                 COMMENT
Forced Modulo Decimation to 30 seconds                      COMMENT
 SNR is mapped to RINEX snr flag value [0-9]                COMMENT
  L1 & L2: min(max(int(snr_dBHz/6), 0), 9)                  COMMENT
  2023     1     3     0     0    0.0000000     GPS         TIME OF FIRST OBS
  2023     1     3    23    59   30.0000000     GPS         TIME OF LAST OBS
                                                            END OF HEADER
 23  1  3  0  0  0.0000000  0  9G24G23G08G22G27G21G10G18G32
 -15071438.32147 -12589471.93947  22240679.5704                   22240671.6134
        42.5004         44.2504
 -14827375.21647 -13148700.33446  21248671.3834                   21248661.1994
        46.5004         40.5004
 -10084478.24746  -7833142.24446  23339848.9064                   23339841.3014
        38.5004         40.0004
  -6077804.66446  -4956413.75944  22833438.6334                   22833427.8054
        40.0004         25.0004
 -12844707.02347  -9967168.20846  23065845.0704                   23065836.9964
        42.2504         41.7504
  -7599003.51646  -4653395.11543  24501203.3134                   24501191.8984
        37.5004         20.5004
 -28334924.54148 -21919609.50049  20532482.2974                   20532473.6374
        52.5004         55.0004
 -15449094.06346 -12019093.94744  23085932.4454                   23085922.9654
        39.2504         28.5004
 -16358356.31348 -18937090.11349  21050111.2034                   21050102.3674
        51.5004         54.7504
 23  1  3  0  0 30.0000000  0  9G24G23G08G22G27G21G10G18G32
 -15037794.48047 -12563255.96647  22247082.0164                   22247073.9414
        42.0004         44.0004
 -14778126.94447 -13110325.05546  21258043.5004                   21258032.3204
        47.0004         40.5004
 -10066675.66846  -7819270.11946  23343236.5164                   23343228.8524
        38.7504         39.7504
  -6164171.98746  -5023712.94544  22817002.0234                   22816992.3094
        39.5004         25.0004
 -12773186.55847  -9911437.99246  23079455.1174                   23079446.6334
        42.7504         41.7504
  -7684962.40646  -4720376.07443  24484846.9224                   24484834.3364
        40.0004         21.2504
 -28342957.89248 -21925869.25249  20530953.8524                   20530944.8984
        53.0004         55.0004
 -15345672.00146 -11938505.35944  23105613.5864                   23105604.1644
        39.5004         29.0004
 -16407189.59248 -18975142.00649  21040818.6024                   21040809.4734
        51.5004         55.0004
 23  1  3  0  1  0.0000000  0  9G24G23G08G22G27G21G10G18G32
 -15003528.81347 -12536555.42847  22253603.1644                   22253594.6804
        42.0004         44.0004
 -14728627.29147 -13071753.89346  21267462.3204                   21267452.0784
        47.0004         40.5004
 -10048334.65246  -7804978.44446  23346726.9064                   23346719.1254
        39.0004         39.5004
  -6250280.76446  -5090810.69844  22800617.0234                   22800606.6054
        40.0004         25.5004
 -12701302.20047  -9855424.19946  23093135.3364                   23093125.5634
        42.7504         41.7504
  -7770773.93746  -4787242.17543  24468516.4614                   24468505.5164
        39.0004         20.7504
 -28350721.65448 -21931918.92849  20529476.3364                   20529467.3834
        52.7504         55.2504
 -15242010.66646 -11857730.29444  23125340.0944                   23125329.9104
        39.5004         28.7504
 -16455611.23148 -19012873.13849  21031604.0234                   21031595.0704
        51.5004         55.0004
 23  1  3  0  1 30.0000000  0  9G24G23G08G22G27G21G10G18G32
 -14968643.63047 -12509372.14947  22260241.2734                   22260233.1994
        42.0004         44.2504
 -14678877.61247 -13032987.91846  21276929.7344                   21276918.9064
        46.5004         41.0004
 -10029457.39546  -7790268.90546  23350319.0704                   23350311.2304
        40.0004         40.2504
  -6336130.70346  -5157706.72344  22784279.5234                   22784269.7504
        40.2504         26.0004
 -12629057.92546  -9799129.97046  23106881.8594                   23106873.5514
        41.7504         41.5004
  -7856437.60146  -4853993.08343  24452215.5084                   24452203.4494
        39.5004         21.0004
 -28358216.46048 -21937759.04249  20528050.2504                   20528041.4734
        51.7504         55.0004
 -15138113.14146 -11776771.18844  23145111.3134                   23145100.8364
        40.0004         29.2504
 -16503622.03148 -19050284.14349  21022468.5634                   21022459.1414
        52.0004         54.7504
 23  1  3  0  2  0.0000000  0  9G24G23G08G22G27G21G10G18G32
 -14933140.50347 -12481707.39647  22266997.5864                   22266989.2774
        43.5004         44.5004
 -14628878.55047 -12994027.61246  21286444.2734                   21286433.5044
        46.0004         40.2504
 -10010045.79546  -7775142.99646  23354013.0004                   23354004.9264
        39.0004         39.7504
  -6421721.14146  -5224400.56244  22767993.1564                   22767982.6214
        40.5004         26.0004
 -12556457.10747  -9742557.90746  23120697.9614                   23120688.0124
        42.7504         41.2504
  -7941951.91546  -4920627.62143  24435942.5004                   24435931.2034
        39.0004         21.2504
 -28365442.00948 -21943389.34649  20526675.1724                   20526666.1604
        52.0004         54.7504
 -15033981.84546 -11695629.93444  23164926.6484                   23164916.7584
        40.2504         29.0004
 -16551222.03048 -19087375.02949  21013409.8754                   21013401.5084
        51.7504         54.7504
 23  1  3  0  2 30.0000000  0  9G24G23G08G22G27G21G10G18G32
 -14897020.57447 -12453561.96847  22273871.6724                   22273862.6024
        43.2504         44.2504
 -14578630.19347 -12954873.04946  21296005.6804                   21295995.6724
        47.0004         40.2504
  -9990100.73646  -7759601.40146  23357808.6254                   23357800.3164
        40.0004         39.0004
  -6507050.63346  -5290891.05944  22751755.7734                   22751744.5944
        40.5004         25.5004
 -12483502.63247  -9685710.26446  23134580.1484                   23134571.8984
        42.0004         41.2504
  -8027314.71146  -4987144.07043  24419699.3204                   24419686.6764
        40.0004         21.0004
 -28372398.27048 -21948809.80049  20525351.6884                   20525342.3244
        53.0004         55.0004
 -14929618.59346 -11614307.91544  23184786.5634                   23184776.2624
        39.2504         29.5004
 -16598410.72848 -19124145.43649  21004430.3524                   21004421.9844
        51.2504         54.7504
 23  1  3  0  3  0.0000000  0  9G24G23G08G22G27G21G10G18G32
 -14860285.17547 -12424936.97447  22280861.4454                   22280852.9614
        42.2504         44.2504
 -14528132.96047 -12915524.55646  21305615.3594                   21305604.8834
        46.5004         40.2504
  -9969623.85646  -7743645.39546  23361705.0864                   23361696.6024
        38.7504         39.5004
  -6592118.23746  -5357177.48044  22735566.9534                   22735556.7114
        40.0004         25.0004
 -12410197.61247  -9628589.49446  23148530.2504                   23148521.7074
        42.0004         41.2504
  -8112524.41646  -5053541.24543  24403483.8054                   24403471.9804
        39.2504         21.5004
 -28379084.64048 -21954019.95949  20524079.3204                   20524069.8404
        52.7504         54.7504
 -14825025.55746 -11532806.85144  23204689.5084                   23204679.5004
        39.2504         29.0004
 -16645187.92848 -19160595.19049  20995528.8444                   20995519.6564
        52.2504         55.0004
 23  1  3  0  3 30.0000000  0  9G24G23G08G22G27G21G10G18G32
 -14822935.36147 -12395833.22947  22287969.3674                   22287960.6484
        42.7504         44.0004
 -14477386.82047 -12875982.11446  21315272.0864                   21315261.3164
        47.0004         40.2504
  -9948616.00246  -7727275.65846  23365702.8754                   23365694.7424
        38.5004         39.5004
  -6676922.52346  -5423258.72244  22719429.8674                   22719419.0394
        40.7504         25.5004
 -12336544.75947  -9571197.67046  23162545.7504                   23162536.8554
        42.5004         41.0004
  -8197578.78046  -5119817.36243  24387298.8054                   24387286.3364
        38.7504         21.5004
 -28385500.48548 -21959019.32249  20522858.1724                   20522849.3954
        52.2504         55.2504
 -14720204.52146 -11451128.13044  23224635.7894                   23224626.0744
        39.0004         28.7504
 -16691553.09148 -19196723.87749  20986705.7504                   20986697.0314
        51.2504         55.0004
 23  1  3  0  4  0.0000000  0  9G24G23G08G22G27G21G10G18G32
 -14784972.49747 -12366251.75647  22295192.8054                   22295184.7304
        43.0004         44.2504
 -14426392.09947 -12836245.96746  21324976.4454                   21324965.2664
        46.0004         40.2504
  -9927078.72846  -7710493.36646  23369800.5784                   23369792.9144
        38.7504         39.5004
  -6761462.42046  -5489133.95944  22703341.8834                   22703331.8164
        40.5004         26.2504
 -12262547.15847  -9513537.20046  23176626.6024                   23176617.7074
        42.0004         40.5004
  -8282475.80946  -5185970.90743  24371143.1174                   24371130.4734
        38.7504         21.5004
 -28391645.00048 -21963807.25849  20521689.0234                   20521679.7774
        52.0004         55.0004
 -14615157.46246 -11369273.29944  23244626.4614                   23244616.5124
        39.7504         28.5004
 -16737505.92848 -19232531.25949  20977961.1954                   20977952.7704
        51.7504         54.7504
 23  1  3  0  4 30.0000000  0  9G24G23G08G22G27G21G10G18G32
 -14746397.33347 -12336193.18747  22302533.6564                   22302525.4654
        43.0004         44.5004
 -14375148.48747 -12796315.89146  21334727.3204                   21334716.7274
        46.7504         40.0004
  -9905012.98546  -7693299.28946  23373999.6484                   23373991.9844
        39.2504         39.2504
  -6845736.36446  -5554801.95044  22687305.8364                   22687295.1254
        41.0004         25.5004
 -12188207.24847  -9455610.01246  23190773.2584                   23190765.0664
        43.0004         40.5004
  -8367213.39346  -5252000.17143  24355018.2974                   24355006.3554
        39.5004         21.0004
 -28397517.98348 -21968383.60549  20520571.3984                   20520562.3874
        53.2504         54.7504
 -14509885.91046 -11287243.53444  23264658.0784                   23264648.4804
        40.0004         29.5004
 -16783045.59848 -19268016.70049  20969295.3524                   20969286.5744
        51.5004         55.0004
 23  1  3  0  5  0.0000000  0  9G24G23G08G22G27G21G10G18G32
 -14707212.30947 -12305659.39347  22309990.6724                   22309981.8954
        43.5004         44.5004
 -14323657.23047 -12756192.85246  21344525.6804                   21344515.2624
        46.5004         40.5004
  -9882420.73446  -7675694.95246  23378299.4384                   23378290.8954
        39.5004         39.0004
  -6929744.02246  -5620262.44344  22671319.1954                   22671308.8364
        40.5004         26.0004
 -12113529.07547  -9397419.22746  23204982.8594                   23204975.0784
        42.0004         40.0004
  -8451790.61746  -5317904.50743  24338924.6414                   24338911.7034
        39.5004         21.7504
 -28403119.38048 -21972748.33249  20519505.3914                   20519496.7304
        51.7504         54.7504
 -14404392.88646 -11205041.19745  23284733.5944                   23284723.3524
        40.5004         30.5004
 -16828172.88748 -19303180.81449  20960707.8754                   20960699.2734
        51.5004         55.0004
 23  1  3  0  5 30.0000000  0  9G24G23G08G22G27G21G10G18G32
 -14667418.08647 -12274650.89547  22317562.6564                   22317554.5234
        42.5004         44.2504
 -14271917.90347 -12715876.49546  21354371.5314                   21354361.1134
        46.0004         40.5004
  -9859303.31846  -7657681.40046  23382698.3204                   23382690.4804
        39.5004         39.5004
  -7013483.48546  -5685513.95444  22655383.8284                   22655373.7034
        40.5004         26.0004
 -12038514.94246  -9338966.67246  23219257.9384                   23219250.1564
        41.5004         40.0004
  -8536204.87546  -5383681.83443  24322859.9064                   24322848.4344
        38.7504         21.2504
 -28408448.56248 -21976900.94449  20518491.4534                   20518482.3834
        52.2504         55.0004
 -14298679.75646 -11122667.33944  23304850.0234                   23304840.1914
        40.5004         29.2504
 -16872886.78648 -19338022.79849  20952198.8914                   20952190.2304
        51.7504         54.7504
 23  1  3  0  6  0.0000000  0  9G24G23G08G22G27G21G10G18G32
 -14627016.09247 -12243168.82047  22325251.6334                   22325242.5044
        42.7504         44.5004
 -14219930.78547 -12675367.05546  21364264.5084                   21364253.7974
        47.0004         40.5004
  -9835661.46446  -7639259.19746  23387197.2114                   23387189.3714
        39.7504         39.7504
  -7096953.87246  -5750555.79944  22639499.7504                   22639489.4494
        40.7504         26.5004
 -11963168.02947  -9280254.78846  23233596.9694                   23233588.3094
        42.2504         39.7504
  -8620454.40546  -5449330.82743  24306828.0864                   24306815.9694
        40.0004         21.0004
 -28413504.79348 -21980840.86349  20517529.3054                   20517520.1174
        52.7504         54.7504
 -14192748.54246 -11040123.56144  23325007.2894                   23324998.1024
        40.5004         28.7504
 -16917187.13348 -19372542.55049  20943768.9534                   20943760.2934
        52.2504         54.7504
 23  1  3  0  6 30.0000000  0  9G24G23G08G22G27G21G10G18G32
 -14586007.88947 -12211214.37347  22333054.4924                   22333047.0044
        43.0004         44.7504
 -14167696.23547 -12634664.79546  21374204.0004                   21374193.7584
        46.5004         39.7504
  -9811497.38246  -7620430.05046  23391796.2664                   23391787.8404
        40.0004         39.7504
  -7180154.13246  -5815387.14644  22623667.8204                   22623657.2274
        41.7504         26.2504
 -11887491.37746  -9221285.99046  23247996.5394                   23247988.8164
        40.5004         39.5004
  -8704537.33746  -5514849.97843  24290826.6414                   24290815.5784
        39.2504         21.5004
 -28418287.94048 -21984567.98749  20516619.3284                   20516610.1994
        52.5004         55.0004
 -14086601.45546 -10957411.53944  23345204.5474                   23345197.4104
        39.2504         28.0004
 -16961073.75248 -19406739.90149  20935417.5004                   20935408.9574
        51.7504         54.7504
 23  1  3  0  7  0.0000000  0  9G24G23G08G22G27G21G10G18G32
 -14544394.57247 -12178788.41047  22340973.9694                   22340965.2504
        43.5004         44.5004
 -14115214.19247 -12593769.70446  21384191.0234                   21384180.7814
        46.0004         40.0004
  -9786811.95046  -7601194.66646  23396493.1564                   23396485.2584
        38.7504         39.7504
  -7263082.99246  -5880007.03244  22607887.0474                   22607876.2194
        41.2504         26.5004
 -11811487.65647  -9162062.33846  23262461.1024                   23262451.8554
        42.2504         39.5004
  -8788451.84546  -5580237.89143  24274858.9304                   24274846.6374
        40.0004         21.7504
 -28422797.07848 -21988081.60849  20515760.9534                   20515752.1174
        52.7504         55.0004
 -13980240.21446 -10874532.66644  23365445.1484                   23365437.1334
        39.0004         28.5004
 -17004546.05248 -19440614.40949  20927144.9614                   20927136.4184
        51.7504         55.0004
 23  1  3  0  7 30.0000000  0  9G24G23G08G22G27G21G10G18G32
 -14502178.08147 -12145892.43447  22349007.2504                   22348998.8834
        42.0004         44.5004
 -14062485.30847 -12552682.27646  21394225.3754                   21394214.6644
        46.0004         40.0004
  -9761607.02546  -7581554.49146  23401290.0554                   23401281.6294
        39.7504         39.7504
  -7345739.50746  -5944414.68244  22592157.4304                   22592147.1294
        40.5004         27.2504
 -11735160.54046  -9102586.65246  23276985.0864                   23276976.8954
        40.2504         39.7504
  -8872195.76246  -5645492.88443  24258922.8914                   24258911.1254
        40.0004         22.7504
 -28427032.27748 -21991381.75849  20514955.0394                   20514946.2034
        53.0004         55.2504
 -13873667.12146 -10791488.74744  23385728.3054                   23385717.5944
        41.0004         28.5004
 -17047604.28148 -19474166.27549  20918951.2274                   20918942.4494
        51.5004         54.7504
 23  1  3  0  8  0.0000000  0  9G24G23G08G22G27G21G10G18G32
 -14459359.41447 -12112527.23747  22357155.1644                   22357146.7384
        43.0004         44.2504
 -14009509.43047 -12511402.37146  21404306.0554                   21404295.5204
        46.5004         39.7504
  -9735883.60346  -7561510.27446  23406184.1254                   23406176.5784
        39.5004         39.5004
  -7428122.25546  -6008609.00944  22576480.6954                   22576470.1024
        41.5004         27.0004
 -11658512.36846  -9042860.83146  23291570.4224                   23291562.3484
        40.2504         39.0004
  -8955766.98246  -5710613.30043  24243019.1484                   24243008.1454
        40.5004         22.0004
 -28430992.35748 -21994467.52649  20514201.4224                   20514192.4694
        53.2504         55.0004
 -13766883.95946 -10708281.08444  23406046.8674                   23406037.2704
        39.0004         28.2504
 -17090247.76348 -19507394.93949  20910836.8834                   20910828.0474
        52.2504         55.0004
 23  1  3  0  8 30.0000000  0  9G24G23G08G22G27G21G10G18G32
 -14415940.20647 -12078694.07147  22365418.5234                   22365409.2774
        43.0004         44.2504
 -13956286.80847 -12469930.20646  21414434.3284                   21414423.4414
        46.5004         39.7504
  -9709643.62546  -7541063.55046  23411177.6254                   23411169.6094
        39.2504         39.5004
  -7510230.44746  -6072589.39544  22560856.2734                   22560845.6804
        41.2504         27.2504
 -11581546.47546  -8982887.38646  23306217.1094                   23306208.3324
        40.0004         38.7504
  -9039163.83346  -5775597.82243  24227149.4844                   24227137.7774
        40.2504         22.7504
 -28434677.28048 -21997338.89749  20513500.3834                   20513491.3714
        52.7504         55.2504
 -13659892.80446 -10624911.34344  23426406.1254                   23426397.1134
        38.2504         28.2504
 -17132476.33348 -19540300.31449  20902800.5944                   20902791.9344
        52.0004         54.7504
 23  1  3  0  9  0.0000000  0  9G24G23G08G22G27G21G10G18G32
 -14371922.09547 -12044394.23247  22373793.1094                   22373785.7384
        42.0004         44.0004
 -13902817.81847 -12428266.06646  21424608.5474                   21424598.2464
        46.5004         39.7504
  -9682888.36846  -7520215.32046  23416268.9224                   23416261.3164
        40.5004         39.2504
  -7592062.93146  -6136354.92844  22545283.5864                   22545273.6374
        40.5004         27.7504
 -11504265.85946  -8922668.75546  23320922.2504                   23320914.4694
        39.0004         38.0004
  -9122384.51146  -5840445.11243  24211314.0554                   24211302.1724
        40.2504         21.7504
 -28438086.80348 -21999995.66749  20512851.3754                   20512842.4804
        52.5004         55.0004
 -13552695.79246 -10541381.24544  23446806.5704                   23446796.1524
        38.7504         27.0004
 -17174289.96848 -19572882.35149  20894843.6724                   20894835.0704
        52.0004         54.7504
 23  1  3  0  9 30.0000000  0  9G24G23G08G22G27G21G10G18G32
 -14327306.20046 -12009628.60647  22382283.9924                   22382275.8014
        41.7504         44.0004
 -13849102.35747 -12386409.87046  21434830.5164                   21434820.2734
        46.0004         40.0004
  -9655618.98846  -7498966.46346  23421458.2194                   23421450.2034
        40.0004         39.2504
  -7673618.18947  -6199904.47144  22529764.5234                   22529753.9304
        42.0004         27.0004
 -11426673.38046  -8862207.08346  23335688.2584                   23335679.7734
        40.0004         38.2504
  -9205426.72146  -5905153.29943  24195511.0474                   24195499.3404
        40.5004         22.5004
 -28441219.71048 -22002436.89049  20512255.0084                   20512246.4064
        52.0004         55.0004
 -13445294.62946 -10457692.00044  23467243.0394                   23467233.5594
        37.5004         27.0004
 -17215688.09448 -19605140.62149  20886966.1174                   20886957.4574
        52.0004         54.7504
 23  1  3  0 10  0.0000000  0  9G24G23G08G22G27G21G10G18G32
 -14282095.12547 -11974399.18847  22390887.3754                   22390878.8324
        42.2504         44.0004
 -13795141.50447 -12344362.45546  21445099.1334                   21445088.3634
        47.0004         39.5004
  -9627838.36946  -7477319.23746  23426744.4614                   23426736.9734
        39.5004         39.0004
  -7754896.14346  -6263237.89844  22514297.3754                   22514287.7774
        40.5004         26.5004
 -11348772.93346  -8801505.43946  23350511.8364                   23350503.8794
        39.5004         38.0004
  -9288289.47146  -5969721.67743  24179742.9064                   24179731.0824
        39.5004         22.5004
 -28444076.67648 -22004663.09349  20511711.4384                   20511702.6024
        52.7504         54.7504
 -13337692.28246 -10373846.04144  23487718.8204                   23487710.8054
        38.5004         27.7504
 -17256671.46848 -19637075.70949  20879166.8444                   20879158.3014
        51.7504         55.0004
 23  1  3  0 10 30.0000000  0  9G24G23G08G22G27G21G10G18G32
 -14236289.31547 -11938706.33647  22399604.6254                   22399595.6134
        42.2504         44.0004
 -13740934.44047 -12302123.19346  21455413.9774                   21455403.6174
        46.0004         39.2504
  -9599547.01146  -7455274.03046  23432128.8754                   23432120.8594
        40.0004         39.0004
  -7835894.72847  -6326353.65244  22498884.3524                   22498873.4654
        43.0004         28.0004
 -11270566.47346  -8740565.35046  23365393.7664                   23365385.8094
        39.0004         37.7504
  -9370970.34446  -6034148.30643  24164009.5554                   24163997.1454
        40.5004         22.7504
 -28446656.05448 -22006673.00049  20511220.6804                   20511211.9024
        52.5004         55.2504
 -13229889.66546 -10289843.99544  23508234.2274                   23508223.9264
        38.5004         26.5004
 -17297238.80348 -19668686.61749  20871447.1414                   20871438.7154
        51.7504         55.0004
 23  1  3  0 11  0.0000000  0  9G24G23G08G22G27G21G10G18G32
 -14189890.96146 -11902551.76347  22408432.8914                   22408424.9924
        41.2504         43.5004
 -13686481.99147 -12259692.71746  21465776.0004                   21465765.5824
        46.0004         39.5004
  -9570746.43746  -7432832.03146  23437608.8984                   23437601.0594
        39.7504         39.5004
  -7916613.42147  -6389251.30644  22483523.5394                   22483513.2974
        42.5004         27.5004
 -11192057.65246  -8679389.65346  23380333.5944                   23380326.1054
        39.7504         38.0004
  -9453466.55646  -6098431.04543  24148311.0164                   24148298.6054
        39.5004         22.0004
 -28448957.99048 -22008466.71649  20510782.5784                   20510773.9184
        52.5004         54.7504
 -13121889.40146 -10205687.96544  23528785.2504                   23528776.1214
        37.7504         26.5004
 -17337390.52048 -19699973.67849  20863806.7504                   20863797.9734
        52.2504         55.0004
 23  1  3  0 11 30.0000000  0  9G24G23G08G22G27G21G10G18G32
 -14142901.14546 -11865936.34847  22417374.5084                   22417366.9614
        40.5004         43.2504
 -13631783.83147 -12217070.80146  21476185.2504                   21476174.4224
        46.0004         39.5004
  -9541438.72946  -7409994.86646  23443185.9774                   23443178.0204
        40.2504         39.5004
  -7997050.67647  -6451929.66144  22468217.4614                   22468206.5744
        43.0004         28.5004
 -11113248.97846  -8617980.30146  23395330.9694                   23395322.4264
        39.5004         38.0004
  -9535776.49746  -6162568.66443  24132648.2114                   24132635.6844
        40.7504         23.5004
 -28450981.40948 -22010043.40749  20510397.6414                   20510388.5704
        53.2504         55.0004
 -13013693.05146 -10121379.12944  23549374.2274                   23549365.0394
        38.0004         26.2504
 -17377125.90348 -19730936.29549  20856245.1564                   20856236.6134
        52.2504         55.0004
 23  1  3  0 12  0.0000000  0  9G24G23G08G22G27G21G10G18G32
 -14095322.93146 -11828862.38247  22426429.6094                   22426420.4224
        41.7504         43.2504
 -13576841.49947 -12174258.59646  21486640.3984                   21486629.6884
        46.0004         39.2504
  -9511625.90146  -7386764.09546  23448858.9384                   23448851.2154
        39.5004         39.0004
  -8077206.67447  -6514388.85944  22452963.8134                   22452953.6884
        42.5004         27.5004
 -11034144.86446  -8556340.73746  23410383.7584                   23410375.3324
        38.5004         37.7504
  -9617899.48146  -6226560.57643  24117020.0864                   24117008.0864
        39.0004         21.7504
 -28452727.15348 -22011403.72649  20510065.3594                   20510056.5824
        53.5004         55.0004
 -12905304.07946 -10036920.18844  23570000.3364                   23569990.7974
        37.7504         26.5004
 -17416446.13948 -19761575.42849  20848762.6724                   20848754.1294
        51.7504         55.0004
 23  1  3  0 12 30.0000000  0  9G24G23G08G22G27G21G10G18G32
 -14047156.99746 -11791330.48147  22435593.8364                   22435585.8794
        39.0004         42.7504
 -13521654.33347 -12131255.63646  21497141.4924                   21497131.2504
        45.5004         39.0004
  -9481309.53646  -7363140.96346  23454628.0394                   23454620.4924
        39.2504         39.0004
  -8157079.65447  -6576627.52444  22437764.8834                   22437754.2894
        42.2504         27.5004
 -10954747.47046  -8494472.63746  23425493.0164                   23425484.7664
        39.0004         37.2504
  -9699833.03146  -6290404.88143  24101428.5704                   24101416.8634
        39.7504         22.7504
 -28454193.67748 -22012546.47349  20509786.1884                   20509777.7034
        53.0004         55.0004
 -12796723.49746  -9952311.94144  23590662.0554                   23590652.9264
        38.0004         26.5004
 -17455350.23248 -19791890.29049  20841359.8444                   20841351.3014
        51.5004         55.0004
 23  1  3  0 13  0.0000000  0  9G24G23G08G22G27G21G10G18G32
 -13998404.15846 -11753341.27247  22444871.7814                   22444863.9414
        40.5004         43.0004
 -13466221.61847 -12088061.32046  21507690.1414                   21507679.7814
        45.5004         39.0004
  -9450490.17146  -7339125.87546  23460493.4774                   23460485.3444
        39.2504         39.2504
  -8236667.39747  -6638643.92544  22422619.6094                   22422608.8404
        43.7504         28.5004
 -10875059.00446  -8432377.74546  23440656.8914                   23440648.6994
        38.7504         38.0004
  -9781573.81546  -6354098.97643  24085873.9224                   24085862.0394
        39.7504         22.7504
 -28455379.84948 -22013470.76049  20509560.6024                   20509551.8244
        52.0004         54.7504
 -12687952.51346  -9867555.35144  23611360.5554                   23611351.6024
        38.0004         26.7504
 -17493837.12348 -19821880.05949  20834035.9924                   20834027.2154
        52.0004         55.0004
 23  1  3  0 13 30.0000000  0  9G24G23G08G22G27G21G10G18G32
 -13949067.03646 -11714896.75547  22454260.2974                   22454252.3984
        41.0004         42.7504
 -13410544.49047 -12044676.55346  21518285.3364                   21518274.9184
        46.0004         39.0004
  -9419169.83346  -7314720.42546  23466453.2664                   23466445.4264
        39.5004         39.0004
  -8315969.82647  -6700437.99044  22407528.4454                   22407517.9694
        42.5004         28.7504
 -10795083.42246  -8370059.12346  23455875.5704                   23455867.2034
        39.0004         37.5004
  -9863120.79746  -6417642.07243  24070355.9304                   24070343.8134
        39.7504         22.0004
 -28456285.96648 -22014176.82949  20509388.1954                   20509378.9494
        53.7504         55.0004
 -12578994.06346  -9782652.68744  23632095.0554                   23632085.6334
        38.7504         25.5004
 -17531907.64948 -19851545.38449  20826791.2504                   20826782.5314
        52.0004         54.7504
 23  1  3  0 14  0.0000000  0  9G24G23G08G22G27G21G10G18G32
 -13899147.69146 -11675998.56247  22463759.6094                   22463751.5354
        40.5004         42.7504
 -13354623.42947 -12001101.71046  21528926.8284                   21528916.2934
        46.0004         39.0004
  -9387350.90946  -7289926.45446  23472507.4384                   23472500.0664
        39.5004         38.7504
  -8394986.32447  -6762009.27844  22392493.0164                   22392481.8364
        43.5004         28.5004
 -10714824.07446  -8307519.36046  23471149.3984                   23471140.3284
        40.0004         38.0004
  -9944472.56046  -6481033.04243  24054875.9924                   24054863.4064
        40.2504         22.7504
 -28456911.82448 -22014664.50749  20509269.2194                   20509260.0314
        53.5004         55.0004
 -12469850.54246  -9697605.79944  23652864.3444                   23652854.7464
        37.5004         25.7504
 -17569561.92948 -19880886.37149  20819625.9454                   20819617.1094
        51.2504         54.7504
 23  1  3  0 14 30.0000000  0  9G24G23G08G22G27G21G10G18G32
 -13848647.31846 -11636647.62347  22473368.5084                   22473361.1954
        39.0004         42.5004
 -13298458.22247 -11957336.61346  21539615.0314                   21539604.0864
        46.0004         39.2504
  -9355034.71446  -7264745.00346  23478657.6174                   23478649.6604
        40.0004         39.0004
  -8473715.61146  -6823356.75644  22377510.4924                   22377500.0164
        41.2504         28.2504
 -10634283.56146  -8244760.53346  23486474.2344                   23486466.6884
        38.0004         37.5004
 -10025626.40446  -6544269.80843  24039432.5784                   24039420.4024
        39.2504         22.5004
 -28457256.43948 -22014933.03249  20509203.5704                   20509194.6764
        53.5004         55.0004
 -12360523.54346  -9612415.94744  23673668.5394                   23673658.8834
        37.2504         26.7504
 -17606799.50148 -19909902.64049  20812539.7584                   20812531.0984
        52.0004         54.7504
 23  1  3  0 15  0.0000000  0  9G24G23G08G22G27G21G10G18G32
 -13797568.28346 -11596845.75947  22483089.9384                   22483081.4534
        40.5004         42.7504
 -13242049.59947 -11913381.85346  21550349.1724                   21550338.4024
        46.0004         38.7504
  -9322223.48646  -7239177.82646  23484900.8674                   23484893.1454
        39.2504         38.5004
  -8552157.19747  -6884480.05544  22362584.9064                   22362573.6684
        42.5004         28.5004
 -10553465.48046  -8181785.41546  23501854.2584                   23501845.9494
        39.0004         38.0004
 -10106580.92646  -6607351.22343  24024027.8524                   24024015.5594
        40.5004         22.7504
 -28457319.92848 -22014982.50749  20509191.4224                   20509182.2934
        53.5004         55.0004
 -12251015.66446  -9527085.12644  23694507.0004                   23694497.9304
        37.5004         25.5004
 -17643620.71248 -19938594.48049  20805533.0004                   20805524.1054
        51.2504         55.0004
 23  1  3  0 15 30.0000000  0  9G24G23G08G22G27G21G10G18G32
 -13745912.36746 -11556594.40447  22492918.5554                   22492911.1844
        39.2504         42.2504
 -13185397.78347 -11869237.57946  21561129.8524                   21561119.3164
        46.0004         39.0004
  -9288919.27246  -7213226.48246  23491238.8914                   23491231.0514
        39.7504         39.0004
  -8630309.64447  -6945378.05244  22347711.9924                   22347701.2234
        43.0004         28.5004
 -10472372.94346  -8118596.42746  23517285.6804                   23517277.3134
        39.5004         37.7504
 -10187334.23846  -6670275.88343  24008660.3524                   24008648.6454
        40.5004         23.0004
 -28457101.70748 -22014812.46849  20509232.8834                   20509224.2814
        52.2504         55.0004
 -12141328.86046  -9441614.90144  23715379.2194                   23715370.0904
        37.7504         25.5004
 -17680025.51448 -19966961.85349  20798605.4534                   20798596.6764
        52.0004         55.0004
 23  1  3  0 16  0.0000000  0  9G24G23G08G22G27G21G10G18G32
 -13693680.46946 -11515894.21647  22502858.8284                   22502850.6374
        41.0004         42.2504
 -13128502.08247 -11824903.28746  21571956.5864                   21571946.1094
        45.7504         38.5004
  -9255122.57646  -7186891.39146  23497670.2344                   23497662.1604
        40.5004         38.7504
  -8708171.35947  -7006049.51544  22332895.1334                   22332883.8954
        43.5004         29.2504
 -10391008.11246  -8055195.27346  23532768.7194                   23532759.9414
        39.2504         37.5004
 -10267883.64346  -6733041.63444  23993332.7894                   23993320.4384
        41.7504         25.7504
 -28456600.21148 -22014421.70149  20509328.2814                   20509319.5634
        53.0004         54.7504
 -12031464.49646  -9356006.32344  23736287.0634                   23736276.6454
        38.5004         25.5004
 -17716012.98348 -19995004.02149  20791757.0474                   20791748.3284
        51.7504         55.2504
 23  1  3  0 16 30.0000000  0  9G24G23G08G22G27G21G10G18G32
 -13640875.07946 -11474747.16947  22512907.0944                   22512898.6094
        39.5004         42.2504
 -13071363.34247 -11780379.59846  21582829.6884                   21582818.9774
        45.7504         38.5004
  -9220835.94146  -7160174.53946  23504194.8284                   23504187.0474
        39.5004         38.7504
  -8785742.08547  -7066494.22644  22318133.4534                   22318122.9184
        42.0004         29.0004
 -10309374.73446  -7991584.84746  23548303.0784                   23548295.1804
        39.2504         37.5004
 -10348227.68446  -6795647.36644  23978043.0554                   23978031.6414
        41.2504         25.7504
 -28455815.67648 -22013810.37249  20509477.6644                   20509468.7704
        53.7504         55.0004
 -11921425.12046  -9270261.37044  23757227.0474                   23757216.0434
        39.0004         25.0004
 -17751583.69848 -20022721.45149  20784988.3364                   20784979.5594
        51.0004         54.7504
 23  1  3  0 17  0.0000000  0  9G24G23G08G22G27G21G10G18G32
 -13587498.32546 -11433154.86247  22523065.2894                   22523056.5704
        40.2504         42.2504
 -13013982.05847 -11735666.91046  21593748.7974                   21593738.2624
        45.5004         38.5004
  -9186061.69046  -7133077.72446  23510811.7584                   23510804.2704
        40.0004         38.7504
  -8863021.17447  -7126711.67144  22303427.6564                   22303418.1174
        43.2504         29.7504
 -10227476.09746  -7927767.76546  23563888.2274                   23563879.8594
        39.0004         37.5004
 -10428364.38546  -6858091.54943  23962793.7424                   23962781.8594
        41.7504         23.2504
 -28454747.98048 -22012978.40349  20509680.7194                   20509671.6484
        53.0004         55.0004
 -11811213.14646  -9184381.93744  23778199.5234                   23778189.8674
        38.5004         24.5004
 -17786737.85848 -20050114.28949  20778298.8134                   20778289.7424
        52.2504         54.7504
 23  1  3  0 17 30.0000000  0  9G24G23G08G22G27G21G10G18G32
 -13533551.28546 -11391118.23047  22533329.3284                   22533322.3674
        38.5004         42.0004
 -12956357.73447 -11690764.85446  21604713.9384                   21604703.9884
        45.7504         38.5004
  -9150800.88946  -7105601.78346  23517521.7734                   23517514.0514
        41.0004         38.5004
  -8940006.58247  -7186700.30444  22288778.4924                   22288768.1914
        43.0004         29.7504
 -10145314.73646  -7863745.91346  23579523.5394                   23579513.9414
        39.0004         37.2504
 -10508291.16647  -6920372.15844  23947584.2034                   23947572.3204
        42.0004         26.0004
 -28453395.85648 -22011924.79749  20509937.9844                   20509929.3244
        53.2504         54.7504
 -11700829.96346  -9098369.04744  23799203.6024                   23799194.5904
        37.5004         24.0004
 -17821474.78948 -20077182.02149  20771688.7194                   20771679.6484
        52.0004         55.0004
 23  1  3  0 18  0.0000000  0  9G24G23G08G22G27G21G10G18G32
 -13479036.41346 -11348639.09747  22543704.0314                   22543696.0164
        40.0004         42.0004
 -12898491.03947 -11645673.92646  21615725.6414                   21615715.5744
        45.2504         38.5004
  -9115055.37946  -7077748.13846  23524324.2194                   23524316.5554
        40.5004         39.0004
  -9016698.19347  -7246459.97644  22274184.4534                   22274173.7424
        43.7504         29.7504
 -10062894.01346  -7799521.98346  23595206.9534                   23595198.9964
        38.5004         37.0004
 -10588006.66646  -6982488.10944  23932414.9534                   23932403.0704
        41.5004         24.7504
 -28451759.01548 -22010649.32849  20510249.5944                   20510240.7584
        53.2504         54.7504
 -11590278.03146  -9012224.70043  23820240.2814                   23820231.7384
        36.5004         23.0004
 -17855794.81948 -20103924.90149  20765157.7034                   20765148.9844
        51.5004         55.0004
 23  1  3  0 18 30.0000000  0  9G24G23G08G22G27G21G10G18G32
 -13423955.94146 -11305719.24547  22554185.3134                   22554177.4144
        39.7504         42.0004
 -12840382.56447 -11600394.61046  21626783.1484                   21626773.1414
        45.0004         38.7504
  -9078827.72246  -7049518.77746  23531218.2504                   23531210.4104
        41.5004         38.5004
  -9093095.17747  -7305990.08345  22259647.1644                   22259635.7504
        44.0004         30.0004
  -9980217.56346  -7735098.77846  23610940.0784                   23610931.4774
        38.2504         36.7504
 -10667509.40246  -7044438.26644  23917285.7034                   23917274.0554
        41.2504         26.0004
 -28449837.40548 -22009151.97049  20510615.0234                   20510606.1884
        53.2504         54.7504
 -11479559.94646  -8925950.85843  23841311.2734                   23841300.8554
        37.5004         22.2504
 -17889698.41248 -20130343.26849  20758705.8364                   20758697.0594
        52.5004         54.7504
 23  1  3  0 19  0.0000000  0 10G24G23G08G22G27G21G10G18G31G32
 -13368311.18146 -11262359.67246  22564774.5554                   22564766.3634
        40.7504         41.7504
 -12782031.88347 -11554926.55546  21637887.7194                   21637877.1844
        46.0004         38.7504
  -9042119.11346  -7020914.67646  23538203.4924                   23538195.4184
        41.7504         39.0004
  -9169195.90547  -7365289.35345  22245165.1174                   22245154.3484
        44.0004         30.0004
  -9897287.76446  -7670478.15745  23626720.2584                   23626712.0664
        37.5004         35.7504
 -10746796.48846  -7106220.40644  23902197.7814                   23902186.0164
        41.5004         25.7504
 -28447630.03148 -22007431.93949  20511034.8594                   20511026.4344
        52.7504         55.0004
 -11368676.95446  -8839548.54743  23862409.7274                   23862400.9494
        36.0004         22.2504
                                  25322890.984
        33.750
 -17923184.89448 -20156436.61049  20752333.7814                   20752324.8874
        51.5004         55.0004
 23  1  3  0 19 30.0000000  0 10G24G23G08G22G27G21G10G18G31G32
 -13312106.45946 -11218563.80046  22575469.3284                   22575462.1334
        39.2504         41.5004
 -12723441.72047 -11509271.88446  21649037.0394                   21649026.6214
        45.7504         38.5004
  -9004934.20546  -6991939.43346  23545279.7894                   23545271.8324
        41.7504         38.5004
  -9245002.13047  -7424359.12945  22230739.8674                   22230728.9224
        44.0004         30.5004
  -9814110.17446  -7605664.46346  23642548.7814                   23642541.0004
        38.2504         36.5004
 -10825869.08346  -7167835.39544  23887151.1724                   23887139.4654
        41.0004         25.5004
 -28445138.89048 -22005490.79749  20511509.1804                   20511500.1094
        53.0004         54.7504
 -11257633.80746  -8753021.42143  23883541.9454                   23883531.9384
        38.0004         22.7504
    417737.14945    357012.85854  25300475.6024                   25300465.5354
        33.7504         29.5004
 -17956256.77748 -20182206.90449  20746040.3834                   20746031.6644
        51.2504         54.7504
 23  1  3  0 20  0.0000000  0 10G24G23G08G22G27G21G10G18G31G32
 -13255340.05246 -11174330.22846  22586273.1884                   22586264.0004
        40.2504         41.5004
 -12664608.35747 -11463427.71946  21660232.1724                   21660221.9884
        45.7504         38.2504
  -8967270.76846  -6962591.30146  23552446.5704                   23552438.5554
        41.7504         38.7504
  -9320509.12847  -7483195.73945  22216371.4694                   22216360.5234
        44.2504         31.5004
  -9730684.00446  -7540657.07645  23658425.1644                   23658415.7424
        38.5004         35.5004
 -10904720.27046  -7229277.87844  23872146.1954                   23872134.6054
        41.0004         26.0004
 -28442359.20048 -22003324.80149  20512038.0784                   20512029.5354
        52.7504         55.0004
 -11146428.62046  -8666368.04243  23904702.7194                   23904693.8834
        36.2504         22.0004
    299851.18346    265153.73345  25278044.4304                   25278033.6604
        36.0004         31.0004
 -17988910.20148 -20207651.11349  20739826.4224                   20739817.8794
        51.7504         54.7504
 23  1  3  0 20 30.0000000  0 10G24G23G08G22G27G21G10G18G31G32
 -13198015.54846 -11129661.77146  22597180.5554                   22597172.2464
        39.7504         41.5004
 -12605533.75947 -11417395.58046  21671473.9844                   21671463.3914
        45.5004         38.5004
  -8929132.25146  -6932872.98146  23559703.3754                   23559696.1214
        41.0004         38.5004
  -9395717.68547  -7541799.80545  22202059.2814                   22202048.8054
        44.5004         31.0004
  -9647014.10446  -7475459.73245  23674346.3524                   23674337.7504
        38.2504         35.7504
 -10983350.11046  -7290547.87644  23857183.0004                   23857171.7624
        41.0004         25.7504
 -28439292.47248 -22000935.14049  20512621.6254                   20512612.9654
        53.5004         54.7504
 -11035065.26546  -8579591.41343  23925894.1724                   23925885.6294
        36.5004         22.5004
    181874.50545    173223.83644  25255592.4534                   25255583.3834
        33.5004         27.0004
 -18021146.89948 -20232770.60249  20733692.1564                   20733683.1454
        51.7504         54.7504
 23  1  3  0 21  0.0000000  0 10G24G23G08G22G27G21G10G18G31G32
 -13140134.77946 -11084559.87346  22608196.0704                   22608186.5314
        39.5004         41.5004
 -12546218.03847 -11371175.54646  21682761.3914                   21682751.0904
        45.5004         38.2504
  -8890520.67646  -6902786.04746  23567051.6954                   23567043.6214
        41.7504         38.5004
  -9470626.72747  -7600170.49545  22187805.1414                   22187794.3714
        44.0004         31.0004
  -9563103.45246  -7410074.81645  23690312.5784                   23690305.6764
        37.2504         35.5004
 -11061756.83046  -7351644.00744  23842262.8054                   23842251.7424
        40.2504         26.5004
 -28435938.08148 -21998321.33449  20513259.9454                   20513251.1094
        52.5004         54.7504
 -10923545.68946  -8492693.04943  23947115.8754                   23947106.7464
        36.0004         22.7504
     63809.71655     81225.19354  25233126.7194                   25233116.4184
        35.5004         29.2504
 -18052966.81748 -20257565.33449  20727636.8524                   20727628.2504
        51.7504         54.7504
 23  1  3  0 21 30.0000000  0 10G24G23G08G22G27G21G10G18G31G32
 -13081700.57446 -11039026.72646  22619314.1804                   22619306.6914
        39.0004         41.2504
 -12486662.12947 -11324768.35046  21694094.5784                   21694083.9264
        45.7504         38.5004
  -8851439.28447  -6872333.01746  23574489.2034                   23574480.8954
        42.5004         38.5004
  -9545236.07047  -7658307.62445  22173606.7664                   22173596.2894
        45.0004         31.7504
  -9478955.98246  -7344505.35845  23706326.8524                   23706318.0164
        37.5004         34.2504
 -11139938.95646  -7412565.12744  23827384.6884                   23827373.3914
        40.0004         25.5004
 -28432296.27548 -21995483.56449  20513953.1174                   20513944.2814
        53.5004         55.0004
 -10811872.65146  -8405675.06943  23968366.7584                   23968357.4534
        37.5004         22.7504
    -54341.35356    -10840.53354  25210645.6484                   25210633.2974
        36.5004         29.2504
 -18084370.79348 -20282035.94949  20721660.9844                   20721652.3244
        52.0004         55.0004
 23  1  3  0 22  0.0000000  0 10G24G23G08G22G27G21G10G18G31G32
 -13022714.28046 -10993063.36846  22630539.7584                   22630531.3914
        39.7504         41.2504
 -12426865.56247 -11278173.63446  21705473.5554                   21705462.9614
        45.0004         38.0004
  -8811888.69547  -6841514.37746  23582015.6644                   23582006.8284
        42.2504         38.2504
  -9619543.77547  -7716209.71545  22159466.5634                   22159456.2624
        44.5004         31.5004
  -9394573.91346  -7278753.06645  23722383.7584                   23722375.6254
        36.5004         34.5004
 -11217893.62446  -7473309.00544  23812552.9304                   23812540.0514
        40.5004         24.5004
 -28428365.37048 -21992420.51849  20514701.3444                   20514692.6254
        53.2504         55.0004
 -10700047.64646  -8318538.69843  23989646.6884                   23989637.0904
        37.2504         22.7504
   -172575.42846   -102971.11945  25188147.2734                   25188133.8094
        38.7504         31.0004
 -18115358.10048 -20306181.88549  20715764.6094                   20715755.7734
        52.0004         54.7504
 23  1  3  0 22 30.0000000  0 10G24G23G08G22G27G21G10G18G31G32
 -12963177.51646 -10946671.09246  22641868.5554                   22641859.8954
        38.7504         41.0004
 -12366828.17347 -11231391.26046  21716898.3674                   21716887.4224
        46.0004         38.0004
  -8771871.01647  -6810331.77946  23589630.2734                   23589621.9064
        43.0004         38.0004
  -9693549.02547  -7773876.15145  22145384.0164                   22145373.4804
        44.0004         30.2504
  -9309960.10546  -7212820.24345  23738484.3674                   23738477.1134
        36.2504         34.7504
 -11295619.52546  -7533874.64744  23797759.7814                   23797748.8364
        40.5004         24.2504
 -28424144.69549 -21989131.68849  20515504.0864                   20515495.5434
        54.0004         55.2504
 -10588072.38046  -8231285.23243  24010955.1254                   24010945.2344
        37.7504         22.5004
   -290889.55755   -195164.05955  25165629.2584                   25165618.8984
        35.0004         31.2504
 -18145928.54748 -20330002.99549  20709947.1414                   20709938.1294
        52.0004         55.0004
 23  1  3  0 23  0.0000000  0 10G24G23G08G22G27G21G10G18G31G32
 -12903090.45446 -10899849.97646  22653303.3444                   22653294.8594
        39.2504         41.5004
 -12306548.21747 -11184419.87546  21728369.2194                   21728358.3914
        45.5004         38.7504
  -8731386.37847  -6778785.31946  23597334.5234                   23597326.3324
        42.2504         38.0004
  -9767249.10247  -7831304.76045  22131359.7734                   22131348.3594
        45.2504         31.2504
  -9225115.72546  -7146707.71545  23754630.4614                   23754622.2704
        37.0004         33.5004
 -11373111.17446  -7594257.73944  23783014.0314                   23783001.8554
        40.7504         25.0004
 -28419631.94048 -21985615.25349  20516362.9614                   20516354.2424
        53.0004         54.7504
 -10475946.94646  -8143914.80243  24032292.3914                   24032282.3834
        39.2504         23.2504
                                  25143103.2734                   25143092.5044
        33.7504         33.0004
 -18176080.22248 -20353497.79049  20704209.4064                   20704200.4534
        51.5004         54.7504
 23  1  3  0 23 30.0000000  0 11G24G23G08G22G27G21G10G18G31G01G32
 -12842464.59246 -10852609.04646  22664839.8444                   22664831.5944
        39.2504         41.0004
 -12246035.35047 -11137266.98546  21739884.3754                   21739873.8984
        45.5004         38.2504
  -8690445.39247  -6746883.24746  23605124.7664                   23605116.9264
        42.2504         38.0004
  -9840652.33147  -7888502.08345  22117391.3674                   22117380.7734
        44.2504         31.2504
  -9140053.19246  -7080425.21245  23770817.5864                   23770809.0434
        36.7504         33.5004
 -11450376.50346  -7654464.49344  23768311.1094                   23768300.0474
        41.0004         26.2504
 -28414835.83048 -21981878.02549  20517275.4534                   20517267.1454
        53.5004         55.0004
 -10363682.91546  -8056436.31943  24053654.3754                   24053645.3634
        37.7504         23.0004
   -527746.87656   -345189.31555  25120558.9924                   25120546.6414
        37.5004         34.0004
    610382.29155    506651.97153  25352978.5704                   25352970.2624
        32.0004         18.2504
 -18205822.60148 -20376673.65749  20698549.3594                   20698540.5234
        52.5004         55.0004
 23  1  3  0 24  0.0000000  0 11G24G23G08G22G27G21G10G18G31G01G32
 -12781287.11246 -10804938.27646  22676481.0784                   22676473.0044
        38.7504         41.0004
 -12185274.89347 -11089921.17646  21751446.5784                   21751436.2194
        46.5004         37.7504
  -8649035.97647  -6714616.18746  23613004.7424                   23612996.4344
        42.2504         38.0004
  -9913743.24847  -7945456.01845  22103482.5004                   22103471.7304
        44.5004         31.2504
  -9054760.82746  -7013963.63845  23787047.7814                   23787040.0594
        37.0004         33.7504
 -11527398.83246  -7714481.87244  23753653.9064                   23753642.7274
        40.7504         25.2504
 -28409741.21148 -21977908.17849  20518245.2274                   20518236.3324
        53.0004         54.7504
 -10251267.56846  -7968839.95344  24075047.2894                   24075037.4574
        37.7504         24.5004
                                  25098002.1254                   25097989.4224
        38.5004         31.5004
    497497.46244    418689.76142  25331497.6884                   25331490.7854
        28.0004         15.5004
 -18235141.01848 -20399519.15749  20692970.0704                   20692961.4694
        52.0004         55.0004
 23  1  3  0 24 30.0000000  0 10G24G23G08G22G27G21G10G18G31G32
 -12719576.16046 -10756851.81145  22688224.9924                   22688216.0984
        38.7504         34.0004
 -12124283.03447 -11042395.05546  21763052.5554                   21763042.8984
        46.0004         38.0004
  -8607175.55747  -6681997.69046  23620971.8834                   23620963.1644
        43.0004         38.0004
  -9986536.34847  -8002177.90745  22089630.2504                   22089619.5984
        45.0004         32.0004
  -8969257.58745  -6947337.69445  23803318.7424                   23803310.1994
        35.5004         33.0004
 -11604192.36346  -7774320.99044  23739041.0864                   23739028.7934
        41.2504         25.7504
 -28404363.28849 -21973717.59049  20519268.5084                   20519260.1414
        54.0004         54.7504
 -10138718.82246  -7881139.62244  24096464.5394                   24096454.2384
        39.2504         25.0004
   -764897.82855   -529982.28154  25075425.9924                   25075417.6254
        34.7504         29.5004
 -18264051.44048 -20422046.74349  20687468.7344                   20687460.0744
        52.5004         55.0004
 23  1  3  0 25  0.0000000  0 11G24G23G08G22G27G21G10G18G31G01G32
 -12657322.40446 -10708342.38545  22700071.7584                   22700062.5704
        39.0004         30.2504
 -12063048.53947 -10994679.86446  21774705.2424                   21774695.0004
        45.0004         37.5004
  -8564855.56847  -6649021.08846  23629024.0474                   23629015.2704
        43.0004         37.7504
 -10059019.87247  -8058658.55745  22075837.1724                   22075826.3444
        44.5004         31.2504
  -8883535.23546  -6880541.07345  23819630.9454                   23819623.5164
        36.0004         33.2504
 -11680743.33846  -7833971.08444  23724473.8134                   23724462.5164
        41.7504         25.2504
 -28398689.92848 -21969296.79149  20520348.1564                   20520339.3794
        53.5004         55.0004
 -10026027.44446  -7793328.17843  24117909.4224                   24117899.1214
        39.0004         22.7504
   -883576.01445   -622458.89145  25052843.6484                   25052833.3484
        35.0004         31.2504
                                  25288573.5234                   25288565.2734
        29.2504         19.0004
 -18292542.62448 -20444247.65049  20682047.2274                   20682038.2154
        52.5004         54.7504
 23  1  3  0 25 30.0000000  0 11G24G23G08G22G27G21G10G18G31G01G32
 -12594531.46146 -10659414.38145  22712019.6094                   22712011.7114
        38.2504         30.0004
 -12001575.22047 -10946778.58746  21786403.4064                   21786392.8714
        45.7504         37.5004
  -8522081.21647  -6615690.44646  23637163.4224                   23637155.2894
        42.0004         37.5004
 -10131196.62947  -8114900.17345  22062102.1644                   22062092.0984
        44.0004         31.5004
  -8797600.37945  -6813578.84845  23835983.6334                   23835975.7934
        35.5004         33.2504
 -11757053.10146  -7893433.23344  23709952.5084                   23709940.5664
        41.7504         25.2504
 -28392724.14348 -21964648.12549  20521483.4384                   20521475.0124
        52.0004         54.7504
  -9913199.05446  -7705409.95343  24139380.3984                   24139369.2774
        38.7504         22.5004
  -1002318.73845   -714985.70445  25030247.3284                   25030238.9614
        33.2504         32.2504
                                  25267133.7734                   25267126.9304
        30.5004         16.7504
 -18320618.21848 -20466124.73249  20676704.6334                   20676695.9144
        52.0004         54.7504
 23  1  3  0 26  0.0000000  0 11G24G23G08G22G27G21G10G18G31G01G32
 -12531206.41846 -10610070.19145  22724070.2274                   22724062.0354
        39.2504         30.7504
 -11939864.02047 -10898691.94446  21798146.3284                   21798136.0274
        45.0004         37.0004
  -8478855.45647  -6582008.05946  23645389.8914                   23645380.9964
        43.0004         37.5004
 -10203066.24847  -8170902.45745  22048426.3674                   22048415.6564
        45.0004         31.2504
  -8711456.94246  -6746454.06845  23852377.3364                   23852367.9144
        36.5004         33.0004
 -11833120.90547  -7952706.85544  23695477.1334                   23695465.1914
        42.0004         27.5004
 -28386466.49948 -21959772.03749  20522674.0864                   20522665.6024
        52.0004         55.0004
  -9800236.50646  -7617387.21743  24160876.7974                   24160865.9104
        39.7504         22.7504
  -1121124.34746   -807561.47445  25007641.6254                   25007628.8634
        36.2504         31.7504
     46666.86155    214448.12252  25245707.5634                   25245702.0664
        30.7504         16.2504
 -18348279.14348 -20487678.68249  20671440.7974                   20671432.1954
        51.0004         55.0004
 23  1  3  0 26 30.0000000  0 11G24G23G08G22G27G21G10G18G31G01G32
 -12467348.80346 -10560310.98644  22736220.9224                   22736213.6684
        38.0004         29.0004
 -11877914.58047 -10850419.66546  21809935.2814                   21809925.3324
        45.5004         37.5004
  -8435179.76847  -6547975.06446  23653701.1254                   23653692.4064
        43.0004         37.7504
 -10274627.36147  -8226664.34445  22034808.3594                   22034798.0004
        44.5004         30.7504
  -8625107.40246  -6679168.72745  23868808.8754                   23868800.2154
        36.7504         33.2504
 -11908943.70447  -8011789.54944  23681049.7584                   23681037.2894
        42.2504         27.0004
 -28379915.62048 -21954667.46349  20523920.4144                   20523912.1054
        51.7504         55.0004
  -9687141.40546  -7529261.17343  24182396.3204                   24182387.0164
        38.0004         23.0004
  -1239989.47446   -900183.59845  24985021.6024                   24985010.8324
        36.0004         32.0004
                                  25224297.023
        33.250
 -18375525.02748 -20508909.23249  20666255.7894                   20666246.8364
        51.2504         55.0004
 23  1  3  0 27  0.0000000  0 10G24G23G08G22G27G21G10G18G31G32
 -12402960.48546 -10510138.28444  22748474.7344                   22748465.7814
        39.0004         28.5004
 -11815726.87747 -10801961.72746  21821769.4694                   21821758.8754
        44.7504         37.5004
  -8391056.01847  -6513592.93146  23662097.0634                   23662088.9304
        43.0004         37.2504
 -10345878.86047  -8282184.96745  22021249.4304                   22021239.3634
        45.2504         31.2504
  -8538554.54146  -6611724.94645  23885279.0164                   23885270.4144
        36.5004         33.0004
 -11984519.30747  -8070679.62044  23666667.5004                   23666655.5004
        42.0004         26.0004
 -28373070.82748 -21949333.86349  20525223.2274                   20525214.5084
        51.5004         54.7504
  -9573915.53546  -7441033.23743  24203943.8284                   24203933.1764
        39.5004         23.7504
  -1358911.24946   -992849.91845  24962391.8834                   24962379.9414
        36.0004         31.5004
 -18402355.68448 -20529816.22149  20661150.2734                   20661141.2034
        51.5004         55.0004
 23  1  3  0 27 30.0000000  0 11G24G23G08G22G27G21G10G18G31G01G32
 -12338044.08046 -10459554.05144  22760827.3674                   22760819.1764
        38.2504         29.5004
 -11753301.43247 -10753318.53846  21833648.5474                   21833638.1294
        44.5004         36.5004
  -8346486.41947  -6478863.40146  23670578.1644                   23670569.6804
        42.5004         36.7504
 -10416820.46447  -8337464.13145  22007749.4844                   22007739.6524
        44.5004         31.0004
  -8451801.70346  -6544125.31245  23901787.8524                   23901779.1334
        36.7504         32.5004
 -12059846.55746  -8129376.16644  23652333.8524                   23652321.1484
        41.7504         27.0004
 -28365931.88848 -21943771.05049  20526581.5944                   20526572.9924
        52.0004         54.7504
  -9460561.26446  -7352705.26743  24225513.3984                   24225503.4494
        39.0004         23.0004
  -1477887.27345  -1085558.48645  24939751.3444                   24939739.5784
        35.7504         31.2504
                                  25181524.4454                   25181517.0164
        32.2504         20.7504
 -18428771.66448 -20550400.09049  20656123.7274                   20656114.5394
        51.7504         55.0004
 23  1  3  0 28  0.0000000  0 11G24G23G08G22G27G21G10G18G31G01G32
 -12272602.13546 -10408560.32544  22773281.2424                   22773272.5824
        38.0004         29.0004
 -11690638.79047 -10704490.51446  21845572.1334                   21845562.0664
        44.2504         36.7504
  -8301474.13147  -6443788.90046  23679144.4534                   23679134.8554
        42.2504         36.7504
 -10487451.67347  -8392501.43045  21994309.7814                   21994298.9534
        44.7504         32.0004
  -8364852.57046  -6476372.76145  23918334.1884                   23918325.3524
        36.7504         33.7504
 -12134923.30347  -8187877.51744  23638046.5314                   23638035.0004
        42.0004         27.2504
 -28358498.51448 -21937978.81349  20527995.9844                   20527987.9104
        52.2504         54.7504
  -9347081.17346  -7264279.20144  24247107.7664                   24247098.2854
        38.7504         24.5004
  -1596915.16245  -1178307.48645  24917099.3444                   24917089.6294
        33.2504         31.2504
                                  25160163.5634                   25160156.4264
        32.0004         18.2504
 -18454773.50348 -20570661.25849  20651175.5784                   20651166.6254
        52.5004         55.0004
 23  1  3  0 28 30.0000000  0 10G24G23G08G22G27G21G10G18G31G32
 -12206636.46746 -10357158.51944  22785833.0634                   22785825.2814
        38.0004         28.5004
 -11627738.81247 -10655477.57546  21857542.3914                   21857531.9734
        44.5004         37.0004
  -8256020.53547  -6408370.52246  23687793.1334                   23687784.8244
        42.2504         36.5004
 -10557771.56547  -8447296.13045  21980927.5944                   21980917.0594
        44.2504         31.5004
  -8277709.76246  -6408469.26845  23934917.1884                   23934907.3554
        37.7504         33.2504
 -12209747.15047  -8246181.79444  23623807.7894                   23623795.6724
        42.0004         26.5004
 -28350769.79348 -21931956.43549  20529467.2274                   20529458.4494
        52.7504         54.7504
  -9233476.90946  -7175756.43943  24268726.6094                   24268716.3674
        37.7504         22.7504
  -1715991.67345  -1271094.40645  24894440.4304                   24894429.9534
        33.5004         31.5004
 -18480361.00548 -20590599.56249  20646306.5164                   20646297.5634
        51.7504         55.0004
 23  1  3  0 29  0.0000000  0 11G24G23G08G22G27G21G10G18G31G01G32
 -12140150.64646 -10305351.36744  22798485.1174                   22798477.1604
        38.2504         28.5004
 -11564602.98447 -10606280.82246  21869556.8444                   21869546.3094
        45.0004         36.5004
  -8210129.20446  -6372611.03846  23696526.2034                   23696518.1294
        41.5004         36.7504
 -10627780.40847  -8501848.46545  21967605.5314                   21967594.9964
        45.0004         31.0004
  -8190377.59946  -6340418.22745  23951535.7734                   23951526.6454
        37.2504         32.7504
 -12284317.49947  -8304288.54744  23609617.9304                   23609605.6374
        42.0004         27.5004
 -28342746.25748 -21925704.33649  20530993.8134                   20530985.0354
        52.7504         55.0004
  -9119751.84146  -7087139.52644  24290368.0004                   24290357.4654
        39.5004         24.0004
  -1835115.35546  -1363917.94045  24871773.4614                   24871761.5204
        36.5004         32.0004
  -2202547.46155  -1374187.80652  25117490.7114                   25117484.5704
        32.2504         17.2504
 -18505535.61148 -20610216.12849  20641515.7894                   20641506.6024
        52.2504         55.0004
 23  1  3  0 29 30.0000000  0 11G24G23G08G22G27G21G10G18G31G01G32
 -12073144.15246 -10253138.50344  22811235.2974                   22811228.1024
        37.2504         28.7504
 -11501228.67447 -10556898.24646  21881616.4224                   21881605.9454
        44.7504         36.5004
  -8163799.26547  -6336509.80746  23705342.1484                   23705334.9534
        42.0004         36.5004
 -10697474.41047  -8556155.46345  21954342.6804                   21954332.8484
        44.0004         31.0004
  -8102856.38146  -6272219.87145  23968189.6954                   23968181.6804
        36.5004         32.7504
 -12358629.34946  -8362193.87344  23595476.4144                   23595465.0594
        41.7504         27.2504
 -28334424.68248 -21919219.99149  20532577.6254                   20532568.4384
        52.0004         54.7504
  -9005905.30346  -6998427.95344  24312032.2664                   24312021.7304
        39.5004         24.2504
  -1954280.67545  -1456774.01945  24849094.9924                   24849085.0434
        34.5004         31.7504
                                  25096179.9774                   25096175.4804
        28.0004         16.2504
 -18530294.73648 -20629508.94649  20636804.3364                   20636795.5594
        51.7504         54.7504
 23  1  3  0 30  0.0000000  0 11G24G23G08G22G27G21G10G18G31G01G32
 -12005622.15346 -10200523.95044  22824086.0634                   22824077.1094
        37.7504         27.7504
 -11437619.11647 -10507332.37146  21893720.3134                   21893710.6564
        44.2504         36.5004
  -8117036.10546  -6300071.00146  23714241.0164                   23714233.5274
        41.5004         36.2504
 -10766855.85647  -8610218.91345  21941140.8524                   21941129.4964
        45.0004         32.2504
  -8015152.04546  -6203878.83445  23984878.3914                   23984870.8444
        36.2504         32.7504
 -12432683.71646  -8419898.55344  23581383.7894                   23581372.1994
        41.2504         26.7504
 -28325807.50048 -21912505.30749  20534217.2974                   20534208.4024
        51.7504         55.0004
  -8891942.28346  -6909625.64143  24333717.8524                   24333708.4884
        38.5004         22.7504
  -2073487.66146  -1549662.55745  24826411.6334                   24826400.1604
        36.2504         32.2504
                                  25074892.5704                   25074883.6764
        31.5004         17.2504
 -18554641.55548 -20648480.47849  20632171.2584                   20632162.1294
        51.5004         54.7504
 23  1  3  0 30 30.0000000  0 11G24G23G08G22G27G21G10G18G31G01G32
 -11937586.35846 -10147509.05444  22837033.0234                   22837024.4224
        39.0004         28.0004
 -11373773.87147 -10457582.84546  21905870.8364                   21905859.5984
        46.0004         36.5004
  -8069841.41247  -6263295.93446  23723222.5944                   23723213.4654
        42.2504         36.0004
 -10835923.54647  -8664037.88045  21927996.7114                   21927986.5864
        44.0004         32.5004
  -7927267.31546  -6135397.22445  24001602.2814                   24001595.0864
        36.5004         33.0004
 -12506477.84746  -8477400.47744  23567341.3754                   23567329.9614
        41.2504         27.0004
 -28316893.70148 -21905559.48949  20535913.2274                   20535904.6254
        52.2504         55.0004
  -8777864.43646  -6820733.80244  24355427.2814                   24355417.1564
        39.2504         24.5004
  -2192733.48845  -1642581.32745  24803719.2424                   24803709.0004
        35.0004         32.0004
                                  25053616.875
        30.750
 -18578575.68848 -20667130.44149  20627616.9224                   20627607.7934
        52.0004         54.7504
 23  1  3  0 31  0.0000000  0 11G24G23G08G22G27G21G10G18G31G01G32
 -11869039.83246 -10094096.17944  22850075.6804                   22850067.6644
        37.7504         28.0004
 -11309693.91447 -10407650.41846  21918064.1804                   21918053.8794
        44.7504         36.2504
  -8022218.32747  -6226187.03345  23732284.9694                   23732275.6054
        42.0004         35.5004
 -10904677.30847  -8717612.23045  21914913.8284                   21914903.1764
        45.2504         32.5004
  -7839205.71645  -6066777.82945  24018360.9224                   24018352.9064
        35.7504         31.7504
 -12580010.37046  -8534698.51844  23553348.7274                   23553337.7234
        41.2504         27.5004
 -28307683.12048 -21898382.41749  20537665.8364                   20537657.1174
        50.7504         55.0004
  -8663674.40446  -6731754.58244  24377156.0164                   24377147.1214
        38.7504         24.5004
  -2312015.43846  -1735528.27745  24781020.7504                   24781010.1564
        36.0004         32.5004
  -2649922.05055  -1701582.05652  25032363.7734                   25032357.2234
        31.7504         16.2504
 -18602098.13648 -20685459.60749  20623140.8364                   20623131.7074
        51.2504         54.7504
 23  1  3  0 31 30.0000000  0 11G24G23G08G22G27G21G10G18G31G01G32
 -11799981.55246 -10040284.50244  22863217.3134                   22863208.8284
        38.5004         27.0004
 -11245376.14647 -10357532.68546  21930303.4304                   21930293.2464
        44.5004         36.2504
  -7974165.42346  -6188743.20445  23741428.7344                   23741419.8984
        41.0004         35.7504
 -10973113.31347  -8770938.98145  21901890.7974                   21901880.2034
        45.2504         32.5004
  -7750967.27945  -5998020.57845  24035151.3754                   24035143.2424
        35.2504         32.2504
 -12653276.33246  -8591788.87544  23539406.6174                   23539394.8524
        41.0004         26.5004
 -28298172.07148 -21890971.20449  20539475.9694                   20539467.3094
        51.0004         54.7504
  -8549371.13446  -6642687.10244  24398907.2194                   24398897.4454
        38.5004         24.5004
  -2431327.81945  -1828498.94145  24758316.6334                   24758305.9804
        35.5004         32.7504
                                  25011131.3834                   25011125.8284
        31.0004         16.7504
 -18625205.81648 -20703465.58949  20618743.3134                   20618734.1254
        51.7504         55.0004
 23  1  3  0 32  0.0000000  0 10G24G23G08G22G27G21G10G18G31G32
 -11730416.88046  -9986078.26544  22876456.3674                   22876447.2974
        38.5004         27.0004
 -11180823.78947 -10307232.14946  21942587.5704                   21942576.9184
        44.7504         36.0004
  -7925688.04346  -6150968.64046  23750653.6024                   23750646.1134
        41.2504         36.0004
 -11041233.97247  -8824019.99745  21888927.1564                   21888917.5594
        45.2504         32.2504
  -7662557.83245  -5929130.13745  24051975.2504                   24051967.8794
        34.7504         31.0004
 -12726276.65946  -8648672.23044  23525515.1724                   23525503.3484
        41.0004         26.5004
 -28288362.99648 -21883327.77449  20541342.7814                   20541334.0044
        51.0004         55.0004
  -8434959.66346  -6553535.32744  24420679.4534                   24420669.6214
        38.5004         25.5004
  -2550670.84946  -1921493.47045  24735606.1094                   24735594.9884
        37.0004         33.5004
 -18647901.95748 -20721150.88649  20614424.4844                   20614415.5904
        52.2504         55.0004
 23  1  3  0 32 30.0000000  0 10G24G23G08G22G27G21G10G18G31G32
 -11660348.31646  -9931479.38544  22889788.1644                   22889780.6764
        37.2504         27.0004
 -11116037.24047 -10256749.13846  21954915.9454                   21954905.4694
        44.5004         36.2504
  -7876788.78446  -6112865.35846  23759958.5004                   23759952.1254
        40.7504         36.0004
 -11109038.28347  -8876854.51445  21876024.7974                   21876014.4384
        45.7504         33.0004
  -7573980.88745  -5860109.11745  24068831.4924                   24068822.7734
        35.0004         31.5004
 -12799009.24246  -8705346.96544  23511674.8674                   23511663.2194
        41.5004         27.2504
 -28278255.41348 -21875451.73249  20543265.9454                   20543257.0514
        50.7504         54.7504
  -8320442.24146  -6464300.99244  24442470.8284                   24442461.0554
        38.0004         24.2504
  -2670041.63646  -2014509.66045  24712891.8524                   24712879.9694
        37.0004         33.2504
 -18670187.03248 -20738515.86449  20610183.7034                   20610174.2234
        51.2504         54.7504
 23  1  3  0 33  0.0000000  0 11G24G23G08G22G27G21G10G18G31G01G32
 -11589777.01846  -9876488.76444  22903218.6094                   22903209.4224
        38.2504         27.5004
 -11051015.49847 -10206082.86346  21967289.2424                   21967278.7074
        45.5004         36.7504
  -7827468.57546  -6074434.03945  23769343.9224                   23769336.0824
        41.0004         35.7504
 -11176524.48747  -8929441.15745  21863182.9384                   21863172.4024
        45.5004         33.2504
  -7485238.07045  -5790958.89445  24085718.1724                   24085710.9184
        35.2504         31.5004
 -12871470.93847  -8761810.60444  23497885.6414                   23497873.1134
        42.0004         26.2504
 -28267847.83248 -21867341.93449  20545246.5004                   20545237.8984
        51.7504         55.0004
  -8205819.86946  -6374984.87344  24464283.3674                   24464273.8874
        38.5004         24.5004
  -2789436.50046  -2107544.56745  24690170.8364                   24690160.3014
        37.0004         33.0004
                                  24947554.867
        33.500
 -18692060.08248 -20755559.79249  20606021.3524                   20606012.5164
        52.5004         54.7504
 23  1  3  0 33 30.0000000  0 11G24G23G08G22G27G21G10G18G31G01G32
 -11518706.55046  -9821109.16444  22916741.3834                   22916733.5434
        37.7504         26.5004
 -10985760.03747 -10155234.45246  21979706.7814                   21979696.2464
        45.0004         36.0004
  -7777730.95146  -6035677.45145  23778808.7344                   23778800.0744
        40.7504         34.5004
 -11243693.09347  -8981780.32145  21850401.5314                   21850390.7034
        45.7504         33.0004
  -7396333.80445  -5721682.81345  24102635.4534                   24102628.8444
        35.2504         31.5004
 -12943660.95447  -8818062.56844  23484149.5864                   23484136.7664
        42.5004         28.2504
 -28257140.68548 -21858998.69949  20547284.0394                   20547275.7304
        50.5004         55.0004
  -8091095.77046  -6285589.50843  24486114.0004                   24486104.8714
        37.5004         23.5004
  -2908853.77746  -2200596.97045  24667445.8984                   24667435.3634
        36.5004         34.0004
                                  24926405.7504                   24926398.4964
        31.5004         16.7504
 -18713522.62848 -20772283.84749  20601937.0634                   20601928.2854
        51.5004         54.7504
 23  1  3  0 34  0.0000000  0 11G24G23G08G22G27G21G10G18G31G01G32
 -11447137.86046  -9765341.36444  22930361.2814                   22930352.6214
        37.5004         26.5004
 -10920269.56047 -10104202.93546  21992169.1254                   21992158.9414
        44.5004         36.2504
  -7727576.95946  -5996596.43245  23788353.4384                   23788344.4844
        39.7504         34.5004
 -11310542.03447  -9033870.39745  21837680.0164                   21837669.8914
        46.0004         33.5004
  -7307269.66945  -5652282.16445  24119582.9694                   24119576.4184
        34.0004         30.0004
 -13015575.79646  -8874100.10544  23470463.6254                   23470451.9184
        41.2504         28.7504
 -28246132.16548 -21850420.63949  20549378.9694                   20549370.1914
        50.2504         54.7504
  -7976270.68246  -6196115.41643  24507964.5474                   24507954.9494
        38.7504         23.7504
  -3028288.93346  -2293663.30245  24644720.0634                   24644707.8284
        37.5004         33.2504
                                  24905278.3054                   24905271.8134
        31.7504         15.5004
 -18734573.49048 -20788687.10749  20597931.3284                   20597922.3164
        51.2504         55.0004
 23  1  3  0 34 30.0000000  0 11G24G23G08G22G27G21G10G18G31G01G32
 -11375074.94746  -9709188.43244  22944074.4924                   22944067.0044
        37.7504         26.0004
 -10854546.00047 -10052989.78646  22004676.2034                   22004665.6094
        46.0004         36.2504
  -7677010.58146  -5957194.07645  23797976.3204                   23797968.1294
        41.0004         34.7504
 -11377072.35147  -9085712.18745  21825019.4774                   21825008.7664
        45.5004         33.0004
  -7218050.32845  -5582760.62245  24136562.7114                   24136554.4614
        35.2504         31.0004
 -13087215.28447  -8929923.07044  23456831.1414                   23456819.1994
        42.0004         27.2504
 -28234822.74048 -21841608.10049  20551531.0554                   20551522.2194
        50.7504         54.7504
  -7861348.22345  -6106565.46243  24529831.4384                   24529824.4184
        34.0004         22.5004
  -3147740.93246  -2386742.76845  24621986.4304                   24621977.0084
        36.2504         33.5004
  -3428691.17045  -2109323.27442  24884174.1884                   24884167.6954
        33.0004         17.7504
 -18755214.57848 -20804771.05749  20594003.4304                   20593994.3014
        51.5004         55.0004
 23  1  3  0 35  0.0000000  0 11G24G23G08G22G27G21G10G18G31G01G32
 -11302519.52746  -9652651.74944  22957881.2114                   22957872.9614
        37.0004         26.2504
 -10788588.78947 -10001594.57745  22017227.0164                   22017217.1254
        44.7504         35.7504
  -7626033.34146  -5917471.56945  23807675.0314                   23807669.1254
        39.7504         35.0004
 -11443282.45347  -9137304.48245  21812420.7344                   21812409.8484
        46.5004         34.0004
  -7128678.17145  -5513119.96645  24153568.5474                   24153561.2344
        33.7504         30.2504
 -13158576.33947  -8985529.09944  23443251.2664                   23443239.2664
        42.0004         28.5004
 -28223211.63548 -21832560.48549  20553740.5004                   20553732.4264
        51.5004         54.7504
  -7746329.87446  -6016940.81944  24551722.3984                   24551711.9224
        39.5004         24.5004
  -3267206.17046  -2479832.57645  24599253.9384                   24599243.6374
        36.5004         34.0004
                                  24863092.4384                   24863085.9454
        31.5004         15.5004
 -18775445.51548 -20820535.41149  20590153.5004                   20590144.7814
        51.5004         55.2504
 23  1  3  0 35 30.0000000  0 11G24G23G08G22G27G21G10G18G31G01G32
 -11229473.98846  -9595733.13544  22971781.2194                   22971772.6174
        38.0004         27.0004
 -10722398.20547  -9950017.51545  22029822.6024                   22029812.2424
        46.0004         35.7504
  -7574647.64546  -5877430.78745  23817454.1254                   23817445.9924
        39.7504         34.0004
 -11509171.70547  -9188646.74145  21799881.9774                   21799871.9694
        45.7504         33.2504
  -7039156.23446  -5443362.62445  24170606.6414                   24170596.6334
        36.7504         30.0004
 -13229657.68847  -9040917.13844  23429724.7114                   23429713.5904
        42.5004         27.7504
 -28211298.06048 -21823277.18149  20556007.6484                   20555999.8674
        50.2504         54.7504
  -7631217.69946  -5927242.98343  24573625.0394                   24573617.1414
        36.5004         22.0004
  -3386681.48346  -2572930.18745  24576519.0704                   24576508.1254
        39.0004         34.5004
  -3650134.20645  -2281876.38142  24842035.3914                   24842027.8444
        32.2504         16.7504
 -18795266.58348 -20835980.38549  20586381.7504                   20586372.9734
        51.0004         54.7504
 23  1  3  0 36  0.0000000  0 11G24G23G08G22G27G21G10G18G31G01G32
 -11155941.54446  -9538435.12244  22985774.7504                   22985766.0904
        38.0004         27.0004
 -10655975.16847  -9898259.32346  22042462.9304                   22042452.5124
        45.7504         36.2504
  -7522856.10646  -5837073.73545  23827310.6564                   23827301.2344
        39.7504         34.0004
 -11574740.18547  -9239739.05045  21787405.2194                   21787394.5084
        46.5004         34.5004
  -6949488.32246  -5373491.52445  24187669.0234                   24187660.0124
        36.7504         31.0004
 -13300457.50647  -9096085.83344  23416252.1884                   23416240.3054
        42.2504         28.5004
 -28199082.51248 -21813758.57249  20558331.9774                   20558323.4924
        51.2504         55.0004
  -7516014.46946  -5837474.33343  24595548.0164                   24595539.2974
        37.5004         22.0004
  -3506165.39146  -2666034.48845  24553781.1174                   24553770.9344
        37.0004         34.2504
                                  24821000.3364                   24820994.4884
        30.5004         16.7504
 -18814678.89348 -20851106.85049  20582687.8914                   20582678.7034
        52.0004         54.7504
 23  1  3  0 36 30.0000000  0 11G24G23G08G22G27G21G10G18G31G01G32
 -11081923.37046  -9480758.62644  22999859.9614                   22999851.0084
        37.7504         26.0004
 -10589318.72347  -9846319.25946  22055147.4224                   22055137.2384
        45.2504         36.0004
  -7470660.29946  -5796401.68245  23837242.5864                   23837234.3954
        40.2504         33.5004
 -11639985.95147  -9290579.90445  21774988.9144                   21774978.4384
        46.5004         33.7504
  -6859676.22745  -5303508.06645  24204758.3594                   24204750.6374
        34.7504         30.7504
 -13370972.27247  -9151032.39744  23402834.2424                   23402821.8914
        42.0004         28.2504
 -28186562.91648 -21804003.03949  20560714.4844                   20560705.7074
        51.0004         55.0004
  -7400721.28746  -5747635.49543  24617488.7974                   24617478.9654
        38.5004         22.5004
  -3625653.48846  -2759142.11645  24531042.7814                   24531033.3014
        36.2504         35.2504
  -3871070.44255  -2454034.50253  24799993.2034                   24799985.5984
        33.5004         19.0004
 -18833681.56048 -20865914.10749  20579071.4534                   20579061.4454
        52.2504         54.7504
 23  1  3  0 37  0.0000000  0 11G24G23G08G22G27G21G10G18G31G01G32
 -11007423.68746  -9422706.93244  23014036.4304                   23014027.8874
        37.7504         26.5004
 -10522430.84647  -9794198.85545  22067875.6564                   22067865.0634
        46.5004         35.7504
  -7418064.59646  -5755418.01945  23847249.8134                   23847244.1414
        38.0004         33.5004
 -11704910.37247  -9341170.34845  21762634.3364                   21762623.9184
        46.2504         34.2504
  -6769724.86945  -5233416.10945  24221875.9064                   24221867.8324
        35.2504         30.7504
 -13441202.21947  -9205757.02844  23389469.8364                   23389457.7194
        43.0004         28.5004
 -28173740.45448 -21794011.51849  20563154.6884                   20563145.7344
        50.2504         54.7504
  -7285341.79546  -5657729.39843  24639444.3204                   24639434.6644
        37.5004         22.5004
  -3745144.84046  -2852252.20145  24508305.4064                   24508294.4024
        38.2504         35.0004
  -3981342.49445  -2539960.79542  24779008.1334                   24779001.4064
        32.0004         17.7504
 -18852276.64848 -20880403.76649  20575532.5784                   20575524.0354
        51.2504         54.7504
 23  1  3  0 37 30.0000000  0 11G24G23G08G22G27G21G10G18G31G01G32
 -10932443.76346  -9364281.03544  23028304.5864                   23028295.8094
        38.0004         25.5004
 -10455310.48947  -9741897.29045  22080648.5704                   22080637.4494
        46.0004         35.7504
  -7365070.02346  -5714123.58745  23857335.8754                   23857328.2704
        38.5004         33.5004
 -11769511.31747  -9391508.74145  21750341.3594                   21750330.4144
        46.2504         34.0004
  -6679635.85545  -5163216.87745  24239018.0474                   24239011.2624
        34.5004         30.7504
 -13511144.00347  -9260257.11644  23376159.8284                   23376148.4144
        43.2504         28.5004
 -28160613.66148 -21783782.84449  20565652.6564                   20565643.7624
        50.7504         55.0004
  -7169876.93746  -5567756.86043  24661417.4844                   24661407.1844
        38.2504         22.0004
  -3864634.88846  -2945361.34445  24485569.2424                   24485556.5394
        40.0004         35.2504
  -4091479.73945  -2625782.04442  24758050.7274                   24758043.0044
        32.7504         17.2504
 -18870463.32248 -20894575.18749  20572072.2584                   20572062.8364
        51.5004         55.0004
 23  1  3  0 38  0.0000000  0 11G24G23G08G22G27G21G10G18G31G01G32
 -10856986.52346  -9305483.20244  23042663.2424                   23042655.2854
        37.5004         26.0004
 -10387958.42547  -9689415.17346  22093465.1174                   22093454.5824
        46.2504         36.0004
  -7311679.38846  -5672520.50545  23867495.7424                   23867487.3164
        38.7504         33.0004
 -11833788.76647  -9441595.03445  21738109.3524                   21738098.9924
        46.5004         34.2504
  -6589412.99445  -5092913.32445  24256188.4844                   24256179.8834
        35.7504         30.7504
 -13580796.52147  -9314531.78844  23362905.5004                   23362893.6174
        42.2504         28.0004
 -28147182.27448 -21773316.83349  20568208.6564                   20568199.8204
        51.2504         55.0004
  -7054329.38046  -5477719.77743  24683404.8594                   24683395.0274
        37.5004         22.2504
  -3984121.65246  -3038467.88445  24462828.9924                   24462818.8674
        37.0004         34.7504
  -4201479.89345  -2711496.45242  24737117.6254                   24737110.4304
        32.7504         17.7504
 -18888242.41548 -20908429.02149  20568688.7194                   20568679.4144
        52.5004         55.0004
 23  1  3  0 38 30.0000000  0 11G24G23G08G22G27G21G10G18G31G01G32
 -10781055.10546  -9246315.82144  23057112.5704                   23057104.1454
        37.0004         24.7504
 -10320375.48947  -9636753.15645  22106325.4614                   22106315.3364
        46.0004         35.2504
  -7257895.61446  -5630611.05445  23877730.4454                   23877721.6094
        38.2504         33.5004
 -11897742.70147  -9491429.26045  21725939.4844                   21725928.8324
        46.0004         34.0004
  -6499059.67746  -5022508.18445  24273381.5944                   24273373.5784
        37.0004         31.2504
 -13650157.61247  -9368579.38344  23349706.9924                   23349694.8754
        42.7504         28.0004
 -28133446.12048 -21762613.33249  20570822.5944                   20570813.6414
        51.2504         54.7504
  -6938701.71546  -5387620.34143  24705408.0634                   24705398.2304
        38.7504         22.0004
  -4103602.51446  -3131569.85645  24440092.7504                   24440082.5084
        38.2504         35.0004
  -4311340.83945  -2797102.38943  24716212.3674                   24716204.3524
        34.0004         19.0004
 -18905614.90048 -20921965.99749  20565383.2814                   20565373.8014
        52.5004         54.7504
 23  1  3  0 39  0.0000000  0 11G24G23G08G22G27G21G10G18G31G01G32
 -10704651.12446  -9186780.26644  23071651.0704                   23071643.3484
        37.0004         26.0004
 -10252561.11447  -9583910.80046  22119230.1484                   22119220.0234
        45.7504         36.0004
  -7203720.16746  -5588396.40945  23888038.9304                   23888031.2664
        37.7504         33.0004
 -11961371.63647  -9541010.23345  21713831.4224                   21713820.7114
        46.2504         34.5004
  -6408578.33746  -4952003.27945  24290601.0704                   24290592.6454
        37.5004         32.0004
 -13719224.27646  -9422397.55144  23336563.2504                   23336551.8954
        41.7504         27.2504
 -28119403.84848 -21751671.31349  20573494.5084                   20573485.5554
        50.7504         54.7504
  -6822995.30346  -5297459.48443  24727427.1884                   24727416.5354
        38.5004         22.5004
  -4223074.15446  -3224664.60245  24417357.8284                   24417347.2344
        37.5004         34.0004
  -4421059.22145  -2882597.27343  24695332.2274                   24695326.3204
        32.7504         18.5004
 -18922580.35748 -20935185.82649  20562154.3284                   20562145.4344
        51.5004         54.7504
 23  1  3  0 39 30.0000000  0 11G24G23G08G22G27G21G10G18G31G01G32
 -10627777.78146  -9126878.99544  23086281.4694                   23086272.4574
        39.0004         26.7504
 -10184516.24847  -9530888.86245  22132178.7504                   22132168.1564
        45.7504         35.2504
  -7149156.62446  -5545879.38445  23898421.2344                   23898414.8014
        36.5004         32.7504
 -12024676.00147  -9590338.29645  21701784.9924                   21701774.5744
        45.7504         34.7504
  -6317972.54046  -4881401.34645  24307842.1724                   24307832.9264
        36.5004         31.5004
 -13787995.94147  -9475985.83244  23323476.8674                   23323464.8094
        42.0004         28.7504
 -28105056.04948 -21740491.21149  20576224.8284                   20576215.8754
        51.2504         54.7504
  -6707212.90846  -5207239.45143  24749457.6884                   24749449.0864
        36.2504         21.5004
  -4342533.87946  -3317750.09445  24394625.8914                   24394615.5904
        37.0004         34.7504
  -4530632.96045  -2967979.46043  24674481.6644                   24674474.5274
        33.5004         19.2504
 -18939139.86648 -20948089.33049  20559003.4064                   20558994.6294
        52.0004         55.0004
 23  1  3  0 40  0.0000000  0 11G24G23G08G22G27G21G10G18G31G01G32
 -10550437.56146  -9066613.82444  23100997.8674                   23100989.5004
        36.2504         25.5004
 -10116240.91547  -9477687.32045  22145170.3834                   22145160.8444
        45.5004         35.5004
  -7094207.33746  -5503061.77345  23908879.7504                   23908871.5004
        38.5004         32.7504
 -12087654.77947  -9639412.64645  21689800.7894                   21689790.0204
        46.0004         34.0004
  -6227245.26146  -4810704.77145  24325107.4454                   24325098.9614
        37.2504         32.0004
 -13856470.08147  -9529342.31344  23310446.4064                   23310435.1094
        42.2504         27.5004
 -28090401.59748 -21729072.16649  20579013.6724                   20579004.6024
        50.5004         54.7504
  -6591356.46745  -5116961.74943  24771504.6954                   24771495.8594
        35.5004         21.5004
  -4461979.13446  -3410824.27945  24371896.8674                   24371885.1604
        38.5004         34.5004
  -4640059.14945  -3053246.59942  24653658.2664                   24653651.1884
        32.2504         17.2504
 -18955293.68248 -20960676.70449  20555929.2274                   20555920.3324
        52.0004         54.7504
 23  1  3  0 40 30.0000000  0 11G24G23G08G22G27G21G10G18G31G01G32
 -10472632.65846  -9005986.69844  23115804.8674                   23115795.0354
        39.2504         24.0004
 -10047735.22747  -9424306.29245  22158206.6724                   22158196.8404
        45.7504         35.5004
  -7038874.51146  -5459945.28045  23919409.0704                   23919400.0594
        37.2504         32.5004
 -12150307.12347  -9688232.63845  21677878.4064                   21677867.5204
        46.2504         34.2504
  -6136399.36845  -4739915.77145  24342392.0634                   24342385.8054
        34.5004         31.0004
 -13924644.48746  -9582465.19644  23297472.8134                   23297461.4574
        41.2504         27.7504
 -28075439.99648 -21717413.78349  20581860.7504                   20581852.1484
        52.0004         55.2504
  -6475428.02046  -5026627.91143  24793565.7194                   24793556.2974
        36.0004         22.0004
  -4581406.56546  -3503884.59545  24349170.2734                   24349159.2114
        38.0004         34.5004
  -4749334.92945  -3138396.53743  24632863.6174                   24632856.7734
        34.0004         18.2504
 -18971042.07648 -20972948.17049  20552932.5004                   20552923.3134
        53.0004         55.0004
 23  1  3  0 41  0.0000000  0 11G24G23G08G22G27G21G10G18G31G01G32
 -10394366.64946  -8945000.15944  23130696.1954                   23130688.0044
        37.2504         24.7504
  -9979000.34347  -9370746.65945  22171286.9064                   22171276.5474
        45.2504         35.5004
  -6983161.64645  -5416532.66245  23930009.4844                   23930001.8794
        35.2504         31.7504
 -12212633.49147  -9736798.63845  21666017.9844                   21666007.4494
        45.0004         34.0004
  -6045438.71846  -4669037.34245  24359703.3984                   24359695.0904
        37.5004         32.5004
 -13992518.32647  -9635353.90644  23284557.4454                   23284545.4454
        42.7504         28.2504
 -28060171.46148 -21705516.22049  20584765.9454                   20584757.4614
        52.0004         54.7504
  -6359430.43946  -4936240.20243  24815640.9384                   24815630.2274
        37.5004         22.2504
  -4700814.10946  -3596929.43845  24326447.1954                   24326437.2464
        37.5004         34.5004
  -4858458.43145  -3223427.87743  24612098.9534                   24612091.5234
        34.2504         20.0004
 -18986386.25248 -20984904.65249  20550012.4224                   20550003.8794
        52.5004         54.7504
 23  1  3  0 41 30.0000000  0 11G24G23G08G22G27G21G10G18G31G01G32
 -10315640.58146  -8883655.19044  23145678.2344                   23145669.8094
        37.7504         24.5004
  -9910035.02947  -9317007.44345  22184411.3284                   22184400.5594
        46.0004         35.5004
  -6927069.26546  -5372824.34145  23940684.8674                   23940676.9104
        36.7504         32.5004
 -12274631.81847  -9785108.99845  21654219.5634                   21654209.3204
        45.7504         34.7504
  -5954365.02046  -4598070.85945  24377033.3914                   24377025.6094
        37.0004         31.5004
 -14060088.09047  -9688005.67544  23271699.5004                   23271687.5004
        42.5004         28.0004
 -28044593.90348 -21693377.86549  20587730.8054                   20587721.6174
        51.5004         55.0004
  -6243364.45446  -4845799.20843  24837726.2344                   24837716.5204
        36.7504         22.0004
  -4820197.60546  -3689955.49245  24303729.1804                   24303718.1764
        37.0004         34.0004
  -4967425.71045  -3308337.41343  24591364.1094                   24591355.2734
        35.5004         18.2504
 -19001325.31348 -20996545.46549  20547169.6804                   20547161.1954
        51.7504         54.7504
 23  1  3  0 42  0.0000000  0 11G24G23G08G22G27G21G10G18G31G01G32
 -10236458.96646  -8821955.23244  23160746.7814                   23160737.5354
        39.0004         25.2504
  -9840841.47647  -9263090.40845  22197577.9614                   22197567.6024
        46.0004         35.2504
  -6870602.63646  -5328824.36545  23951429.8834                   23951421.8674
        36.2504         31.5004
 -12336303.66147  -9833164.95945  21642484.1414                   21642473.4304
        45.0004         35.0004
  -5863183.01746  -4527019.97345  24394385.1804                   24394377.6334
        36.5004         32.2504
 -14127353.46647  -9740420.23344  23258899.1804                   23258887.5314
        43.0004         28.0004
 -28028708.73748 -21680999.82249  20590753.4384                   20590744.7194
        52.5004         54.7504
  -6127234.02046  -4755308.00743  24859825.7114                   24859816.0554
        36.5004         21.7504
  -4939555.70246  -3782961.80445  24281018.0704                   24281005.6024
        38.7504         34.2504
  -5076235.63245  -3393124.39843  24570657.6024                   24570649.8794
        34.0004         20.0004
 -19015861.56948 -21007872.40449  20544403.7814                   20544395.0044
        52.7504         55.0004
 23  1  3  0 42 30.0000000  0 11G24G23G08G22G27G21G10G18G31G01G32
 -10156822.95446  -8759901.20544  23175899.9774                   23175891.9024
        38.2504         25.2504
  -9771418.60547  -9208994.68845  22210788.8134                   22210778.2774
        46.0004         35.7504
  -6813762.08545  -5284533.03245  23962245.2424                   23962237.6954
        34.2504         30.0004
 -12397646.86147  -9880964.85045  21630810.9774                   21630800.2074
        45.7504         34.5004
  -5771894.57846  -4455886.09945  24411756.1414                   24411748.0664
        36.0004         31.7504
 -14194311.40047  -9792595.23244  23246157.4224                   23246145.0124
        43.5004         29.5004
 -28012514.21148 -21668380.71349  20593835.2734                   20593826.4964
        52.5004         54.7504
  -6011040.00646  -4664767.26343  24881936.9384                   24881926.2274
        37.0004         22.0004
  -5058884.58646  -3875945.34245  24258308.2814                   24258298.2154
        36.5004         34.0004
  -5184884.34245  -3477785.72243  24549981.0554                   24549974.5044
        34.7504         18.2504
 -19029994.14048 -21018884.78449  20541713.9384                   20541705.4534
        52.5004         55.0004
 23  1  3  0 43  0.0000000  0 11G24G23G08G22G27G21G10G18G31G01G32
 -10076735.68746  -8697495.54144  23191141.7424                   23191131.5594
        40.0004         25.5004
  -9701767.11047  -9154720.82245  22224043.3914                   22224032.7384
        46.2504         35.2504
  -6756550.68445  -5239952.73645  23973132.4534                   23973124.7304
        34.0004         31.0004
 -12458661.52947  -9928508.73145  21619199.9844                   21619189.6254
        46.0004         34.2504
  -5680503.05146  -4384671.95245  24429148.7664                   24429140.1644
        37.0004         32.5004
 -14260960.26547  -9844529.42445  23233474.7344                   23233462.7934
        43.0004         30.2504
 -27996010.11348 -21655520.37049  20596975.5394                   20596967.1134
        51.5004         54.7504
  -5894784.86146  -4574178.85243  24904059.2664                   24904049.0234
        36.5004         21.5004
  -5178181.57746  -3968904.00645  24235607.4224                   24235596.1254
        37.5004         34.5004
  -5293369.38946  -3562319.56343  24529338.7194                   24529330.3524
        36.7504         19.0004
 -19043723.95148 -21029583.33349  20539101.2894                   20539092.6294
        53.5004         54.7504
 23  1  3  0 43 30.0000000  0 11G24G23G08G22G27G21G10G18G31G01G32
  -9996200.44446  -8634740.80744  23206465.0784                   23206457.0044
        37.5004         25.2504
  -9631888.09047  -9100269.65345  22237340.1724                   22237329.9884
        45.5004         34.5004
  -6698972.04945  -5195086.27245  23984089.8754                   23984082.3874
        34.7504         31.5004
 -12519347.88447  -9975796.77845  21607651.6724                   21607641.4884
        45.5004         35.0004
  -5589012.30746  -4313380.47245  24446558.6804                   24446550.0784
        36.0004         32.0004
 -14327298.53447  -9896221.56844  23220851.1334                   23220839.1914
        43.5004         29.7504
 -27979196.54748 -21642418.87549  20600174.9844                   20600166.3244
        51.5004         54.7504
  -5778471.58845  -4483545.09643  24926192.3674                   24926182.8284
        34.5004         20.7504
  -5297444.30045  -4061836.03645  24212911.7814                   24212901.6564
        35.2504         33.7504
  -5401688.97746  -3646724.40743  24508725.0164                   24508717.9964
        36.0004         19.0004
 -19057052.22148 -21039968.99549  20536565.3834                   20536556.6054
        53.2504         54.7504
 23  1  3  0 44  0.0000000  0 11G24G23G08G22G27G21G10G18G31G01G32
  -9915219.29246  -8571638.62044  23221876.8984                   23221867.4774
        39.5004         25.2504
  -9561781.10047  -9045640.84545  22250681.3204                   22250671.1954
        45.7504         34.2504
  -6641028.23945  -5149935.26445  23995115.3204                   23995108.5354
        33.0004         30.5004
 -12579704.78747 -10022828.11545  21596166.4694                   21596155.7584
        45.7504         34.7504
  -5497424.67946  -4242013.50945  24463987.6884                   24463978.3834
        36.0004         30.2504
 -14393324.29847  -9947670.22544  23208287.0864                   23208274.2074
        43.5004         29.7504
 -27962072.55548 -21629075.50049  20603433.6804                   20603425.4884
        51.5004         54.7504
  -5662101.58445  -4392867.22443  24948336.8674                   24948327.3874
        35.7504         21.5004
  -5416669.25746  -4154738.55545  24190224.4614                   24190213.9844
        37.0004         34.5004
  -5509839.52946  -3730997.57643  24488145.7504                   24488137.1484
        37.7504         18.2504
 -19069978.83048 -21050041.66149  20534105.2584                   20534096.4804
        53.0004         54.7504
 23  1  3  0 44 30.0000000  0 11G24G23G08G22G27G21G10G18G31G01G32
  -9833794.71446  -8508190.90044  23237370.7274                   23237361.5984
        38.5004         25.0004
  -9491446.42847  -8990834.63945  22264065.4144                   22264055.3484
        44.5004         34.7504
  -6582721.38345  -5104501.38845  24006211.3984                   24006203.9104
        34.0004         30.2504
 -12639731.73347 -10069602.34845  21584743.8444                   21584733.1914
        46.0004         35.0004
  -5405743.21245  -4170573.40245  24481432.5634                   24481425.8954
        35.0004         31.5004
 -14459035.55247  -9998873.79345  23195782.4384                   23195770.1454
        43.7504         30.2504
 -27944637.47048 -21615489.72249  20606751.7274                   20606742.7154
        52.0004         54.7504
  -5545676.96846  -4302146.80643  24970492.6254                   24970482.1484
        36.5004         21.5004
  -5535853.28046  -4247609.23245  24167545.1334                   24167533.7774
        38.0004         34.0004
  -5617818.43346  -3815136.93743  24467597.3914                   24467589.4344
        36.0004         18.2504
 -19082504.22548 -21059801.70049  20531721.7424                   20531713.0824
        53.2504         54.7504
 23  1  3  0 45  0.0000000  0 11G24G23G08G22G27G21G10G18G31G01G32
  -9751930.09046  -8444400.28244  23252949.2584                   23252940.7734
        39.5004         26.0004
  -9420885.03347  -8935851.74045  22277493.2504                   22277482.8324
        45.0004         34.7504
  -6524055.05845  -5058787.35245  24017375.0634                   24017367.4574
        34.7504         31.2504
 -12699428.82847 -10116119.55245  21573383.2974                   21573372.8204
        46.7504         35.2504
  -5313971.47346  -4099062.96545  24498897.9224                   24498888.5004
        36.2504         30.5004
 -14524430.18547 -10049830.65545  23183338.3524                   23183326.7624
        44.5004         30.7504
 -27926891.65948 -21601661.81949  20610128.3754                   20610119.6564
        52.5004         55.0004
  -5429200.55946  -4211385.96043  24992657.1884                   24992647.4734
        36.5004         20.5004
  -5654994.63346  -4340446.63645  24144872.9844                   24144861.8634
        38.7504         35.0004
  -5725623.41246  -3899140.91343  24447083.1564                   24447074.2034
        37.7504         19.2504
 -19094629.55048 -21069250.00649  20529414.6024                   20529406.0004
        53.0004         55.0004
 23  1  3  0 45 30.0000000  0 11G24G23G08G22G27G21G10G18G31G01G32
  -9669627.19246  -8380268.17444  23268611.0164                   23268601.8874
        38.7504         26.2504
  -9350096.34147  -8880691.75245  22290963.9064                   22290953.0204
        45.2504         34.5004
  -6465031.15945  -5012794.73245  24028608.4304                   24028599.2424
        34.5004         30.7504
 -12758794.91947 -10162378.81945  21562086.9454                   21562075.9414
        47.0004         35.5004
  -5222111.67046  -4027483.89645  24516376.7814                   24516369.3524
        36.0004         31.5004
 -14589506.07547 -10100539.12545  23170953.9384                   23170942.5234
        43.2504         31.0004
 -27908833.49648 -21587590.52749  20613564.9384                   20613556.0434
        52.2504         54.7504
  -5312673.41145  -4120585.57243  25014830.4384                   25014821.1334
        35.5004         21.5004
  -5774089.24246  -4433247.62045  24122209.5164                   24122198.9224
        37.5004         35.5004
  -5833251.03546  -3983006.53242  24426602.7664                   24426593.8714
        36.5004         17.7504
 -19106354.46548 -21078386.29049  20527183.2194                   20527174.7934
        53.5004         55.0004
 23  1  3  0 46  0.0000000  0 11G24G23G08G22G27G21G10G18G31G01G32
  -9586889.61846  -8315797.30744  23284355.7894                   23284346.1914
        38.7504         26.0004
  -9279081.62547  -8825355.63045  22304477.1884                   22304467.6484
        44.5004         34.5004
  -6405652.86545  -4966525.92744  24039905.0084                   24039898.2814
        32.5004         29.7504
 -12817830.54547 -10208380.59645  21550852.6174                   21550842.0234
        46.5004         35.2504
  -5130167.86346  -3955839.38445  24533873.9694                   24533865.7774
        36.0004         30.5004
 -14654262.54747 -10150998.71845  23158632.5944                   23158619.8914
        45.2504         30.0004
 -27890463.43848 -21573276.19949  20617060.4774                   20617051.7584
        51.7504         54.7504
  -5196098.93546  -4029748.40543  25037016.6954                   25037005.4574
        38.5004         21.5004
  -5893135.18746  -4526010.66145  24099557.1094                   24099545.5204
        39.7504         35.7504
  -5940699.29046  -4066732.49643  24406155.9064                   24406147.3634
        38.5004         19.2504
 -19117680.53648 -21087211.79549  20525028.0234                   20525018.9534
        53.0004         54.7504
 23  1  3  0 46 30.0000000  0 11G24G23G08G22G27G21G10G18G31G01G32
  -9503719.54246  -8250989.48144  23300182.2974                   23300173.1684
        39.5004         24.5004
  -9207840.61447  -8769843.18545  22318034.4454                   22318024.1454
        45.5004         35.0004
  -6345922.33445  -4919982.69545  24051273.4534                   24051265.3794
        34.5004         31.5004
 -12876534.47347 -10254123.88745  21539681.5394                   21539670.8874
        47.2504         35.5004
  -5038142.51546  -3884131.33545  24551386.0704                   24551376.7664
        36.0004         30.0004
 -14718696.45847 -10201206.97245  23146370.0314                   23146358.7344
        43.5004         31.7504
 -27871780.44948 -21558718.03749  20620615.7504                   20620606.7974
        52.2504         55.0004
  -5079478.54246  -3938875.38843  25059208.0554                   25059197.7544
        37.2504         20.0004
  -6012128.74746  -4618732.93845  24076910.3984                   24076900.9184
        37.0004         34.2504
  -6047965.04446  -4150316.18143  24385743.4774                   24385735.1094
        38.7504         19.0004
 -19128607.71048 -21095726.45549  20522948.5704                   20522939.7934
        53.5004         55.0004
 23  1  3  0 47  0.0000000  0 11G24G23G08G22G27G21G10G18G31G01G32
  -9420120.34946  -8185847.24344  23316090.3284                   23316081.4924
        38.7504         24.7504
  -9136374.39747  -8714155.26645  22331634.2664                   22331623.5554
        45.2504         35.0004
  -6285842.76245  -4873167.43345  24062706.5864                   24062697.8094
        34.7504         30.7504
 -12934907.17547 -10299609.10346  21528573.7034                   21528563.1094
        46.5004         36.0004
  -4946039.28045  -3812362.57045  24568912.5634                   24568904.0784
        35.7504         30.5004
 -14782806.46447 -10251162.80445  23134170.7584                   23134158.9344
        44.2504         31.5004
 -27852784.93648 -21543916.32649  20624230.2424                   20624221.5824
        51.5004         55.0004
  -4962814.91945  -3847968.62843  25081406.0004                   25081398.5704
        33.5004         19.7504
  -6131067.63146  -4711412.59745  24054279.8134                   24054268.5744
        37.7504         35.5004
  -6155046.16446  -4233756.06343  24365367.4454                   24365358.1994
        38.0004         20.7504
 -19139137.31448 -21103931.33549  20520944.9224                   20520935.9104
        53.0004         54.7504
 23  1  3  0 47 30.0000000  0 11G24G23G08G22G27G21G10G18G31G01G32
  -9336091.97446  -8120370.60544  23332080.8364                   23332071.8244
        38.5004         24.2504
  -9064680.43347  -8658289.85845  22345276.3284                   22345266.3204
        45.5004         34.0004
  -6225414.79545  -4826080.74045  24074204.3204                   24074197.0664
        33.0004         30.2504
 -12992945.46847 -10344833.73146  21517528.7034                   21517518.6374
        46.2504         36.0004
  -4853858.45645  -3740533.37744  24586452.2974                   24586445.5124
        34.7504         29.2504
 -14846588.20047 -10300862.86045  23122034.1724                   23122021.2344
        44.5004         31.0004
 -27833473.46748 -21528868.43049  20627905.4774                   20627896.8164
        50.5004         55.0004
                                  25103617.3754                   25103606.9574
        36.5004         20.0004
  -6249946.55946  -4804045.47645  24031658.7734                   24031646.2464
        39.0004         35.5004
  -6261937.18846  -4317047.77643  24345026.0554                   24345017.4534
        37.7504         19.2504
 -19149267.11048 -21111824.68349  20519017.5634                   20519008.6094
        52.0004         54.7504
 23  1  3  0 48  0.0000000  0 11G24G23G08G22G27G21G10G18G31G01G32
  -9251643.59746  -8054566.66844  23348150.3834                   23348141.9574
        38.2504         25.2504
  -8992765.65647  -8602252.38845  22358961.2974                   22358950.5864
        45.2504         34.0004
  -6164646.93645  -4778729.17845  24085768.2974                   24085761.1024
        34.0004         30.5004
 -13050655.42347 -10389802.51346  21506547.2114                   21506536.9104
        46.7504         36.2504
  -4761609.59145  -3668651.13544  24604007.2034                   24603999.2464
        35.7504         29.2504
 -14910046.65447 -10350311.00845  23109957.3284                   23109945.7974
        42.7504         31.2504
 -27813852.35648 -21513579.25449  20631638.9924                   20631630.3914
        50.2504         55.0004
 -14181885.60646 -11031660.25443  25125834.7974                   25125822.9144
        39.5004         20.7504
  -6368768.84546  -4896634.29045  24009044.9454                   24009035.5234
        37.7504         35.5004
  -6368641.74946  -4400194.16643  24324720.2584                   24324712.2424
        38.2504         19.7504
 -19159004.22248 -21119412.02949  20517164.5784                   20517155.6254
        52.5004         54.7504
 23  1  3  0 48 30.0000000  0 11G24G23G08G22G27G21G10G18G31G01G32
  -9166770.02446  -7988431.41244  23364301.0314                   23364292.7234
        38.5004         25.5004
  -8920622.41347  -8546036.89645  22372689.8364                   22372679.1254
        45.0004         34.0004
  -6103534.01745  -4731108.70745  24097400.2734                   24097390.9104
        34.2504         30.5004
 -13108028.73347 -10434508.96746  21495629.6094                   21495619.0164
        46.5004         36.0004
  -4669287.71446  -3596712.03845  24621576.1414                   24621568.5944
        36.2504         30.2504
 -14973171.47447 -10399499.16545  23097945.6804                   23097934.2074
        44.2504         31.0004
 -27793912.67748 -21498041.85349  20635433.4534                   20635424.9694
        50.7504         55.0004
                                  25148049.836
        25.750
  -6487523.44946  -4989170.37146  23986448.3914                   23986437.0354
        38.7504         37.2504
  -6475149.21946  -4483187.04643  24304453.2734                   24304445.1414
        37.5004         19.7504
 -19168341.27748 -21126687.65349  20515387.6024                   20515379.0594
        52.5004         55.0004
 23  1  3  0 49  0.0000000  0 11G24G23G08G22G27G21G10G18G31G01G32
  -9081481.30146  -7921972.65143  23380531.1644                   23380522.1524
        38.2504         22.2504
  -8848258.34147  -8489649.34445  22386461.1954                   22386450.6024
        45.5004         33.2504
  -6042085.99645  -4683227.18745  24109092.0004                   24109083.8094
        34.2504         30.0004
 -13165072.22547 -10478958.43746  21484774.9384                   21484763.8754
        46.5004         36.0004
  -4576903.23345  -3524724.11644  24639156.5864                   24639148.2194
        34.7504         29.5004
 -15035968.62547 -10448432.01645  23085995.3834                   23085983.2664
        43.5004         30.7504
 -27773661.34148 -21482261.59249  20639287.1414                   20639278.3054
        51.5004         55.5004
 -13948287.96045 -10865444.99953  25170283.3524                   25170275.2194
        35.2504         21.0004
  -6606214.92746  -5081657.24846  23963861.0944                   23963850.6174
        37.0004         36.2504
  -6581464.02046  -4566029.75243  24284222.7034                   24284213.5164
        37.7504         20.7504
 -19177286.19548 -21133657.70949  20513685.6804                   20513676.6094
        53.0004         55.0004
 23  1  3  0 49 30.0000000  0 11G24G23G08G22G27G21G10G18G31G01G32
  -8995775.27246  -7855188.72443  23396840.7504                   23396831.7974
        37.5004         23.0004
  -8775668.91947  -8433086.18645  22400274.0784                   22400263.2504
        45.2504         34.0004
  -5980301.00845  -4635083.06144  24120849.0234                   24120840.3634
        33.2504         29.2504
 -13221780.90347 -10523146.99146  21473983.2424                   21473972.4734
        46.2504         36.0004
  -4484454.18146  -3452685.90844  24656749.8134                   24656740.2734
        36.0004         28.7504
 -15098430.67647 -10497103.72945  23074108.9774                   23074097.5044
        42.7504         30.7504
 -27753093.15248 -21466234.43449  20643201.3984                   20643192.5634
        51.0004         55.2504
 -13831439.14455 -10790758.11553  25192515.0944                   25192508.3674
        32.0004         20.5004
  -6724835.54146  -5174088.84946  23941289.4614                   23941277.8714
        40.0004         38.5004
  -6687578.61646  -4648716.42643  24264029.0554                   24264021.0984
        36.7504         21.0004
 -19185834.69748 -21140318.86249  20512058.7974                   20512050.0204
        52.7504         55.0004
 23  1  3  0 50  0.0000000  0 11G24G23G08G22G27G21G10G18G31G01G32
  -8909655.99146  -7788082.82044  23413228.9844                   23413219.5044
        38.0004         24.7504
  -8702855.82447  -8376348.72945  22414129.6484                   22414119.2304
        45.0004         33.5004
  -5918182.50045  -4586679.01644  24132669.0394                   24132661.2584
        33.5004         29.7504
 -13278155.72047 -10567075.41846  21463255.8754                   21463244.8134
        46.5004         36.0004
  -4391944.93545  -3380600.80344  24674353.1334                   24674344.9414
        34.5004         28.5004
 -15160557.21147 -10545514.01145  23062287.6564                   23062275.5394
        44.0004         32.0004
 -27732209.27048 -21449961.28349  20647175.4384                   20647166.6024
        50.7504         55.0004
 -13714559.89846 -10699683.37943  25214763.6884                   25214752.3914
        37.5004         21.2504
  -6843383.44246  -5266463.86346  23918729.3594                   23918719.2344
        38.7504         38.5004
  -6793491.48046  -4731245.95843  24243874.7894                   24243866.1294
        37.5004         20.2504
 -19193988.79648 -21146672.70549  20510506.9694                   20510498.3674
        52.0004         55.2504
 23  1  3  0 50 30.0000000  0 11G24G23G08G22G27G21G10G18G31G01G32
  -8823126.02246  -7720656.85643  23429694.6254                   23429686.1414
        37.7504         22.7504
  -8629819.13747  -8319437.04445  22428027.8524                   22428017.9024
        45.2504         34.0004
  -5855733.56845  -4538017.53244  24144553.3364                   24144545.6134
        33.0004         29.7504
 -13334196.06747 -10610743.21646  21452591.4304                   21452580.6024
        46.2504         36.5004
  -4299378.27845  -3308470.91644  24691967.0394                   24691958.7304
        33.5004         27.2504
 -15222346.48647 -10593661.50745  23050528.5784                   23050517.2814
        43.0004         31.5004
 -27711008.41748 -21433441.13949  20651209.3594                   20651200.6994
        50.0004         55.0004
 -13597652.59855 -10643516.20853  25237006.7114                   25236998.8714
        35.5004         21.2504
  -6961855.29046  -5358779.59646  23896184.3754                   23896174.6024
        39.0004         38.2504
  -6899199.60046  -4813615.93843  24223758.9064                   24223751.3594
        37.0004         22.2504
 -19201748.81048 -21152719.46149  20509030.3444                   20509021.6254
        51.5004         54.7504
 23  1  3  0 51  0.0000000  0 11G24G23G08G22G27G21G10G18G31G01G32
  -8736187.51946  -7652912.58043  23446238.2894                   23446230.0394
        37.2504         22.2504
  -8556558.71447  -8262351.00445  22441968.9614                   22441958.8954
        44.5004         33.2504
  -5792955.81745  -4489099.82245  24156500.1254                   24156491.7584
        33.5004         30.7504
 -13389901.07547 -10654149.70146  21441990.8204                   21441980.2854
        47.0004         36.0004
  -4206756.61145  -3236298.21744  24709594.5864                   24709585.0474
        35.0004         27.0004
 -15283795.95047 -10641544.18245  23038835.0704                   23038823.4804
        43.5004         31.2504
 -27689490.17248 -21416673.67849  20655304.3984                   20655295.9734
        50.2504         55.0004
                                  25259263.6804                   25259252.3244
        38.5004         22.2504
  -7080247.71446  -5451033.42146  23873657.1254                   23873644.7734
        39.7504         39.0004
  -7004699.64046  -4895823.78943  24203682.7584                   24203675.0354
        36.5004         21.5004
 -19209114.94848 -21158459.31549  20507628.9064                   20507619.7194
        52.5004         54.7504
 23  1  3  0 51 30.0000000  0 11G24G23G08G22G27G21G10G18G31G01G32
  -8648848.29146  -7584856.04044  23462859.5314                   23462850.3444
        38.2504         24.0004
  -8483079.87847  -8205094.79145  22455951.6414                   22455941.4574
        44.5004         33.7504
  -5729857.63445  -4439932.43845  24168504.8754                   24168498.4414
        31.5004         30.5004
 -13445275.02747 -10697298.23246  21431453.9534                   21431443.2424
        46.5004         36.0004
  -4114087.97545  -3164088.91044  24727227.1254                   24727219.1684
        33.5004         28.0004
 -15344908.56447 -10689164.41145  23027206.9614                   23027194.4344
        44.2504         32.0004
 -27667658.50248 -21399661.98249  20659458.7814                   20659450.2384
        50.0004         54.7504
 -13363757.93355 -10508218.78653  25281514.3134                   25281507.7034
        33.0004         19.7504
  -7198562.80746  -5543227.02746  23851141.2974                   23851131.1134
        39.0004         39.0004
  -7109993.77546  -4977871.13443  24183646.7274                   24183638.0084
        37.5004         21.0004
 -19216092.70848 -21163896.52649  20506300.7114                   20506292.1094
        52.5004         55.0004
 23  1  3  0 52  0.0000000  0 11G24G23G08G22G27G21G10G18G31G01G32
  -8561104.32046  -7516484.08344  23479555.9224                   23479547.6134
        37.2504         24.2504
  -8409376.25247  -8147663.40245  22469977.0784                   22469966.6604
        44.7504         33.5004
  -5666434.61845  -4390511.92945  24180575.9924                   24180567.6844
        32.2504         31.2504
 -13500311.36747 -10740183.68846  21420981.0864                   21420969.6724
        47.0004         36.2504
  -4021368.56245  -3091840.02644  24744870.3284                   24744861.9614
        33.2504         26.0004
 -15405676.66147 -10736516.15945  23015641.5634                   23015630.4414
        43.2504         31.7504
 -27645506.40948 -21382400.62149  20663674.0314                   20663665.5474
        50.2504         55.2504
 -13246777.69044 -10417065.28143  25303773.7424                   25303767.3094
        28.5004         20.5004
  -7316790.75846  -5635352.67146  23828643.7894                   23828632.7854
        40.5004         39.5004
  -7215072.40946  -5059750.62543  24163649.1884                   24163642.2854
        36.0004         21.7504
 -19222676.19448 -21169026.51649  20505047.8754                   20505039.0984
        52.0004         54.7504
 23  1  3  0 52 30.0000000  0 11G24G23G08G22G27G21G10G18G31G01G32
  -8472961.51346  -7447801.38543  23496328.6804                   23496319.8444
        36.7504         23.0004
  -8335451.26747  -8090059.53845  22484044.5704                   22484034.5634
        44.5004         34.0004
  -5602692.44345  -4340842.71545  24192706.8914                   24192697.7624
        34.0004         32.2504
 -13555012.60447 -10782808.02146  21410571.7034                   21410560.3484
        46.0004         36.5004
  -3928604.57945  -3019556.36544  24762524.2974                   24762514.9924
        34.5004         28.2504
 -15466100.26747 -10783599.47945  23004144.3134                   23004131.8444
        44.0004         32.2504
 -27623036.77448 -21364891.83349  20667950.0554                   20667941.2194
        50.0004         54.7504
 -13129778.10755 -10325896.84052  25326043.0554                   25326031.8164
        35.7504         17.2504
  -7434931.67146  -5727410.52346  23806161.7734                   23806150.8874
        39.7504         39.5004
  -7319935.99646  -5141462.50343  24143696.0634                   24143687.8714
        37.5004         20.7504
 -19228868.94648 -21173852.03049  20503869.4534                   20503860.6764
        51.5004         55.2504
 23  1  3  0 53  0.0000000  0 11G24G23G08G22G27G21G10G18G31G01G32
  -8384422.67346  -7378810.09743  23513176.3204                   23513168.3054
        37.0004         22.7504
  -8261305.38147  -8032283.55245  22498153.8754                   22498143.9844
        44.5004         33.5004
  -5538634.38545  -4290927.35645  24204895.5634                   24204887.0204
        34.2504         30.5004
 -13609378.64247 -10825171.15846  21400225.6644                   21400215.1294
        46.7504         36.2504
  -3835798.88945  -2947240.27044  24780183.4304                   24780175.5904
        31.7504         26.5004
 -15526178.33947 -10830413.56845  22992711.5944                   22992699.5354
        44.0004         32.0004
 -27600248.91848 -21347135.06349  20672286.4694                   20672277.5744
        50.0004         55.0004
 -13012761.02245 -10250012.73553  25348307.5634                   25348299.8404
        33.2504         19.0004
  -7552982.71846  -5819398.32546  23783697.7814                   23783687.0704
        40.7504         40.0004
  -7424581.56545  -5223004.54543  24123781.8054                   24123774.1994
        35.7504         20.7504
 -19234671.77748 -21178373.71149  20502765.4304                   20502756.7114
        52.0004         54.7504
 23  1  3  0 53 30.0000000  0 11G24G23G08G22G27G21G10G18G31G01G32
  -8295489.89246  -7309511.82243  23530100.5004                   23530091.7814
        36.7504         23.0004
  -8186938.22247  -7974335.13945  22512305.4844                   22512295.7704
        45.0004         33.7504
  -5474262.22045  -4240767.24945  24217144.4924                   24217136.7114
        32.7504         30.0004
 -13663408.75947 -10867272.54746  21389943.9924                   21389933.2814
        46.7504         36.5004
  -3742953.81045  -2874893.45844  24797852.6484                   24797842.5824
        34.2504         25.7504
 -15585907.25947 -10876955.56145  22981345.8594                   22981333.8014
        43.5004         32.0004
 -27577141.59348 -21329129.36649  20676683.3134                   20676675.0044
        50.5004         55.0004
 -12895728.07444 -10158818.20142  25370577.0164                   25370569.9384
        29.7504         17.2504
  -7670940.10946  -5911313.17546  23761251.5314                   23761239.8834
        41.2504         40.2504
  -7529005.71745  -5304373.98343  24103910.4844                   24103903.1134
        35.5004         20.5004
 -19240084.62548 -21182591.50849  20501735.3834                   20501726.4304
        52.0004         55.2504
 23  1  3  0 54  0.0000000  0 11G24G23G08G22G27G21G10G18G31G01G32
  -8206167.64646  -7239910.06643  23547097.8594                   23547089.3754
        37.0004         22.7504
  -8112351.89447  -7916215.93545  22526498.6334                   22526488.6254
        44.5004         33.0004
  -5409580.56145  -4190365.96845  24229453.3834                   24229445.7194
        32.7504         31.7504
 -13717103.92247 -10909112.93146  21379725.8984                   21379715.6564
        46.7504         36.5004
  -3650074.03545  -2802519.63744  24815526.3594                   24815517.9924
        33.5004         26.0004
 -15645287.85147 -10923226.15145  22970045.8754                   22970033.4654
        45.0004         33.0004
 -27553716.44848 -21310876.00749  20681141.2274                   20681132.6844
        49.5004         55.0004
 -12778683.94155 -10083464.41653  25392850.2974                   25392842.3984
        32.2504         19.2504
  -7788802.53546  -6003153.99646  23738821.9614                   23738812.1294
        41.0004         40.0004
  -7633207.22045  -5385569.98643  24084080.6804                   24084074.0124
        35.2504         21.5004
 -19245109.93348 -21186507.32349  20500779.2894                   20500770.3364
        51.2504         54.7504
 23  1  3  0 54 30.0000000  0 11G24G23G08G22G27G21G10G18G31G01G32
  -8116454.57946  -7170003.76843  23564169.7274                   23564161.0664
        37.7504         22.7504
  -8037542.57947  -7857922.99845  22540734.5164                   22540724.4494
        44.5004         33.5004
  -5344588.01645  -4139722.45145  24241821.5474                   24241813.7664
        33.0004         31.5004
 -13770459.92547 -10950689.02446  21369573.2894                   21369562.2274
        47.0004         37.0004
  -3557158.40445  -2730117.83444  24833207.5234                   24833198.8634
        32.7504         25.5004
 -15704314.15747 -10969220.68445  22958813.3204                   22958801.3204
        43.7504         32.0004
 -27529968.57648 -21292371.17349  20685660.2194                   20685651.7344
        51.0004         55.0004
                                  25415131.289
        38.500
  -7906562.72246  -6094915.17146  23716412.5864                   23716402.4614
        40.5004         40.0004
  -7737179.20746  -5466587.08543  24064297.1644                   24064289.2074
        36.5004         20.2504
 -19249744.20248 -21190118.43349  20499897.3054                   20499888.3524
        52.2504         55.0004
 23  1  3  0 55  0.0000000  0 11G24G23G08G22G27G21G10G18G31G01G32
  -8026359.80746  -7099800.07343  23581313.8914                   23581305.2304
        37.2504         22.5004
  -7962516.93247  -7799461.48845  22555011.2894                   22555001.4574
        44.2504         33.5004
  -5279293.74645  -4088843.79145  24254244.0394                   24254238.5434
        31.0004         31.0004
 -13823482.70047 -10992005.47346  21359483.3834                   21359472.2034
        47.0004         37.0004
  -3464216.00544  -2657695.18844  24850892.4304                   24850884.8834
        29.5004         24.7504
 -15762991.44147 -11014943.22645  22947647.7344                   22947635.8524
        43.7504         32.2504
 -27505903.92048 -21273619.50149  20690239.8594                   20690231.0234
        50.0004         55.2504
 -12544561.31855  -9969344.71053  25437404.3984                   25437395.7384
        34.5004         19.2504
  -8024224.07046  -6186599.33146  23694023.0084                   23694012.4144
        41.2504         40.2504
  -7840924.98445  -5547427.97443  24044553.7734                   24044546.3444
        35.0004         19.7504
 -19253994.48848 -21193430.34149  20499088.2664                   20499079.4304
        51.2504         54.7504
 23  1  3  0 55 30.0000000  0 10G24G23G08G22G27G21G10G31G01G32
  -7935880.51246  -7029296.74543  23598531.1564                   23598523.1414
        36.5004         22.7504
  -7887269.86547  -7740827.44345  22569330.6334                   22569320.3324
        45.0004         34.5004
  -5213694.28945  -4037727.37245  24266728.7734                   24266721.7544
        32.2504         31.5004
 -13876166.47547 -11033057.75846  21349457.6334                   21349446.8634
        47.0004         36.7504
  -3371244.39245  -2585249.82244  24868585.9534                   24868577.8204
        34.0004         25.2504
 -15821310.57447 -11060386.70145  22936550.1094                   22936538.1684
        44.2504         32.7504
 -27481516.54748 -21254616.36349  20694880.3134                   20694871.8284
        49.5004         55.0004
  -8141778.14646  -6278199.90446  23671652.9774                   23671642.6174
        41.2504         40.2504
  -7944436.38346  -5628086.13943  24024857.7664                   24024848.9884
        36.0004         19.7504
 -19257855.83448 -21196439.16249  20498353.6484                   20498344.7544
        50.5004         55.0004
 23  1  3  0 56  0.0000000  0 10G24G23G08G22G27G21G10G31G01G32
  -7845023.74546  -6958499.26243  23615821.6644                   23615812.6524
        36.5004         22.7504
  -7811805.80947  -7682024.30145  22583690.8984                   22583680.9494
        44.7504         33.7504
  -5147797.37245  -3986379.14645  24279268.7814                   24279261.0594
        33.0004         31.5004
 -13928515.11047 -11073848.89546  21339496.2894                   21339485.3444
        46.0004         37.0004
  -3278250.68945  -2512787.13744  24886283.4384                   24886272.9614
        34.0004         24.2504
 -15879275.05547 -11105553.82545  22925519.0234                   22925507.4344
        43.7504         33.7504
 -27456810.14648 -21235364.63749  20699581.7894                   20699573.4804
        49.7504         54.7504
  -8259226.06246  -6369717.72046  23649304.4924                   23649293.0784
        41.2504         40.5004
  -8047714.45145  -5708562.57543  24005203.6884                   24005195.8484
        35.0004         20.0004
 -19261333.04348 -21199148.67649  20497691.9774                   20497682.8484
        50.7504         54.7504
 23  1  3  0 56 30.0000000  0 10G24G23G08G22G27G21G10G31G01G32
  -7753789.56546  -6887407.70043  23633183.3834                   23633174.0784
        37.7504         22.5004
  -7736122.50147  -7623050.31445  22598093.6644                   22598083.4804
        45.5004         34.0004
  -5081602.89645  -3934799.04845  24291865.0634                   24291857.9844
        32.7504         31.2504
 -13980525.74947 -11114376.68046  21329599.1254                   21329588.0634
        46.5004         37.2504
  -3185234.90945  -2440307.36543  24903982.1804                   24903973.3444
        32.5004         22.7504
 -15936879.53347 -11150440.42645  22914558.0004                   22914545.8244
        44.7504         33.5004
 -27431781.44248 -21215861.76549  20704344.7894                   20704335.8364
        50.2504         55.0004
  -8376561.66346  -6461148.04846  23626975.2274                   23626964.7504
        41.2504         40.5004
  -8150753.83645  -5788852.97643  23985596.3444                   23985587.8594
        34.7504         19.0004
 -19264424.33648 -21201557.47149  20497103.8364                   20497094.7074
        51.5004         55.0004
 23  1  3  0 57  0.0000000  0 10G24G23G08G22G27G21G10G31G01G32
  -7662182.62746  -6816025.65043  23650615.4534                   23650605.9734
        37.0004         23.5004
  -7660222.13047  -7563907.17645  22612536.4454                   22612526.6724
        44.7504         33.5004
  -5015115.00745  -3882990.31445  24304518.4534                   24304510.2624
        32.5004         30.5004
 -14032199.87747 -11154642.23146  21319765.1884                   21319754.9454
        46.0004         37.0004
  -3092202.17145  -2367814.33244  24921685.6564                   24921677.6414
        33.0004         25.5004
 -15994124.94147 -11195047.24945  22903665.0864                   22903653.0864
        45.0004         33.0004
 -27406431.93748 -21196108.91749  20709169.0944                   20709159.9654
        49.7504         55.0004
  -8493784.41546  -6552490.44246  23604668.6484                   23604657.9384
        41.0004         41.0004
  -8253553.41245  -5868956.56043  23966034.1254                   23966025.9924
        34.5004         19.2504
 -19267132.15548 -21203667.44949  20496588.3134                   20496579.5944
        50.7504         55.0004
 23  1  3  0 57 30.0000000  0 11G24G23G08G22G27G21G10G31G01G25G32
  -7570204.09546  -6744354.06643  23668117.0164                   23668108.7664
        36.0004         22.7504
  -7584103.46147  -7504593.95145  22627021.9774                   22627011.3244
        45.7504         33.2504
  -4948335.45345  -3830954.34245  24317225.1884                   24317217.4654
        32.2504         30.2504
 -14083535.83647 -11194644.26746  21309996.7034                   21309986.1684
        46.5004         36.2504
  -2999153.40245  -2295308.79143  24939391.1884                   24939382.8794
        32.5004         23.7504
 -16051007.50847 -11239371.31145  22892839.8674                   22892828.0434
        44.5004         33.0004
 -27380759.69348 -21176104.57849  20714054.2274                   20714045.3324
        49.7504         55.0004
  -8610889.21846  -6643740.92746  23582384.0634                   23582373.7624
        41.2504         40.7504
  -8356108.72245  -5948869.78542  23946517.3284                   23946510.2504
        34.5004         17.7504
                                  25387156.047
        33.000
 -19269455.59648 -21205477.92149  20496146.2584                   20496137.3634
        51.2504         54.7504
 23  1  3  0 58  0.0000000  0 10G24G23G08G22G27G21G10G31G01G32
  -7477858.42346  -6672396.41543  23685691.0394                   23685681.8524
        38.0004         21.7504
  -7507768.49647  -7445112.17745  22641547.4304                   22641537.3634
        45.0004         33.5004
  -4881268.60345  -3778694.45245  24329987.3284                   24329980.0744
        31.5004         31.7504
 -14134534.89047 -11234383.78046  21300291.8984                   21300281.0124
        46.0004         37.2504
  -9207773.26255  -7133194.38354  24957100.6334                   24957093.1454
        32.2504         25.2504
 -16107526.66247 -11283412.20245  22882085.0944                   22882072.2734
        45.0004         33.2504
 -27354765.49648 -21155849.35949  20719000.4384                   20718991.6604
        50.7504         55.0004
  -8727874.93247  -6734898.59946  23560123.1804                   23560111.8834
        42.2504         41.0004
  -8458418.54545  -6028591.75343  23927049.3364                   23927041.3204
        35.2504         19.5004
 -19271397.03748 -21206990.73249  20495776.6884                   20495767.8524
        52.7504         55.2504
 23  1  3  0 58 30.0000000  0 12G24G23G08G22G27G21G10G12G31G01G25G32
  -7385147.26546  -6600153.96043  23703332.7974                   23703324.4884
        36.5004         22.7504
  -7431216.45147  -7385461.25445  22656114.5634                   22656104.6134
        44.2504         33.2504
  -4813915.89245  -3726211.83245  24342803.9774                   24342797.3094
        32.0004         31.0004
 -14185195.63747 -11273859.68046  21290651.3984                   21290641.0394
        46.7504         37.2504
  -9114703.49555  -7060672.52253  24974810.4224                   24974804.1054
        32.5004         22.5004
 -16163679.84147 -11327167.93345  22871399.2424                   22871387.2424
        44.7504         33.2504
 -27328448.06348 -21135342.27449  20724008.5234                   20723999.7464
        50.0004         55.0004
   -112578.95355    -69997.12653  25601731.0164                   25601721.5944
        35.5004         18.2504
  -8844737.00646  -6825959.94346  23537885.3674                   23537874.0704
        41.5004         41.7504
  -8560478.75945  -6108119.20943  23907626.8594                   23907620.3094
        34.0004         19.0004
   -122008.58655   -127431.67154  25355100.2504                   25355095.0474
        30.7504         24.5004
 -19272956.00748 -21208205.51249  20495480.2034                   20495471.0164
        51.7504         55.0004
 23  1  3  0 59  0.0000000  0 12G24G23G08G22G27G21G10G12G31G01G25G32
  -7292077.66245  -6527632.21343  23721043.3134                   23721034.7114
        35.7504         22.0004
  -7354452.00447  -7325644.82845  22670722.7734                   22670712.2974
        45.0004         33.2504
  -4746284.67345  -3673512.21345  24355673.6334                   24355666.9654
        31.5004         30.5004
 -14235522.47547 -11313075.39746  21281074.3054                   21281063.8874
        46.5004         37.0004
  -9021631.18955  -6988148.61254  24992520.7584                   24992513.6214
        31.0004         25.5004
 -16219469.70547 -11370640.54745  22860782.2344                   22860770.8204
        43.7504         33.0004
 -27301811.38148 -21114586.42449  20729077.3674                   20729068.6484
        50.0004         55.7504
   -182327.02546   -124346.30442  25588458.7664                   25588449.3444
        37.0004         17.2504
  -8961476.77647  -6916925.99547  23515671.0864                   23515659.3204
        42.2504         42.0004
  -8662290.90845  -6187453.27643  23888254.0634                   23888245.9304
        35.5004         20.0004
   -206148.19755   -192995.60554  25339092.3444                   25339083.8594
        33.5004         26.5004
 -19274137.54448 -21209126.18149  20495255.4924                   20495246.5394
        51.5004         55.0004
 23  1  3  0 59 30.0000000  0 11G24G23G08G22G27G21G10G12G31G01G32
  -7198643.41246  -6454826.31343  23738822.9924                   23738814.7424
        36.5004         22.5004
  -7277466.39647  -7265656.06245  22685373.5394                   22685362.6524
        45.5004         32.7504
  -4678368.46045  -3620590.47645  24368598.5784                   24368591.6764
        31.5004         30.2504
 -14285505.76347 -11352023.40246  21271563.6564                   21271552.3014
        46.7504         37.5004
  -8928550.33945  -6915618.08744  25010235.3594                   25010228.1054
        31.7504         25.0004
 -16274885.18447 -11413821.43445  22850237.4694                   22850225.5864
        45.0004         33.7504
 -27274845.42848 -21093574.00349  20734208.8914                   20734200.1134
        51.0004         55.0004
   -251820.12145   -178496.72842  25575234.3594                   25575224.0594
        34.7504         16.2504
  -9078082.18246  -7007787.33546  23493480.8834                   23493470.1724
        41.5004         41.7504
  -8763842.77845  -6266584.63843  23868928.3284                   23868921.3094
        35.5004         19.7504
 -19274933.22848 -21209746.19149  20495103.9614                   20495095.0084
        52.7504         54.7504
 23  1  3  1  0  0.0000000  0 11G24G23G08G22G27G21G10G12G31G01G32
  -7104854.75346  -6381744.22443  23756671.2194                   23756662.3834
        36.0004         21.5004
  -7200267.61147  -7205501.16945  22700063.0234                   22700052.9574
        45.0004         32.5004
  -4610177.60345  -3567454.78045  24381574.0554                   24381567.3874
        31.5004         30.5004
 -14335152.79147 -11390709.38746  21262115.3444                   21262104.6914
        46.2504         37.0004
  -8835471.07845  -6843088.79943  25027946.8134                   25027938.5044
        30.5004         23.2504
 -16329931.90947 -11456714.98845  22839762.3594                   22839750.3594
        44.7504         33.7504
 -27247557.46648 -21072310.65549  20739401.7974                   20739392.8444
        50.5004         54.7504
   -321062.60856   -232451.85752  25562058.2034                   25562048.1374
        37.5004         16.7504
  -9194557.53646  -7098547.35447  23471316.0474                   23471305.5704
        40.7504         42.2504
  -8865139.12846  -6345516.84343  23849653.0004                   23849645.1604
        36.0004         20.5004
 -19275351.36548 -21210072.00649  20495024.5554                   20495015.5434
        52.0004         54.7504
 23  1  3  1  0 30.0000000  0 11G24G23G08G22G27G21G10G12G31G01G32
  -7010712.16845  -6308386.38743  23774584.6884                   23774577.1994
        35.7504         21.7504
  -7122853.62447  -7145178.62245  22714794.2344                   22714784.1094
        44.5004         32.7504
  -4541712.80945  -3514105.63045  24394603.8444                   24394595.5944
        31.5004         30.7504
 -14384461.17447 -11429131.48746  21252732.4534                   21252721.5084
        46.0004         37.5004
  -8742394.15354  -6770561.30654  25045659.3204                   25045652.2424
        29.7504         27.0004
 -16384605.55247 -11499317.83345  22829358.4534                   22829346.5704
        44.5004         33.5004
 -27219944.90048 -21050794.38049  20744656.1724                   20744647.3364
        50.0004         55.2504
   -390048.73345   -286207.16042  25548928.7114                   25548921.1644
        34.2504         15.5004
  -9310897.62946  -7189201.94847  23449177.7734                   23449167.0634
        41.5004         42.5004
  -8966174.76445  -6424245.91045  23830424.8674                   23830418.3754
        35.5004         33.2504
 -19275390.37448 -21210102.40549  20495017.0944                   20495008.0234
        51.2504         55.0004
 23  1  3  1  1  0.0000000  0 12G24G23G08G22G27G21G10G12G31G01G25G32
  -6916219.77345  -6234755.95943  23792566.9774                   23792558.3164
        35.5004         22.5004
  -7045226.13447  -7084689.67945  22729566.9224                   22729556.6214
        46.0004         33.0004
  -4472977.75145  -3460545.81445  24407682.3834                   24407675.3054
        31.5004         30.0004
 -14433432.12947 -11467290.67246  21243413.6254                   21243403.1484
        46.7504         37.0004
  -8649323.51544  -6698038.76844  25063369.6414                   25063362.6804
        29.0004         24.5004
 -16438906.51847 -11541630.27145  22819025.1644                   22819013.5164
        44.5004         34.0004
 -27192008.48848 -21029025.76349  20749972.1644                   20749963.3284
        49.7504         55.2504
   -458776.20346   -339761.00543  25535852.1174                   25535842.5784
        37.0004         19.0004
  -9427100.45046  -7279749.59747  23427065.3444                   23427053.7544
        41.5004         42.2504
  -9066947.92546  -6502770.41745  23811251.6804                   23811241.7894
        39.0004         33.2504
                                  25275172.844
        25.750
 -19275052.23248 -21209838.92349  20495081.1884                   20495072.4694
        51.5004         55.0004
 23  1  3  1  1 30.0000000  0 12G24G23G08G22G27G21G10G12G31G01G25G32
  -6821379.15646  -6160854.19243  23810613.9304                   23810606.0314
        36.0004         21.5004
  -6967384.24847  -7024033.67845  22744379.0394                   22744369.3834
        44.5004         32.5004
  -4403974.24545  -3406776.87844  24420813.4614                   24420806.3834
        31.2504         29.5004
 -14482064.14947 -11505185.74046  21234159.2814                   21234147.9844
        47.0004         37.0004
  -8556260.77855  -6625522.37254  25081079.4534                   25081071.0274
        31.0004         24.2504
 -16492830.90747 -11583649.27945  22808763.7584                   22808752.2854
        45.2504         33.2504
 -27163746.66048 -21007003.56949  20755350.1254                   20755341.8164
        50.0004         55.0004
   -527241.98345   -393110.82342  25522821.8054                   25522814.0234
        34.0004         17.2504
  -9543161.80546  -7370187.01147  23404979.3834                   23404968.4384
        41.5004         43.0004
  -9167454.47145  -6581087.21745  23792123.3834                   23792116.0704
        35.7504         32.2504
                                  25259222.281
        37.000
 -19274336.46048 -21209281.18549  20495217.4454                   20495208.5514
        52.0004         54.7504
 23  1  3  1  2  0.0000000  0 11G24G23G08G22G27G21G10G12G31G01G32
  -6726193.72046  -6086683.75243  23828728.7664                   23828719.6374
        36.5004         21.5004
  -6889329.01447  -6963211.43845  22759232.7194                   22759222.4774
        44.2504         32.2504
  -4334706.11545  -3352801.71845  24433994.7344                   24433987.8914
        31.2504         30.0004
 -14530357.49347 -11542816.90846  21224969.6724                   21224958.4924
        47.5004         37.7504
  -8463209.49355  -6553014.83054  25098785.7584                   25098779.0314
        30.7504         26.2504
 -16546377.89447 -11625374.19745  22798573.2504                   22798562.1294
        44.0004         33.5004
 -27135159.70348 -20984728.02649  20760790.2664                   20760781.2544
        50.0004         54.7504
   -595442.41246   -446254.06243  25509845.2974                   25509836.5204
        36.0004         19.2504
  -9659079.16346  -7460512.21747  23382920.4924                   23382909.6644
        41.0004         42.7504
  -9267692.27046  -6659194.53145  23773051.1724                   23773042.1604
        39.2504         34.5004
 -19273244.42548 -21208430.24649  20495425.0554                   20495416.1604
        51.2504         55.0004
 23  1  3  1  2 30.0000000  0 12G24G23G08G22G27G21G10G12G31G01G25G32
  -6630666.37446  -6012246.85643  23846906.1724                   23846898.1564
        36.2504         22.5004
  -6811060.94147  -6902223.35145  22774126.5944                   22774116.1174
        44.7504         31.5004
  -8991435.67655  -6981422.17655  24447227.8364                   24447218.7074
        32.0004         30.5004
 -14578312.36847 -11580184.33246  21215843.3134                   21215832.7774
        47.0004         37.5004
  -8370172.60745  -6480518.58244  25116491.9614                   25116483.8284
        30.2504         26.0004
 -16599546.02347 -11666803.90045  22788456.9064                   22788444.7894
        45.2504         34.0004
 -27106247.04748 -20962198.68349  20766292.1804                   20766283.2854
        50.2504         55.0004
   -663375.09146   -499188.47442  25496917.1724                   25496908.6884
        36.0004         16.2504
  -9774849.66246  -7550722.97947  23360891.0164                   23360880.0124
        41.7504         43.0004
  -9367658.30945  -6737090.21045  23754026.3594                   23754019.1054
        35.7504         34.2504
                                  25227372.7664                   25227365.7464
        36.2504         29.0004
 -19271777.04448 -21207286.83549  20495704.4614                   20495695.6844
        52.0004         54.7504
 23  1  3  1  3  0.0000000  0 12G24G23G08G22G27G21G10G12G31G01G25G32
  -6534799.39546  -5937545.32543  23865149.6024                   23865140.5314
        37.0004         22.0004
  -6732579.82547  -6841069.26945  22789061.4224                   22789051.2974
        45.0004         32.2504
  -8921645.04345  -6927039.87045  24460506.9384                   24460499.8014
        31.5004         31.2504
 -14625927.54947 -11617287.06546  21206782.6174                   21206771.8484
        46.5004         37.2504
  -8277152.14355  -6408035.15954  25134193.9614                   25134184.4224
        33.5004         26.2504
 -16652332.77347 -11707936.43445  22778411.5864                   22778399.6454
        45.0004         34.0004
 -27077007.72048 -20939414.79949  20771856.3054                   20771847.1764
        50.0004         54.7504
   -731036.06046   -551911.20442  25484043.7974                   25484032.9104
        38.5004         16.2504
  -9890469.50246  -7640816.35247  23338888.8364                   23338877.8324
        41.5004         43.0004
  -9467349.19946  -6814771.33245  23735057.3984                   23735047.7424
        39.0004         34.0004
                                  25211467.8834                   25211461.8014
        34.0004         22.7504
 -19269934.43748 -21205851.03549  20496055.0944                   20496046.2584
        52.0004         55.0004
 23  1  3  1  3 30.0000000  0 12G24G23G08G22G27G21G10G12G31G01G25G32
  -6438598.16345  -5862583.35843  23883454.0234                   23883447.2384
        34.5004         21.5004
  -6653888.62047  -6779751.48245  22804035.2344                   22804026.1054
        44.0004         31.7504
  -8851600.31245  -6872459.56245  24473837.0554                   24473828.9804
        32.5004         30.2504
 -14673206.03547 -11654127.42246  21197786.3204                   21197775.7274
        46.7504         37.5004
  -8184154.63755  -6335569.71154  25151888.3284                   25151880.7814
        31.0004         24.7504
 -16704739.33947 -11748772.70845  22768438.9384                   22768427.1134
        45.0004         33.5004
 -27047443.76848 -20916377.95249  20777481.7424                   20777473.3164
        50.2504         55.0004
   -798424.66945   -604421.81443  25471217.2734                   25471208.4384
        35.7504         18.2504
 -10005938.22046  -7730791.97647  23316914.5394                   23316904.8834
        41.0004         42.7504
  -9566764.53546  -6892237.84345  23716137.0864                   23716129.7734
        37.0004         33.7504
   -191982.63555   -358979.66354  25195580.2034                   25195575.4144
        31.5004         26.0004
 -19267719.92748 -21204125.44149  20496476.6484                   20496467.5204
        52.5004         55.0004
 23  1  3  1  4  0.0000000  0 12G24G23G08G22G27G21G10G12G31G01G25G32
  -6342062.48745  -5787360.79243  23901824.8204                   23901817.7424
        33.5004         21.0004
  -6574984.79547  -6718268.01445  22819049.6724                   22819040.3674
        44.5004         31.5004
  -8781300.91045  -6817680.83545  24487214.1804                   24487205.9304
        31.7504         30.2504
 -14720144.76447 -11690703.04746  21188853.9924                   21188842.9884
        47.0004         37.5004
  -8091178.14755  -6263120.50054  25169581.8284                   25169574.3984
        31.7504         25.7504
 -16756761.08347 -11789309.12545  22758539.3444                   22758527.8714
        45.0004         33.2504
 -27017552.23948 -20893085.85849  20783170.3914                   20783161.3204
        51.0004         54.7504
   -865534.91746   -656715.49843  25458448.1644                   25458438.3324
        38.0004         18.5004
 -10121249.64746  -7820645.03347  23294971.8444                   23294961.3094
        41.0004         42.7504
  -9665898.43146  -6969485.04045  23697274.2194                   23697265.5594
        38.0004         34.2504
   -275371.94145   -423958.28444  25179712.7114                   25179707.8054
        32.5004         25.2504
 -19265131.39548 -21202108.41549  20496969.1334                   20496960.2384
        53.0004         55.0004
 23  1  3  1  4 30.0000000  0 12G24G23G08G22G27G21G10G12G31G01G25G32
  -6245195.74645  -5711880.21543  23920258.3984                   23920249.8554
        34.5004         22.0004
  -6495869.19447  -6656619.50845  22834105.2894                   22834095.3984
        44.0004         31.5004
  -8710750.36645  -6762706.37045  24500640.2584                   24500631.5984
        33.5004         32.0004
 -14766743.80847 -11727013.97046  21179986.3524                   21179975.6414
        46.7504         37.2504
                                  25187268.7274                   25187262.3524
        31.0004         24.0004
 -16808395.58647 -11829543.80845  22748713.8594                   22748701.8014
        45.2504         34.5004
 -26987332.79848 -20869538.24849  20788921.0864                   20788911.9574
        50.0004         55.0004
   -932364.40546   -708790.48342  25445732.6174                   25445721.2624
        39.2504         16.7504
 -10236401.29146  -7910373.57147  23273059.7504                   23273049.3914
        41.5004         43.2504
  -9764748.50146  -7046511.02645  23678462.6954                   23678455.0314
        38.2504         33.7504
   -358668.19155   -488864.56654  25163863.5634                   25163856.3094
        32.0004         27.0004
 -19262170.05748 -21199800.88349  20497532.8204                   20497523.6914
        52.0004         55.0004
 23  1  3  1  5  0.0000000  0 12G24G23G08G22G27G21G10G12G31G01G25G32
  -6148001.52145  -5636144.44043  23938754.6254                   23938746.3754
        35.2504         22.0004
  -6416543.11347  -6594807.01845  22849200.5234                   22849191.2194
        43.5004         30.5004
  -8639952.71645  -6707539.35545  24514111.8524                   24514104.2464
        33.5004         31.0004
 -14813003.80547 -11763060.70146  21171183.0474                   21171172.7464
        46.2504         37.7504
                                  25204951.8444                   25204944.4734
        31.0004         27.2504
 -16859642.71147 -11869476.62845  22738961.4774                   22738949.8874
        44.7504         34.0004
 -26956786.00948 -20845735.55749  20794734.1334                   20794724.6524
        50.7504         55.0004
   -998910.59245   -760644.65942  25433066.0004                   25433058.2774
        32.7504         17.7504
 -10351391.05146  -7999975.96847  23251177.8054                   23251166.8014
        41.7504         42.7504
  -9863312.60246  -7123314.22845  23659706.9694                   23659698.7194
        37.7504         34.0004
   -441869.08845   -553696.30244  25148029.6564                   25148024.5164
        32.0004         28.5004
 -19258837.53148 -21197204.08949  20498166.6724                   20498157.7194
        52.5004         55.0004
 23  1  3  1  5 30.0000000  0 12G24G23G08G22G27G21G10G12G31G01G25G32
  -6050484.14645  -5560156.86543  23957311.0234                   23957303.1254
        34.5004         21.0004
  -6337008.42847  -6532831.97545  22864335.7344                   22864326.3714
        43.7504         31.7504
  -8568911.36945  -6652182.47845  24527629.3054                   24527622.2854
        32.7504         30.7504
 -14858926.30447 -11798844.45446  21162444.4534                   21162433.8594
        47.0004         38.0004
  -7812413.07855  -6045900.73354  25222628.9844                   25222621.9654
        30.0004         24.5004
 -16910503.33747 -11909108.27545  22729282.8524                   22729271.3204
        44.5004         33.7504
 -26925912.87148 -20821678.57149  20800608.4924                   20800600.0084
        50.7504         55.2504
  -1065172.19945   -812277.00643  25420458.2114                   25420449.3754
        35.7504         18.2504
 -10466216.98646  -8089450.72747  23229327.3054                   23229316.5944
        41.5004         43.0004
  -9961589.18946  -7199893.42445  23641004.7424                   23640997.3134
        37.0004         34.0004
   -524972.70645   -618452.38744  25132216.3284                   25132209.7774
        33.0004         27.0004
 -19255136.12049 -21194319.87949  20498871.0474                   20498862.0354
        54.0004         54.7504
 23  1  3  1  6  0.0000000  0 12G24G23G08G22G27G21G10G12G31G01G25G32
  -5952641.86345  -5483916.16143  23975927.7274                   23975920.8244
        32.5004         20.0004
  -6257261.08547  -6470691.24445  22879511.9534                   22879501.4774
        44.5004         30.7504
  -8497625.61055  -6596635.16455  24541195.2894                   24541187.4494
        33.7504         31.0004
 -14904506.43847 -11834361.43346  21153771.0084                   21153760.4734
        46.5004         37.5004
                                  25240302.1954                   25240290.5474
        32.5004         22.7504
 -16960970.21647 -11948433.12045  22719679.6884                   22719667.9224
        45.5004         33.5004
 -26894708.60648 -20797363.56949  20806546.5634                   20806537.6094
        50.2504         55.0004
  -1131141.17146   -863681.40342  25407904.4384                   25407895.5434
        36.0004         17.7504
 -10580871.52846  -8178791.92747  23207508.4454                   23207498.5554
        41.0004         42.7504
 -10059571.05246  -7276242.90045  23622359.9384                   23622351.8634
        36.7504         34.7504
   -607971.29945   -683126.64044  25116423.2504                   25116415.1174
        33.2504         27.7504
 -19251062.12648 -21191145.34849  20499646.3594                   20499637.2304
        52.5004         55.0004
 23  1  3  1  6 30.0000000  0 12G24G23G08G22G27G21G10G12G31G01G25G32
  -5854483.92845  -5407429.47243  23994608.2974                   23994600.4574
        33.5004         20.0004
  -6177307.61547  -6408389.90345  22894726.1484                   22894716.1414
        43.5004         31.2504
  -8426103.66545  -6540903.78245  24554806.6644                   24554797.8874
        33.2504         31.5004
 -14949750.74547 -11869616.71646  21145160.9384                   21145150.4024
        46.5004         37.5004
  -7626736.08355  -5901217.38454  25257964.2194                   25257954.9734
        32.7504         25.5004
 -17011047.19847 -11987454.13745  22710150.6414                   22710138.8164
        45.0004         33.7504
 -26863179.12448 -20772795.14849  20812546.3674                   20812537.5314
        50.2504         54.7504
  -1196821.07945   -914860.37743  25395404.7734                   25395396.5234
        35.5004         18.5004
 -10695357.71246  -8268001.93447  23185723.6254                   23185712.6214
        41.5004         42.7504
 -10157261.25246  -7352365.13845  23603769.7034                   23603761.9224
        37.5004         34.0004
   -690867.69745   -747721.18544  25100648.0784                   25100640.5314
        33.5004         27.2504
 -19246622.51248 -21187685.91049  20500491.2114                   20500482.4344
        53.0004         55.2504
 23  1  3  1  7  0.0000000  0 12G24G23G08G22G27G21G10G12G31G01G25G32
  -5756008.00245  -5330694.95443  24013347.4304                   24013339.1214
        33.5004         19.2504
  -6097143.58247  -6345924.44845  22909979.9844                   22909970.5634
        42.5004         31.2504
  -8354343.80645  -6484986.99345  24568460.6724                   24568453.0084
        32.2504         30.5004
 -14994653.95847 -11904606.21346  21136616.7194                   21136605.5394
        47.2504         38.0004
                                  25275621.6954                   25275609.2854
        34.0004         24.0004
 -17060728.37147 -12026166.72745  22700696.3284                   22700684.6214
        45.2504         34.2504
 -26831318.80648 -20747968.93849  20818609.1724                   20818600.3954
        50.7504         55.0004
  -1262203.57246   -965807.81942  25382964.9454                   25382955.1134
        38.2504         17.7504
 -10809667.65346  -8357074.62147  23163970.5084                   23163959.9144
        41.5004         43.0004
 -10254652.07346  -7428254.05845  23585237.4774                   23585229.2854
        38.5004         34.5004
   -773653.78445   -812229.79944  25084894.1094                   25084887.7344
        32.7504         27.7504
 -19241813.17648 -21183938.37449  20501406.3674                   20501397.3554
        53.5004         54.7504
 23  1  3  1  7 30.0000000  0 12G24G23G08G22G27G21G10G12G31G01G25G32
  -5657219.63145  -5253717.08743  24032146.5004                   24032138.5434
        34.0004         20.2504
  -6016772.07447  -6283297.33845  22925274.5704                   22925265.5004
        43.7504         30.5004
  -8282352.13245  -6428889.58945  24582159.5704                   24582152.1414
        33.5004         31.5004
 -15039218.86847 -11939332.10346  21128136.0004                   21128125.1134
        47.2504         38.0004
                                  25293263.1174                   25293256.7424
        29.0004         22.7504
 -17110015.53547 -12064572.31145  22691317.7114                   22691305.5944
        46.2504         34.5004
 -26799130.07948 -20722886.82749  20824734.5004                   20824725.6644
        50.0004         55.0004
  -1327288.34446  -1016523.20143  25370581.0704                   25370569.5984
        38.0004         18.2504
 -10923800.88947  -8446009.61847  23142251.7894                   23142241.0784
        42.2504         43.0004
 -10351743.09946  -7503909.42245  23566760.9844                   23566753.5554
        38.2504         34.5004
   -856328.82845   -876651.84144  25069160.2424                   25069155.0394
        32.0004         26.2504
 -19236637.59948 -21179905.46149  20502391.1804                   20502382.5784
        53.7504         54.7504
 23  1  3  1  8  0.0000000  0 12G24G23G08G22G27G21G10G12G31G01G25G32
  -5558120.96645  -5176497.31843  24051003.4614                   24050996.2074
        31.5004         19.2504
  -5936192.74047  -6220508.30845  22940610.0084                   22940599.2384
        45.0004         31.7504
  -8210130.10845  -6372612.69045  24595904.6804                   24595896.2544
        34.5004         31.0004
 -15083444.45747 -11973793.59646  21119720.3364                   21119709.4494
        46.7504         37.7504
                                  25310904.461
        33.500
 -17158905.03647 -12102668.02645  22682014.1414                   22682001.8484
        45.7504         34.5004
 -26766612.08948 -20697548.13949  20830922.4614                   20830913.9184
        50.5004         55.0004
  -1392071.52145  -1067003.56143  25358250.8054                   25358242.9654
        35.5004         19.0004
 -11037753.71047  -8534804.01147  23120567.6804                   23120556.6764
        42.0004         43.2504
 -10448530.70546  -7579328.32645  23548343.4224                   23548335.0554
        38.2504         35.2504
   -938888.89045   -940984.29144  25053451.7974                   25053443.9574
        33.5004         27.7504
 -19231095.77348 -21175587.15549  20503445.9144                   20503437.0784
        53.5004         54.7504
 23  1  3  1  8 30.0000000  0 12G24G23G08G22G27G21G10G12G31G01G25G32
  -5458715.30445  -5099038.33043  24069922.4064                   24069912.2234
        35.0004         20.0004
  -5855406.56947  -6157558.10845  22955982.3054                   22955971.7704
        44.2504         31.5004
  -8137681.27145  -6316159.09845  24609690.1174                   24609682.8054
        34.5004         31.7504
 -15127330.89547 -12007990.80246  21111368.6414                   21111358.1054
        47.5004         38.0004
                                  25328540.7114                   25328524.9024
        37.2504         22.2504
 -17207396.36847 -12140453.46945  22672786.3134                   22672774.2544
        45.2504         34.0004
 -26733764.43348 -20671952.57149  20837173.0554                   20837164.3364
        50.0004         55.0004
  -1456550.47045  -1117246.87243  25345980.2664                   25345972.4264
        35.0004         19.2504
 -11151523.29047  -8623455.64447  23098917.9534                   23098906.9494
        42.5004         43.5004
 -10545012.47046  -7654508.93646  23529983.6564                   23529975.5234
        38.7504         36.0004
  -1021331.24155  -1005224.93454  25037763.8594                   25037755.6684
        35.2504         26.7504
 -19225189.17448 -21170984.61049  20504569.8754                   20504560.9804
        52.5004         55.0004
 23  1  3  1  9  0.0000000  0 11G24G23G08G22G21G10G12G31G01G25G32
  -5359005.51645  -5021342.42043  24088894.9534                   24088886.5864
        32.5004         20.0004
  -5774414.12047  -6094447.15245  22971394.1254                   22971384.4104
        43.5004         31.7504
  -8065008.64845  -6259531.10145  24623519.6484                   24623511.9264
        34.7504         31.7504
 -15170878.72047 -12041924.15746  21103081.8914                   21103071.5904
        46.5004         37.7504
 -17255487.80547 -12177927.31645  22663635.1254                   22663623.3014
        46.5004         34.5004
 -26700587.09848 -20646100.12149  20843486.7504                   20843478.0314
        50.2504         54.7504
  -1520721.92646  -1167250.61443  25333770.3914                   25333761.1454
        37.5004         18.5004
 -11265106.63647  -8711962.13447  23077303.7194                   23077293.0084
        42.7504         43.7504
 -10641185.64246  -7729449.05045  23511682.4694                   23511673.5744
        38.2504         35.5004
  -1103652.54355  -1069371.33254  25022097.9454                   25022089.8134
        34.5004         27.5004
 -19218918.66848 -21166098.50249  20505763.1484                   20505754.4304
        52.5004         55.0004
 23  1  3  1  9 30.0000000  0 12G24G23G08G22G27G21G10G12G31G01G25G32
  -5258993.99045  -4943411.38043  24107925.5944                   24107918.5744
        32.2504         21.0004
  -5693215.23747  -6031175.32345  22986846.6024                   22986836.4184
        44.0004         30.7504
  -7992114.63145  -6202730.58745  24637390.5084                   24637382.9614
        34.5004         30.7504
 -15214087.19447 -12075593.08246  21094859.6884                   21094848.6844
        47.5004         38.0004
                                  25363761.523
        29.250
 -17303177.21647 -12215087.89745  22654560.1724                   22654548.2304
        46.0004         34.2504
 -26667079.23948 -20619990.10849  20849863.1484                   20849854.3134
        50.7504         55.0004
  -1584583.13346  -1217012.58643  25321618.5864                   25321608.6954
        37.5004         18.2504
 -11378500.36147  -8800320.88847  23055725.2344                   23055715.0514
        42.5004         43.7504
 -10737046.64546  -7804145.94645  23493441.0704                   23493432.6454
        39.0004         35.2504
  -1185849.20245  -1133420.54144  25006454.1094                   25006449.2034
        32.0004         25.7504
 -19212284.49848 -21160929.01149  20507025.4774                   20507016.5824
        53.5004         54.7504
 23  1  3  1 10  0.0000000  0 12G24G23G08G22G27G21G10G12G31G01G25G32
  -5158683.82445  -4865247.63543  24127013.4304                   24127006.3524
        32.0004         19.7504
  -5611810.72247  -5967743.28845  23002337.6094                   23002327.1334
        44.5004         30.5004
  -7919002.22745  -6145759.86345  24651304.2504                   24651295.8834
        35.2504         31.2504
 -15256956.65647 -12108997.85546  21086701.7504                   21086690.9224
        46.7504         38.5004
                                  25381362.352
        33.500
 -17350463.78647 -12251934.57245  22645561.1484                   22645549.7344
        45.5004         34.2504
 -26633240.87348 -20593622.56049  20856302.1484                   20856293.6644
        50.2504         55.0004
  -1648131.07845  -1266530.45343  25309523.2034                   25309516.4774
        33.7504         19.0004
 -11491701.56347  -8888529.60147  23034183.8594                   23034173.2074
        43.0004         44.0004
 -10832592.93046  -7878597.56845  23475258.5234                   23475250.8594
        39.0004         35.0004
  -1267918.14255  -1197370.34254  24990837.8524                   24990831.0084
        33.5004         26.7504
 -19205287.95349 -21155477.16549  20508356.7894                   20508348.0704
        54.0004         54.7504
 23  1  3  1 10 30.0000000  0 12G24G23G08G22G27G21G10G12G31G01G25G32
  -5058078.16345  -4786853.60943  24146159.0784                   24146150.8874
        33.0004         19.0004
  -5530201.39947  -5904151.62245  23017866.2194                   23017856.3284
        42.5004         30.7504
  -7845674.59046  -6088621.47245  24665258.7974                   24665249.9614
        36.0004         32.0004
 -15299487.43647 -12142138.70446  21078608.0164                   21078597.3634
        46.7504         38.0004
                                  25398945.1414                   25398938.4144
        24.5004         22.0004
 -17397345.98347 -12288466.16245  22636640.2274                   22636628.2854
        45.7504         34.5004
 -26599071.91448 -20566997.41249  20862804.3754                   20862795.8324
        50.2504         54.7504
  -1711362.93446  -1315801.94242  25297492.9144                   25297482.3794
        37.2504         16.7504
 -11604707.13747  -8976585.90047  23012679.8524                   23012669.0824
        42.7504         44.5004
 -10927821.80546  -7952801.87945  23457137.9064                   23457128.7774
        39.7504         35.7504
  -1349856.27055  -1261218.15154  24975245.6564                   24975237.9344
        32.0004         27.0004
 -19197930.08548 -21149743.76249  20509756.8134                   20509747.9774
        53.2504         54.7504
 23  1  3  1 11  0.0000000  0 12G24G23G08G22G27G21G10G12G31G01G25G32
  -4957181.33945  -4708232.70643  24165360.4774                   24165350.4104
        33.7504         19.0004
  -5448389.19547  -5840401.89945  23033435.4064                   23033425.4574
        44.0004         31.5004
  -7772136.13745  -6031318.76045  24679252.6884                   24679243.7934
        35.5004         31.5004
 -15341680.84947 -12175016.68846  21070578.8594                   21070568.6764
        46.2504         38.7504
    335885.09754  -5488108.59353  25416521.6644                   25416514.9384
        28.2504         22.2504
 -17443823.61547 -12324682.50145  22627796.0704                   22627783.6024
        45.5004         34.7504
 -26564573.60048 -20540115.62249  20869369.1174                   20869360.6914
        51.0004         55.0004
  -1774277.11645  -1364825.83642  25285517.4534                   25285510.3754
        33.5004         17.7504
 -11717515.61847  -9064488.60047  22991212.7974                   22991202.4384
        42.0004         44.2504
 -11022731.90946  -8026757.81045  23439075.6414                   23439068.6804
        38.5004         35.5004
                                  24959676.9534                   24959671.1054
        31.0004         25.5004
 -19190213.28148 -21143730.67049  20511225.4304                   20511216.6524
        53.5004         54.7504
 23  1  3  1 11 30.0000000  0 12G24G23G08G22G27G21G10G12G31G01G25G32
  -4855990.02945  -4629382.31743  24184616.1644                   24184607.0944
        33.2504         19.2504
  -5366368.36547  -5776489.62345  23049044.1564                   23049032.9774
        44.5004         30.5004
  -7698384.16845  -5973849.69345  24693285.5784                   24693278.0314
        34.5004         31.0004
 -15383530.68847 -12207626.95146  21062615.4924                   21062605.0164
        46.2504         38.7504
                                  25434084.0164                   25434077.6414
        28.5004         22.5004
 -17489888.51547 -12360577.22445  22619029.5944                   22619018.4144
        44.5004         34.5004
 -26529739.15448 -20512971.90049  20875998.0394                   20875989.4964
        50.5004         55.0004
  -1836864.36845  -1413595.14942  25273607.5234                   25273600.0354
        33.0004         16.7504
 -11830117.92747  -9152230.66147  22969786.0084                   22969774.5944
        43.0004         44.7504
 -11117314.02046  -8100458.15645  23421078.8284                   23421069.7584
        39.2504         35.5004
                                  24944137.9304                   24944131.6724
        32.0004         26.5004
 -19182132.18348 -21137433.70849  20512763.3524                   20512754.6914
        52.7504         54.7504
 23  1  3  1 12  0.0000000  0 12G24G23G08G22G27G21G10G12G31G01G25G32
  -4754514.65345  -4550310.67542  24203926.2274                   24203916.6884
        32.2504         17.7504
  -5284147.06647  -5712421.12545  23064688.8204                   23064679.1054
        43.0004         30.5004
  -7624428.61745  -5916221.99545  24707357.6484                   24707351.6844
        32.2504         31.7504
 -15425044.85547 -12239975.64146  21054715.4144                   21054705.0554
        47.0004         38.5004
                                  25451634.086
        27.500
 -17535547.18147 -12396155.41045  22610341.1724                   22610329.8164
        45.5004         35.0004
 -26494575.99648 -20485572.04249  20882689.6804                   20882680.6684
        51.7504         54.7504
  -1899128.96345  -1462113.00342  25261760.8594                   25261751.9064
        33.5004         17.7504
 -11942518.27547  -9239815.34147  22948396.0784                   22948385.6024
        42.5004         44.7504
 -11211572.96246  -8173906.66845  23403141.2584                   23403132.7734
        39.0004         35.5004
                                  24928625.0164                   24928617.6454
        33.5004         27.7504
 -19173695.33548 -21130859.54849  20514368.8444                   20514360.0084
        53.7504         55.0004
 23  1  3  1 12 30.0000000  0 11G24G23G08G22G21G10G12G31G01G25G32
  -4652755.24945  -4471017.63343  24223291.7974                   24223282.3754
        33.5004         21.2504
  -5201722.89847  -5648194.52544  23080374.3754                   23080364.3674
        43.0004         29.5004
  -7550269.72145  -5858435.93945  24721471.5004                   24721463.6024
        35.0004         31.2504
 -15466220.45447 -12272060.52146  21046880.4454                   21046869.7934
        47.7504         38.7504
 -17580794.92447 -12431413.39445  22601731.2584                   22601719.3164
        45.0004         34.7504
 -26459081.18448 -20457913.76549  20889443.9454                   20889435.1684
        50.5004         54.7504
  -1961065.66645  -1510375.32042  25249974.3444                   25249965.7424
        34.0004         16.7504
 -12054710.89447  -9327238.14747  22927046.9224                   22927035.7424
        42.7504         44.7504
 -11305502.90746  -8247098.83845  23385267.6094                   23385259.1254
        38.5004         35.2504
                                  24913137.8054                   24913132.1334
        31.7504         27.0004
 -19164900.76348 -21124006.64149  20516042.4064                   20516033.6294
        53.0004         54.7504
 23  1  3  1 13  0.0000000  0 11G24G23G08G22G21G10G12G31G01G25G32
  -4550715.77345  -4391506.42942  24242707.5944                   24242699.4024
        31.7504         17.7504
  -5119097.54647  -5583811.19544  23096097.6174                   23096087.4924
        43.2504         29.7504
  -7475911.30046  -5800494.28045  24735622.6094                   24735613.4224
        36.7504         32.0004
 -15507058.68147 -12303882.50746  21039108.4614                   21039098.6294
        47.5004         39.0004
 -17625631.60047 -12466351.06845  22593198.8204                   22593187.0554
        45.7504         34.5004
 -26423255.36448 -20429997.55249  20896261.2194                   20896252.3834
        50.5004         54.7504
  -2022672.64245  -1558380.70142  25238249.7034                   25238241.4534
        33.5004         17.2504
 -12166693.95547  -9414497.67447  22905737.3984                   22905726.6884
        43.0004         45.0004
 -11399102.20046  -8320033.33445  23367455.2344                   23367447.5124
        37.5004         35.0004
  -1757470.41755  -1578839.48954  24897680.5084                   24897671.9064
        34.2504         28.2504
 -19155750.53448 -21116876.59549  20517783.7504                   20517774.6214
        52.7504         55.0004
 23  1  3  1 13 30.0000000  0 12G24G23G08G22G27G21G10G12G31G01G25G32
  -4448397.05445  -4311777.52743  24262178.3444                   24262169.0984
        34.7504         19.7504
  -5036269.50147  -5519269.91444  23111858.5234                   23111849.1604
        42.7504         29.5004
  -7401354.58246  -5742398.13045  24749810.3134                   24749801.6524
        36.0004         31.5004
 -15547557.27447 -12335439.85246  21031402.1644                   21031391.3954
        47.7504         39.0004
                                  25504207.258
        36.000
 -17670053.66247 -12500965.66645  22584745.0474                   22584733.7504
        45.0004         34.5004
 -26387096.10248 -20401821.50949  20903142.2424                   20903133.4654
        50.5004         54.7504
  -2083944.62845  -1606125.13542  25226591.1334                   25226582.4144
        34.2504         17.7504
 -12278462.26447  -9501589.86047  22884468.5864                   22884457.4654
        43.0004         44.7504
 -11492365.72946  -8392706.20345  23349708.6024                   23349699.8244
        38.7504         35.2504
  -1838555.07745  -1642022.29044  24882249.5554                   24882242.4774
        32.2504         27.0004
 -19146243.41748 -21109468.44549  20519592.7974                   20519584.0204
        52.2504         54.7504
 23  1  3  1 14  0.0000000  0 12G24G23G08G22G27G21G10G12G31G01G25G32
  -4345805.66445  -4231836.18243  24281700.1884                   24281692.8164
        32.7504         18.2504
  -4953242.95047  -5454573.94745  23127658.0784                   23127648.4224
        42.7504         30.0004
  -7326606.10645  -5684152.61145  24764032.6174                   24764025.6564
        34.5004         31.5004
 -15587720.13447 -12366735.57246  21023759.2344                   21023748.9924
        46.5004         39.7504
    379800.77054  -5222100.76354  25521694.5164                   25521687.0864
        28.7504         24.7504
 -17714063.42747 -12535258.98445  22576370.2504                   22576358.9534
        44.5004         34.5004
 -26350607.07048 -20373388.50649  20910085.8054                   20910076.7344
        51.0004         55.0004
  -2144882.37045  -1653609.03142  25214996.4534                   25214986.7384
        34.2504         16.2504
 -12390016.30847  -9588515.08547  22863240.2974                   22863229.8794
        43.0004         44.7504
 -11585294.41546  -8465118.15545  23332023.6804                   23332016.2504
        38.2504         35.5004
  -1919488.98555  -1705087.67054  24866847.3914                   24866841.7774
        31.7504         27.5004
 -19136384.06348 -21101785.83549  20521468.8674                   20521459.8554
        53.5004         54.7504
 23  1  3  1 14 30.0000000  0 12G24G23G08G22G27G21G10G12G31G01G25G32
  -4242936.71045  -4151678.56243  24301277.1724                   24301267.2234
        34.5004         19.7504
  -4870010.62747  -5389717.65945  23143497.1174                   23143487.2274
        42.5004         30.0004
  -7251661.04745  -5625753.86845  24778295.2664                   24778287.0744
        35.7504         32.0004
 -15627539.70747 -12397763.79646  21016182.3674                   21016171.5394
        47.5004         39.7504
                                  25539173.0314                   25539164.4304
        33.0004         22.7504
 -17757651.48047 -12569223.70745  22568076.0004                   22568064.8204
        45.5004         34.5004
 -26313780.03448 -20344692.12749  20917094.0554                   20917084.6914
        51.5004         54.7504
  -2205475.21946  -1700824.11842  25203464.7814                   25203455.5944
        36.0004         17.2504
 -12501345.32047  -9675264.96247  22842054.9224                   22842044.5044
        42.7504         45.0004
 -11677877.55746  -8537260.85745  23314406.6094                   23314398.5944
        38.5004         35.5004
  -2000260.81255  -1768026.71654  24851477.5474                   24851470.9964
        32.2504         27.7504
 -19126165.64948 -21093823.43249  20523413.2664                   20523404.6644
        53.0004         54.7504
 23  1  3  1 15  0.0000000  0 12G24G23G08G22G27G21G10G12G31G01G25G32
  -4139800.74745  -4071312.85943  24320902.1884                   24320893.0004
        33.0004         18.5004
  -4786580.88947  -5324707.51844  23159373.5634                   23159363.5554
        43.0004         29.5004
  -7176529.72945  -5567209.97945  24792591.3054                   24792584.2274
        34.0004         32.5004
 -15667023.87748 -12428530.67946  21008668.5864                   21008657.6994
        48.2504         39.7504
                                  25556632.0084                   25556624.9884
        30.0004         23.0004
 -17800824.08347 -12602864.69545  22559860.7274                   22559849.3714
        46.2504         35.0004
 -26276622.48448 -20315738.20149  20924164.5084                   20924155.7304
        51.5004         54.7504
  -2265727.99346  -1747774.29042  25192001.1954                   25191990.0744
        37.0004         15.5004
 -12612454.15047  -9761843.26847  22820911.8444                   22820901.1334
        43.0004         45.0004
 -11770120.06546  -8609138.13245  23296852.7664                   23296845.2774
        38.0004         35.2504
  -2080875.13845  -1830843.08644  24836136.9774                   24836130.4844
        32.5004         29.0004
 -19115596.83548 -21085587.98949  20525424.6254                   20525415.9064
        52.7504         55.0004
 23  1  3  1 15 30.0000000  0 12G24G23G08G22G27G21G10G12G31G01G25G32
  -4036400.23645  -3990741.12143  24340579.1334                   24340571.0004
        33.5004         20.7504
  -4702953.76047  -5259543.57344  23175287.0864                   23175277.0204
        42.0004         29.5004
  -7101215.38245  -5508523.49345  24806923.7344                   24806916.1294
        35.0004         31.7504
 -15706172.10147 -12459035.77746  21001218.9384                   21001208.0514
        47.7504         39.7504
    655077.55354  -5007599.11953  25574076.1644                   25574069.6724
        27.5004         23.5004
 -17843579.52647 -12636180.63245  22551724.3524                   22551713.1724
        45.5004         34.7504
 -26239133.82148 -20286526.26749  20931298.6024                   20931289.6484
        51.0004         55.0004
  -2325637.50145  -1794457.12642  25180596.4224                   25180589.8134
        33.0004         16.2504
 -12723339.11447  -9848247.13747  22799810.8524                   22799800.0234
        42.5004         45.0004
 -11862018.56546  -8680747.34546  23279365.6564                   23279357.6994
        38.7504         36.2504
  -2161328.19055  -1893533.78954  24820825.7734                   24820820.0434
        31.2504         27.0004
 -19104678.09148 -21077079.88249  20527502.6174                   20527493.7234
        53.0004         55.0004
 23  1  3  1 16  0.0000000  0 12G24G23G08G22G27G21G10G12G31G01G25G32
  -3932731.76145  -3909960.48242  24360305.2814                   24360297.2664
        32.0004         16.2504
  -4619123.57246  -5194221.37944  23191239.4924                   23191229.2504
        41.7504         29.5004
  -7025714.24745  -5449691.43145  24821290.3444                   24821283.2664
        33.7504         32.0004
 -15744978.12248 -12489274.22046  20993834.8134                   20993823.5164
        48.2504         40.2504
                                  25591508.7814                   25591497.7774
        33.0004         22.5004
 -17885910.51547 -12669165.81445  22543669.3524                   22543657.5864
        46.2504         35.0004
 -26201307.63148 -20257051.31549  20938496.7114                   20938487.5234
        50.5004         55.0004
  -2385194.18545  -1840864.82342  25169266.2344                   25169255.9344
        34.5004         15.5004
 -12833990.93247  -9934469.33147  22778754.8204                   22778744.2854
        43.2504         45.2504
 -11953564.03846  -8752081.47346  23261945.5084                   23261936.8484
        38.7504         36.0004
  -2241610.53645  -1956091.40644  24805548.7734                   24805543.3954
        32.5004         29.0004
 -19093404.15648 -21068294.99149  20529647.8594                   20529638.4964
        52.0004         55.5004
 23  1  3  1 16 30.0000000  0 12G24G23G08G22G27G21G10G12G31G01G25G32
  -3828806.39745  -3828979.67743  24380082.1804                   24380073.4614
        34.5004         20.2504
  -4535099.08147  -5128747.82045  23207228.5634                   23207219.4924
        42.0004         30.2504
  -6950037.64945  -5390722.66645  24835691.6564                   24835684.5784
        33.5004         31.7504
 -15783450.49648 -12519252.69246  20986513.6484                   20986502.8794
        48.0004         40.0004
    838147.91154  -4864947.38253  25608914.1484                   25608906.7774
        29.7504         22.2504
 -17927822.94047 -12701824.85245  22535693.4924                   22535682.3134
        45.5004         35.5004
 -26163151.60248 -20227319.35749  20945757.8364                   20945748.3554
        50.5004         54.7504
  -2444403.62446  -1887001.92443  25157999.9064                   25157989.0784
        36.7504         18.2504
 -12944414.56947 -10020513.71547  22757741.5314                   22757731.2894
        43.0004         45.2504
 -12044761.65046  -8823144.53046  23244590.3594                   23244582.3444
        38.5004         36.5004
  -2321726.87955  -2018519.73354  24790303.2194                   24790298.1954
        30.0004         28.5004
 -19081784.10548 -21059240.40749  20531859.2274                   20531850.0984
        52.0004         54.7504
 23  1  3  1 17  0.0000000  0 12G24G23G08G22G27G21G10G12G31G01G25G32
  -3724621.22345  -3747796.49543  24399908.0314                   24399900.9534
        32.2504         19.2504
  -4450875.05147  -5063118.77544  23223255.8594                   23223246.7894
        42.0004         29.5004
  -6874182.33145  -5331614.69045  24850125.2894                   24850118.9734
        33.2504         30.7504
 -15821583.71747 -12548966.86646  20979256.4384                   20979245.9024
        47.0004         40.0004
    929542.33755  -4793730.91054  25626310.4534                   25626300.1524
        33.7504         25.7504
 -17969309.78647 -12734152.25745  22527798.4694                   22527787.0554
        44.5004         35.0004
 -26124659.96748 -20197325.88949  20953082.0394                   20953073.4384
        51.0004         54.7504
  -2503257.11745  -1932861.79042  25146797.7974                   25146789.4304
        34.2504         17.2504
 -13054601.32247 -10106373.52647  22736774.7194                   22736763.4224
        43.7504         45.5004
 -12135602.84946  -8893929.87646  23227303.8914                   23227295.8164
        39.0004         37.0004
  -2401668.32355  -2080811.71454  24775091.7974                   24775085.8914
        32.2504         26.7504
 -19069813.09748 -21049912.34549  20534136.9384                   20534127.8094
        52.2504         54.7504
 23  1  3  1 17 30.0000000  0 12G24G23G08G22G27G21G10G12G31G01G25G32
  -3620180.37245  -3666414.04643  24419782.6724                   24419774.1294
        33.0004         21.0004
  -4366453.44847  -4997335.75544  23239321.3594                   23239310.4734
        42.7504         29.0004
  -6798152.98045  -5272371.05445  24864595.6644                   24864586.9454
        35.7504         32.2504
 -15859379.30048 -12578417.96846  20972064.5704                   20972053.6254
        48.5004         40.2504
   1020839.48355  -4722590.23353  25643679.9224                   25643671.3794
        30.7504         22.5004
 -18010371.25147 -12766148.20645  22519985.2424                   22519973.7704
        46.2504         35.2504
 -26085833.74948 -20167071.70949  20960470.7034                   20960461.7504
        50.5004         54.7504
  -2561753.02045  -1978442.90742  25135666.8594                   25135658.0824
        34.5004         17.2504
 -13164549.74247 -10192047.61747  22715851.3594                   22715840.9414
        43.7504         46.0004
 -12226086.11846  -8964436.29646  23210085.7034                   23210077.3364
        40.0004         37.0004
  -2481432.88245  -2142965.89644  24759914.5554                   24759907.0084
        33.5004         29.7504
 -19057493.51248 -21040312.66749  20536481.4144                   20536472.4024
        51.7504         55.0004
 23  1  3  1 18  0.0000000  0 12G24G23G08G22G27G21G10G12G31G01G25G32
  -3515487.62745  -3584835.32343  24439702.9614                   24439697.6994
        31.7504         19.5004
  -4281835.68646  -4931399.89444  23255422.9224                   23255413.2664
        41.7504         29.5004
  -6721953.13345  -5212994.53645  24879094.3914                   24879087.4304
        34.5004         32.5004
 -15896837.77048 -12607606.37346  20964936.1024                   20964925.6844
        48.7504         40.5004
   1112035.71555  -4651528.34954  25661035.7664                   25661027.0474
        33.0004         27.0004
 -18051006.89347 -12797812.34645  22512252.3524                   22512241.0554
        46.2504         35.0004
 -26046673.76948 -20136557.44249  20967922.6024                   20967913.4734
        50.5004         54.7504
  -2619889.46155  -2023744.05152  25124602.6094                   25124594.9454
        33.0004         17.2504
 -13274257.27947 -10277534.01247  22694974.8524                   22694964.0234
        43.5004         46.0004
 -12316209.45446  -9034662.26246  23192936.3284                   23192927.5514
        40.5004         38.2504
  -2561018.20045  -2204980.44944  24744768.5634                   24744761.2504
        32.5004         27.5004
 -19044827.10448 -21030442.73949  20538891.7034                   20538882.4574
        52.5004         54.7504
 23  1  3  1 18 30.0000000  0 12G24G23G08G22G27G21G10G12G31G01G25G32
  -3410545.52045  -3503062.23543  24459675.6884                   24459666.2664
        34.7504         20.0004
  -4197021.90947  -4865311.29844  23271562.9454                   23271553.2304
        42.0004         29.2504
  -6645585.97945  -5153487.66945  24893627.5784                   24893620.0314
        35.5004         32.5004
 -15933959.07047 -12636532.05946  20957872.6414                   20957861.5784
        47.7504         40.5004
   1203128.83255  -4580546.65554  25678370.0164                   25678360.7704
        33.0004         27.0004
 -18091215.25947 -12829143.54345  22504600.6254                   22504589.7974
        44.2504         35.0004
 -26007179.35448 -20105782.58849  20975437.9694                   20975429.4264
        51.0004         54.7504
  -2677663.29145  -2068762.52242  25113609.3914                   25113600.9654
        33.0004         14.7504
 -13383720.73547 -10362830.21947  22674145.5314                   22674134.0004
        44.2504         46.5004
 -12405969.58146  -9104605.20346  23175854.8444                   23175846.8874
        39.2504         38.2504
  -2640420.59755  -2266852.43154  24729657.1334                   24729652.0514
        32.5004         28.0004
 -19031814.44448 -21020302.99349  20541367.9454                   20541358.8164
        52.5004         54.7504
 23  1  3  1 19  0.0000000  0 12G24G23G08G22G27G21G10G12G31G01G25G32
  -3305354.77045  -3421095.37543  24479690.9774                   24479683.0784
        32.0004         18.5004
  -4112010.72046  -4799068.87944  23287740.1024                   23287730.5044
        41.5004         28.0004
  -6569051.73745  -5093850.63845  24908191.0554                   24908183.3914
        35.5004         32.2504
 -15970741.70348 -12665193.85646  20950873.2344                   20950862.4654
        48.2504         40.5004
                                  25695683.0944                   25695674.6684
        30.7504         23.5004
 -18130992.76347 -12860138.99645  22497031.7114                   22497019.8284
        46.5004         35.5004
 -25967348.08048 -20074745.24349  20983017.9454                   20983008.8164
        51.2504         54.7504
  -2735069.61145  -2113494.73742  25102685.6174                   25102676.7234
        34.5004         16.7504
 -13492934.92047 -10447932.18047  22653361.8834                   22653350.9964
        43.5004         46.2504
 -12495361.64746  -9174261.35346  23158844.5164                   23158836.1484
        39.7504         39.0004
  -2719634.70345  -2328577.65144  24714586.0084                   24714578.8714
        32.0004         29.2504
 -19018454.53148 -21009892.66649  20543910.2274                   20543901.0394
        52.0004         54.7504
 23  1  3  1 19 30.0000000  0 12G24G23G08G22G27G21G10G12G31G01G25G32
  -3199922.80645  -3338940.69043  24499755.8914                   24499746.8794
        35.0004         20.2504
  -4026807.09946  -4732676.48344  23303953.4454                   23303943.5554
        41.2504         29.0004
  -6492358.29245  -5034089.48245  24922785.6484                   24922777.6914
        34.2504         32.0004
 -16007189.98248 -12693595.10146  20943937.3754                   20943926.2544
        48.2504         41.0004
                                  25712976.2814                   25712968.9694
        29.7504         23.5004
 -18170341.63647 -12890800.46046  22489544.0314                   22489532.3834
        45.5004         36.0004
 -25927184.42548 -20043448.90549  20990660.5784                   20990651.5664
        51.2504         54.7504
  -2792109.68245  -2157941.53343  25091831.0004                   25091822.2814
        35.0004         18.5004
 -13601901.08247 -10532840.87947  22632626.2274                   22632615.6334
        44.0004         46.5004
 -12584387.22546  -9243631.92046  23141903.3054                   23141895.3484
        40.5004         39.2504
  -2798661.63855  -2390157.09455  24699546.3984                   24699541.2584
        33.7504         30.2504
 -19004752.70948 -20999215.92149  20546517.3984                   20546508.4454
        51.7504         55.0004
 23  1  3  1 20  0.0000000  0 12G24G23G08G22G27G21G10G12G31G01G25G32
  -3094250.51545  -3256598.57143  24519863.6254                   24519854.3794
        33.7504         18.2504
  -3941409.82247  -4666133.23145  23320204.9454                   23320194.5864
        42.2504         30.2504
  -6415506.77545  -4974205.20145  24937410.6564                   24937402.3484
        35.5004         32.5004
 -16043302.23848 -12721734.50646  20937065.2584                   20937054.1954
        48.0004         40.5004
   1475763.82645  -4368103.77244  25730248.2664                   25730241.0704
        30.5004         24.5004
 -18209259.41247 -12921126.00245  22482138.5234                   22482126.2894
        46.0004         35.2504
 -25886686.04548 -20011891.74049  20998367.2504                   20998358.2974
        51.5004         55.0004
  -2848779.19945  -2202099.58242  25081046.8674                   25081038.7344
        32.7504         17.2504
 -13710614.48447 -10617552.62147  22611938.8054                   22611928.1524
        44.7504         46.5004
 -12673041.62946  -9312713.24946  23125032.8524                   23125024.7774
        40.5004         39.0004
                                  24684542.6254                   24684538.2464
        32.7504         27.5004
 -18990708.11948 -20988272.08249  20549190.0004                   20549181.1054
        52.0004         55.2504
 23  1  3  1 20 30.0000000  0 12G24G23G08G22G27G21G10G12G31G01G25G32
  -2988340.10845  -3174071.04843  24540018.8444                   24540010.0084
        35.0004         20.7504
  -3855818.94846  -4599439.10244  23336491.9694                   23336482.4884
        41.5004         29.2504
  -6338499.41845  -4914199.49745  24952062.7814                   24952056.2894
        34.2504         31.7504
 -16079077.96148 -12749611.67946  20930257.3984                   20930246.5704
        48.5004         41.2504
   1566417.27155  -4297464.80254  25747500.7734                   25747493.3444
        32.0004         26.5004
 -18247744.34647 -12951114.26945  22474814.3984                   22474802.8094
        46.0004         35.7504
 -25845852.47048 -19980073.38549  21006137.4774                   21006128.5824
        50.7504         54.7504
  -2905074.34345  -2245965.83042  25070333.9844                   25070325.7344
        34.7504         16.7504
 -13819071.64947 -10702064.69447  22591300.3054                   22591289.7114
        45.0004         46.5004
 -12761321.46446  -9381502.73746  23108233.2974                   23108225.7504
        39.2504         39.2504
  -2956134.98055  -2512863.58454  24669576.5784                   24669573.1374
        32.5004         29.0004
 -18976321.19848 -20977061.50449  20551928.1024                   20551919.0314
        51.2504         55.0004
 23  1  3  1 21  0.0000000  0 12G24G23G08G22G27G21G10G12G31G01G25G32
  -2882192.94945  -3091359.00743  24560217.1024                   24560209.1454
        34.2504         19.2504
  -3770033.39747  -4532593.31544  23352816.3364                   23352806.6804
        42.0004         28.5004
  -6261337.54845  -4854073.37545  24966746.6724                   24966739.3014
        35.0004         32.0004
 -16114516.06148 -12777225.77546  20923513.6724                   20923502.6684
        49.5004         41.0004
                                  25764727.922
        30.500
 -18285793.44247 -12980762.91645  22467573.8204                   22467562.6414
        46.5004         35.5004
 -25804681.89348 -19947992.42549  21013971.6804                   21013963.2544
        51.5004         55.0004
  -2960991.25845  -2289537.39942  25059693.8754                   25059685.7424
        34.0004         16.2504
 -13927267.77347 -10786373.36547  22570711.7344                   22570700.6134
        44.2504         46.7504
 -12849222.23546  -9449996.83446  23091506.8054                   23091498.7894
        40.5004         39.2504
  -3034572.72755  -2573983.92454  24654652.6804                   24654647.7734
        33.0004         29.2504
 -18961591.24048 -20965583.60249  20554730.4534                   20554721.6174
        51.7504         55.2504
 23  1  3  1 21 30.0000000  0 12G24G23G08G22G27G21G10G12G31G01G25G32
  -2775816.13845  -3008467.98443  24580460.6254                   24580451.4384
        33.7504         20.5004
  -3684058.23347  -4465599.73344  23369177.0784                   23369167.0704
        42.2504         29.0004
  -6184028.70146  -4793832.72845  24981459.8054                   24981451.4964
        36.5004         33.0004
 -16149621.01647 -12804580.28846  20916833.4614                   20916822.7504
        47.0004         41.0004
    564998.84255  -4187949.59454  25781935.1804                   25781927.3984
        31.0004         24.7504
 -18323409.48047 -13010074.11345  22460416.4224                   22460404.2464
        44.7504         35.5004
 -25763178.24348 -19915651.93349  21021869.5554                   21021861.0704
        50.2504         55.0004
  -3016531.23645  -2332815.24042  25049124.1564                   25049115.8484
        33.5004         15.5004
 -14035204.14747 -10870479.63347  22550171.0314                   22550160.6724
        44.2504         46.7504
 -12936745.54146  -9518196.79846  23074851.3364                   23074843.6134
        39.7504         39.5004
  -3112810.38955  -2634948.36154  24639766.0234                   24639759.6484
        34.2504         29.5004
 -18946523.68848 -20953842.65949  20557597.9224                   20557588.9104
        51.2504         55.0004
 23  1  3  1 22  0.0000000  0 11G24G23G08G22G21G10G12G31G01G25G32
  -2669207.54845  -2925396.36943  24600747.1334                   24600739.7624
        33.5004         21.0004
  -3597888.83646  -4398454.83244  23385574.5554                   23385564.8984
        41.7504         28.5004
  -6106570.38045  -4733475.55245  24996198.7814                   24996191.4694
        33.7504         32.0004
 -16184387.81348 -12831671.27946  20910217.1644                   20910206.5704
        48.0004         40.7504
 -18360586.11047 -13039042.91746  22453341.9454                   22453329.7704
        46.7504         36.2504
 -25721336.52848 -19883048.02149  21029832.0474                   21029824.0314
        51.0004         54.7504
  -3071686.43145  -2375793.28642  25038628.4304                   25038620.7074
        32.2504         16.2504
 -14142872.46047 -10954377.02347  22529683.3054                   22529671.8914
        44.5004         46.7504
 -13023883.32546  -9586096.36946  23058270.1954                   23058261.5944
        41.0004         40.0004
  -3190839.76945  -2695750.46444  24624918.5474                   24624911.2934
        34.5004         29.2504
 -18931114.30348 -20941835.34049  20560530.4144                   20560521.5204
        51.5004         55.5004
 23  1  3  1 22 30.0000000  0 11G24G23G08G22G21G10G12G31G01G25G32
  -2562373.68645  -2842149.22343  24621077.4694                   24621068.9844
        35.7504         19.7504
  -3511529.77047  -4331162.15144  23402008.8204                   23401998.6954
        42.0004         28.0004
  -6028969.13945  -4673007.11145  25010962.8444                   25010957.8204
        33.0004         32.0004
 -16218820.60148 -12858502.01746  20903665.1334                   20903654.0704
        48.5004         41.5004
 -18397325.98847 -13067671.39345  22446350.2194                   22446338.4534
        47.0004         35.5004
 -25679160.40948 -19850183.52849  21037858.1644                   21037849.3284
        52.0004         55.2504
  -3126458.14845  -2418472.43042  25028206.9304                   25028197.6254
        35.5004         16.7504
 -14250273.79147 -11038066.37147  22509245.5784                   22509234.5744
        44.5004         46.7504
 -13110636.70646  -9653696.40246  23041761.3754                   23041753.3594
        39.7504         40.0004
  -3268661.45855  -2756390.73555  24610106.9384                   24610103.2034
        33.7504         30.0004
 -18915367.99448 -20929565.49349  20563526.8204                   20563517.6334
        51.7504         54.7504
 23  1  3  1 23  0.0000000  0 11G24G23G08G22G21G10G12G31G01G25G32
  -2455316.24045  -2758727.83043  24641448.5234                   24641441.0354
        33.5004         20.0004
  -3424980.31546  -4263721.07844  23418478.1564                   23418467.9734
        41.7504         28.2504
  -5951227.51745  -4612429.22745  25025759.9304                   25025752.0314
        35.7504         32.7504
 -16252918.08648 -12885071.47346  20897176.5474                   20897165.7774
        48.0004         41.5004
 -18433626.99347 -13095957.89645  22439442.2344                   22439430.4104
        45.7504         35.7504
 -25636648.15948 -19817057.10849  21045947.8674                   21045939.3834
        50.5004         55.0004
  -3180841.94545  -2460849.38742  25017855.9774                   25017848.8404
        32.2504         17.2504
 -14357404.01247 -11121544.47647  22488859.1804                   22488848.0594
        44.0004         46.7504
 -13197001.57346  -9720993.68446  23025327.1954                   23025318.2424
        40.0004         39.5004
  -3346270.77945  -2816865.54945  24595340.3364                   24595333.7274
        34.0004         30.5004
 -18899284.45248 -20917032.85349  20566587.2814                   20566578.3874
        51.5004         55.0004
 23  1  3  1 23 30.0000000  0 11G24G23G08G22G21G10G12G31G01G25G32
  -2348038.01945  -2675134.48743  24661863.8834                   24661856.1024
        35.5004         21.5004
  -3338241.24846  -4196132.27044  23434984.0634                   23434974.1724
        40.7504         27.2504
  -5873347.75345  -4551743.73045  25040579.8914                   25040571.9344
        35.0004         32.0004
 -16286680.96847 -12911380.19746  20890751.7274                   20890740.7234
        47.7504         41.0004
 -18469487.26647 -13123900.96545  22432618.4064                   22432606.8164
        45.0004         35.7504
 -25593800.18148 -19783669.08949  21054101.2814                   21054092.7384
        51.5004         55.0004
  -3234835.58445  -2502922.35042  25007582.6804                   25007573.1994
        34.5004         17.2504
 -14464259.94947 -11204808.84247  22468524.9844                   22468514.5084
        44.5004         46.7504
 -13282975.14946  -9787986.08246  23008966.0554                   23008958.0984
        40.0004         39.5004
  -3423664.65245  -2877172.44344  24580612.3674                   24580605.4064
        34.7504         28.7504
 -18882864.79648 -20904238.31849  20569711.6644                   20569702.8874
        50.7504         54.7504
 23  1  3  1 24  0.0000000  0 11G24G23G08G22G21G10G12G31G01G25G32
  -2240542.15145  -2591371.43043  24682319.8524                   24682311.3094
        35.0004         21.7504
  -3251313.34746  -4128396.32944  23451525.9844                   23451516.1524
        41.2504         28.5004
  -5795333.81846  -4490953.66645  25055425.8914                   25055417.0554
        36.2504         32.7504
 -16320109.51947 -12937428.41446  20884390.4694                   20884379.4654
        47.0004         40.7504
 -18504906.44347 -13151500.32346  22425878.0234                   22425866.6684
        44.5004         36.0004
 -25550616.28648 -19750019.31749  21062318.9534                   21062310.4104
        51.2504         54.7504
  -3288436.01345  -2544688.85242  24997381.8364                   24997373.1764
        34.5004         16.2504
 -14570838.62147 -11287857.16547  22448243.6094                   22448233.0164
        44.5004         46.5004
 -13368554.92246  -9854671.61046  22992680.2814                   22992673.0274
        41.0004         40.0004
  -3500839.93745  -2937308.99944  24565925.9064                   24565919.7074
        34.7504         28.5004
 -18866110.17948 -20891182.76749  20572899.9924                   20572891.0394
        50.7504         55.2504
 23  1  3  1 24 30.0000000  0 11G24G23G08G22G21G10G12G31G01G25G32
  -6859090.96255  -6190240.70953  24702816.4384                   24702808.6564
        34.7504         19.5004
  -3164196.85646  -4060513.43644  23468104.1564                   23468094.5004
        41.2504         28.7504
  -5717187.32845  -4430060.24345  25070295.1094                   25070288.0904
        35.0004         31.7504
 -16353203.51147 -12963215.92546  20878093.0944                   20878082.0904
        47.0004         41.0004
 -18539882.31947 -13178754.25646  22419223.0394                   22419210.9224
        45.0004         36.0004
 -25507096.03648 -19716107.45649  21070600.8054                   21070592.0864
        50.5004         55.0004
  -3341640.52145  -2586146.95042  24987257.8524                   24987250.0704
        33.0004         17.2504
 -14677136.94747 -11370687.03347  22428015.8054                   22428005.5044
        44.5004         46.7504
 -13453737.62646  -9921047.72446  22976472.1644                   22976462.9774
        40.7504         40.0004
  -3577793.00045  -2997272.42244  24551281.8524                   24551276.4734
        34.2504         29.2504
 -18849021.22448 -20877866.70249  20576152.2424                   20576143.1134
        50.2504         54.7504
 23  1  3  1 25  0.0000000  0 11G24G23G08G22G21G10G12G31G01G25G32
  -6751167.61945  -6106144.58043  24723353.0704                   24723345.4654
        33.5004         21.2504
  -3076892.68046  -3992484.27644  23484717.0474                   23484706.9224
        41.0004         28.7504
  -5638911.99245  -4369066.51845  25085189.9614                   25085183.4694
        34.5004         32.0004
 -16385963.65047 -12988743.29346  20871858.7974                   20871847.9694
        46.7504         41.2504
 -18574414.32247 -13205662.31646  22412651.5704                   22412639.8634
        44.7504         36.5004
 -25463239.75748 -19681933.75349  21078946.8364                   21078937.8244
        50.0004         54.7504
  -3394446.55845  -2627294.40443  24977210.8134                   24977201.2734
        35.0004         18.2504
 -14783151.82947 -11453296.03447  22407841.9774                   22407831.3244
        44.5004         46.5004
 -13538520.65146  -9987112.42346  22960337.6174                   22960329.5434
        41.2504         40.2504
  -3654520.76745  -3057060.27245  24536682.7974                   24536675.6604
        35.0004         30.2504
 -18831599.15248 -20864291.05649  20579467.1024                   20579458.3834
        49.5004         55.0004
 23  1  3  1 25 30.0000000  0 11G24G23G08G22G21G10G12G31G01G25G32
  -6643034.52645  -6021885.02543  24743930.5234                   24743922.0984
        32.2504         19.5004
  -2989401.23046  -3924309.22144  23501366.3204                   23501356.4884
        40.5004         27.0004
  -5560510.93046  -4307974.83645  25100110.7344                   25100103.0124
        36.2504         31.7504
 -16418389.91147 -13014010.49446  20865688.2194                   20865677.2154
        47.5004         41.2504
 -18608500.61447 -13232223.06946  22406164.6804                   22406153.2664
        46.0004         36.2504
 -25419046.65848 -19647497.58649  21087356.3594                   21087347.1724
        52.0004         55.0004
  -3446851.35345  -2668129.29342  24967237.1094                   24967228.5084
        34.5004         17.2504
 -14888880.22747 -11535681.80347  22387722.0554                   22387711.4024
        45.5004         47.0004
 -13622901.07546 -10052863.38846  22944281.1484                   22944272.6644
        41.0004         40.5004
  -3731019.70345  -3116669.83145  24522125.3364                   24522117.6724
        35.2504         30.7504
 -18813844.73848 -20850456.44749  20582845.9304                   20582836.9774
        51.5004         54.7504
 23  1  3  1 26  0.0000000  0 11G24G23G08G22G21G10G12G31G01G25G32
  -6534695.21445  -5937464.79743  24764547.5234                   24764539.0984
        34.5004         21.7504
  -2901723.64646  -3855989.08644  23518050.3594                   23518041.5234
        40.0004         28.5004
  -5481987.23445  -4246787.46845  25115053.2504                   25115045.2344
        35.0004         32.0004
 -16450482.86648 -13039017.97446  20859581.1174                   20859570.1724
        48.2504         41.2504
 -18642141.34847 -13258436.62446  22399763.9924                   22399751.6414
        46.5004         36.2504
 -25374517.54248 -19612799.59749  21095829.5784                   21095820.9774
        50.7504         55.0004
  -3498852.51145  -2708649.67643  24957340.9694                   24957333.4804
        33.5004         18.5004
 -14994319.43247 -11617842.21747  22367657.7664                   22367646.9964
        44.7504         47.0004
 -13706876.55346 -10118298.81946  22928300.8834                   22928292.1644
        41.5004         40.5004
  -3807287.16145  -3176098.99345  24507611.8914                   24507604.7544
        35.0004         30.7504
 -18795759.49848 -20836364.04249  20586287.3364                   20586278.7344
        51.2504         55.0004
 23  1  3  1 26 30.0000000  0 11G24G23G08G22G21G10G12G31G01G25G32
  -6426151.26955  -5852885.13953  24785200.9144                   24785194.0704
        33.0004         20.2504
  -2813859.55246  -3787523.64444  23534770.7734                   23534761.0594
        41.7504         26.7504
  -5403342.53545  -4185505.88245  25130016.5234                   25130010.7934
        32.7504         31.0004
 -16482241.92648 -13063765.29046  20853537.8524                   20853526.7304
        48.5004         41.5004
 -18675333.87847 -13284300.94046  22393447.5634                   22393435.2114
        46.5004         36.2504
 -25329650.72748 -19577838.45149  21104367.6414                   21104358.8634
        50.2504         54.7504
  -3550446.41545  -2748852.67342  24947523.6334                   24947516.0274
        33.5004         16.7504
 -15099465.47847 -11699774.20247  22347649.2034                   22347638.6684
        45.5004         47.2504
 -13790443.32047 -10183415.77046  22912398.5944                   22912390.6954
        42.0004         41.0004
  -3883318.76445  -3235344.38145  24493143.6334                   24493136.0274
        33.7504         31.0004
 -18777343.46648 -20822013.89549  20589791.8444                   20589783.1254
        50.5004         55.0004
 23  1  3  1 27  0.0000000  0 11G24G23G08G22G21G10G12G31G01G25G32
  -6317404.77645  -5768147.62143  24805896.1564                   24805887.2624
        32.7504         18.2504
  -2725808.79646  -3718912.74544  23551526.1724                   23551516.5744
        40.7504         27.7504
                                  25145006.3754                   25144999.0044
        35.0004         30.7504
 -16513666.45547 -13088251.92146  20847557.5944                   20847546.7664
        46.7504         41.0004
 -18708076.10347 -13309814.37346  22387216.2344                   22387204.8204
        44.5004         37.0004
 -25284445.74448 -19542613.80449  21112969.6334                   21112960.9144
        51.7504         55.0004
  -3601629.24945  -2788735.39142  24937784.4694                   24937775.7504
        34.5004         17.7504
 -15204314.82447 -11781474.98747  22327696.5394                   22327686.3554
        45.0004         47.5004
 -13873597.75146 -10248211.42446  22896574.3914                   22896566.6684
        41.5004         41.0004
  -3959110.42945  -3294402.82045  24478720.8204                   24478714.0354
        34.2504         31.0004
 -18758596.78048 -20807406.08349  20593359.1564                   20593350.0274
        51.5004         55.0004
 23  1  3  1 27 30.0000000  0 11G24G23G08G22G21G10G12G31G01G25G32
                                  24826625.0164                   24826618.6994
        31.7504         19.0004
  -2637577.34146  -3650161.05344  23568316.4534                   23568306.2704
        40.7504         28.2504
  -5245705.88045  -4062672.17445  25160013.5864                   25160007.6804
        33.5004         31.2504
 -16544762.06647 -13112482.26646  20841640.4534                   20841629.3914
        47.7504         41.0004
 -18740371.79347 -13334979.84146  22381070.3674                   22381059.0124
        45.7504         36.2504
 -25238907.88548 -19507129.77049  21121635.5234                   21121626.8634
        50.7504         54.7504
  -3652404.17245  -2828300.21043  24928123.1024                   24928113.4454
        35.7504         18.2504
 -15308869.63547 -11862946.27147  22307800.9304                   22307790.4534
        45.0004         47.5004
 -13956342.34646 -10312687.71746  22880828.5474                   22880820.5904
        41.0004         41.2504
  -4034664.20345  -3353275.89045  24464342.6024                   24464336.8134
        34.7504         32.0004
 -18739525.74748 -20792545.53549  20596988.1804                   20596979.4614
        50.2504         55.0004
 23  1  3  1 28  0.0000000  0 11G24G23G08G22G21G10G12G31G01G25G32
  -6099325.58155  -5598215.84253  24847394.3364                   24847386.7894
        34.2504         19.2504
  -2549160.44546  -3581264.84144  23585141.7274                   23585132.1294
        40.5004         27.0004
  -5166719.58746  -4001124.43645  25175047.5234                   25175038.2194
        36.5004         31.0004
 -16575523.63947 -13136452.31046  20835786.7584                   20835775.9304
        47.5004         40.7504
 -18772215.54047 -13359793.15145  22375011.1884                   22374999.4224
        46.0004         35.7504
 -25193031.35648 -19471381.83349  21130365.5234                   21130356.4534
        50.0004         54.7504
  -3702762.94145  -2867540.83242  24918538.9144                   24918529.7854
        35.5004         17.7504
 -15413121.23647 -11944181.27747  22287962.5084                   22287951.9734
        46.2504         47.7504
 -14038668.95146 -10376838.31446  22865162.8984                   22865155.1174
        41.5004         41.2504
  -4109971.32345  -3411956.75245  24450012.3204                   24450005.6524
        33.7504         31.0004
 -18720125.89948 -20777428.76549  20600680.1094                   20600671.0984
        51.2504         55.0004
 23  1  3  1 28 30.0000000  0 11G24G23G08G22G21G10G12G31G01G25G32
  -5989994.77855  -5513023.05753  24868199.1484                   24868191.5434
        31.2504         19.5004
  -2460560.50446  -3512226.04044  23602001.6414                   23601991.5744
        40.2504         25.7504
  -5087625.20845  -3939492.41745  25190097.9304                   25190089.5044
        34.0004         30.5004
 -16605953.20547 -13160163.65146  20829996.0314                   20829985.2034
        47.7504         41.2504
 -18803606.84247 -13384253.91946  22369037.8134                   22369025.6954
        46.2504         36.2504
 -25146818.00048 -19435371.45049  21139159.5394                   21139150.5864
        51.0004         54.7504
  -3752704.62145  -2906456.40542  24909035.0314                   24909025.6094
        34.0004         17.2504
 -15517068.27247 -12025178.95847  22268182.3754                   22268171.6644
        45.2504         47.7504
 -14120576.52146 -10440662.37646  22849575.8054                   22849568.1994
        41.2504         41.0004
  -4185030.44345  -3470444.33045  24435729.5554                   24435722.5944
        35.0004         30.7504
 -18700400.05248 -20762057.97549  20604433.8594                   20604425.0234
        52.0004         54.7504
 23  1  3  1 29  0.0000000  0 11G24G23G08G22G21G10G12G31G01G25G32
  -5880474.52345  -5427682.55643  24889040.8594                   24889033.0204
        32.2504         19.2504
  -2371778.59246  -3443045.40244  23618896.5704                   23618887.0904
        39.7504         28.2504
  -5008425.73045  -3877778.52345  25205167.1804                   25205160.5124
        31.7504         31.2504
 -16636051.39847 -13183616.78546  20824268.4384                   20824257.6094
        47.5004         41.0004
 -18834545.61447 -13408362.06646  22363150.3674                   22363138.3094
        46.0004         37.0004
 -25100267.88848 -19399098.65449  21148017.8204                   21148008.7504
        50.2504         54.7504
  -3802227.08346  -2945045.34942  24899613.2894                   24899601.4654
        36.5004         17.2504
 -15620708.65347 -12105937.69547  22248460.2194                   22248449.3914
        46.0004         47.7504
 -14202062.74546 -10504158.13046  22834070.1174                   22834061.8094
        41.5004         41.5004
  -4259838.58145  -3528736.38445  24421494.5634                   24421487.0164
        34.5004         30.2504
 -18680349.65648 -20746434.29849  20608249.3364                   20608240.3834
        52.0004         54.7504
 23  1  3  1 29 30.0000000  0 11G24G23G08G22G21G10G12G31G01G25G32
  -5770767.47645  -5342196.61243  24909917.2274                   24909908.9774
        32.0004         19.5004
  -2282815.25046  -3373723.39944  23635826.2194                   23635815.9774
        40.2504         26.7504
  -4929124.96745  -3815985.70145  25220256.2034                   25220251.3554
        30.5004         31.0004
 -16665818.84247 -13206812.17846  20818604.0314                   20818592.9694
        47.5004         41.2504
 -18865030.46547 -13432116.49646  22357349.2814                   22357337.3984
        46.2504         36.0004
 -25053381.00748 -19362563.44549  21156939.6024                   21156931.1174
        49.0004         54.7504
  -3851327.84445  -2983305.68942  24890268.4454                   24890257.6764
        35.7504         16.7504
 -15724039.12147 -12186454.94148  22228796.4454                   22228786.2624
        45.0004         48.0004
 -14283124.72446 -10567323.30046  22818643.5394                   22818636.6954
        40.7504         41.0004
  -4334392.32145  -3586830.20945  24407306.8364                   24407300.3444
        34.7504         31.2504
 -18659975.54548 -20730558.36949  20612126.5164                   20612117.6804
        50.7504         54.7504
 23  1  3  1 30  0.0000000  0 11G24G23G08G22G21G10G12G31G01G25G32
  -5660796.97255  -5256505.36953  24930844.8914                   24930836.5824
        32.0004         18.2504
  -2193591.74946  -3304198.69944  23652804.7664                   23652794.9924
        40.0004         27.5004
  -4849644.82955  -3754053.24854  25235382.1094                   25235375.7934
        32.5004         28.5004
 -16695175.97347 -13229687.85546  20813017.8984                   20813006.8954
        47.7504         41.0004
 -18894980.90747 -13455454.51346  22351649.6804                   22351638.1484
        46.7504         36.7504
 -25006077.97048 -19325703.96149  21165941.5474                   21165932.7114
        49.2504         55.0004
  -3899924.72145  -3021173.35942  24881019.2194                   24881010.1484
        34.0004         16.2504
 -15826977.22247 -12266666.44748  22209208.6254                   22209197.5044
        45.5004         48.0004
 -14363680.29346 -10630093.86646  22803315.3524                   22803306.8674
        41.5004         41.0004
  -4408609.00245  -3644661.38845  24393184.9064                   24393177.6524
        35.5004         30.5004
 -18639199.34548 -20714369.11849  20616080.0004                   20616071.1644
        51.2504         55.2504
 23  1  3  1 30 30.0000000  0 11G24G23G08G22G21G10G12G31G01G25G32
  -5550802.43145  -5170795.33643  24951774.6484                   24951767.2194
        33.0004         19.5004
  -2104345.52046  -3234656.26844  23669786.6954                   23669777.7424
        38.7504         26.5004
  -4770225.94855  -3692168.35754  25250497.1644                   25250487.8014
        34.5004         29.7504
 -16724359.72447 -13252428.43446  20807464.0004                   20807452.7624
        47.0004         41.0004
 -18924632.60947 -13478559.74246  22346007.5164                   22345995.0474
        45.7504         36.7504
 -24958595.31148 -19288704.50049  21174976.9924                   21174968.0984
        49.7504         54.7504
  -3948251.47745  -3058830.51742  24871823.4454                   24871814.5514
        34.0004         16.2504
 -15929756.49447 -12346754.19548  22189650.1254                   22189639.2384
        46.2504         48.0004
 -14443963.42046 -10692652.14346  22788036.8364                   22788029.5234
        41.0004         41.0004
  -4482722.11745  -3702411.86445  24379079.7424                   24379074.2464
        34.0004         30.5004
 -18618258.72648 -20698051.74949  20620064.6174                   20620055.8404
        51.7504         55.2504
 23  1  3  1 31  0.0000000  0 11G24G23G08G22G21G10G12G31G01G25G32
  -5440550.83645  -5084885.11243  24972755.1954                   24972747.5904
        31.5004         18.2504
  -2014841.45046  -3164912.95044  23686820.1484                   23686810.2584
        39.2504         26.5004
  -4690635.57045  -3630149.86845  25265643.2584                   25265635.1254
        34.5004         30.5004
 -16753135.02647 -13274850.74446  20801987.9384                   20801977.5204
        47.7504         41.2504
 -18953748.77647 -13501247.67046  22340466.7734                   22340454.4804
        46.5004         36.7504
 -24910697.31548 -19251381.40349  21184091.1484                   21184083.1334
        49.0004         54.7504
  -3996069.99845  -3096091.75042  24862723.6564                   24862716.5784
        34.2504         17.2504
 -16032138.40347 -12426532.29548  22170167.2734                   22170156.6214
        45.7504         48.0004
 -14523735.64846 -10754812.30846  22772856.7894                   22772850.0044
        41.5004         41.0004
  -4556492.71545  -3759895.43745  24365040.9454                   24365035.7424
        32.7504         30.5004
 -18596919.01348 -20681423.40849  20624125.4844                   20624116.3554
        52.0004         54.7504
 23  1  3  1 31 30.0000000  0 11G24G23G08G22G21G10G12G31G01G25G32
  -5330123.26545  -4998837.60943  24993769.3594                   24993761.2274
        33.5004         19.0004
  -1925158.54646  -3095030.25244  23703885.9384                   23703876.4574
        39.0004         26.0004
  -4610954.56555  -3568060.73355  25280804.8834                   25280796.2814
        34.2504         30.5004
 -16781580.22847 -13297015.82546  20796575.3984                   20796564.3954
        47.0004         41.0004
 -18982407.03847 -13523578.79246  22335013.3524                   22335001.4104
        46.5004         37.0004
 -24862462.10648 -19213795.53849  21193270.5164                   21193262.0314
        49.5004         54.7504
  -4043456.17745  -3133016.01643  24853707.9304                   24853699.1524
        35.5004         19.2504
 -16134198.42247 -12506059.58548  22150746.0314                   22150735.6724
        45.7504         48.2504
 -14603072.53446 -10816633.25946  22757759.3984                   22757751.9694
        41.2504         41.0004
  -4629995.69445  -3817170.46744  24351054.0554                   24351048.3244
        33.0004         29.7504
 -18575259.49648 -20664545.86349  20628247.6414                   20628238.3364
        52.7504         54.7504
 23  1  3  1 32  0.0000000  0 11G24G23G08G22G21G10G12G31G01G25G32
  -5219522.36345  -4912655.10543  25014815.5864                   25014808.5084
        31.0004         19.0004
  -1835297.25746  -3025008.56044  23720986.0634                   23720975.9964
        39.2504         25.7504
  -4531186.15155  -3505903.53055  25295984.1724                   25295975.8634
        35.0004         30.5004
 -16809695.68947 -13318923.97946  20791225.4144                   20791214.4104
        47.5004         41.5004
 -19010605.84547 -13545551.90546  22329646.8984                   22329635.3094
        46.5004         37.2504
 -24813889.88048 -19175947.06649  21202513.4144                   21202505.1054
        49.5004         54.5004
  -4090407.35445  -3169601.39843  24844771.9224                   24844764.4924
        34.2504         19.2504
 -16235933.09547 -12585333.35448  22131386.6644                   22131375.9534
        45.2504         48.2504
 -14681971.18446 -10878112.71746  22742746.4384                   22742738.2464
        41.5004         41.2504
  -4703227.65945  -3874234.30744  24337119.8754                   24337113.0314
        33.7504         29.5004
 -18553280.99348 -20647419.75349  20632429.8674                   20632420.4454
        52.5004         55.2504
 23  1  3  1 32 30.0000000  0 11G24G23G08G22G21G10G12G31G01G25G32
  -5108751.42345  -4826340.22543  25035895.1334                   25035887.0594
        32.5004         19.0004
  -1745259.22646  -2954849.14444  23738119.5004                   23738110.2544
        38.5004         27.2504
  -4451333.74055  -3443680.83855  25311182.0004                   25311171.8754
        35.0004         30.5004
 -16837482.57647 -13340576.09446  20785937.2974                   20785926.7034
        47.2504         41.0004
 -19038344.78947 -13567166.67346  22324367.9384                   22324357.1684
        46.2504         36.5004
 -24764980.98948 -19137836.26249  21211820.6174                   21211811.8404
        49.2504         54.5004
  -4136921.73446  -3205846.29643  24835922.1724                   24835913.3954
        36.0004         19.0004
 -16337340.44147 -12664352.06748  22112089.7114                   22112078.8834
        45.7504         48.2504
 -14760429.70847 -10939249.22646  22727816.4384                   22727808.0124
        42.0004         41.2504
  -4776186.28845  -3931085.18545  24323235.9534                   24323229.4614
        33.7504         31.0004
 -18530985.38548 -20630046.55349  20636672.4924                   20636663.4224
        52.2504         54.7504
 23  1  3  1 33  0.0000000  0 11G24G23G08G22G21G10G12G31G01G25G32
  -4997812.64145  -4739894.39743  25057006.1954                   25056998.0634
        32.7504         19.5004
  -1655044.32246  -2884551.91144  23755287.2734                   23755277.3244
        40.0004         25.0004
  -4371399.68855  -3381394.60555  25326390.1024                   25326382.1454
        33.2504         30.5004
 -16864940.40747 -13361971.79246  20780712.3444                   20780701.6334
        47.2504         41.5004
 -19065622.52447 -13588422.05346  22319177.5554                   22319166.1414
        46.0004         36.7504
 -24715734.76948 -19099462.60449  21221191.8754                   21221183.0984
        49.7504         54.5004
  -4182995.85545  -3241748.23843  24827155.2504                   24827145.0084
        35.5004         19.2504
 -16438416.78147 -12743112.84948  22092855.3444                   22092844.4574
        45.2504         48.5004
 -14838444.68146 -11000040.11146  22712970.1254                   22712961.6414
        41.2504         41.0004
  -4848867.51745  -3987719.87445  24309404.9144                   24309399.0664
        34.0004         30.7504
 -18508372.89648 -20612426.44449  20640975.4614                   20640966.5664
        53.0004         54.7504
 23  1  3  1 33 30.0000000  0 11G24G23G08G22G21G10G12G31G01G25G32
                                  25078148.6954                   25078140.8554
        30.7504         17.7504
  -1564653.23746  -2814117.38144  23772487.4304                   23772478.6524
        38.5004         26.7504
  -4291386.54845  -3319046.71345  25341614.5084                   25341608.7774
        32.0004         30.7504
 -16892069.37047 -13383111.23746  20775550.2504                   20775539.1884
        47.7504         41.7504
 -19092437.76347 -13609317.05446  22314074.8284                   22314063.2384
        46.0004         37.0004
 -24666151.09148 -19060825.98649  21230627.4844                   21230618.7664
        49.0004         54.2504
  -4228627.69845  -3277305.50543  24818470.7034                   24818462.3954
        35.2504         19.0004
 -16539158.95647 -12821613.24148  22073684.4694                   22073673.9344
        45.7504         48.5004
 -14916013.27446 -11060483.17346  22698209.1804                   22698201.1054
        41.0004         41.2504
  -4921267.94845  -4044135.83445  24295628.4614                   24295621.6174
        34.0004         31.5004
 -18485444.48048 -20594560.14549  20645338.5474                   20645329.8874
        52.5004         55.0004
 23  1  3  1 34  0.0000000  0 11G24G23G08G22G21G10G12G31G01G25G32
  -4775443.22355  -4566619.64553  25099321.2194                   25099313.4384
        31.5004         18.2504
  -1474088.21046  -2743547.33844  23789721.2034                   23789712.7774
        38.2504         25.7504
  -4211299.06455  -3256640.84754  25356855.2664                   25356848.0124
        31.2504         29.0004
 -16918871.60947 -13403996.09646  20770449.5314                   20770438.6454
        47.0004         41.7504
 -19118791.35247 -13629852.32146  22309060.5944                   22309048.1844
        47.0004         37.0004
 -24616231.58848 -19021927.70449  21240126.6334                   21240118.0904
        49.0004         54.2504
  -4273816.21645  -3312517.29543  24809872.0164                   24809862.8874
        35.7504         18.2504
 -16639565.77947 -12899852.31248  22054577.9144                   22054567.2624
        47.0004         48.7504
 -14993134.40146 -11120577.54746  22683533.3914                   22683525.9024
        41.5004         41.2504
  -4993386.09445  -4100331.80045  24281905.3134                   24281897.1804
        34.2504         30.5004
 -18462202.71648 -20576449.68949  20649761.4384                   20649752.4264
        53.0004         55.0004
 23  1  3  1 34 30.0000000  0 11G24G23G08G22G21G10G12G31G01G25G32
  -4664017.54045  -4479794.44742  25120526.0084                   25120517.6414
        32.5004         17.7504
  -1383347.79546  -2672840.62144  23806989.4454                   23806980.1414
        39.0004         25.7504
  -4131137.66055  -3194177.42355  25372110.3284                   25372104.3054
        32.5004         30.7504
 -16945345.20347 -13424624.85946  20765411.8364                   20765401.1254
        47.5004         41.7504
 -19144680.01147 -13650025.30446  22304133.1254                   22304122.1804
        46.5004         36.7504
 -24565974.11948 -18982766.06349  21249690.4144                   21249681.8714
        48.7504         54.0004
  -4318556.60446  -3347379.94343  24801357.4064                   24801348.6294
        36.2504         19.2504
 -16739632.00747 -12977825.99948  22035535.7114                   22035525.2934
        45.5004         48.7504
 -15069803.22347 -11180319.47746  22668945.0394                   22668935.7934
        42.0004         41.7504
  -5065216.44145  -4156303.50744  24268233.7194                   24268228.2814
        32.5004         29.2504
 -18438646.45548 -20558094.16849  20654244.1094                   20654234.9804
        53.0004         54.7504
 23  1  3  1 35  0.0000000  0 11G24G23G08G22G21G10G12G31G01G25G32
  -4552435.20344  -4392847.19142  25141757.7114                   25141750.8674
        29.0004         15.5004
  -1292433.93046  -2601998.75544  23824289.8914                   23824280.6454
        39.2504         24.5004
  -4050906.79555  -3131659.89055  25387376.9144                   25387370.4804
        33.2504         30.5004
 -16971491.55747 -13444998.63246  20760436.4384                   20760425.3754
        46.7504         41.7504
 -19170104.02447 -13669836.22846  22299295.2504                   22299283.7194
        46.0004         37.0004
 -24515379.72748 -18943341.87949  21259318.0314                   21259309.8984
        48.2504         54.0004
  -4362847.66745  -3381892.42943  24792928.6414                   24792920.2154
        33.7504         18.2504
 -16839355.99647 -13055532.99648  22016559.3754                   22016548.5474
        45.7504         48.7504
 -15146018.27846 -11239707.83646  22654441.0864                   22654432.7194
        41.7504         41.5004
  -5136756.97545  -4212049.35345  24254621.2504                   24254615.5784
        33.0004         30.7504
 -18414777.90848 -20539495.30349  20658785.9844                   20658777.0904
        52.2504         54.7504
 23  1  3  1 35 30.0000000  0 11G24G23G08G22G21G10G12G31G01G25G32
                                  25163021.4694                   25163013.6884
        30.5004         16.2504
  -1201346.07346  -2531021.31644  23841623.4304                   23841613.9494
        39.0004         24.7504
  -5546028.04055  -4296689.42755  25402658.2274                   25402651.9104
        34.5004         31.2504
 -16997309.93947 -13465116.85146  20755523.5164                   20755512.2774
        47.5004         41.7504
 -19195061.41247 -13689283.55446  22294546.1954                   22294534.6054
        46.7504         36.7504
 -24464447.49948 -18903654.45149  21269010.3594                   21269001.7584
        49.2504         54.0004
  -4406685.79745  -3416051.97242  24784587.4384                   24784577.6644
        35.0004         17.2504
 -16938733.32347 -13132969.86948  21997648.5474                   21997637.3094
        46.2504         49.0004
 -15221775.67146 -11298739.56146  22640024.7504                   22640016.5594
        41.5004         41.2504
  -5208003.19245  -4267565.88045  24241062.8444                   24241057.9964
        33.2504         31.7504
 -18390596.85848 -20520652.92849  20663387.2584                   20663378.5394
        52.7504         55.0004
 23  1  3  1 36  0.0000000  0 11G24G23G08G22G21G10G12G31G01G25G32
  -5904231.37655  -5446194.96952  25184313.3364                   25184305.4384
        30.5004         17.7504
  -1110088.81246  -2459911.84344  23858989.5164                   23858979.9184
        38.5004         25.2504
  -5465668.08045  -4234071.25944  25417951.7424                   25417942.3204
        35.2504         29.0004
 -17022804.74147 -13484982.92446  20750671.8834                   20750661.0554
        47.2504         41.7504
 -19219554.84147 -13708369.34046  22289885.2344                   22289873.9964
        47.2504         37.2504
 -24413181.06948 -18863706.60949  21278766.0554                   21278757.2194
        48.5004         54.0004
  -4450072.34345  -3449859.67343  24776330.6724                   24776320.4884
        35.5004         18.5004
 -17037764.96247 -13210137.37748  21978802.5864                   21978792.4024
        46.2504         49.0004
 -15297076.57646 -11357415.59246  22625695.5554                   22625686.9534
        41.2504         41.5004
  -5278955.77645  -4322853.60445  24227562.6484                   24227555.5124
        34.2504         30.7504
 -18366108.18048 -20501570.84749  20668047.4304                   20668038.5354
        53.0004         54.7504
 23  1  3  1 36 30.0000000  0 11G24G23G08G22G21G10G12G31G01G25G32
                                  25205632.7344                   25205625.0124
        30.7504         18.2504
  -1018658.04646  -2388667.17944  23876386.3054                   23876378.6414
        37.7504         25.2504
  -5385244.83646  -4171403.79845  25433260.3444                   25433248.9884
        38.7504         33.0004
 -17047971.30648 -13504593.23646  20745882.8594                   20745871.6804
        48.0004         41.7504
 -19243578.50247 -13727089.08446  22285314.1334                   22285302.0164
        47.5004         37.2504
 -24361575.77148 -18823494.70948  21288585.9774                   21288578.0204
        49.0004         53.7504
  -4493000.08946  -3483309.84343  24768162.3914                   24768151.9144
        36.0004         19.0004
 -17136443.48147 -13287029.72548  21960025.1024                   21960014.9184
        46.2504         49.5004
 -15371913.52146 -11415730.09246  22611454.7814                   22611446.2384
        41.5004         41.5004
  -5349606.62045  -4377906.19345  24214117.2034                   24214110.5944
        33.5004         30.5004
 -18341308.02748 -20482246.06349  20672767.0474                   20672758.2704
        52.5004         55.0004
 23  1  3  1 37  0.0000000  0 11G24G23G08G22G21G10G12G31G01G25G32
                                  25226979.1724                   25226972.5044
        31.0004         18.5004
   -927058.82346  -2317291.25544  23893818.0314                   23893810.0744
        38.0004         25.7504
  -5304763.53055  -4108690.56854  25448569.1094                   25448562.5004
        31.7504         29.7504
 -17072814.54047 -13523951.60046  20741155.4774                   20741144.5904
        46.0004         41.7504
 -19267135.98847 -13745445.57646  22280831.4144                   22280819.0044
        45.2504         36.5004
 -24309635.73148 -18783021.97948  21298470.5164                   21298461.7384
        49.7504         53.7504
  -4535471.22345  -3516404.19042  24760078.9144                   24760069.4924
        34.7504         17.7504
 -17234770.43947 -13363648.13448  21941314.4224                   21941303.6524
        46.7504         49.5004
 -15446288.27947 -11473684.44946  22597301.6564                   22597293.2894
        42.0004         41.2504
  -5419956.96445  -4432724.61945  24200730.5164                   24200723.7894
        34.2504         31.2504
 -18316201.84848 -20462682.82049  20677544.4224                   20677535.2344
        53.5004         54.7504
 23  1  3  1 37 30.0000000  0 11G24G23G08G22G21G10G12G31G01G25G32
                                  25248354.3284                   25248347.7774
        30.7504         15.5004
   -835287.56746  -2245781.28344  23911282.4144                   23911272.7584
        38.7504         25.0004
  -5224226.87446  -4045934.76744  25463898.3914                   25463886.0984
        37.0004         29.7504
 -17097330.18747 -13543054.69447  20736490.2344                   20736479.1134
        47.5004         42.0004
 -19290222.35147 -13763434.95746  22276437.8984                   22276426.0744
        47.5004         37.2504
 -24257356.83748 -18742285.21248  21308418.8444                   21308409.9494
        48.2504         53.7504
  -4577478.71446  -3549137.33042  24752087.0704                   24752075.0704
        36.0004         17.2504
 -17332738.13347 -13439986.58848  21922671.5704                   21922660.6254
        46.2504         49.5004
 -15520193.77146 -11531273.13346  22583237.8674                   22583229.4414
        41.2504         41.2504
  -5489999.12245  -4487302.93145  24187402.0394                   24187395.5474
        34.0004         32.0004
 -18290786.18748 -20442878.40849  20682380.9694                   20682371.7814
        52.7504         54.7504
 23  1  3  1 38  0.0000000  0 11G24G23G08G22G21G10G12G31G01G25G32
                                  25269756.7114                   25269749.1644
        27.2504         12.5004
   -743349.36946  -2174141.24844  23928777.7584                   23928768.6294
        38.2504         25.0004
  -5143638.68055  -3983138.52855  25479232.9144                   25479224.2544
        34.5004         32.5004
 -17121523.07647 -13561906.28647  20731886.1334                   20731875.4804
        47.7504         42.0004
 -19312840.86747 -13781059.77946  22272133.5944                   22272121.8874
        47.2504         37.5004
 -24204743.31948 -18701287.69848  21318430.3914                   21318421.7894
        48.0004         53.5004
  -4619024.58545  -3581510.75743  24744180.4924                   24744169.7814
        35.5004         19.0004
 -17430347.74547 -13516046.02148  21904097.3984                   21904086.5124
        46.2504         49.5004
 -15593631.75547 -11588497.54246  22569262.5234                   22569254.9774
        42.0004         41.2504
  -5559734.27445  -4541641.98345  24174131.3984                   24174125.4344
        33.5004         32.5004
 -18265066.39348 -20422837.01849  20687275.1484                   20687266.2544
        53.0004         54.7504
 23  1  3  1 38 30.0000000  0 10G23G08G22G21G10G12G31G01G25G32
   -651240.79446  -2102368.43943  23946305.4694                   23946296.4574
        38.7504         23.7504
  -5063000.26045  -3920303.40244  25494574.9064                   25494567.5354
        31.0004         29.0004
 -17145389.66548 -13580503.62547  20727344.7734                   20727334.0044
        48.0004         42.2504
 -19334986.69347 -13798316.27246  22267919.1564                   22267908.0354
        46.7504         37.7504
 -24151791.30248 -18660026.42748  21328507.2584                   21328498.6564
        49.0004         53.5004
  -4660102.66046  -3613519.56843  24736364.6884                   24736353.3324
        36.7504         18.5004
 -17527592.60147 -13591821.23248  21885592.0554                   21885581.1094
        46.2504         49.5004
 -15666595.49746 -11645352.40146  22555378.4534                   22555370.4964
        41.0004         41.2504
  -5629155.04345  -4595736.06045  24160921.7034                   24160915.8554
        34.2504         33.2504
 -18239039.43648 -20402556.27349  20692227.7344                   20692218.8404
        52.7504         55.0004
 23  1  3  1 39  0.0000000  0 10G23G08G22G21G10G12G31G01G25G32
   -558965.61146  -2030465.80644  23963864.0164                   23963855.6484
        36.5004         24.7504
  -4982316.47845  -3857433.03044  25509930.4534                   25509921.5594
        35.0004         29.7504
 -17168933.11847 -13598849.16447  20722864.4144                   20722853.6454
        46.7504         42.0004
 -19356661.73047 -13815205.91846  22263794.5704                   22263783.2154
        45.2504         37.2504
 -24098503.75948 -18618503.69148  21338647.4384                   21338638.3674
        48.7504         53.2504
  -4700713.36146  -3645164.33943  24728636.5864                   24728625.6414
        36.5004         19.7504
 -17624472.97747 -13667312.42448  21867156.2424                   21867145.5314
        46.0004         49.5004
 -15739085.38646 -11701838.02646  22541583.5234                   22541575.9774
        40.0004         41.2504
  -5698261.29845  -4649585.07045  24147771.2424                   24147764.5744
        34.7504         32.0004
 -18212709.22748 -20382039.23549  20697238.3754                   20697229.3054
        52.7504         55.0004
 23  1  3  1 39 30.0000000  0 10G23G08G22G21G10G12G31G01G25G32
   -466524.15846  -1958433.60544  23981456.0394                   23981446.5004
        38.0004         24.2504
  -4901589.00445  -3794528.43045  25525289.3284                   25525283.8914
        30.7504         30.5004
 -17192153.70548 -13616943.11847  20718445.8284                   20718434.7074
        48.2504         42.0004
 -19377865.06547 -13831728.01246  22259759.9844                   22259748.5124
        47.2504         37.2504
 -24044880.23548 -18576719.16048  21348851.7114                   21348843.0514
        48.2504         53.2504
  -4740854.07046  -3676442.78543  24720998.8134                   24720987.9844
        38.0004         19.2504
 -17720985.43947 -13742516.94248  21848790.5554                   21848779.7854
        46.5004         49.5004
 -15811098.41546 -11757952.06746  22527880.1254                   22527872.0514
        41.2504         41.0004
  -5767049.41245  -4703186.17645  24134680.9534                   24134673.6414
        35.0004         31.5004
 -18186076.40448 -20361286.39149  20702306.5864                   20702297.3404
        52.0004         54.7504
 23  1  3  1 40  0.0000000  0 11G23G08G22G03G21G10G12G31G01G25G32
   -373916.38346  -1886271.82443  23999078.4614                   23999070.3874
        38.5004         22.5004
  -4820820.86145  -3731592.19845  25540660.4924                   25540652.8874
        34.2504         30.7504
 -17215050.59847 -13634784.84847  20714088.8204                   20714077.6994
        47.5004         42.0004
                                  25700541.0864                   25700531.1954
        31.5004         30.5004
 -19398594.82447 -13847881.08546  22255815.1564                   22255803.5084
        47.5004         37.0004
 -23990920.16348 -18534672.39348  21359119.9384                   21359111.3954
        49.0004         53.5004
  -4780521.62145  -3707352.59943  24713448.9224                   24713438.6214
        35.5004         19.2504
 -17817126.31047 -13817431.89948  21830495.6414                   21830484.8134
        46.5004         49.7504
 -15882631.25146 -11813691.94546  22514267.6024                   22514260.2304
        40.5004         41.5004
  -5835515.49445  -4756536.33445  24121652.2814                   24121645.4964
        35.5004         31.7504
 -18159141.18148 -20340297.91249  20707432.0084                   20707423.1724
        52.2504         55.0004
 23  1  3  1 40 30.0000000  0 10G23G08G22G21G10G12G31G01G25G32
   -281143.96346  -1813981.75543  24016732.0784                   24016723.5944
        37.7504         22.5004
  -4740015.32746  -3668626.81245  25556039.5234                   25556029.5164
        36.0004         30.2504
 -17237625.41347 -13652375.60646  20709793.0394                   20709781.8594
        47.2504         41.7504
 -19418851.33247 -13863665.37746  22251960.7814                   22251948.8404
        46.0004         37.5004
 -23936624.63348 -18492364.22048  21369451.7424                   21369443.3164
        48.0004         53.2504
  -4819714.73045  -3737892.69743  24705990.4614                   24705980.6884
        35.5004         19.2504
 -17912893.60147 -13892055.77248  21812271.6334                   21812260.8634
        45.5004         50.0004
 -15953682.16146 -11869056.28646  22500747.0784                   22500739.3554
        41.0004         41.2504
  -5903657.00845  -4809633.61145  24108684.9064                   24108679.1764
        34.7504         32.0004
 -18131905.46548 -20319075.28149  20712614.6804                   20712605.8444
        51.0004         55.0004
 23  1  3  1 41  0.0000000  0 10G23G08G22G21G10G12G31G01G25G32
   -188217.37046  -1741571.53843  24034416.0784                   24034407.1254
        38.5004         22.7504
   -634394.43214                  25571422.984
        24.500
 -17259888.28548 -13669723.29946  20705556.4064                   20705545.9304
        48.7504         41.7504
 -19438643.35647 -13879087.75246  22248194.5394                   22248182.5984
        47.5004         37.5004
 -23882003.12248 -18449802.05348  21379846.2584                   21379837.7154
        48.7504         53.2504
  -4858440.90545  -3768068.88143  24698621.0234                   24698612.1294
        34.7504         19.7504
 -18008293.93947 -13966393.70848  21794117.3204                   21794106.5514
        46.2504         50.0004
 -16024258.31647 -11924050.71046  22487318.1174                   22487308.8134
        42.2504         41.5004
  -5971480.72045  -4862483.24845  24095778.9774                   24095772.5434
        34.5004         31.5004
 -18104379.97948 -20297626.84749  20717852.8594                   20717843.7894
        51.2504         55.0004
 23  1  3  1 41 30.0000000  0 11G23G08G22G03G21G10G12G31G01G25G32
    -95102.73246  -1669014.81843  24052134.7114                   24052126.4614
        36.7504         22.7504
                                  25586819.4694                   25586801.3164
        38.7504         32.5004
 -17281804.96848 -13686801.22747  20701385.7504                   20701374.6884
        48.2504         42.0004
   -682226.86955   -579356.74255  25643457.9144                   25643449.1374
        31.0004         30.2504
 -19457936.09248 -13894121.05846  22244523.2424                   22244511.3014
        48.0004         37.5004
 -23827021.30448 -18406959.11648  21390308.9304                   21390300.6214
        49.2504         53.2504
  -4896663.37546  -3797852.53443  24691348.0554                   24691338.6334
        36.7504         19.7504
 -18103290.12347 -14040416.70748  21776039.9924                   21776029.5744
        45.7504         50.0004
 -16094322.62946 -11978646.27646  22473984.4224                   22473976.5234
        41.2504         41.5004
  -6038948.75545  -4915055.73045  24082940.0634                   24082934.2154
        35.5004         32.5004
 -18076531.11648 -20275926.43749  20723152.3834                   20723143.2544
        52.0004         54.7504
 23  1  3  1 42  0.0000000  0 11G23G08G22G03G21G10G12G31G01G25G32
     -1848.98446  -1596349.71843  24069881.3914                   24069872.8484
        38.0004         22.2504
   -581353.05555  -3575464.08155  25602204.9774                   25602200.3634
        34.5004         31.0004
 -17303424.01447 -13703647.22447  20697272.1954                   20697261.0164
        47.0004         42.0004
                                  25624410.2274                   25624402.3874
        34.5004         23.5004
 -19476776.52747 -13908801.92146  22240938.0784                   22240926.1954
        46.2504         37.5004
 -23771727.31448 -18363872.93048  21400831.1564                   21400823.0824
        48.0004         53.2504
  -4934427.86445  -3827279.43743  24684159.3524                   24684152.6844
        33.5004         18.2504
 -18197927.44347 -14114160.07248  21758031.6564                   21758020.7114
        46.0004         50.2504
 -16163920.57947 -12032878.45047  22460740.8364                   22460731.9414
        42.0004         42.0004
  -6106106.14145  -4967386.13245  24070159.7814                   24070154.1684
        34.0004         32.7504
 -18048407.98748 -20254012.31649  20728503.9694                   20728494.8984
        50.7504         54.7504
 23  1  3  1 42 30.0000000  0  9G23G22G21G10G12G31G01G25G32
     91584.56246  -1523544.47743  24087660.0164                   24087651.8244
        36.7504         22.2504
 -17324704.50848 -13720229.42847  20693222.3914                   20693211.2704
        48.7504         42.0004
 -19495122.67647 -13923097.63646  22237446.4614                   22237435.2814
        47.7504         37.0004
 -23716079.69848 -18320511.17948  21411420.4774                   21411412.0514
        48.0004         53.2504
  -4971690.79746  -3856315.48443  24677071.7894                   24677061.4884
        36.5004         19.2504
 -18292161.70347 -14187589.36748  21740099.2664                   21740088.7304
        47.0004         50.2504
 -16233008.28947 -12086713.04147  22447593.8524                   22447585.6024
        42.2504         42.0004
  -6172908.29245  -5019439.75345  24057448.1724                   24057440.9774
        33.7504         32.2504
 -18019970.17848 -20231852.98349  20733915.4144                   20733906.3444
        51.2504         54.7504
 23  1  3  1 43  0.0000000  0 11G23G08G22G03G21G10G12G31G01G25G32
    185169.99246  -1450620.91743  24105469.9534                   24105460.8834
        37.5004         22.5004
                                  25633006.5084                   25633003.2424
        28.5004         26.0004
 -17345673.84848 -13736569.17247  20689232.0084                   20689221.0044
        48.5004         42.0004
                                  25586294.4304                   25586284.8914
        26.7504         26.5004
 -19513001.32348 -13937029.06746  22234044.9064                   22234032.9654
        48.0004         37.5004
 -23660105.71448 -18276895.11848  21422071.7814                   21422063.2974
        48.2504         53.0004
  -5008477.24445  -3884980.25143  24670069.6094                   24670061.1254
        34.5004         19.5004
 -18386016.99347 -14260723.35448  21722239.1254                   21722228.2974
        45.7504         50.2504
 -16301610.33046 -12140169.17347  22434538.8594                   22434530.8444
        41.7504         42.7504
  -6239379.05045  -5071235.13745  24044799.6724                   24044792.4184
        35.2504         32.5004
 -17991245.81648 -20209470.36249  20739381.6174                   20739372.4304
        51.0004         54.7504
 23  1  3  1 43 30.0000000  0 10G23G08G22G21G10G12G31G01G25G32
    278907.73746  -1377578.64443  24123308.3914                   24123298.5594
        38.0004         22.5004
   -338502.68955  -3395582.12954  25648419.4454                   25648411.0784
        35.5004         29.7504
 -17366331.40947 -13752665.95947  20685300.8054                   20685290.2114
        46.5004         42.0004
 -19530410.22247 -13950594.45046  22230731.6174                   22230720.3204
        45.5004         37.2504
 -23603804.93748 -18233024.43048  21432785.8674                   21432777.0904
        48.0004         53.0004
  -5044783.69345  -3913270.97043  24663159.5634                   24663151.4304
        34.0004         19.7504
 -18479489.25347 -14333558.88348  21704452.2504                   21704440.9534
        46.2504         50.5004
 -16369723.06047 -12193244.03847  22421577.3674                   22421569.2344
        42.0004         42.5004
  -6305514.25545  -5122769.03545  24032214.8674                   24032207.5554
        35.5004         32.5004
 -17962234.72148 -20186864.31849  20744902.3054                   20744893.1764
        51.0004         54.7504
 23  1  3  1 44  0.0000000  0 11G23G08G22G03G21G10G12G31G01G25G32
    372813.50546  -1304405.45943  24141176.0394                   24141168.7274
        36.0004         21.2504
   -257512.16645  -3341472.77155  25663830.6254                   25663822.3164
        35.5004         31.2504
 -17386661.05247 -13768507.23447  20681432.2974                   20681421.0594
        47.7504         42.0004
   -617928.97355   -696451.75854  25548144.5164                   25548134.1564
        33.7504         29.5004
 -19547331.75948 -13963780.06846  22227511.6884                   22227500.0394
        48.0004         37.2504
 -23547160.31148 -18188885.79148  21443564.7894                   21443556.3634
        48.5004         53.0004
  -5080591.32345  -3941172.99443  24656346.3204                   24656337.8954
        35.2504         20.2504
 -18572559.39047 -14406081.05848  21686741.1644                   21686730.8054
        46.2504         50.5004
 -16437327.42047 -12245922.75947  22408712.8984                   22408704.6484
        42.2504         42.7504
  -6371294.18045  -5174026.07945  24019695.7274                   24019690.3484
        33.5004         31.5004
 -17932921.33448 -20164022.71649  20750480.5084                   20750471.1454
        51.0004         54.7504
 23  1  3  1 44 30.0000000  0 11G23G08G22G03G21G10G12G31G01G25G32
    466876.99746  -1231109.37443  24159077.0784                   24159068.4774
        37.0004         21.5004
   -176507.73945  -3278352.45444  25679243.0864                   25679237.5314
        33.5004         29.7504
 -17406672.79547 -13784100.81346  20677624.3984                   20677613.2774
        46.7504         41.7504
   -718230.24344   -774608.75444  25529056.5084                   25529048.8444
        28.7504         27.0004
 -19563775.44347 -13976593.34146  22224382.3834                   22224370.8524
        45.7504         37.2504
 -23490181.62047 -18144486.84648  21454407.1094                   21454399.5044
        47.7504         52.7504
  -5115907.81045  -3968692.25243  24649626.9144                   24649617.0824
        35.7504         19.2504
 -18665233.80147 -14478294.88048  21669105.9924                   21669095.2814
        46.2504         50.7504
 -16504430.48547 -12298210.86347  22395943.9534                   22395935.4104
        43.2504         43.2504
  -6436725.19345  -5225011.25445  24007245.4534                   24007239.2544
        34.5004         32.2504
 -17903316.21548 -20140953.79749  20756113.8834                   20756104.6954
        50.2504         55.0004
 23  1  3  1 45  0.0000000  0 11G23G08G22G03G21G10G12G31G01G25G32
    561098.03446  -1157690.50443  24177007.3674                   24176998.3554
        36.5004         20.7504
    -95491.03245  -3215222.56744  25694660.0784                   25694655.1134
        33.0004         28.7504
 -17426366.26748 -13799446.35346  20673876.6094                   20673865.7814
        48.2504         41.7504
   -818572.31755   -852797.11454  25509960.5864                   25509954.6804
        30.0004         26.2504
 -19579740.21947 -13989033.43146  22221344.6724                   22221333.0824
        47.2504         37.0004
 -23432868.40047 -18099827.22448  21465314.0704                   21465305.6454
        47.7504         53.0004
  -5150730.28846  -3995826.62043  24643001.8444                   24642990.4884
        37.5004         19.5004
 -18757509.36047 -14550197.90548  21651546.8134                   21651535.7504
        46.5004         51.0004
 -16571029.11547 -12350105.89247  22383270.1564                   22383262.3164
        42.0004         43.0004
  -6501803.47745  -5275721.57845  23994862.1414                   23994855.2974
        34.5004         32.0004
 -17873419.67248 -20117657.78549  20761803.3204                   20761794.0164
        50.5004         54.7504
 23  1  3  1 45 30.0000000  0 11G23G08G22G03G21G10G12G31G01G25G32
    655475.11546  -1084150.08043  24194966.3524                   24194958.2194
        37.0004         21.2504
    -14465.56745  -3152085.81044  25710077.7424                   25710072.7774
        31.0004         26.0004
 -17445742.87148 -13814545.01546  20670189.3204                   20670177.9654
        48.5004         41.7504
   -918954.44845   -931016.92444  25490859.5944                   25490851.1684
        33.0004         25.7504
 -19595225.41947 -14001099.83546  22218397.8594                   22218386.2114
        47.0004         37.5004
 -23375221.31147 -18054907.43748  21476283.8594                   21476275.6094
        47.7504         52.7504
  -5185057.51546  -4022575.08643  24636469.6644                   24636456.5514
        38.2504         20.2504
 -18849383.95347 -14621788.49848  21634063.4534                   21634052.7424
        46.7504         51.2504
 -16637121.65947 -12401606.56747  22370693.7974                   22370684.8444
        43.2504         43.2504
  -6566526.71845  -5326155.22345  23982545.0554                   23982538.4454
        34.5004         33.0004
 -17843233.44848 -20094136.05549  20767547.4454                   20767538.4344
        50.0004         55.2504
 23  1  3  1 46  0.0000000  0 11G23G08G22G03G21G10G12G31G01G25G32
    750010.24346  -1010486.48243  24212955.6024                   24212947.4104
        37.0004         21.2504
     66568.30545  -3088942.53944  25725500.7344                   25725492.9534
        35.2504         28.5004
 -17464799.95548 -13829394.68346  20666563.0554                   20666551.6414
        48.5004         41.7504
  -1019373.03245  -1009265.08044  25471748.8134                   25471743.1414
        32.7504         27.5004
 -19610227.68647 -14012789.92046  22215543.1484                   22215531.2664
        47.7504         37.2504
 -23317237.96147 -18009725.62348  21487317.2274                   21487309.5044
        47.2504         52.7504
  -5218884.50446  -4048933.77343  24630032.5004                   24630019.6214
        37.0004         20.7504
 -18940851.83447 -14693062.17948  21616657.9694                   21616647.6094
        47.0004         51.2504
 -16702702.74947 -12452708.73247  22358213.9534                   22358205.7624
        42.5004         43.7504
  -6630888.96645  -5376307.57745  23970296.6564                   23970289.1094
        34.5004         31.5004
 -17812755.70548 -20070387.16249  20773347.1094                   20773337.8634
        49.7504         55.0004
 23  1  3  1 46 30.0000000  0 11G23G08G22G03G21G10G12G31G01G25G32
    844698.87545   -936703.29743  24230974.2974                   24230966.3984
        34.7504         21.5004
    147603.92655  -3025797.86454  25740918.7194                   25740914.1054
        30.2504         28.5004
 -17483541.92348 -13843998.79546  20662996.5784                   20662985.4574
        48.0004         41.7504
  -1119830.94745  -1087543.87444  25452632.1254                   25452626.5704
        31.7504         28.0004
 -19624750.30548 -14024106.25846  22212779.9844                   22212768.0434
        48.0004         36.7504
 -23258922.39747 -17964284.96848  21498414.8444                   21498406.5354
        47.5004         52.5004
  -5252213.13746  -4074904.08443  24623689.9304                   24623677.9304
        38.0004         20.7504
 -19031914.18147 -14764019.85048  21599329.1644                   21599318.2774
        46.7504         51.2504
 -16767773.86247 -12503413.48147  22345830.5234                   22345823.0944
        42.0004         43.5004
  -6694890.99245  -5426179.26245  23958117.5704                   23958110.6094
        34.0004         31.5004
 -17781991.25248 -20046414.86249  20779201.3054                   20779192.2934
        49.7504         54.7504
 23  1  3  1 47  0.0000000  0 11G23G08G22G03G21G10G12G31G01G25G32
    939541.12946   -862800.40843  24249023.2664                   24249014.8404
        36.2504         21.0004
    228639.57345  -2962653.16145  25756339.6564                   25756334.8094
        33.0004         31.0004
 -17501968.29548 -13858357.01146  20659489.9844                   20659478.2774
        48.0004         41.5004
  -1220326.10845  -1165851.76944  25433508.9224                   25433501.6684
        31.5004         28.0004
 -19638792.08347 -14035047.91146  22210107.2504                   22210095.6024
        47.2504         37.0004
 -23200273.47947 -17918584.54348  21509575.2734                   21509566.9654
        47.5004         52.5004
  -5285040.24246  -4100483.65142  24617442.8054                   24617430.1604
        37.7504         17.7504
 -19122566.80447 -14834658.25848  21582078.5554                   21582067.4344
        47.2504         51.2504
 -16832331.51847 -12553718.16047  22333546.9304                   22333537.5664
        43.0004         43.7504
  -6758528.68545  -5475767.01645  23946009.2424                   23946001.5784
        35.0004         32.2504
 -17750940.10548 -20022219.16649  20785110.2664                   20785101.2544
        50.0004         55.0004
 23  1  3  1 47 30.0000000  0 11G23G08G22G03G21G10G12G31G01G25G32
   1034536.83545   -788777.94443  24267099.0234                   24267091.8874
        35.0004         20.7504
    309673.17255  -2899510.16954  25771761.8914                   25771755.1644
        33.7504         27.5004
 -17520078.91548 -13872469.17346  20656043.4844                   20656032.4224
        48.0004         41.7504
  -1320856.72345  -1244187.25044  25414378.8364                   25414371.8754
        31.7504         28.2504
 -19652351.44447 -14045613.66646  22207526.8134                   22207515.6334
        47.0004         36.5004
 -23141290.95847 -17872624.16148  21520799.0944                   21520791.0784
        47.2504         52.5004
  -5317363.29446  -4125670.45343  24611293.6174                   24611278.7464
        38.5004         19.0004
 -19212806.64347 -14904975.01148  21564906.3134                   21564895.8364
        46.7504         51.5004
 -16896372.73747 -12603620.40947  22321359.9924                   22321351.5084
        42.5004         43.5004
  -6821798.34745  -5525067.98545  23933967.1884                   23933962.4574
        33.7504         32.5004
 -17719602.57348 -19997800.31449  20791073.6644                   20791064.5944
        50.0004         54.7504
 23  1  3  1 48  0.0000000  0 11G23G08G22G03G21G10G12G31G01G25G32
   1129684.37546   -714637.13943  24285205.8834                   24285197.6334
        36.0004         20.5004
    390701.25345  -2836371.36244  25787180.8284                   25787173.3404
        35.0004         29.0004
 -17537875.48647 -13886336.62646  20652657.0554                   20652646.2274
        47.7504         41.7504
  -1421422.76145  -1322550.32744  25395243.0634                   25395234.7544
        33.7504         29.7504
 -19665429.03047 -14055803.99446  22205038.3204                   22205026.9064
        47.5004         36.5004
 -23081975.75447 -17826404.55148  21532086.6024                   21532078.2344
        47.5004         52.2504
  -5349180.98446  -4150463.41043  24605237.2194                   24605224.5164
        37.7504         20.7504
 -19302631.94947 -14974968.75848  21547813.1564                   21547802.7974
        47.0004         51.5004
 -16959895.95947 -12653119.01247  22309271.4224                   22309263.8164
        42.0004         44.0004
  -6884697.57445  -5574080.33145  23921999.8524                   23921994.0634
        35.5004         34.0004
 -17687980.49348 -19973159.73049  20797091.1334                   20797082.1804
        49.7504         55.0004
 23  1  3  1 48 30.0000000  0 11G23G08G22G03G21G10G12G31G01G25G32
   1224983.48745   -640378.22943  24303340.4144                   24303332.3404
        35.0004         21.7504
    471722.00346  -2773238.31444  25802600.4304                   25802590.3634
        36.5004         26.7504
 -17555357.07948 -13899958.63846  20649330.2114                   20649319.3834
        48.2504         41.7504
  -1522022.43145  -1400939.66944  25376098.9924                   25376091.3284
        32.5004         28.7504
 -19678023.76347 -14065618.08046  22202642.2584                   22202630.0234
        47.5004         37.0004
 -23022327.77347 -17779925.63248  21543437.0084                   21543429.2274
        47.5004         52.2504
  -5380490.91246  -4174860.74243  24599278.5164                   24599265.7544
        36.7504         19.5004
 -19392039.18047 -15044636.72048  21530799.7344                   21530788.8484
        47.0004         51.5004
 -17022898.19947 -12702211.68147  22297282.6804                   22297274.2544
        42.0004         43.7504
  -6947223.00845  -5622801.38545  23910100.8204                   23910093.9184
        34.7504         32.2504
 -17656074.24748 -19948297.72849  20803162.1094                   20803153.9184
        50.0004         55.0004
 23  1  3  1 49  0.0000000  0 11G23G08G22G03G21G10G12G31G01G25G32
   1320433.81545   -566001.50443  24321504.0704                   24321496.0554
        34.5004         21.5004
    552732.85645  -2719479.82655  25818016.3364                   25818006.4454
        35.7504         30.5004
 -17572524.21048 -13913335.61346  20646063.6094                   20646052.2544
        49.0004         41.5004
  -1622654.52545  -1479354.24044  25356950.2734                   25356940.9104
        33.0004         28.7504
 -19690134.27748 -14075054.87046  22200337.4304                   22200325.4304
        48.0004         36.7504
 -22962346.39247 -17733186.93448  21554851.3134                   21554843.0044
        47.2504         52.2504
  -5411290.58546  -4198860.49743  24593419.1804                   24593404.3094
        38.5004         19.0004
 -19481025.50347 -15113976.71548  21513866.0394                   21513855.2114
        47.2504         51.5004
 -17085376.68446 -12750896.21247  22285393.0004                   22285384.7504
        41.5004         43.5004
  -7009370.93645  -5671228.28845  23898273.9774                   23898267.6604
        34.7504         32.0004
 -17623884.40648 -19923214.73249  20809288.0634                   20809278.9924
        50.0004         55.0004
 23  1  3  1 49 30.0000000  0 11G23G08G22G03G21G10G12G31G01G25G32
   1416033.38945   -491508.45743  24339696.9064                   24339688.7154
        35.5004         21.0004
    633729.50345  -2656365.65644  25833429.2274                   25833420.7424
        34.0004         29.5004
 -17589378.21148 -13926468.60246  20642856.5944                   20642845.5314
        48.0004         41.5004
  -1723318.74445  -1557793.82145  25337794.4694                   25337786.1024
        35.7504         30.7504
 -19701762.23547 -14084115.61746  22198125.1254                   22198112.9494
        47.7504         36.5004
 -22902033.27947 -17686189.74248  21566328.8444                   21566320.4774
        47.0004         52.0004
  -5441579.06146  -4222461.86943  24587653.7814                   24587640.9614
        37.2504         19.2504
 -19569588.90447 -15182987.15148  21497013.3134                   21497002.6024
        47.0004         51.7504
 -17147330.16147 -12799171.65547  22273604.1724                   22273596.5084
        42.0004         44.7504
  -7071139.42545  -5719359.55745  23886520.6414                   23886511.4534
        35.5004         31.7504
 -17591413.02248 -19897912.36049  20815466.7974                   20815458.1954
        49.7504         54.7504
 23  1  3  1 50  0.0000000  0 11G23G08G22G03G21G10G12G31G01G25G32
   1511782.06245   -416899.26043  24357916.5084                   24357909.4304
        34.7504         21.7504
    714710.76045  -2593263.41144  25848836.7194                   25848830.2274
        33.0004         25.5004
 -17605919.15448 -13939357.63646  20639708.6024                   20639697.6564
        48.2504         41.5004
  -1824013.50145  -1636257.20844  25318631.3674                   25318624.1134
        34.5004         29.5004
 -19712905.54847 -14092798.73346  22196004.2344                   22195992.5864
        47.5004         36.7504
 -22841387.78747 -17638933.55348  21577868.9844                   21577860.9694
        47.0004         52.0004
  -5471353.87046  -4245662.98543  24581989.0314                   24581975.2154
        37.5004         20.5004
 -19657725.98747 -15251665.39348  21480240.9614                   21480230.3094
        47.0004         51.7504
 -17208755.57446 -12847035.63347  22261915.1644                   22261906.9144
        41.5004         44.0004
  -7132524.93445  -5767192.38745  23874837.0864                   23874831.2974
        34.2504         31.5004
 -17558660.37948 -19872390.83049  20821699.6254                   20821690.9654
        50.0004         55.0004
 23  1  3  1 50 30.0000000  0 11G23G08G22G03G21G10G12G31G01G25G32
   1607680.68345   -342173.24243  24376165.9924                   24376157.6254
        35.7504         20.7504
                                  25864242.438
        25.750
 -17622145.76148 -13952001.74746  20636621.0084                   20636610.0044
        48.0004         41.5004
  -1924736.05245  -1714742.31044  25299464.0394                   25299456.3754
        33.5004         28.0004
 -19723561.83548 -14101102.34846  22193976.5944                   22193964.7704
        48.0004         36.7504
 -22780408.45347 -17591417.23848  21589473.1954                   21589465.0634
        47.0004         52.0004
  -5500611.54246  -4268461.12842  24576420.7344                   24576406.8594
        37.5004         17.2504
 -19745432.46747 -15320008.10748  21463550.8674                   21463540.0984
        47.2504         51.7504
 -17269649.09546 -12894485.10947  22250327.0704                   22250318.8794
        41.7504         44.0004
  -7193522.59245  -5814723.06745  23863231.8984                   23863225.1724
        35.0004         33.2504
 -17525625.86648 -19846649.65049  20827985.8054                   20827977.2624
        50.0004         54.7504
 23  1  3  1 51  0.0000000  0 11G23G08G22G03G21G10G12G31G01G25G32
   1703722.61245   -267335.51643  24394441.9534                   24394434.5234
        34.2504         22.0004
   -334242.47555  -2487608.64454  25879647.6414                   25879640.9734
        35.5004         27.5004
 -17638064.15148 -13964405.67546  20633591.4454                   20633580.6764
        48.7504         41.5004
  -2025490.83845  -1793252.47045  25280291.8284                   25280284.0474
        34.0004         30.0004
 -19733737.47947 -14109031.43246  22192040.1334                   22192028.2504
        47.2504         37.2504
 -22719101.44347 -17543645.57148  21601139.7424                   21601131.4344
        47.5004         52.0004
  -5529355.91146  -4290859.30143  24570950.6564                   24570937.2504
        37.7504         19.0004
 -19832711.33447 -15388017.60248  21446942.5704                   21446931.5664
        47.0004         51.7504
 -17330013.98347 -12941522.70647  22238840.8364                   22238832.0004
        42.7504         44.2504
  -7254135.21246  -5861953.57945  23851697.5784                   23851692.0234
        36.0004         34.7504
 -17492316.10848 -19820694.00149  20834324.5704                   20834315.7934
        51.0004         54.7504
 23  1  3  1 51 30.0000000  0 11G23G08G22G03G21G10G12G31G01G25G32
   1799912.53045   -192382.51943  24412746.9774                   24412739.5474
        34.7504         22.5004
   -253325.50454  -2424556.34453  25895043.6804                   25895038.3594
        29.5004         22.5004
 -17653669.79048 -13976565.91346  20630622.1484                   20630610.7934
        48.5004         41.7504
  -2126271.39645  -1871782.77245  25261113.6484                   25261106.2194
        33.5004         30.0004
 -19743425.60947 -14116580.63546  22190196.3444                   22190184.8134
        46.5004         36.5004
 -22657461.05047 -17495614.14048  21612869.1174                   21612861.0434
        47.0004         52.0004
  -5557579.39746  -4312851.63743  24565579.3674                   24565567.7774
        37.0004         18.5004
 -19919554.75547 -15455687.79948  21430416.8594                   21430406.5004
        47.5004         52.0004
 -17389842.63246 -12988142.43047  22227454.9064                   22227447.5354
        41.5004         44.0004
  -7314354.34745  -5908877.57845  23840236.5704                   23840232.0164
        32.5004         32.7504
 -17458726.72448 -19794520.46049  20840716.5234                   20840707.5124
        50.7504         55.0004
 23  1  3  1 52  0.0000000  0 11G23G08G22G03G21G10G12G31G01G25G32
   1896249.49045   -117314.93243  24431079.2664                   24431071.7774
        34.7504         21.2504
                                  25910438.6724                   25910431.3014
        35.0004         28.7504
 -17668962.86848 -13988482.58947  20627711.7504                   20627700.4534
        48.7504         42.0004
  -2227076.62845  -1950332.26144  25241930.7814                   25241923.0594
        32.5004         29.7504
 -19752626.56347 -14123750.22046  22188445.0634                   22188433.4734
        46.5004         36.5004
 -22595487.88247 -17447323.40848  21624662.4224                   21624654.1724
        47.0004         51.7504
  -5585280.68945  -4334437.03943  24560307.8754                   24560296.1094
        35.2504         18.5004
 -20005960.10447 -15523016.64748  21413974.3284                   21413963.5594
        47.2504         52.0004
 -17449132.80047 -13034342.53747  22216172.7814                   22216164.4144
        42.2504         44.0004
  -7374176.93445  -5955492.53345  23828854.1174                   23828847.5664
        35.0004         32.7504
 -17424858.62748 -19768129.75049  20847161.5784                   20847152.4494
        51.0004         55.0004
 23  1  3  1 52 30.0000000  0 10G23G22G03G21G10G12G31G01G25G32
   1992728.95845    -42136.30043  24449438.2034                   24449431.3014
        34.0004         21.2504
 -17683947.56648 -14000158.96547  20624860.2894                   20624848.9924
        48.7504         42.2504
  -2327909.04245  -2028902.93245  25222743.3134                   25222735.7664
        33.5004         31.0004
 -19761343.43747 -14130542.59346  22186786.2034                   22186774.6724
        47.5004         37.0004
 -22533186.20447 -17398776.69448  21636517.7734                   21636509.9924
        46.7504         51.5004
  -5612461.45346  -4355616.86243  24555135.8674                   24555123.5164
        37.2504         19.5004
 -20091928.18647 -15590004.75148  21397615.1254                   21397604.4734
        47.5004         52.0004
 -17507885.90747 -13080124.20147  22204993.1414                   22204984.1294
        42.7504         44.5004
  -9009023.88655  -7229399.20955  23817545.2114                   23817538.0164
        34.2504         31.7504
 -17390716.59648 -19741525.57449  20853658.6174                   20853649.7814
        51.5004         54.7504
 23  1  3  1 53  0.0000000  0 10G23G22G03G21G10G12G31G01G25G32
   2089351.18645     33153.58443  24467825.6724                   24467818.3594
        34.0004         22.0004
 -17698623.07548 -14011594.41946  20622067.8984                   20622056.7194
        48.7504         41.7504
  -2428766.40745  -2107493.01645  25203551.5634                   25203542.6094
        35.0004         30.2504
 -19769574.16547 -14136956.16446  22185220.0314                   22185208.6174
        46.2504         37.0004
 -22470554.82947 -17349973.07248  21648436.1804                   21648428.2814
        46.7504         51.5004
  -5639118.60546  -4376388.64343  24550063.1724                   24550050.2934
        36.0004         18.2504
 -20177455.42647 -15656649.35048  21381339.5704                   21381329.0944
        47.2504         52.2504
 -17566098.61846 -13125484.75447  22193914.0704                   22193906.8754
        41.5004         44.2504
  -9068050.87145  -7275394.26345  23806312.6724                   23806305.4774
        35.5004         32.5004
 -17356300.33248 -19714707.71349  20860207.6564                   20860198.6454
        51.5004         55.0004
 23  1  3  1 53 30.0000000  0 10G23G22G03G21G10G12G31G01G25G32
   2186116.49445    108554.94843  24486239.5554                   24486231.8914
        34.5004         21.0004
 -17712988.89048 -14022788.55947  20619333.7424                   20619322.7974
        48.5004         42.0004
  -2529646.42245  -2186100.79045  25184354.1884                   25184345.3524
        34.2504         30.5004
 -19777318.71147 -14142990.87946  22183746.2894                   22183734.5234
        46.0004         36.7504
 -22407592.80047 -17300911.79448  21660417.5634                   21660409.7814
        47.0004         51.2504
  -5665249.50646  -4396750.37043  24545090.7034                   24545078.3524
        37.7504         18.2504
 -20262537.95348 -15722947.41848  21365149.1724                   21365138.7544
        48.0004         52.2504
 -17623767.55447 -13170421.57647  22182940.9454                   22182932.6374
        42.7504         44.7504
  -9126673.95246  -7321074.53245  23795157.8444                   23795149.0664
        36.0004         32.2504
 -17321609.77648 -19687676.12149  20866809.2034                   20866800.1334
        52.5004         55.0004
 23  1  3  1 54  0.0000000  0 10G23G22G03G21G10G12G31G01G25G32
   2283022.54845    184066.01643  24504680.3054                   24504672.6994
        34.5004         21.7504
 -17727047.37848 -14033743.22746  20616658.7424                   20616647.6214
        49.2504         41.7504
  -2630549.36445  -2264726.41944  25165151.7974                   25165144.1914
        34.5004         29.7504
 -19784577.04347 -14148646.73846  22182365.0784                   22182353.6644
        46.5004         36.7504
 -22344302.05747 -17251594.35948  21672461.6024                   21672453.4104
        46.5004         51.0004
  -5690853.85346  -4416701.80043  24540217.5084                   24540206.5634
        36.2504         18.2504
 -20347174.46947 -15788897.93148  21349043.2274                   21349032.4574
        47.5004         52.5004
 -17680891.95147 -13214934.10947  22172071.0864                   22172062.4264
        42.5004         44.7504
  -9184891.54545  -7366438.90145  23784078.7894                   23784072.6484
        34.5004         33.5004
 -17286647.27748 -19660432.62349  20873462.2274                   20873453.3914
        51.5004         54.7504
 23  1  3  1 54 30.0000000  0 10G23G22G03G21G10G12G31G01G25G32
   2380069.77245    259687.07243  24523147.4454                   24523140.4844
        34.7504         20.2504
 -17740797.20048 -14044457.37547  20614042.3054                   20614031.4774
        49.0004         42.0004
  -2731472.87445  -2343368.09245  25145948.2344                   25145939.9264
        35.0004         30.2504
 -19791347.37347 -14153922.32846  22181076.5004                   22181065.3204
        46.0004         36.7504
 -22280681.61347 -17202020.04248  21684568.4304                   21684559.9454
        46.7504         51.0004
  -5715928.44745  -4436240.46843  24535445.4304                   24535435.2464
        35.7504         18.5004
 -20431361.45347 -15854498.16248  21333023.2584                   21333012.2544
        47.5004         52.5004
 -17737468.41347 -13259019.65447  22161304.1484                   22161296.2504
        42.2504         44.7504
  -9242699.51645  -7411483.98545  23773077.3594                   23773071.7464
        34.5004         34.0004
 -17251412.58048 -19632977.02349  20880167.1644                   20880158.0944
        52.5004         54.7504
 23  1  3  1 55  0.0000000  0 10G23G22G03G21G10G12G31G01G25G32
   2477255.86645    335416.35343  24541640.5084                   24541634.4844
        34.7504         20.7504
 -17754240.47648 -14054932.65047  20611484.1884                   20611473.2424
        48.5004         42.0004
  -2832416.90045  -2422025.75044  25126737.0634                   25126730.2774
        32.2504         29.5004
 -19797630.91547 -14158818.61146  22179881.2034                   22179870.0234
        47.5004         36.5004
 -22216733.16947 -17152190.14048  21696737.4304                   21696729.0044
        46.7504         50.7504
  -5740473.11446  -4455366.12743  24530776.0634                   24530764.7664
        37.5004         19.0004
 -20515097.33247 -15919746.89248  21317088.9304                   21317077.6914
        47.5004         52.7504
 -17793496.05247 -13302677.56047  22150643.0944                   22150634.4924
        43.2504         45.2504
  -9300096.15945  -7456208.63045  23762157.1024                   23762149.2034
        35.2504         34.0004
 -17215907.92348 -19605311.07349  20886923.5474                   20886914.7114
        52.0004         55.0004
 23  1  3  1 55 30.0000000  0 10G23G22G03G21G10G12G31G01G25G32
   2574580.87145    411253.87543  24560163.7194                   24560154.5314
        35.5004         20.0004
 -17767376.87248 -14065168.81047  20608984.5164                   20608973.6884
        48.5004         42.0004
  -2933379.53545  -2500697.87145  25107526.2424                   25107517.5234
        35.0004         30.5004
 -19803427.50347 -14163335.44446  22178778.0944                   22178766.6804
        47.0004         37.0004
 -22152455.91647 -17102104.02948  21708969.1254                   21708960.8754
        46.7504         50.7504
  -5764484.97846  -4474076.61943  24526207.8984                   24526194.6094
        37.5004         19.0004
 -20598379.04947 -15984641.73648  21301240.7974                   21301230.0864
        47.2504         53.0004
 -17848971.89347 -13345905.49247  22140086.1174                   22140077.8674
        43.0004         45.2504
  -9357077.85645  -7500609.87545  23751312.9774                   23751306.4844
        34.5004         34.2504
 -17180133.47648 -19577434.88749  20893731.0394                   20893722.2624
        52.0004         55.0004
