     2.10           OBSERVATION DATA    G (GPS)             RINEX VERSION / TYPE
teqc  2004Apr5                          20041208 15:58:05UTCPGM / RUN BY / DATE
OBSERVATION MODE: Permanent                                 COMMENT
CHUM Chumysh (CHUM)                                         MARKER NAME
25601M001                                                   MARKER NUMBER
T136                ROGUE SNR-8000       3.20               REC # / TYPE / VERS
113                 AOAD/M_T        NONE                    ANT # / TYPE
        0.0900        0.0000        0.0000                  ANTENNA: DELTA H/E/N
  1228950.8672  4508079.8892  4327868.4905                  APPROX POSITION XYZ
  74.75109758  42.99850108  716.3225  LonLatAlt  S/W        COMMENT
Linux 2.0.36|Pentium II|gcc -static|Linux|486/DX+           COMMENT
BIT 2 OF LLI FLAGS DATA COLLECTED UNDER A/S CONDITION       COMMENT
Konovalov           IVTAN                                   OBSERVER / AGENCY
     1     1                                                WAVELENGTH FACT L1/2
     5    L1    L2    C1    P2    P1                        # / TYPES OF OBSERV
    30.0000                                                 INTERVAL
    P1 =    P1  TurboRogue; =    Y1  Benchmark              COMMENT
    L1 = L1(P1) TurboRogue; = L1(Y1) Benchmark              COMMENT
    P2 =    P2  TurboRogue; =    Y2  Benchmark              COMMENT
    L2 = L2(P2) TurboRogue; = L2(Y2) Benchmark              COMMENT
 SNR is mapped to RINEX snr flag value [1,4-9]              COMMENT
    SNR:  >=316 >=100 >=31.6 >=10 >=3.2    >0 bad=0         COMMENT
L1 & L2:      9     8     7     6     5     4     1         COMMENT
  2002     1     2     0     0    0.0000000     GPS         TIME OF FIRST OBS
  2002     1     2    23    59   30.0000000     GPS         TIME OF LAST OBS
                                                            END OF HEADER
 02  1  2  0  0  0.0000000  0  8G29G25G11G20G14G 1G22G21
 -14552466.18149 -11339581.13646  21001606.839    21001606.864
 -24316864.72049 -18948198.22047  20456217.245    20456216.699
 -14299357.62349 -11142357.20646  22649472.260    22649471.815
 -16629508.92649 -12958055.98046  22164857.332    22164857.548
  -6067582.29649  -4727983.54846  22445964.165    22445963.332
  -3944304.61648  -3073481.18744  24367770.842    24367774.065
  -4759951.90748  -3709053.31745  23969276.458    23969277.446
   1874937.80748                  24249151.954
 02  1  2  0  0 30.0000000  0  8G29G25G11G20G14G 1G22G21
 -14512252.45249 -11308245.76546  21009259.078    21009259.241
 -24313495.75149 -18945573.04947  20456858.327    20456857.772
 -14246736.85849 -11101354.02346  22659484.919    22659484.622
 -16712526.91249 -13022745.30046  22149060.367    22149059.602
  -5996897.84749  -4672904.78146  22459414.372    22459413.910
  -4026938.68648  -3137871.31344  24352046.211    24352046.709
  -4873773.48848  -3797745.46144  23947616.544    23947617.866
   1981800.52048                  24269486.851
 02  1  2  0  1  0.0000000  0  8G29G25G11G20G14G 1G22G21
 -14471816.72449 -11276737.40746  21016953.887    21016954.076
 -24309667.13549 -18942589.71047  20457586.675    20457586.115
 -14193686.03949 -11060015.72946  22669581.486    22669579.620
 -16795257.88449 -13087210.97146  22133316.583    22133316.067
  -5926067.16549  -4617712.06146  22472893.153    22472892.514
  -4109512.42048  -3202214.26145  24336332.834    24336332.744
  -4987572.05648  -3886419.67144  23925962.106    23925962.500
   2088843.98748   1627671.62944  24289857.433    24289858.851
 02  1  2  0  1 30.0000000  0  8G29G25G11G20G14G 1G22G21
 -14431167.39549 -11245062.60346  21024689.307    21024689.202
 -24305388.08849 -18939255.38347  20458400.872    20458400.370
 -14140215.72149 -11018350.53746  22679756.192    22679756.177
 -16877707.49749 -13151457.41346  22117627.383    22117626.850
  -5855098.96749  -4562412.19046  22486398.419    22486397.521
  -4192033.72148  -3266516.84444  24320628.504    24320631.417
  -5101352.70048  -3975079.90944  23904308.995    23904309.096
   2196058.32048                  24310259.068
 02  1  2  0  2  0.0000000  0  8G29G25G11G20G14G 1G22G21
 -14390308.46249 -11213224.48046  21032464.683    21032464.670
 -24300663.14549 -18935573.60547  20459300.055    20459299.561
 -14086332.26349 -10976363.43946  22690009.908    22690009.211
 -16959877.07249 -13215485.63446  22101990.908    22101990.343
  -5783997.52349  -4507008.49546  22499928.370    22499927.514
  -4274505.95348  -3330780.84044  24304935.166    24304938.131
  -5215116.02948  -4063726.66144  23882661.781    23882662.927
   2303438.01948                  24330692.647
 02  1  2  0  2 30.0000000  0  8G29G25G11G20G14G 1G22G21
 -14349231.79149 -11181216.69346  21040281.234    21040281.332
 -24295484.54849 -18931538.32647  20460285.248    20460284.700
 -14032029.40849 -10934049.53146  22700343.483    22700342.148
 -17041756.00549 -13279287.39046  22086410.027    22086409.233
  -5712754.75449  -4451494.68546  22513485.360    22513484.410
  -4356920.61248  -3395000.00844  24289252.145    24289253.378
  -5328850.67248  -4152351.05944  23861017.788    23861017.943
   2410989.77148                  24351159.178
 02  1  2  0  3  0.0000000  0  8G25G11G20G14G29G 1G22G21
 -24289854.96549 -18927151.63847  20461356.599    20461356.051
 -13977310.87149 -10891411.70646  22710755.695    22710755.094
 -17123343.07949 -13342861.71746  22070883.851    22070883.369
  -5641372.46549  -4395872.13746  22527069.154    22527068.657
 -14307938.86949 -11149040.40647  21048138.834    21048138.808
  -4439278.66548  -3459175.06544  24273580.227    24273581.061
  -5442554.91448  -4240951.78144  23839381.556    23839381.179
   2518709.97548                  24371657.402
 02  1  2  0  3 30.0000000  0  8G25G11G20G14G29G 1G22G21
 -24283766.01149 -18922407.00047  20462515.447    20462514.893
 -13922169.60849 -10848444.50745  22721249.049    22721247.829
 -17204626.60149 -13406199.51346  22055417.182    22055416.474
  -5569842.01049  -4340134.13246  22540680.656    22540680.129
 -14266420.69549 -11116688.59547  21056039.357    21056039.353
  -4521570.47548  -3523298.50844  24257919.779    24257921.431
  -5556216.51048  -4329519.25145  23817751.902    23817755.082
   2626606.53548                  24392189.657
 02  1  2  0  4  0.0000000  0  8G25G11G20G14G29G 1G22G21
 -24277230.58349 -18917314.45647  20463759.238    20463758.624
 -13866620.07049 -10805159.14945  22731820.024    22731818.386
 -17285616.24549 -13469308.31146  22040004.719    22040004.014
  -5498175.68349  -4284290.25546  22554318.576    22554317.970
 -14224689.46949 -11084170.76047  21063980.961    21063980.575
  -4603807.81148  -3587379.51045  24242272.039    24242272.471
  -5669844.25448  -4418060.35544  23796129.688    23796130.515
   2734665.64748                  24412752.765
 02  1  2  0  4 30.0000000  0  8G25G11G20G14G29G 1G22G21
 -24270247.28749 -18911872.92947  20465088.060    20465087.495
 -13810662.68449 -10761555.98245  22742467.390    22742466.285
 -17366307.34549 -13532184.47546  22024649.762    22024649.231
  -5426371.71149  -4228339.12246  22567982.591    22567982.191
 -14182743.14549 -11051485.31947  21071963.077    21071962.854
  -4685987.98648  -3651415.97845  24226632.412    24226635.535
  -5783432.72148  -4506570.87144  23774513.623    23774515.298
   2842888.01448                  24433345.900
 02  1  2  0  5  0.0000000  0  8G25G11G20G14G29G 1G22G21
 -24262820.41049 -18906085.74847  20466501.184    20466500.592
 -13754303.35949 -10717639.63545  22753192.971    22753191.967
 -17446700.86049 -13594828.76446  22009351.698    22009350.742
  -5354434.20649  -4172283.96146  22581671.535    22581671.473
 -14140585.46549 -11018635.18547  21079985.236    21079984.984
  -4768114.59148  -3715410.67145  24211003.657    24211006.716
  -5896982.59548  -4595051.27544  23752906.558    23752907.053
   2951267.78248                  24453970.176
 02  1  2  0  5 30.0000000  0  8G25G11G20G14G29G 1G22G21
 -24254934.97449 -18899941.24647  20468001.671    20468001.053
 -13697528.24949 -10673399.29245  22763996.963    22763995.665
 -17526778.29849 -13657226.75646  21994113.111    21994112.760
  -5282347.53649  -4116112.56746  22595389.253    22595388.670
 -14098200.55949 -10985607.97847  21088050.831    21088050.519
  -4850171.13348  -3779350.80744  24195390.006    24195390.540
  -6010474.68148  -4683486.66445  23731309.037    23731310.226
   3059819.30548                  24474626.486
 02  1  2  0  6  0.0000000  0  8G25G11G20G14G29G 1G22G21
 -24246589.66849 -18893438.40847  20469589.761    20469589.110
 -13640337.38249 -10628834.98345  22774879.030    22774877.179
 -17606534.64949 -13719374.55146  21978936.100    21978935.573
  -5210109.53549  -4059823.24246  22609135.971    22609135.231
 -14055586.12049 -10952401.92547  21096160.448    21096160.201
  -4932154.76848  -3843234.10245  24179788.545    24179789.831
  -6123903.18048  -4771872.49645  23709725.384    23709724.960
   3168543.22048                  24495316.402
 02  1  2  0  6 30.0000000  0  8G25G11G20G14G29G 1G22G21
 -24237797.21149 -18886587.14247  20471262.933    20471262.336
 -13582744.90149 -10583957.71645  22785838.891    22785837.082
 -17685979.60649 -13781279.69046  21963817.884    21963817.685
  -5137732.87749  -4003425.88446  22622908.575    22622907.963
 -14012754.20049 -10919026.39847  21104310.864    21104310.672
  -5014077.07548  -3907069.59345  24164199.249    24164200.486
  -6237276.90748  -4860215.69644  23688150.438    23688153.846
   3277425.76948                  24516036.232
 02  1  2  0  7  0.0000000  0  8G25G11G20G14G29G 1G22G21
 -24228573.49249 -18879399.82747  20473018.181    20473017.572
 -13524768.77849 -10538781.54045  22796871.825    22796871.261
 -17765125.63249 -13842951.90946  21948757.554    21948756.767
  -5065232.85449  -3946932.40846  22636704.781    22636704.788
 -13969720.26449 -10885493.46547  21112499.759    21112499.703
  -5095952.95848  -3970868.95145  24148619.000    24148620.464
  -6350608.02248  -4948525.63645  23666584.068    23666584.547
   3386450.03548                  24536782.526
 02  1  2  0  7 30.0000000  0  8G25G11G20G14G29G 1G22G21
 -24218906.79649 -18871867.33647  20474857.716    20474857.120
 -13466398.39349 -10493298.11645  22807979.453    22807977.961
 -17843957.38849 -13904379.23146  21933755.428    21933755.262
  -4992596.90349  -3890332.99846  22650527.561    22650527.190
 -13926471.43549 -10851793.08147  21120729.679    21120729.453
  -5177769.05548  -4034621.71945  24133049.929    24133051.916
  -6463880.33248  -5036789.75744  23645029.296    23645031.264
   3495627.37848                  24557558.676
 02  1  2  0  8  0.0000000  0  8G25G11G20G14G29G 1G22G21
 -24208799.76749 -18863991.73247  20476781.068    20476780.539
 -13407637.57649 -10447510.43545  22819160.577    22819158.986
 -17922473.84649 -13965560.87646  21918815.057    21918814.460
  -4919826.77849  -3833629.04746  22664374.633    22664374.380
 -13883009.20249 -10817926.41847  21129000.597    21129000.513
  -5259526.66048  -4098328.91045  24117490.788    24117492.085
  -6577092.07748  -5125006.70445  23623485.775    23623486.106
   3604954.32648                  24578362.627
 02  1  2  0  8 30.0000000  0  8G25G11G20G14G29G 1G22G21
 -24198245.25049 -18855767.43347  20478789.348    20478788.817
 -13348481.18749 -10401414.57645  22830417.797    22830417.555
 -18000664.70749 -14026488.80046  21903935.344    21903935.259
  -4846915.42549  -3776815.07646  22678249.250    22678248.139
 -13839326.38149 -10783887.85647  21137313.240    21137313.067
  -5341217.71548  -4161984.22345  24101946.561    24101946.825
  -6690232.64448  -5213168.18545  23601956.170    23601957.717
   3714436.37148                  24599195.301
 02  1  2  0  9  0.0000000  0  8G25G11G20G14G29G 1G22G21
 -24187252.08449 -18847201.33147  20480881.322    20480880.893
 -13288939.17449 -10355018.20145  22841749.049    22841747.192
 -18078535.26749 -14087167.14446  21889116.786    21889116.531
  -4773870.82649  -3719897.24545  22692149.612    22692149.719
 -13795430.51649 -10749683.29847  21145666.092    21145665.951
  -5422849.21648  -4225593.15745  24086412.293    24086414.860
  -6803306.29648  -5301277.52444  23580438.685    23580438.323
   3824064.66848                  24620057.167
 02  1  2  0  9 30.0000000  0  8G25G11G20G14G29G 1G22G21
 -24175816.21749 -18838290.26447  20483057.564    20483057.106
 -13229009.23549 -10308319.53845  22853152.252    22853151.715
 -18156078.03649 -14147590.06346  21874361.643    21874361.196
  -4700688.44549  -3662872.05045  22706075.683    22706075.660
 -13751316.83149 -10715309.00947  21154060.772    21154060.498
  -5504416.17648  -4289151.76245  24070889.704    24070892.305
  -6916304.88548  -5389328.34545  23558935.401    23558936.241
   3933842.36048                  24640946.217
 02  1  2  0 10  0.0000000  0  8G25G11G20G14G29G 1G22G21
 -24163939.00049 -18829035.28447  20485318.012    20485317.405
 -13168694.13849 -10261320.76245  22864629.933    22864628.663
 -18233290.94549 -14207755.95146  21859667.998    21859667.667
  -4627368.74149  -3605739.86045  22720028.089    22720028.432
 -13706985.67149 -10680765.25047  21162496.469    21162496.366
  -5585918.38448  -4352659.95945  24055381.343    24055382.086
  -7029225.59048  -5477318.51844  23537447.995    23537450.701
   4043767.01648                  24661865.689
 02  1  2  0 10 30.0000000  0  8G25G11G20G14G29G 1G22G21
 -24151622.74249 -18819438.19247  20487661.504    20487661.099
 -13107997.59849 -10214024.75145  22876181.516    22876180.886
 -18310172.57749 -14267663.70046  21845038.160    21845037.822
  -4553913.43849  -3548501.99845  22734005.909    22734005.147
 -13662438.29849 -10646053.01747  21170973.784    21170973.489
  -5667356.74148  -4416118.36145  24039882.283    24039885.870
  -7142066.16148  -5565246.22145  23515975.105    23515975.516
   4153835.56348                  24682811.197
 02  1  2  0 11  0.0000000  0  8G25G11G20G14G29G 1G22G21
 -24138879.96349 -18809508.74547  20490086.118    20490085.649
 -13046933.41848 -10166442.26745  22887800.282    22887799.614
 -18386731.82449 -14327320.24146  21830469.266    21830468.627
  -4480334.35749  -3491167.70345  22748008.090    22748007.347
 -13617686.49549 -10611181.49947  21179489.650    21179489.431
  -5748742.37648  -4479535.66445  24024397.768    24024397.904
  -7254835.12048  -5653118.14945  23494515.244    23494517.452
   4264034.87748                  24703781.011
 02  1  2  0 11 30.0000000  0  8G25G11G20G14G29G 1G22G21
 -24125704.45849 -18799242.11647  20492593.187    20492592.793
 -12985497.22748 -10118569.91745  22899491.171    22899491.419
 -18462959.26949 -14386718.23546  21815963.636    21815963.091
  -4406624.89949  -3433731.79345  22762034.175    22762034.354
 -13572723.41049 -10576145.34447  21188045.881    21188045.805
  -5830067.91148  -4542906.21645  24008920.374    24008921.801
  -7367522.00148  -5740926.11644  23473071.711    23473073.498
   4374369.97248                  24724777.618
 02  1  2  0 12  0.0000000  0  8G25G11G20G14G29G 1G22G21
 -24112083.79649 -18788628.61247  20495185.297    20495184.957
 -12923677.83349 -10070398.93445  22911256.062    22911255.227
 -18538838.70349 -14445845.05246  21801524.584    21801524.108
  -4332771.61249  -3376183.80545  22776088.196    22776088.495
 -13527535.22649 -10540933.77347  21196645.126    21196644.930
  -5911319.25248  -4606218.89145  23993458.749    23993461.957
  -7480110.14348  -5828657.11744  23451646.862    23451648.409
   4484852.79248                  24745801.996
 02  1  2  0 12 30.0000000  0  8G25G11G20G14G29G 1G22G21
 -24098017.58449 -18777667.92047  20497862.134    20497861.801
 -12861476.52048 -10021930.38845  22923091.224    22923091.583
 -18614366.50449 -14504697.86646  21787151.733    21787151.416
  -4258773.81149  -3318523.24545  22790169.250    22790169.052
 -13482121.06049 -10505546.12547  21205287.115    21205286.987
  -5992494.78348  -4669472.50345  23978011.403    23978013.279
  -7592594.89848  -5916307.59844  23430241.310    23430243.139
   4595482.64248                  24766854.865
 02  1  2  0 13  0.0000000  0  8G25G11G20G14G29G 1G22G21
 -24083514.44949 -18766366.76847  20500621.962    20500621.663
 -12798903.14148  -9973171.86945  22934999.551    22934997.875
 -18689547.23749 -14563280.24046  21772845.830    21772845.019
  -4184639.12949  -3260756.00345  22804277.169    22804276.971
 -13436488.30349 -10469988.13447  21213970.529    21213970.433
  -6073601.48548  -4732672.49845  23962577.876    23962579.152
  -7704980.32848  -6003880.65444  23408856.078    23408857.679
   4706250.62248                  24787932.974
 02  1  2  0 13 30.0000000  0  8G25G11G20G14G29G 1G22G21
 -24068577.92649 -18754727.91747  20503464.358    20503463.971
 -12735963.00148  -9924127.60045  22946976.955    22946977.509
 -18764381.11149 -14621592.34446  21758605.447    21758604.477
  -4110370.27549  -3202884.21845  22818409.866    22818409.397
 -13390639.52349 -10434261.81247  21222695.184    21222695.158
  -6154641.46248  -4795820.49045  23947157.038    23947160.083
  -7817265.81748  -6091375.82144  23387488.144    23387489.230
   4817152.24748                  24809036.280
 02  1  2  0 14  0.0000000  0  8G25G11G20G14G29G 1G22G21
 -24053214.56749 -18742756.46547  20506387.716    20506387.493
 -12672663.88048  -9874803.62445  22959020.423    22959019.323
 -18838871.18549 -14679636.53846  21744429.415    21744429.250
  -4035973.39048  -3144912.67645  22832566.534    22832566.375
 -13344580.44549 -10398371.62747  21231460.160    21231460.056
  -6235619.85548  -4858920.47345  23931745.800    23931749.588
  -7929453.64048  -6178794.90344  23366139.807    23366141.438
   4928180.42948                  24830164.984
 02  1  2  0 14 30.0000000  0  8G25G11G20G14G29G 1G22G21
 -24037434.59749 -18730460.38047  20509390.239    20509390.050
 -12609017.64549  -9825209.14345  22971134.721    22971131.895
 -18913023.99749 -14737417.93546  21730319.555    21730318.872
  -3961457.70549  -3086848.55445  22846747.625    22846747.032
 -13298320.26549 -10362324.72947  21240263.295    21240263.024
  -6316545.43048  -4921979.30545  23916347.381    23916346.975
  -8041549.61548  -6266142.42444  23344808.170    23344807.962
   5039324.27848                  24851315.554
 02  1  2  0 15  0.0000000  0  8G25G11G20G14G29G 1G22G21
 -24021222.78949 -18717827.79547  20512475.262    20512475.217
 -12545010.50648  -9775333.44345  22983313.247    22983312.670
 -18986820.61749 -14794921.78746  21716276.118    21716275.523
  -3886807.38049  -3028679.51745  22860952.547    22860952.628
 -13251842.65549 -10326108.41647  21249107.629    21249107.476
  -6397401.53148  -4984984.02945  23900959.678    23900962.280
  -8153534.24648  -6353403.17745  23323499.177    23323499.100
   5150598.02348                  24872489.954
 02  1  2  0 15 30.0000000  0  8G25G11G20G14G29G 1G22G21
 -24004582.71949 -18704861.50047  20515641.954    20515641.657
 -12480647.26448  -9725180.27545  22995560.671    22995560.165
 -19060260.87249 -14852147.94546  21702300.479    21702300.118
  -3812024.72949  -2970407.37645  22875183.123    22875183.113
 -13205150.06449 -10289724.58347  21257993.160    21257992.712
  -6478190.14548  -5047936.09545  23885586.717    23885588.517
  -8265406.43348  -6440576.32244  23302210.378    23302208.961
   5261997.28948                  24893688.018
 02  1  2  0 16  0.0000000  0  8G25G11G20G14G29G 1G22G21
 -23987515.95649 -18691562.71747  20518889.671    20518889.312
 -12415931.16848  -9674752.12945  23007877.145    23007877.000
 -19133343.10449 -14909095.12546  21688394.013    21688393.635
  -3737110.89549  -2912033.00945  22889439.421    22889438.812
 -13158243.24849 -10253173.82547  21266919.112    21266918.881
  -6558911.20148  -5110835.59445  23870226.765    23870228.332
  -8377163.43748  -6527659.66845  23280943.445    23280942.930
   5373519.95848                  24914911.023
 02  1  2  0 16 30.0000000  0  8G25G11G20G14G29G 1G22G21
 -23970031.66249 -18677938.58947  20522216.858    20522216.788
 -12350873.29248  -9624057.71545  23020255.438    23020253.668
 -19206072.79949 -14965767.60746  21674553.887    21674553.247
  -3662074.58349  -2853563.20845  22903717.440    22903716.724
 -13111130.61849 -10216462.69047  21275884.161    21275884.070
  -6639572.59048  -5173688.56745  23854876.348    23854878.732
  -8488810.21248  -6614657.16244  23259697.372    23259699.292
   5485155.51948                  24936153.792
 02  1  2  0 17  0.0000000  0  8G25G11G20G14G29G 1G22G21
 -23952131.43149 -18663990.34847  20525623.213    20525622.939
 -12285476.22348  -9573098.92845  23032701.500    23032699.793
 -19278447.71549 -15022163.63546  21660780.920    21660780.576
  -3586916.39449  -2794998.45145  22918019.902    22918019.480
 -13063812.38849 -10179591.34047  21284888.569    21284888.383
  -6720174.03348  -5236494.81645  23839538.986    23839540.500
  -8600343.90248  -6701566.53545  23238473.301    23238474.698
   5596902.50548                  24957419.785
 02  1  2  0 17 30.0000000  0  8G25G11G20G14G29G 1G22G21
 -23933818.24749 -18649720.32447  20529108.047    20529107.817
 -12219744.27448  -9521879.20445  23045209.368    23045208.700
 -19350467.33949 -15078282.80846  21647076.430    21647076.131
  -3511638.31749  -2736340.26745  22932345.690    22932344.313
 -13016290.51749 -10142561.31147  21293931.683    21293931.391
  -6800717.00548  -5299255.50745  23824211.218    23824213.964
  -8711762.92348  -6788386.52845  23217271.613    23217271.925
   5708756.81948                  24978704.128
 02  1  2  0 18  0.0000000  0  8G25G11G20G14G29G 1G22G21
 -23915082.63449 -18635121.13447  20532673.208    20532673.096
 -12153669.94548  -9470392.70944  23057782.653    23057782.690
 -19422118.69849 -15134115.02046  21633441.539    21633441.128
  -3436230.09848  -2677580.66345  22946694.220    22946694.642
 -12968554.67149 -10105364.55547  21303015.372    21303015.214
  -6881190.95248  -5361962.41045  23808897.962    23808898.524
  -8823053.51448  -6875106.48044  23196093.024    23196096.207
   5820727.67148                  25000012.672
 02  1  2  0 18 30.0000000  0  8G25G11G20G14G29G 1G22G21
 -23895915.44049 -18620185.65047  20536320.564    20536320.270
 -12087245.07348  -9418633.09745  23070423.443    23070423.103
 -19493388.59749 -15189649.99646  21619879.394    21619878.858
  -3360681.69149  -2618711.82645  22961071.634    22961071.441
 -12920594.20349 -10067992.76447  21312141.973    21312142.253
  -6961584.61048  -5424606.76945  23793599.910    23793601.277
  -8934201.71848  -6961715.45745  23174942.972    23174943.400
   5932823.29848                  25021342.767
 02  1  2  0 19  0.0000000  0  7G25G11G20G14G29G 1G22
 -23876325.30249 -18604920.60047  20540048.569    20540048.243
 -12020479.99748  -9366608.34245  23083127.736    23083126.260
 -19564282.26649 -15244891.80846  21606388.390    21606388.024
  -3285001.13949  -2559740.03245  22975473.236    22975472.899
 -12872417.01849 -10030452.09847  21321309.668    21321309.518
  -7041905.14648  -5487194.11645  23778315.296    23778316.485
  -9045211.94248  -7048216.93344  23153817.676    23153818.057
 02  1  2  0 19 30.0000000  0  7G25G11G20G14G29G 1G22
 -23856321.01949 -18589332.83847  20543855.188    20543854.853
 -11953384.94448  -9314326.48745  23095896.650    23095895.990
 -19634804.50249 -15299844.19046  21592969.034    21592968.667
  -3209195.94849  -2500671.08545  22989897.911    22989898.269
 -12824030.64649  -9992748.44447  21330517.305    21330517.166
  -7122159.63248  -5549730.01445  23763043.003    23763044.658
  -9156088.34848  -7134614.11045  23132719.407    23132719.338
 02  1  2  0 20  0.0000000  0  7G25G11G20G14G29G 1G22
 -23835922.65049 -18573437.98947  20547736.976    20547736.536
 -11885981.74648  -9261804.52545  23108722.569    23108722.905
 -19704972.25249 -15354520.34746  21579616.136    21579615.601
  -3133285.81449  -2441520.37045  23004343.723    23004344.000
 -12775454.18649  -9954896.64946  21339761.142    21339761.027
  -7202366.98848  -5612229.19045  23747779.692    23747780.535
  -9266846.72348  -7220919.33345  23111642.199    23111641.867
 02  1  2  0 20 30.0000000  0  7G25G11G20G14G29G 1G22
 -23815091.90349 -18557206.22847  20551701.235    20551700.880
 -11818233.13648  -9209013.40444  23121613.806    23121613.378
 -19774743.32349 -15408887.41546  21566339.124    21566338.497
  -3057231.19849  -2382257.07545  23018816.339    23018816.349
 -12726648.16149  -9916865.98647  21349048.577    21349048.807
  -7282487.03848  -5674660.34045  23732533.703    23732536.584
  -9377444.14648  -7307099.16045  23090596.588    23090597.035
 02  1  2  0 21  0.0000000  0  7G25G11G20G14G29G 1G22
 -23793849.16449 -18540653.43447  20555743.616    20555743.175
 -11750161.26248  -9155970.38845  23134569.241    23134568.621
 -19844134.16149 -15462958.19046  21553134.696    21553134.266
  -2981051.86249  -2322896.56945  23033312.591    23033312.007
 -12677631.82649  -9878671.45246  21358375.986    21358376.200
  -7362538.46148  -5737038.02545  23717301.343    23717301.048
  -9487896.45348  -7393165.90545  23069577.467    23069578.018
 02  1  2  0 21 30.0000000  0  8G25G11G20G14G29G 1G22G30
 -23772200.00349 -18523783.95447  20559863.056    20559862.725
 -11681773.30448  -9102681.05244  23147581.518    23147581.543
 -19913147.09349 -15516734.49646  21540001.534    21540001.086
  -2904752.40349  -2263442.48345  23047831.923    23047831.362
 -12628409.66149  -9840316.52046  21367743.040    21367743.010
  -7442525.39548  -5799365.43945  23702078.073    23702079.254
  -9598204.75248  -7479120.43545  23048587.024    23048587.714
         -.66458          .25254  23757688.918    23757688.559
 02  1  2  0 22  0.0000000  0  8G25G11G20G14G29G 1G22G30
 -23750130.58049 -18506586.99147  20564062.373    20564062.054
 -11613056.62448  -9049135.59644  23160657.671    23160657.297
 -19981764.48749 -15570202.59046  21526944.372    21526943.712
  -2828318.10049  -2203883.33845  23062377.142    23062376.885
 -12578966.93349  -9801789.71246  21377151.617    21377151.546
  -7522432.22248  -5861630.43845  23686874.516    23686875.295
  -9708350.85048  -7564948.54945  23027626.092    23027628.810
     58757.90048     45786.13644  23768869.516    23768871.144
 02  1  2  0 22 30.0000000  0  8G25G11G20G14G29G 1G22G30
 -23727649.70649 -18489069.41547  20568340.553    20568340.186
 -11544021.35148  -8995341.88344  23173795.336    23173794.878
 -20049991.04049 -15623366.13146  21513960.914    21513960.708
  -2751756.65749  -2144225.12145  23076946.106    23076945.750
 -12529310.82249  -9763096.64346  21386600.719    21386600.655
  -7602266.11648  -5923838.64445  23671680.598    23671682.974
  -9818338.49248  -7650653.21545  23006697.355    23006697.836
    118019.11448     91963.71144  23780147.633    23780148.098
 02  1  2  0 23  0.0000000  0  8G25G11G20G14G29G 1G22G30
 -23704766.24749 -18471238.14147  20572695.123    20572694.583
 -11474677.94748  -8941308.06444  23186990.911    23186989.948
 -20117832.29649 -15676229.43946  21501051.704    21501051.358
  -2675075.96648  -2084474.00245  23091537.781    23091538.110
 -12479449.24349  -9724243.46346  21396089.081    21396089.055
  -7682034.35848  -5985995.64745  23656502.190    23656503.536
  -9928172.11248  -7736237.85445  22985796.591    22985797.384
    177773.43848    138525.51144  23791517.736    23791518.925
 02  1  2  0 23 30.0000000  0  8G25G11G20G14G29G 1G22G30
 -23681478.54449 -18453091.87247  20577126.376    20577125.920
 -11405026.47748  -8887034.15244  23200244.874    23200241.804
 -20185282.76749 -15728788.24846  21488216.013    21488215.295
  -2598273.63349  -2024628.07845  23106153.559    23106153.520
 -12429379.32549  -9685227.94546  21405617.378    21405617.019
  -7761733.52448  -6048098.83245  23641335.740    23641336.491
 -10037845.70648  -7821697.81945  22964926.245    22964929.070
    238022.00348    185472.44144  23802983.146    23802983.723
 02  1  2  0 24  0.0000000  0  8G25G11G20G14G29G 1G22G30
 -23657788.23449 -18434631.87347  20581634.455    20581634.058
 -11335070.14748  -8832522.74744  23213556.851    23213554.555
 -20252340.45949 -15781040.99246  21475455.134    21475454.638
  -2521350.37349  -1964687.90945  23120791.315    23120790.953
 -12379101.82549  -9646050.67746  21415184.606    21415184.413
  -7841363.70648  -6110148.27945  23626181.124    23626184.197
 -10147356.18948  -7907030.65845  22944086.536    22944086.971
    298762.38348    232802.60844  23814540.823    23814541.630
 02  1  2  0 24 30.0000000  0  8G25G11G20G14G29G 1G22G30
 -23633687.82249 -18415852.32747  20586221.004    20586220.484
 -11264802.40748  -8777768.67644  23226929.137    23226927.833
 -20318993.86349 -15832978.70346  21462772.437    21462771.629
  -2444297.46248  -1904646.74845  23135453.376    23135453.251
 -12328607.52749  -9606704.47246  21424793.340    21424793.299
  -7920915.23848  -6172136.43045  23611043.211    23611045.509
 -10256691.28148  -7992226.84945  22923281.191    22923281.832
    360001.81748    280521.62344  23826194.940    23826194.599
 02  1  2  0 25  0.0000000  0  8G25G11G20G14G29G 1G22G30
 -23609172.52249 -18396749.49647  20590886.205    20590885.600
 -11194220.20148  -8722769.52244  23240360.132    23240360.728
 -20385234.67649 -15884594.91846  21450166.558    21450165.862
  -2367109.11149  -1844500.03445  23150142.892    23150142.477
 -12277890.71749  -9567184.88246  21434444.352    21434444.340
  -8000382.07448  -6234058.59845  23595921.474    23595922.707
 -10365841.81348  -8077279.20045  22902510.092    22902510.505
    421744.07048    328632.52144  23837944.547    23837944.008
 02  1  2  0 25 30.0000000  0  8G25G11G20G14G29G 1G22G30
 -23584252.53949 -18377331.32347  20595628.077    20595627.589
 -11123335.46048  -8667534.66444  23253848.490    23253848.086
 -20451069.62049 -15935894.87346  21437638.345    21437637.729
  -2289795.09048  -1784255.39145  23164854.423    23164854.018
 -12226960.59949  -9527499.08146  21444135.768    21444135.891
  -8079772.66048  -6295921.36745  23580814.953    23580816.054
 -10474813.33448  -8162192.06745  22881774.582    22881775.160
    483978.32648    377126.71144  23849786.974    23849788.734
 02  1  2  0 26  0.0000000  0  8G25G11G20G14G29G 1G22G30
 -23558944.38549 -18357610.68447  20600444.112    20600443.521
 -11052165.47548  -8612077.51244  23267392.531    23267391.035
 -20516510.99749 -15986888.14646  21425185.275    21425184.861
  -2212370.19248  -1723924.37945  23179587.968    23179587.660
 -12175832.08249  -9487658.67746  21453865.563    21453865.551
  -8159101.22348  -6357735.79745  23565718.960    23565720.675
 -10583617.42748  -8246974.48145  22861069.011    22861070.465
    546687.83348    425991.27944  23861719.881    23861720.630
 02  1  2  0 26 30.0000000  0  8G25G11G20G14G29G 1G22G30
 -23533249.23549 -18337588.49247  20605333.746    20605333.158
 -10980713.65448  -8556400.78444  23280989.164    23280987.535
 -20581556.75349 -16037573.15046  21412807.695    21412807.086
  -2134835.37448  -1663507.68545  23194343.089    23194342.976
 -12124505.65849  -9447664.05546  21463632.526    21463632.486
  -8238367.97448  -6419502.04545  23550633.074    23550635.562
 -10692251.19748  -8331624.16945  22840396.825    22840398.206
    609870.08848    475224.21244  23873743.375    23873744.288
 02  1  2  0 27  0.0000000  0  8G25G11G20G14G29G 1G22G30
 -23507163.16249 -18317261.68447  20610297.613    20610297.042
 -10908977.16548  -8500502.20244  23294639.453    23294637.103
 -20646198.97449 -16087943.70546  21400506.472    21400506.018
  -2057185.26548  -1603001.16345  23209118.764    23209118.717
 -12072975.80949  -9407510.91946  21473438.279    21473438.271
  -8317566.68648  -6481215.29245  23535565.027    23535565.608
 -10800705.55448  -8416134.06445  22819758.855    22819759.447
    673528.73848    524828.35544  23885857.514    23885859.484
 02  1  2  0 27 30.0000000  0  8G25G11G20G14G29G 1G22G30
 -23480672.10049 -18296619.30247  20615338.894    20615338.292
 -10836942.92948  -8444371.63244  23308347.836    23308346.939
 -20710419.87549 -16137985.96046  21388285.657    21388285.166
  -1979404.52248  -1542392.84945  23223920.302    23223919.840
 -12021226.95049  -9367187.13846  21483285.776    21483285.917
  -8396681.36648  -6542863.04845  23520508.461    23520510.791
 -10908961.78048  -8500489.55445  22799158.016    22799158.040
    737677.50448    574814.41944  23898064.370    23898063.920
 02  1  2  0 28  0.0000000  0  8G25G11G20G14G29G 1G22G30
 -23453773.20549 -18275659.12147  20620457.657    20620457.064
 -10764610.27348  -8388008.51044  23322112.759    23322110.908
 -20774212.98049 -16187694.86246  21376146.310    21376145.784
  -1901489.88048  -1481680.18445  23238747.110    23238747.791
 -11969255.60149  -9326689.98646  21493175.960    21493176.218
  -8475707.84048  -6604442.06045  23505471.011    23505472.588
 -11017012.66248  -8584685.03945  22778596.587    22778597.574
    802317.98448    625183.66144  23910364.389    23910366.139
 02  1  2  0 28 30.0000000  0  8G25G11G20G14G29G 1G22G30
 -23426489.97549 -18254399.45947  20625649.484    20625648.753
 -10692004.07848  -8331432.26444  23335928.558    23335927.554
 -20837598.08749 -16237085.84946  21364084.387    21364083.798
  -1823463.50548  -1420880.48145  23253594.775    23253594.902
 -11917083.66549  -9286036.53246  21503103.801    21503103.741
  -8554667.60148  -6665969.11045  23490445.297    23490445.822
 -11124876.99248  -8668735.16645  22758070.683    22758071.563
    867426.05748    675917.20644  23922754.648    23922755.105
 02  1  2  0 29  0.0000000  0  8G25G11G20G14G29G 1G22G30
 -23398815.51049 -18232834.94347  20630915.546    20630914.926
 -10619118.40448  -8274638.24945  23349799.292    23349796.349
 -20900564.19649 -16286150.34746  21352102.921    21352102.472
  -1745317.12648  -1359987.25345  23268466.438    23268465.770
 -11864702.77849  -9245220.24346  21513071.401    21513071.235
  -8633551.72748  -6727437.19545  23475433.909    23475435.659
 -11232542.64748  -8752630.47745  22737582.707    22737585.057
    933008.46448    727020.37544  23935234.555    23935237.701
 02  1  2  0 29 30.0000000  0  8G25G11G20G14G29G 1G22G30
 -23370762.76849 -18210975.66447  20636253.929    20636253.304
 -10545968.30748  -8217638.17544  23363718.979    23363718.299
 -20963120.87249 -16334895.80146  21340198.551    21340197.987
  -1667063.26648  -1299010.25145  23283356.826    23283357.219
 -11812125.19149  -9204250.69646  21523076.346    21523076.399
  -8712371.90748  -6788855.46345  23460435.277    23460435.623
 -11340018.57648  -8836377.96345  22717130.889    22717132.695
    999050.84848    778482.00945  23947802.011    23947802.249
 02  1  2  0 30  0.0000000  0  8G25G11G20G14G29G 1G22G30
 -23342309.20349 -18188804.05947  20641668.721    20641667.976
 -10472531.98748  -8160415.06444  23377692.839    23377689.719
 -21025241.43749 -16383301.43146  21328376.747    21328376.336
  -1588677.86948  -1237930.77645  23298273.535    23298273.548
 -11759326.49849  -9163108.86346  21533123.751    21533123.905
  -8791103.30248  -6850204.56845  23445453.398    23445454.392
 -11447276.84248  -8919955.83745  22696720.234    22696720.642
   1065575.59448    830319.44844  23960460.887    23960462.547
 02  1  2  0 30 30.0000000  0  8G25G11G20G14G29G 1G22G30
 -23313454.47149 -18166319.85047  20647159.410    20647158.788
 -10398811.13748  -8102970.21444  23391721.606    23391722.202
 -21086922.38449 -16431364.50146  21316639.835    21316639.345
  -1510159.81648  -1176747.92945  23313215.490    23313213.406
 -11706305.41849  -9121793.74446  21543213.534    21543213.845
  -8869743.97648  -6911482.96245  23430487.814    23430489.565
 -11554312.88748  -9003360.54145  22676352.047    22676352.814
   1132582.08148    882532.33044  23973211.596    23973212.165
 02  1  2  0 31  0.0000000  0  8G25G11G20G14G29G 1G22G30
 -23284215.97049 -18143536.60847  20652723.439    20652722.755
 -10324824.34848  -8045318.19844  23405801.257    23405799.082
 -21148177.22249 -16479095.53946  21304983.511    21304983.194
  -1431525.26148  -1115474.30345  23328178.493    23328178.152
 -11653078.05249  -9080317.88546  21553342.346    21553342.363
  -8948309.54348  -6972702.84145  23415537.910    23415538.553
 -11661139.24348  -9086601.85745  22656023.956    22656024.613
   1200052.10048    935106.40044  23986050.626    23986049.539
 02  1  2  0 31 30.0000000  0  8G25G11G20G14G29G 1G22G30
 -23254600.29149 -18120459.45847  20658359.256    20658358.480
 -10250580.03348  -7987465.50444  23419929.268    23419927.130
 -21209008.95849 -16526496.89046  21293406.934    21293406.346
  -1352779.99048  -1054114.39645  23343163.136    23343162.768
 -11599649.75349  -9038685.44746  21563509.224    21563509.147
  -9026804.87548  -7033868.00145  23400600.544    23400601.150
 -11767757.88448  -9169681.33545  22635734.013    22635735.202
   1267978.26248    988035.84244  23998977.059    23998978.618
 02  1  2  0 32  0.0000000  0  8G25G11G20G14G29G 1G22G30
 -23224600.66649 -18097083.12447  20664067.853    20664067.309
 -10176072.30948  -7929407.48144  23434106.906    23434104.833
 -21269406.49649 -16573559.90647  21281914.174    21281913.573
  -1273915.81848   -992661.86945  23358171.574    23358171.405
 -11546012.13949  -8996889.90546  21573716.439    21573715.983
  -9105220.81648  -7094971.27945  23385678.805    23385679.680
 -11874156.93948  -9252589.67445  22615487.506    22615488.218
   1336366.88948   1041325.68344  24011990.458    24011990.025
 02  1  2  0 32 30.0000000  0  8G25G11G20G14G29G 1G22G30
 -23194235.36249 -18073421.85247  20669846.033    20669845.525
 -10101321.10648  -7871159.85644  23448332.144    23448331.178
 -21329384.65549 -16620296.13047  21270500.833    21270500.185
  -1194949.81648   -931129.95245  23373197.531    23373197.065
 -11492182.20949  -8954944.51446  21583959.809    21583960.095
  -9183574.05648  -7156025.71545  23370768.311    23370768.876
 -11980350.06248  -9335337.57645  22595279.799    22595280.641
   1405198.96348   1094961.06544  24025088.959    24025085.886
 02  1  2  0 33  0.0000000  0  8G25G11G20G14G29G 1G22G30
 -23163493.53149 -18049467.18247  20675696.165    20675695.542
 -10026317.02948  -7812715.11844  23462604.422    23462603.957
 -21388928.99049 -16666694.31147  21259169.995    21259169.361
  -1115870.22948   -869509.54245  23388245.896    23388246.863
 -11438148.04949  -8912839.98946  21594242.179    21594242.312
  -9261851.88748  -7217021.37445  23355872.452    23355873.124
 -12086321.91748  -9417913.03945  22575113.773    22575115.556
   1474484.38948   1148949.76144  24038274.119    24038274.728
 02  1  2  0 33 30.0000000  0  8G25G11G20G14G29G 1G22G30
 -23132380.56349 -18025223.31647  20681616.796    20681616.256
  -9951066.88948  -7754078.60344  23476924.605    23476924.896
 -21448040.87349 -16712755.51947  21247921.040    21247920.475
  -1036681.37848   -807803.99545  23403315.209    23403315.746
 -11383913.59949  -8870579.38246  21604562.588    21604562.756
  -9340057.75048  -7277960.96145  23340989.517    23340991.911
 -12192072.83949  -9500316.36645  22554991.100    22554991.169
   1544217.22048   1203286.99644  24051542.137    24051543.789
 02  1  2  0 34  0.0000000  0  8G25G11G20G14G29G 1G22G30
 -23100874.55849 -18000673.18147  20687612.031    20687611.496
  -9875550.20548  -7695234.48444  23491294.655    23491294.346
 -21506694.95449 -16758459.99947  21236759.539    21236759.015
   -957360.22048   -745995.35945  23418409.576    23418409.266
 -11329455.57749  -8828144.56446  21614925.561    21614925.665
  -9418167.72048  -7338825.82145  23326126.639    23326127.123
 -12297576.17448  -9582526.77145  22534913.925    22534913.970
   1614418.41148   1257989.25344  24064902.878    24064903.109
 02  1  2  0 34 30.0000000  0  8G25G11G20G14G29G 1G22G30
 -23068985.52149 -17975824.58747  20693680.161    20693679.715
  -9799778.18248  -7636191.29944  23505714.395    23505712.801
 -21564897.14449 -16803812.34847  21225684.200    21225683.689
   -877915.43348   -684090.39145  23433526.956    23433527.481
 -11274782.48849  -8785542.16846  21625330.014    21625329.460
  -9496189.65848  -7399622.10645  23311279.076    23311279.604
 -12402837.12548  -9664548.30645  22514883.243    22514884.503
   1685077.43648   1313048.25844  24078347.845    24078352.167
 02  1  2  0 35  0.0000000  0  8G25G11G20G14G29G 1G22G30
 -23036723.49549 -17950685.34447  20699819.530    20699819.124
  -9723762.84248                  23520178.079
 -21622654.24349 -16848817.87847  21214693.516    21214692.908
   -798356.40548   -622096.40745  23448666.981    23448668.916
 -11219903.53549  -8742779.36846  21635772.642    21635772.092
  -9574132.16148  -7460356.48545  23296446.778    23296447.799
 -12507861.11949  -9746385.18145  22494898.127    22494897.751
   1756183.08148   1368455.23744  24091879.873    24091881.469
 02  1  2  0 35 30.0000000  0  8G25G11G20G14G29G 1G22G30
 -23004084.87549 -17925252.64447  20706030.348    20706029.855
  -9647501.88948  -7517534.43944  23534691.141    23534688.161
 -21679959.01249 -16893470.94847  21203788.546    21203787.993
   -718678.24948   -560009.59245  23463829.478    23463829.099
 -11164813.59049  -8699852.14546  21646256.324    21646255.755
  -9651989.53248  -7521024.51745  23281631.674    23281632.421
 -12612639.94448  -9828031.00645  22474958.762    22474959.372
   1827738.05248   1424212.35944  24105495.921    24105494.587
 02  1  2  0 36  0.0000000  0  8G25G11G20G14G29G 1G22G30
 -22971072.37949 -17899528.61547  20712312.477    20712312.053
  -9570999.23548                  23549248.010
 -21736810.16149 -16937770.54547  21192970.279    21192969.809
   -638882.47748   -497831.10145  23479014.058    23479015.078
 -11109513.75849  -8656761.36846  21656779.334    21656779.138
  -9729762.31548  -7581626.63745  23266831.938    23266832.860
 -12717171.06848  -9909483.83445  22455067.152    22455068.476
   1899739.32548   1480317.27244  24119196.378    24119196.619
 02  1  2  0 36 30.0000000  0  8G25G11G20G14G29G 1G22G30
 -22937692.67849 -17873518.45947  20718664.502    20718663.989
  -9494263.00448  -7398127.51144  23563851.499    23563850.810
 -21793210.78049 -16981719.07447  21182237.653    21182237.224
   -558974.47348   -435565.14445  23494220.049    23494219.462
 -11054009.82149  -8613511.56346  21667341.356    21667340.839
  -9807455.63048  -7642166.85045  23252047.148    23252047.534
 -12821456.80849  -9990745.44945  22435222.830    22435223.952
   1972179.03448   1536763.82444  24132981.660    24132983.810
 02  1  2  0 37  0.0000000  0  8G25G11G20G14G29G 1G22G30
 -22903956.50649 -17847230.53247  20725083.888    20725083.557
  -9417305.59948                  23578494.583
 -21849167.85549 -17025321.98647  21171589.058    21171588.613
   -478964.02248   -373219.37845  23509445.528    23509446.160
 -10998310.80049  -8570109.73146  21677940.659    21677940.306
  -9885078.12548  -7702651.87545  23237275.565    23237277.012
 -12925502.80249 -10071820.22745  22415423.217    22415424.650
   2045045.63248   1593542.98044  24146846.843    24146851.054
 02  1  2  0 37 30.0000000  0  8G25G11G20G14G29G 1G22G30
 -22869859.02249 -17820661.05947  20731572.141    20731571.818
  -9340123.19648                  23593182.479
 -21904672.39449 -17068572.27447  21161026.929    21161026.373
   -398844.99248   -310788.99545  23524691.703    23524692.228
 -10942410.35449  -8526550.94246  21688577.755    21688578.081
  -9962622.69148  -7763076.16745  23222519.628    23222520.662
 -13029299.30649 -10152700.61945  22395671.258    22395672.971
   2118343.60848   1650658.27444  24160796.006    24160795.536
 02  1  2  0 38  0.0000000  0  8G25G11G20G14G29G 1G22G30
 -22835397.86549 -17793808.20747  20738130.298    20738129.870
  -9262715.20848                  23607912.338
 -21959718.70349 -17111465.50047  21150552.119    21150551.716
   -318613.77348   -248271.17945  23539959.600    23539959.002
 -10886304.93749  -8482832.43246  21699254.452    21699254.043
 -10040085.15648  -7823436.50045  23207779.384    23207778.797
 -13132839.30049 -10233381.12845  22375968.204    22375969.593
   2192074.27648   1708110.80344  24174825.863    24174827.747
 02  1  2  0 38 30.0000000  0  8G25G11G20G14G29G 1G22G30
 -22800560.14749 -17766661.92847  20744759.904    20744759.491
  -9185070.20247                  23622686.924
 -22014290.44149 -17153988.93147  21140167.484    21140167.041
   -238256.61748   -185655.24445  23555250.307    23555250.921
 -10829980.55149  -8438943.31146  21709972.945    21709972.379
 -10117450.84348  -7883721.42145  23193057.130    23193058.777
 -13236105.46849 -10313848.26145  22356317.529    22356318.339
   2266249.41048   1765909.58444  24188940.865    24188940.600
 02  1  2  0 39  0.0000000  0  8G25G11G20G14G29G 1G22G30
 -22765357.75149 -17739231.48747  20751458.467    20751458.129
  -9107201.30248                  23637506.858
 -22068395.70149 -17196148.87547  21129871.718    21129871.114
   -157784.24548   -122949.50645  23570564.005    23570564.384
 -10773447.50649  -8394891.59146  21720730.508    21720730.083
 -10194729.50848  -7943938.51245  23178351.261    23178353.316
 -13339104.50449 -10394107.25745  22336717.116    22336717.447
   2340856.20448   1824044.74844  24203138.201    24203140.738
 02  1  2  0 39 30.0000000  0  8G25G11G20G14G29G 1G22G30
 -22729786.23449 -17711513.41947  20758227.672    20758227.243
  -9029105.82448                  23652367.091
 -22122026.56449 -17237939.15547  21119665.984    21119665.618
    -77191.22548    -60149.76745  23585900.738    23585900.398
 -10716700.30049  -8350672.99646  21731529.156    21731528.817
 -10271915.07948  -8004083.08745  23163664.097    23163663.752
 -13441827.44349 -10474151.09845  22317169.733    22317170.899
   2415898.37348   1882519.17044  24217417.724    24217423.083
 02  1  2  0 40  0.0000000  0  8G25G11G20G14G29G 1G22G30
 -22693854.86949 -17683514.95247  20765065.344    20765064.824
  -8950794.16848                  23667270.279
 -22175188.13049 -17279363.75047  21109550.076    21109549.532
      3514.82548      2738.01745  23601257.767    23601258.138
 -10659746.34049  -8306293.30746  21742367.148    21742367.297
 -10349014.56248  -8064160.58845  23148991.385    23148992.276
 -13544278.45349 -10553983.05645  22297674.346    22297675.672
   2491365.89648   1941325.06244  24231780.231    24231780.573
 02  1  2  0 40 30.0000000  0  8G25G11G20G14G29G 1G22G30
 -22657571.18949 -17655241.95047  20771969.752    20771969.408
  -8872275.50748                  23682210.747
 -22227884.66749 -17320425.98847  21099522.050    21099521.578
     84327.03048     65708.53145  23616636.764    23616635.077
 -10602592.22649  -8261757.64146  21753243.281    21753243.504
 -10426033.65148  -8124175.41745  23134335.404    23134336.348
 -13646460.38149 -10633605.32445  22278229.060    22278229.998
   2567250.30448   2000455.79644  24246220.124    24246222.468
 02  1  2  0 41  0.0000000  0  8G25G11G20G14G29G 1G22G30
 -22620947.88649 -17626704.30647  20778938.999    20778938.664
  -8793563.79348                  23697189.820
 -22280125.17349 -17361132.87447  21089580.648    21089580.174
    165233.98548    128752.86845  23632032.866    23632033.357
 -10545249.04449  -8217074.64046  21764155.451    21764155.226
 -10502982.90248  -8184135.83145  23119692.904    23119693.545
 -13748381.18549 -10713024.14945  22258834.653    22258834.632
   2643538.01648   2059900.74644  24260738.052    24260738.171
 02  1  2  0 41 30.0000000  0  8G25G11G20G14G29G 1G22G30
 -22583977.83849 -17597896.46847  20785974.231    20785973.809
  -8714652.87048                  23712206.295
 -22331898.24149 -17401475.52347  21079728.605    21079728.068
    246244.70348    191878.04245  23647447.776    23647447.706
 -10487707.68749  -8172237.23046  21775104.693    21775104.939
 -10579852.75548  -8244034.40445  23105064.417    23105065.111
 -13850028.38049 -10792229.75145  22239491.213    22239492.118
   2720235.67748   2119665.18244  24275332.498    24275330.673
 02  1  2  0 42  0.0000000  0  8G25G11G20G14G29G 1G22G30
 -22546655.89649 -17568814.43247  20793076.293    20793075.857
  -8635539.48948                  23727261.225
 -22383195.62649 -17441447.50947  21069967.092    21069966.381
    327365.11448    255088.73245  23662885.503    23662886.001
 -10429962.36149  -8127240.88146  21786093.247    21786092.993
 -10656636.48649  -8303865.85845  23090454.021    23090453.885
 -13951392.37549 -10871214.66346  22220202.960    22220203.788
   2797347.13948   2179752.02044  24290006.479    24290007.337
 02  1  2  0 42 30.0000000  0  8G25G11G20G14G29G 1G22G30
 -22508961.03849 -17539441.80947  20800249.463    20800249.006
  -8556203.99948                  23742357.367
 -22433992.64449 -17481029.60347  21060300.734    21060300.185
    408617.32748    318402.11345  23678347.516    23678347.077
 -10371990.29449  -8082067.86546  21797125.221    21797125.174
 -10733310.68148  -8363611.94645  23075862.349    23075863.261
 -14052447.28749 -10949958.74546  22200972.628    22200974.696
   2874892.65548   2240177.06644  24304763.521    24304764.056
 02  1  2  0 43  0.0000000  0  8G25G11G20G14G29G 1G22G30
 -22470900.89949 -17509784.55747  20807491.953    20807491.614
  -8476655.39648                  23757495.766
 -22484293.18549 -17520224.83147  21050728.713    21050728.192
    489995.00348    381813.26745  23693832.020    23693834.340
 -10313797.78749  -8036723.05946  21808199.216    21808198.718
 -10809881.23648  -8423277.27245  23061291.018    23061290.665
 -14153195.92049 -11028464.16046  22181801.180    22181802.178
   2952863.66248                  24319599.591
 02  1  2  0 43 30.0000000  0  8G25G11G20G14G29G 1G22G30
 -22432493.29149 -17479856.54847  20814800.460    20814800.049
  -8396912.97948                  23772671.120
 -22534111.47949 -17559044.28147  21041248.897    21041248.442
    571481.64948    445309.32545  23709339.216    23709340.049
 -10255401.38949  -7991219.41046  21819311.595    21819311.266
 -10886363.73349  -8482874.01545  23046737.508    23046737.995
 -14253651.32549 -11106741.09046  22162685.247    22162685.779
   3031241.37648   2362007.28044  24334515.708    24334515.241
 02  1  2  0 44  0.0000000  0  8G25G11G20G14G29G 1G22G30
 -22393741.86649 -17449660.62547  20822174.509    20822174.164
  -8316981.65348                  23787879.697
 -22583447.28649 -17597487.77047  21031860.557    21031860.168
    653074.56048    508888.19845  23724866.098    23724864.470
 -10196803.24949  -7945558.55146  21830462.240    21830462.182
 -10962759.65549  -8542403.26346  23032199.931    23032201.346
 -14353812.12949 -11184788.48146  22143625.195    22143625.555
   3110021.41848   2423394.34744  24349506.417    24349505.568
 02  1  2  0 44 30.0000000  0  8G25G11G20G14G29G 1G22G30
 -22354656.89349 -17419204.79747  20829612.429    20829612.069
  -8236873.22748                  23803125.493
 -22632307.64649 -17635560.77847  21022562.424    21022562.038
    734764.58448    572542.76345  23740410.754    23740410.276
 -10138012.21049  -7899747.36846  21841650.295    21841650.082
 -11039077.42149  -8601871.62645  23017677.394    23017677.500
 -14453683.96149 -11262610.68246  22124619.795    22124620.496
   3189192.44248   2485086.01244  24364571.475    24364570.090
 02  1  2  0 45  0.0000000  0  8G25G11G20G14G29G 1G22G30
 -22315232.18049 -17388484.23947  20837114.755    20837114.355
  -8156582.53148                  23818403.317
 -22680682.17049 -17673255.21547  21013357.407    21013357.100
    816559.56248    636279.07645  23755975.903    23755976.677
 -10079020.19349  -7853779.59046  21852875.766    21852875.601
 -11115308.14849  -8661272.17145  23003171.663    23003170.895
 -14553255.40849 -11340198.82246  22105672.162    22105673.572
   3268760.03848   2547086.75344  24379713.359    24379717.076
 02  1  2  0 45 30.0000000  0  8G25G11G20G14G29G 1G22G30
 -22275478.47249 -17357507.32647  20844679.209    20844678.991
  -8076122.22448                  23833715.712
 -22728578.70049 -17710577.18347  21004243.046    21004242.602
    898449.60348    700089.48745  23771559.466    23771560.102
 -10019837.09849  -7807662.91646  21864137.971    21864138.286
 -11191461.19048  -8720612.18345  22988678.582    22988679.643
 -14652532.83849 -11417557.84646  22086780.336    22086781.420
   3348712.26948   2609387.21844  24394928.121    24394928.129
 02  1  2  0 46  0.0000000  0  8G25G11G20G14G29G 1G22G30
 -22235376.29749 -17326258.88147  20852310.480    20852310.202
  -7995473.77948                  23849060.213
 -22775973.97749 -17747508.56647  20995223.965    20995223.468
    980455.60248    763990.23845  23787163.814    23787165.102
  -9960441.98549  -7761381.02246  21875440.586    21875439.961
 -11267514.77349  -8779874.67345  22974207.527    22974207.928
 -14751491.83149 -11494668.73746  22067949.022    22067950.102
   3429067.59648   2672001.73944  24410219.856    24410219.624
 02  1  2  0 46 30.0000000  0  8G25G11G20G14G29G 1G22G30
 -22194930.14749 -17294742.40347  20860007.265    20860006.782
  -7914643.90448                  23864443.466
 -22822869.43749 -17784050.48647  20986299.932    20986299.372
   1062573.85048    827978.44645  23802791.511    23802791.695
  -9900838.34549  -7714936.64146  21886782.917    21886782.611
 -11343471.59349  -8839061.79245  22959752.841    22959752.407
 -14850132.34149 -11571531.48046  22049178.335    22049179.531
   3509820.26948   2734926.01144  24425585.185    24425585.758
 02  1  2  0 47  0.0000000  0  8G25G11G20G14G29G 1G22G30
 -22154146.85349 -17262963.21947  20867768.084    20867767.652
  -7833640.52247                  23879856.264
 -22869267.75549 -17820205.01947  20977470.740    20977470.246
   1144798.80348    892049.79845  23818437.844    23818438.205
  -9841031.28549  -7668333.76646  21898163.463    21898163.689
 -11419336.22648  -8898177.05945  22945315.222    22945316.019
 -14948456.20949 -11648147.47946  22030467.955    22030468.487
   3590962.82148   2798153.90044  24441026.468    24441027.178
 02  1  2  0 47 30.0000000  0  8G25G11G20G14G29G 1G22G30
 -22113020.53749 -17230916.74447  20875594.208    20875593.759
  -7752458.46948                  23895305.899
 -22915159.49449 -17855964.81947  20968737.952    20968737.431
   1227137.98948    956210.14745  23834106.366    23834108.509
  -9781013.09249  -7621566.37646  21909585.116    21909584.826
 -11495100.31649  -8957213.98745  22930899.896    22930899.748
 -15046452.55249 -11724508.26346  22011820.222    22011820.955
   3672500.28748   2861689.58644  24456542.889    24456541.872
 02  1  2  0 48  0.0000000  0  8G25G11G20G14G29G 1G22G30
 -22071542.82049 -17198596.44747  20883487.239    20883486.827
  -7671091.19247                  23910788.584
 -22960532.76249 -17891320.61447  20960103.661    20960103.217
   1309600.86248   1020466.90045  23849798.941    23849799.793
  -9720774.22149  -7574627.02146  21921047.907    21921047.606
 -11570753.48348  -9016164.47845  22916501.289    22916502.563
 -15144108.12549 -11800603.53346  21993236.237    21993237.653
   3754440.10748   2925538.80044  24472134.806    24472133.285
 02  1  2  0 48 30.0000000  0  8G25G11G20G14G29G 1G22G30
 -22029742.64649 -17166024.88447  20891441.674    20891441.107
  -7589568.92347                  23926301.915
 -23005413.02949 -17926292.25247  20951563.218    20951562.789
   1392159.69748   1084798.41245  23865509.346    23865509.463
  -9660342.02649  -7527537.03146  21932547.435    21932547.499
 -11646322.57449  -9075049.46845  22902122.617    22902121.650
 -15241447.06949 -11876452.06046  21974713.915    21974714.606
   3836752.47648   2989678.30344  24487798.523    24487798.932
 02  1  2  0 49  0.0000000  0  8G25G11G20G14G29G 1G22G30
 -21987608.03749 -17133192.71947  20899459.764    20899459.215
  -7507881.00047                  23941845.776
 -23049784.56749 -17960867.47747  20943119.309    20943118.802
   1474827.74948   1149215.03145  23881240.453    23881240.957
  -9599703.30549  -7480286.11746  21944087.142    21944087.159
 -11721793.18449  -9133857.71745  22887761.244    22887761.746
 -15338452.41749 -11952040.65346  21956253.681    21956255.501
   3919448.28048   3054116.60644  24503535.409    24503535.784
 02  1  2  0 49 30.0000000  0  8G25G11G20G14G29G 1G22G30
 -21945149.31549 -17100108.00747  20907539.136    20907538.600
  -7426039.06047                  23957420.084
 -23093654.37349 -17995051.74347  20934771.230    20934770.735
   1557595.93248   1213709.71045  23896990.157    23896990.291
  -9538866.78449  -7432881.07346  21955663.907    21955663.756
 -11797173.75348  -9192595.79745  22873414.607    22873416.618
 -15435129.83649 -12027373.70846  21937857.101    21937858.437
   4002516.34848   3118844.97244  24519342.978    24519341.195
 02  1  2  0 50  0.0000000  0  8G25G11G20G14G29G 1G22G30
 -21902374.72249 -17066777.16047  20915678.854    20915678.344
  -7344053.21347                  23973020.704
 -23137027.45849 -18028848.95547  20926517.802    20926517.316
   1640457.13548   1278276.86345  23912759.167    23912758.439
  -9477839.56649  -7385327.43546  21967277.329    21967276.993
 -11872470.70049  -9251268.72545  22859088.539    22859088.087
 -15531482.92849 -12102454.04446  21919521.476    21919522.088
   4085947.04748   3183855.89444  24535219.004    24535218.554
 02  1  2  0 50 30.0000000  0  8G25G11G20G14G29G 1G22G30
 -21859285.21749 -17033200.92347  20923878.579    20923878.143
  -7261925.56047                  23988649.921
 -23179901.05749 -18062256.95347  20918359.153    20918358.926
   1723411.52448   1342916.59045  23928544.317    23928544.088
  -9416621.10149  -7337624.78646  21978926.376    21978926.133
 -11947682.48149  -9309875.28945  22844775.460    22844776.565
 -15627507.74249 -12177278.57446  21901248.929    21901250.102
   4169738.64948   3249148.02144  24551163.434    24551165.222
 02  1  2  0 51  0.0000000  0  8G25G11G20G14G29G 1G22G30
 -21815866.13549 -16999367.87847  20932141.075    20932140.641
  -7179642.70847                  24004309.046
 -23222256.99649 -18095261.58447  20910299.419    20910298.852
   1806475.28248   1407641.57445  23944350.314    23944351.983
  -9355195.06949  -7289760.38646  21990615.690    21990615.362
 -12022792.15348  -9368402.27746  22830481.230    22830482.428
 -15723184.71149 -12251832.06846  21883041.856    21883042.600
   4253905.02648   3314732.26144  24567180.471    24567178.106
 02  1  2  0 51 30.0000000  0  8G25G11G20G14G29G 1G22G30
 -21772122.25749 -16965281.74647  20940465.279    20940464.831
  -7097210.76647                  24019994.976
 -23264096.58949 -18127863.87047  20902337.485    20902336.920
   1889644.79948   1472448.90745  23960178.579    23960177.403
  -9293564.76249  -7241736.79846  22002343.407    22002343.119
 -12097802.44949  -9426851.85745  22816209.175    22816208.464
 -15818513.82049 -12326114.46846  21864901.437    21864903.213
   4338440.33348   3380603.93244  24583266.766    24583267.152
 02  1  2  0 52  0.0000000  0  8G25G11G20G14G29G 1G22G30
 -21728055.75549 -16930944.21847  20948850.551    20948850.253
  -7014633.35848                  24035708.621
 -23305418.48649 -18160062.75647  20894474.023    20894473.555
   1972919.21648   1537338.01445  23976023.529    23976023.028
  -9231731.09249  -7193554.76746  22014109.968    22014110.289
 -12172713.28349  -9485223.91445  22801953.024    22801953.440
 -15913492.35749 -12400123.70646  21846827.710    21846829.072
   4423341.27748   3446760.40544  24599422.448    24599424.105
 02  1  2  0 52 30.0000000  0  8G25G11G20G14G29G 1G22G30
 -21683656.74449 -16896347.58847  20957299.415    20957299.052
  -6931902.13948                  24051452.494
 -23346209.74549 -18191848.15747  20886711.587    20886711.147
   2056309.51348   1602317.46945  23991892.867    23991891.871
  -9169682.96549  -7145205.60246  22025917.351    22025917.337
 -12247512.97848  -9543509.37346  22787718.661    22787719.421
 -16008106.00349 -12473848.62446  21828823.104    21828823.905
   4508616.63748   3513208.76744  24615650.694    24615649.517
 02  1  2  0 53  0.0000000  0  8G25G11G20G14G29G 1G22G30
 -21638941.82349 -16861504.80147  20965808.554    20965808.121
  -6849034.90048                  24067222.731
 -23386483.18449 -18223230.05847  20879047.774    20879047.416
   2139800.48648   1667375.31245  24007780.701    24007782.086
  -9107435.22549  -7096700.91746  22037762.223    22037762.849
 -12322215.44049  -9601719.06846  22773504.566    22773504.442
 -16102366.20649 -12547298.13446  21810886.493    21810888.126
   4594248.95548   3579935.24944  24631945.062    24631946.079
 02  1  2  0 53 30.0000000  0  8G25G11G20G14G29G 1G22G30
 -21593903.90149 -16826410.32847  20974378.991    20974378.538
  -6766025.84448                  24083018.326
 -23426228.22249 -18254200.21947  20871484.662    20871484.206
   2223400.42548   1732518.06345  24023689.435    24023690.192
  -9044979.29649  -7048034.01546  22049648.183    22049647.568
 -12396811.38848  -9659845.77146  22759306.991    22759308.683
 -16196261.05749 -12620462.96446  21793018.061    21793019.353
   4680244.50348   3646944.73644  24648309.571    24648312.759
 02  1  2  0 54  0.0000000  0  8G25G11G20G14G29G 1G22G30
 -21548547.19149 -16791067.43647  20983009.841    20983009.402
  -6682880.81048                  24098839.584
 -23465445.96149 -18284759.49947  20864022.004    20864021.481
   2307105.78048   1797742.97545  24039617.505    24039617.833
  -8982318.37149  -6999207.35946  22061571.913    22061571.882
 -12471303.13349  -9717891.27046  22745133.303    22745134.635
 -16289790.06949 -12693342.71846  21775220.990    21775221.631
   4766597.65148   3714232.89144  24664742.669    24664741.366
 02  1  2  0 54 30.0000000  0  8G25G11G20G14G29G 1G22G30
 -21502869.37949 -16755474.34347  20991702.009    20991701.470
  -6599598.60448                  24114687.893
 -23504130.64549 -18314903.40947  20856660.299    20856659.830
   2390920.57348   1863053.18345  24055567.412    24055567.689
  -8919448.53149  -6950217.93546  22073535.065    22073535.480
 -12545686.04349  -9775851.97046  22730979.621    22730979.038
 -16382946.35649 -12765932.01846  21757493.459    21757494.094
   4853309.84548   3781800.79444  24681242.830    24681240.726
 02  1  2  0 55  0.0000000  0  8G25G11G20G14G29G 1G22G30
 -21456885.85949 -16719643.03747  21000452.490    21000451.909
  -6516195.90348                  24130560.474
 -23542294.15549 -18344641.21347  20849397.946    20849397.524
   2474830.83648   1928437.73145  24071535.361    24071535.240
  -8856383.36549  -6901076.31946  22085536.376    22085536.928
 -12619973.18449  -9833738.03446  22716841.056    22716842.754
 -16475740.33049 -12838238.99646  21739835.837    21739836.609
   4940364.74948   3849635.79044  24697809.258    24697807.619
 02  1  2  0 55 30.0000000  0  8G25G11G20G14G29G 1G22G30
 -21410591.48749 -16683569.50547  21009261.878    21009261.520
  -6432668.94748  -5012469.92844  24146452.040    24146453.143
 -23579927.89049 -18373966.20347  20842236.588    20842235.996
   2558842.77348   1993901.54845  24087521.666    24087523.809
  -8793116.51849  -6851777.52746  22097576.197    22097575.933
 -12694157.19349  -9891543.74446  22702726.276    22702725.825
 -16568161.96249 -12910255.84946  21722248.129    21722249.095
   5027766.56548   3917741.06044  24714440.584    24714441.190
 02  1  2  0 56  0.0000000  0  8G25G11G20G14G29G 1G22G30
 -21364001.42849 -16647265.56747  21018127.872    21018127.305
  -6349034.56148                  24162369.584
 -23617044.14949 -18402887.96647  20835173.629    20835173.177
   2642942.25748   2059433.52944  24103525.093    24103524.368
  -8729662.00749  -6802332.50146  22109650.687    22109650.959
 -12768251.14949  -9949279.29246  22688626.063    22688626.533
 -16660221.98249 -12981990.92046  21704729.785    21704730.545
   5115498.76248   3986103.83244  24731136.344    24731136.102
 02  1  2  0 56 30.0000000  0  8G25G11G20G14G29G 1G22G30
 -21317106.12249 -16610723.77447  21027052.144    21027051.474
  -6265284.23048                  24178305.066
 -23653629.65049 -18431396.14647  20828211.592    20828211.091
   2727140.50548   2125042.49845  24119548.732    24119547.565
  -8666008.34049  -6752732.28646  22121763.907    22121764.234
 -12842242.99749 -10006935.25446  22674545.175    22674546.345
 -16751905.73349 -13053432.79246  21687283.243    21687283.765
   5203570.06648                  24747894.867
 02  1  2  0 57  0.0000000  0  8G25G11G20G14G29G 1G22G30
 -21269898.96249 -16573938.98047  21036035.163    21036034.566
  -6181412.74648  -4816685.91244  24194267.559    24194264.658
 -23689674.72949 -18459483.21547  20821352.157    20821351.724
   2811445.11948   2190734.37944  24135589.806    24135592.150
  -8602147.91449  -6702970.95546  22133916.640    22133916.333
 -12916124.09749 -10064504.93446  22660487.481    22660487.417
 -16843202.16149 -13124572.86246  21669909.892    21669910.488
   5291985.97448   4123626.30444  24764720.335    24764721.989
 02  1  2  0 57 30.0000000  0  8G25G11G20G14G29G 1G22G30
 -21222371.38749 -16536904.50647  21045079.346    21045078.668
  -6097412.70248                  24210249.293
 -23725166.97949 -18487139.51347  20814598.195    20814597.785
   2895866.12048   2256516.86444  24151655.625    24151657.599
  -8538070.30649  -6653040.43146  22146109.549    22146109.253
 -12989883.32149 -10121979.64046  22646450.246    22646450.907
 -16934097.49849 -13195400.38846  21652612.799    21652614.311
   5380754.32248   4192796.42944  24781612.645    24781611.403
 02  1  2  0 58  0.0000000  0  7G25G11G20G14G29G 1G22
 -21174545.57949 -16499637.64947  21054180.256    21054179.615
  -6013308.00748                  24226256.362
 -23760125.92649 -18514380.24747  20807945.966    20807945.351
   2980382.34248   2322373.61344  24167738.600    24167738.110
  -8473796.64649  -6602957.14646  22158340.676    22158341.041
 -13063540.80349 -10179375.07046  22632434.110    22632434.533
 -17024609.56249 -13265929.26446  21635389.521    21635390.223
 02  1  2  0 58 30.0000000  0  7G25G11G20G14G29G 1G22
 -21126411.33449 -16462130.45147  21063339.767    21063339.155
  -5929089.91348                  24242281.592
 -23794538.12849 -18541194.95047  20801397.659    20801397.039
   3065005.17648   2388313.37544  24183841.470    24183843.779
  -8409315.24249  -6552711.97246  22170611.834    22170611.798
 -13137084.28449 -10236681.67646  22618439.610    22618439.693
 -17114723.56849 -13336147.98646  21618240.521    21618241.475
 02  1  2  0 59  0.0000000  0  8G25G11G20G14G29G 1G22G 4
 -21078011.48149 -16424416.28547  21072549.946    21072549.201
  -5844802.18048                  24258320.660
 -23828442.91349 -18567614.26047  20794945.721    20794945.000
   3149693.12548   2454303.91844  24199957.818    24199957.211
  -8344667.59849  -6502337.26146  22182912.856    22182913.214
 -13210554.08949 -10293930.86946  22604457.941    22604458.298
 -17204477.36949 -13406085.99946  21601161.387    21601162.124
         -.61158                  25313609.577
 02  1  2  0 59 30.0000000  0  8G25G11G20G14G29G 1G22G 4
 -21029309.75549 -16386466.90047  21081817.680    21081817.100
  -5760410.00148                  24274380.670
 -23861800.86949 -18593607.47247  20788597.703    20788597.294
   3234483.66448   2520374.37744  24216092.283    24216094.925
  -8279815.85449  -6451803.52946  22195254.133    22195254.601
 -13283911.74849 -10351092.66746  22590498.527    22590499.304
 -17293829.94349 -13475711.37546  21584157.914    21584158.489
    -52716.55448                  25303578.464
 02  1  2  1  0  0.0000000  0  8G25G11G20G14G29G 1G22G 4
 -20980298.49749 -16348276.32247  21091144.118    21091143.646
  -5675907.14948                  24290461.385
 -23894601.15649 -18619166.13647  20782356.257    20782355.909
   3319385.75248   2586531.76944  24232248.900    24232249.471
  -8214750.92549  -6401103.65246  22207636.051    22207635.351
 -13357147.36549 -10408159.37046  22576562.965    22576563.201
 -17382769.20749 -13545014.69446  21567233.409    21567234.836
   -104962.79448                  25293637.111
 02  1  2  1  0 30.0000000  0  8G25G11G20G14G29G 1G22G 4
 -20930980.31749 -16309846.58147  21100529.070    21100528.542
  -5591297.49848                  24306561.833
 -23926843.15149 -18644289.76547  20776221.122    20776220.543
   3404398.00848   2652775.01744  24248426.476    24248425.473
  -8149473.86949  -6350238.46546  22220057.531    22220057.866
 -13430261.20649 -10465131.19546  22562648.894    22562649.307
 -17471292.82549 -13613994.14146  21550388.314    21550389.335
   -156738.81448                  25283783.449
 02  1  2  1  1  0.0000000  0  8G25G11G20G14G29G 1G22G 4
 -20881366.85549 -16271186.74747  21109970.486    21109969.844
  -5506593.53048                  24322680.363
 -23958535.03949 -18668984.74447  20770190.370    20770189.758
   3489510.21348   2719096.10444  24264622.128    24264622.559
  -8083994.79649  -6299215.87546  22232518.198    22232518.249
 -13503262.52349 -10522015.32546  22548757.986    22548758.335
 -17559407.48049 -13682654.91246  21533620.018    21533621.226
   -208052.73148                  25274018.642
 02  1  2  1  1 30.0000000  0  8G25G11G20G14G29G 1G22G 4
 -20831464.71549 -16232301.97447  21119466.105    21119465.681
  -5421803.91148                  24338815.525
 -23989680.63049 -18693254.03547  20764263.313    20764262.793
   3574716.63548   2785490.62744  24280837.149    24280836.730
  -8018319.55549  -6248040.44746  22245015.110    22245015.828
 -13576155.94749 -10578815.39046  22534886.570    22534887.063
 -17647115.67349 -13750998.95146  21516930.303    21516930.674
   -258908.28248                  25264342.211
 02  1  2  1  2  0.0000000  0  8G25G11G20G14G29G 1G22G 4
 -20781273.59149 -16193192.02147  21129017.175    21129016.693
  -5336929.18148                  24354965.900
 -24020276.43849 -18717094.92647  20758440.998    20758440.473
   3660019.12248   2851959.98644  24297069.664    24297070.060
  -7952445.78049  -6196710.31746  22257551.477    22257550.926
 -13648938.70449 -10635529.22246  22521036.049    22521037.273
 -17734412.02649 -13819022.07246  21500317.663    21500318.664
   -309301.87248                  25254752.588
 02  1  2  1  2 30.0000000  0  8G25G11G20G14G29G 1G22G 4
 -20730799.02449 -16153861.19647  21138622.719    21138622.146
  -5251976.52748  -4092450.10744  24371131.910    24371129.235
 -24050325.02649 -18740509.40947  20752722.918    20752722.404
   3745413.16448   2918500.69944  24313319.302    24313319.034
  -7886378.07049  -6145229.08946  22270123.192    22270123.534
 -13721614.16049 -10692159.44446  22507207.253    22507207.918
 -17821297.61749 -13886725.12846  21483784.535    21483785.327
   -359235.98048                  25245249.414
 02  1  2  1  3  0.0000000  0  8G25G11G20G14G29G 1G22G 4
 -20680038.50449 -16114307.54947  21148281.597    21148281.406
  -5166944.68748                  24387313.642
 -24079820.49249 -18763492.88847  20747109.970    20747109.389
   3830902.49348   2985115.64344  24329587.472    24329590.004
  -7820112.20649  -6093593.42746  22282733.337    22282733.465
 -13794177.16949 -10748702.05346  22493398.316    22493398.850
 -17907765.23149 -13954102.47546  21467329.788    21467330.812
   -408704.80748                  25235835.859
 02  1  2  1  3 30.0000000  0  8G25G11G20G14G29G 1G22G 4
 -20628989.88849 -16074529.42047  21157995.889    21157995.537
  -5081832.48248                  24403508.929
 -24108757.40249 -18786041.12847  20741603.850    20741603.364
   3916490.89048   3051807.79844  24345874.550    24345877.055
  -7753644.38449  -6041800.39146  22295381.789    22295382.214
 -13866623.35049 -10805153.62246  22479612.165    22479613.055
 -17993807.90849 -14021148.70346  21450957.042    21450957.579
   -457702.81148                  25226512.388
 02  1  2  1  4  0.0000000  0  8G25G11G20G14G29G 1G22G 4
 -20577650.87049 -16034524.99647  21167765.497    21167765.040
  -4996639.10348                  24419721.800
 -24137130.62449 -18808150.13147  20736204.621    20736204.066
   4002181.75248   3118579.82144  24362181.953    24362180.660
  -7686971.12549  -5989847.28546  22308069.224    22308069.606
 -13938947.99749 -10861510.47746  22465850.324    22465850.173
 -18079418.61149 -14087858.34946  21434665.483    21434666.748
   -506224.87448                  25217278.944
 02  1  2  1  4 30.0000000  0  8G25G11G20G14G29G 1G22G 4
 -20526033.15749 -15994303.40047  21177587.840    21177587.522
  -4911377.85648                  24435945.697
 -24164949.01649 -18829826.80547  20730910.780    20730910.293
   4087964.19848   3185423.13044  24378504.695    24378506.311
  -7620102.96249  -5937742.32546  22320793.780    22320794.932
 -14011160.74549 -10917780.14746  22452107.794    22452108.093
 -18164604.91949 -14154237.29946  21418455.228    21418455.868
   -554279.73448                  25208133.099
 02  1  2  1  5  0.0000000  0  8G25G11G20G14G29G 1G22G 4
 -20474153.19849 -15953877.45747  21187460.093    21187459.764
  -4826066.25948                  24452180.322
 -24192225.69949 -18851081.36547  20725720.227    20725719.556
   4173823.32848   3252326.20044  24394843.304    24394842.836
  -7553054.44449  -5885496.81146  22333552.951    22333553.574
 -14083275.37149 -10973973.36146  22438384.844    22438385.121
 -18249378.07549 -14220294.30746  21402323.151    21402323.861
   -601880.26148                  25199075.899
 02  1  2  1  5 30.0000000  0  8G25G11G20G14G29G 1G22G 4
 -20421999.07949 -15913237.88647  21197384.734    21197384.346
  -4740693.42848                  24468426.430
 -24218946.01349 -18871902.39347  20720635.399    20720634.956
   4259772.35448   3319299.38044  24411200.027    24411199.893
  -7485812.63549  -5833100.70146  22346348.833    22346349.035
 -14155277.90849 -11030079.23446  22424683.686    22424684.233
 -18333722.04049 -14286016.88046  21386273.510    21386274.294
   -649011.97148                  25190107.837
 02  1  2  1  6  0.0000000  0  8G25G11G20G14G29G 1G22G 4
 -20369558.60449 -15872375.18647  21207363.940    21207363.808
  -4655248.96048                  24484685.029
 -24245094.96149 -18892278.20147  20715659.232    20715658.896
   4345824.24148   3386352.61544  24427573.997    24427575.542
  -7418364.35949  -5780543.70346  22359183.726    22359184.109
 -14227154.06449 -11086086.62746  22411006.064    22411006.138
 -18417620.29849 -14351392.13646  21370307.968    21370308.517
   -695659.81248                  25181230.179
 02  1  2  1  6 30.0000000  0  8G25G11G20G14G29G 1G22G 4
 -20316826.35849 -15831285.13247  21217398.540    21217398.237
  -4569728.69848                  24500960.519
 -24270664.07249 -18912202.18447  20710793.367    20710792.932
   4431985.75548   3453491.35344  24443970.458    24443968.636
  -7350702.33249  -5727820.15446  22372059.668    22372060.251
 -14298895.84749 -11141989.32146  22397353.107    22397353.664
 -18501062.44349 -14416411.99846  21354429.199    21354430.151
   -741814.90648                  25172447.343
 02  1  2  1  7  0.0000000  0  8G25G11G20G14G29G 1G22G 4
 -20263817.73349 -15789979.71147  21227485.916    21227485.611
  -4484149.31248                  24517244.195
 -24295665.71949 -18931683.98747  20706035.940    20706035.685
   4518242.79048   3520704.49144  24460384.882    24460385.873
  -7282840.72849  -5674941.06546  22384973.094    22384973.936
 -14370516.15649 -11197797.35246  22383725.488    22383725.407
 -18584059.36649 -14481084.92746  21338635.724    21338636.616
   -787490.04548                  25163755.647
 02  1  2  1  7 30.0000000  0  8G25G11G20G14G29G 1G22G 4
 -20210548.06449 -15748470.87647  21237622.731    21237622.409
  -4398527.38948                  24533538.568
 -24320112.21549 -18950733.20247  20701383.963    20701383.717
   4604581.29748   3587981.15844  24476814.741    24476816.120
  -7214793.31849  -5621917.19546  22397922.141    22397923.338
 -14442028.08049 -11253520.92846  22370116.172    22370117.224
 -18666622.00649 -14545419.44946  21322924.290    21322925.687
   -832697.33948                  25155152.950
 02  1  2  1  8  0.0000000  0  7G25G11G20G14G29G 1G22
 -20157007.68049 -15706751.10447  21247811.151    21247810.781
  -4312854.51548                  24549841.421
 -24343990.84049 -18969339.92347  20696840.197    20696839.955
   4691012.20148   3655329.73644  24493261.897    24493263.917
  -7146548.90849  -5568739.80646  22410908.859    22410909.417
 -14513419.54049 -11309150.63346  22356530.950    22356531.408
 -18748735.83649 -14609404.25346  21307298.625    21307299.601
 02  1  2  1  8 30.0000000  0  7G25G11G20G14G29G 1G22
 -20103184.31349 -15664810.82647  21258053.705    21258053.226
  -4227119.38848                  24566156.467
 -24367286.53349 -18987492.41647  20692407.304    20692407.111
   4777549.08148   3722760.94644  24509730.300    24509727.858
  -7078094.01849  -5515398.41546  22423935.251    22423935.778
 -14584675.74749 -11364674.95246  22342971.866    22342972.016
 -18830384.10749 -14673026.27946  21291761.689    21291762.770
 02  1  2  1  9  0.0000000  0  7G25G11G20G14G29G 1G22
 -20049119.52049 -15622682.42347  21268341.534    21268341.438
  -4141365.52548                  24582474.833
 -24390038.46049 -19005221.19647  20688077.660    20688077.341
   4864151.11348   3790242.88944  24526208.383    24526205.845
  -7009469.17049  -5461924.56946  22436994.114    22436994.589
 -14655836.52849 -11420124.90646  22329429.608    22329430.115
 -18911604.31849 -14736314.74746  21276306.146    21276306.619
 02  1  2  1  9 30.0000000  0  7G25G11G20G14G29G 1G22
 -19994777.80249 -15580338.23147  21278682.465    21278682.079
  -4055558.37348                  24598801.818
 -24412207.81049 -19022496.01847  20683858.792    20683858.419
   4950855.22548   3857804.38144  24542708.463    24542712.737
  -6940637.08249  -5408289.25646  22450092.404    22450092.859
 -14726863.59249 -11475470.67046  22315914.167    22315914.784
 -18992356.05249 -14799238.15946  21260939.083    21260940.236
 02  1  2  1 10  0.0000000  0  7G25G11G20G14G29G 1G22
 -19940169.77049 -15537786.52247  21289074.130    21289073.718
  -3969709.69348                  24615140.765
 -24433802.24749 -19039322.85647  20679749.643    20679749.366
   5037652.13348   3925438.17544  24559225.919    24559226.751
  -6871606.75549  -5354499.45246  22463228.864    22463229.220
 -14797764.90449 -11530718.44746  22302422.757    22302422.569
 -19072645.20049 -14861801.12146  21245661.069    21245661.631
 02  1  2  1 10 30.0000000  0  8G25G11G20G14G29G 1G22G13
 -19885292.51549 -15495025.03247  21299516.906    21299516.401
  -3883817.90147                  24631482.370
 -24454816.53849 -19055697.63447  20675750.947    20675750.562
   5124545.77648   3993147.32944  24575760.901    24575761.730
  -6802374.63149  -5300552.40746  22476403.389    22476403.473
 -14868535.84049 -11585864.62946  22288954.652    22288954.885
 -19152465.15449 -14923998.49046  21230471.283    21230472.338
         -.53757                  25227046.395
 02  1  2  1 11  0.0000000  0  7G25G11G20G14G29G 1G22
 -19830158.27649 -15452063.30047  21310008.469    21310008.201
  -3797896.58048                  24647835.583
 -24475260.11949 -19071627.70047  20671860.891    20671860.531
   5211525.06148   4060923.22344  24592313.198    24592314.311
  -6732951.45149  -5246456.51946  22489614.180    22489615.361
 -14939186.07549 -11640916.76446  22275510.494    22275510.882
 -19231823.39549 -14985836.08746  21215370.268    21215371.021
 02  1  2  1 11 30.0000000  0  7G25G20G14G29G 1G22G13
 -19774756.80049 -15408893.33047  21320551.432    21320551.034
 -24495119.78149 -19087102.76347  20668081.328    20668081.020
   5298601.58848   4128774.89244  24608883.305    24608883.541
  -6663325.35949  -5192202.56545  22502863.759    22502864.359
 -15009702.82249 -11695864.87046  22262092.299    22262092.315
 -19310704.98649 -15047302.25946  21200359.305    21200360.054
         -.46057                  25192119.442
 02  1  2  1 12  0.0000000  0  7G25G 4G20G14G29G 1G22
 -19719099.15149 -15365523.74247  21331142.589    21331142.259
         -.02258                  25081879.043
 -24514403.87649 -19102129.33647  20664411.379    20664411.026
   5385765.60248   4196694.69444  24625469.470    24625469.576
  -6593506.18349  -5137798.11846  22516149.859    22516150.422
 -15080094.77349 -11750715.74046  22248696.248    22248697.042
 -19389116.83349 -15108402.40446  21185438.556    21185439.330
 02  1  2  1 12 30.0000000  0  7G25G 4G20G14G29G 1G22
 -19663177.89349 -15321948.74547  21341784.007    21341783.758
    -40328.03848                  25074204.357
 -24533102.45649 -19116699.66447  20660853.410    20660853.087
   5473025.51248   4264689.25444  24642075.855    24642076.847
  -6523485.25349  -5083236.46045  22529474.331    22529475.310
 -15150352.15549 -11805461.75146  22235327.191    22235327.365
 -19467047.18949 -15169127.37446  21170608.242    21170609.504
 02  1  2  1 13  0.0000000  0  8G25G 4G20G14G29G 1G22G13
 -19607011.21549 -15278182.51547  21352472.421    21352472.124
    -80172.47548                  25066622.727
 -24551230.98549 -19130825.79447  20657403.911    20657403.485
   5560364.09848   4332745.09344  24658695.777    24658695.070
  -6453279.35949  -5028530.68245  22542833.915    22542835.304
 -15220490.59049 -11860115.07346  22221980.749    22221981.379
 -19544509.77949 -15229487.85346  21155867.909    21155868.890
         -.24657                  25139710.368
 02  1  2  1 13 30.0000000  0  8G25G 4G20G14G29G 1G22G13
 -19550596.63549 -15234223.11247  21363207.238    21363207.224
   -119527.81148                  25059133.961
 -24568784.19349 -19144503.62647  20654063.247    20654062.820
   5647785.32248   4400865.32844  24675330.884    24675332.210
  -6382884.45249  -4973677.61545  22556230.311    22556231.077
 -15290505.23149 -11914671.92546  22208656.237    22208656.814
 -19621497.59249 -15289478.37746  21141217.602    21141218.601
    -91844.66147                  25122231.385
 02  1  2  1 14  0.0000000  0  7G25G 4G20G14G29G 1G22
 -19493916.17049 -15190056.51647  21373993.349    21373993.001
   -158373.31348                  25051742.180
 -24585741.22849 -19157716.90547  20650836.291    20650835.896
   5735308.38048   4469064.90444  24691986.906    24691990.076
  -6312281.10949  -4918662.12945  22569665.179    22569666.458
 -15360375.53849 -11969116.31846  22195361.044    22195361.078
 -19697988.06349 -15349081.35046  21126661.854    21126663.062
 02  1  2  1 14 30.0000000  0  7G25G 4G20G14G29G 1G22
 -19436973.30849 -15145685.46947  21384829.486    21384829.059
   -196710.08248                  25044445.616
 -24602103.37649 -19170466.64047  20647722.731    20647722.326
   5822930.83548                  24708660.414
  -6241471.88549  -4863486.21945  22583140.001    22583140.841
 -15430102.95149 -12023449.36546  22182092.069    22182092.171
 -19773980.71949 -15408296.42046  21112201.490    21112202.514
 02  1  2  1 15  0.0000000  0  7G25G 4G20G14G29G 1G22
 -19379783.75749 -15101122.20047  21395711.939    21395711.857
   -234550.96548                  25037245.426
 -24617883.55349 -19182762.88947  20644720.143    20644719.763
   5910638.12548   4605685.07344  24725350.863    24725353.612
  -6170471.00549  -4808160.94545  22596651.325    22596651.775
 -15499700.56649 -12077681.27346  22168847.464    22168848.184
 -19849486.61749 -15467132.19246  21097832.386    21097833.851
 02  1  2  1 15 30.0000000  0  8G25G 4G20G14G29G 1G22G13
 -19322360.18549 -15056376.57147  21406639.292    21406639.065
   -271906.19848                  25030137.283
 -24633092.12249 -19194613.72947  20641826.052    20641825.742
   5998418.40648   4674084.96044  24742055.104    24742057.428
  -6099290.13949  -4752695.43145  22610196.312    22610197.768
 -15569178.92949 -12131820.25246  22155627.230    22155627.765
 -19924514.56749 -15525595.53646  21083555.792    21083556.205
         -.29358                  25052311.049
 02  1  2  1 16  0.0000000  0  8G25G 4G20G14G29G 1G22G13
 -19264678.39449 -15011429.73147  21417616.182    21417615.744
   -308748.88848                  25023126.608
 -24647702.54049 -19205998.47847  20639045.979    20639045.590
   6086297.06148                  24758778.085
  -6027903.54149  -4697069.58245  22623781.010    22623782.058
 -15638511.34749 -12185845.50946  22142433.848    22142433.505
 -19999035.98149 -15583664.16946  21069374.627    21069375.238
    -91888.18648                  25034824.983
 02  1  2  1 16 30.0000000  0  8G25G 4G20G14G29G 1G22G13
 -19206756.52049 -14966295.82847  21428638.029    21428637.867
   -345094.63248                  25016210.024
 -24661729.99949 -19216928.97447  20636376.637    20636376.298
   6174257.36248   4811101.88544  24775517.056    24775520.187
  -5956328.04849  -4641296.56445  22637401.670    22637403.147
 -15707713.34649 -12239769.14346  22129263.940    22129264.388
 -20073064.63849 -15641348.83846  21055287.391    21055288.231
   -183791.98748                  25017337.025
 02  1  2  1 17  0.0000000  0  8G25G 4G20G14G29G 1G22G13
 -19148595.38549 -14920975.48747  21439705.815    21439705.487
   -380941.02048                  25009388.463
 -24675172.63549 -19227403.76147  20633818.688    20633818.243
   6262300.01948   4879706.31044  24792269.997    24792277.313
  -5884562.97148  -4585375.85445  22651057.882    22651058.928
 -15776783.10749 -12293589.72846  22116121.512    22116121.721
 -20146596.79649 -15698646.62646  21041294.384    21041295.359
   -275709.81248                  24999846.376
 02  1  2  1 17 30.0000000  0  8G25G 4G20G14G29G 1G22G13
 -19090200.25149 -14875472.80247  21450818.345    21450817.845
   -416291.35448                  25002662.373
 -24688033.49049 -19237425.21447  20631371.176    20631370.742
   6350420.81148   4948371.63144  24809039.878    24809040.254
  -5812612.35348  -4529310.52645  22664749.945    22664750.956
 -15845723.80249 -12347309.74946  22103002.787    22103003.390
 -20219633.73749 -15755558.53346  21027396.642    21027397.215
   -367645.20448                  24982349.616
 02  1  2  1 18  0.0000000  0  8G25G 4G20G14G29G 1G22G13
 -19031561.96949 -14829780.64847  21461976.729    21461976.338
   -451134.19248                  24996031.666
 -24700301.59349 -19246984.78247  20629036.399    20629035.988
   6438629.24548   5017105.22044  24825826.272    24825829.449
  -5740466.49948  -4473093.09445  22678478.738    22678479.979
 -15914524.36449 -12400920.57446  22089909.117    22089910.159
 -20292162.59449 -15812074.53046  21013594.079    21013595.075
   -459587.48648                  24964854.871
 02  1  2  1 18 30.0000000  0  8G25G29G 4G20G14G 1G22G13
 -18972681.32649 -14783899.64747  21473181.177    21473180.808
  -5668124.26948  -4416722.59645  22692245.316    22692247.654
   -485467.68048                  24989497.521
 -24711974.78949 -19256080.78947  20626814.894    20626814.515
   6526926.02848   5085907.61044  24842628.345    24842628.829
 -15983182.54149 -12454420.45346  22076844.493    22076845.196
 -20364179.54349 -15868191.64346  20999889.465    20999890.812
   -551534.74548                  24947357.919
 02  1  2  1 19  0.0000000  0  8G25G29G 1G 4G20G14G22G13
 -18913558.79649 -14737830.16447  21484432.007    21484431.633
  -5595584.62348  -4360198.29945  22706048.445    22706049.773
 -16051696.06749 -12507807.60846  22063807.885    22063808.103
   -519289.23648                  24983061.563
 -24723051.03549 -19264711.63847  20624707.372    20624707.055
   6615312.00048   5154779.52344  24859447.095    24859449.312
 -20435680.65349 -15923906.80846  20986283.945    20986284.806
   -643485.07648                  24929859.627
 02  1  2  1 19 30.0000000  0  8G25G29G 1G 4G20G14G22G13
 -18854203.84549 -14691579.57047  21495726.695    21495726.387
  -5522856.05648  -4303526.78045  22719888.519    22719890.110
 -16120072.28149 -12561087.77246  22050794.954    22050795.586
   -552606.13248   -430602.07944  24976720.627    24976724.939
 -24733537.44549 -19272882.87447  20622712.008    20622711.598
   6703778.50948                  24876282.597
 -20506671.23849 -15979224.15046  20972774.877    20972775.729
   -735446.18348                  24912359.924
 02  1  2  1 20  0.0000000  0  8G25G29G 1G 4G20G14G22G13
 -18794615.44649 -14645147.07147  21507065.984    21507066.001
  -5449936.19248  -4246706.16645  22733764.939    22733766.877
 -16188307.92949 -12614258.39846  22037809.843    22037810.217
   -585415.03248                  24970477.547
 -24743430.73449 -19280591.93947  20620829.044    20620828.684
   6792328.26348   5292713.71244  24893133.463    24893135.395
 -20577146.48849 -16034139.92946  20959363.569    20959364.545
   -827415.12848                  24894858.468
 02  1  2  1 20 30.0000000  0  8G25G29G 1G 4G20G14G22G13
 -18734799.89349 -14598537.56647  21518448.554    21518448.250
  -5376830.41048  -4189740.71245  22747676.571    22747678.191
 -16256406.85149 -12667322.48346  22024852.689    22024853.023
   -617720.01348                  24964331.555
 -24752735.11649 -19287842.11547  20619058.481    20619058.246
   6880955.52848   5361773.62044  24909998.564    24910003.318
 -20647108.40749 -16088655.71146  20946050.387    20946051.764
   -919395.88448                  24877356.178
 02  1  2  1 21  0.0000000  0  8G25G29G 1G 4G20G14G22G13
 -18674749.83249 -14551745.33347  21529875.807    21529875.607
  -5303529.66448  -4132623.33345  22761625.289    22761626.578
 -16324359.03049 -12720272.23346  22011920.920    22011921.266
   -649511.03948                  24958280.793
 -24761440.91949 -19294625.86547  20617402.131    20617401.791
   6969669.12648                  24926880.764
 -20716545.59649 -16142762.62046  20932837.217    20932838.064
  -1011378.88048                  24859851.282
 02  1  2  1 21 30.0000000  0  8G25G29G 1G 4G20G14G22G13
 -18614461.59049 -14504767.50247  21541347.968    21541347.933
  -5230029.72348  -4075350.74145  22775611.825    22775612.901
 -16392158.76949 -12773103.18646  21999018.512    21999019.164
   -680782.43348                  24952330.187
 -24769542.28349 -19300938.62447  20615860.564    20615860.304
   7058473.11748                  24943779.789
 -20785450.60849 -16196454.83146  20919724.536    20919725.601
  -1103358.67148                  24842348.263
 02  1  2  1 22  0.0000000  0  8G25G29G 1G 4G20G14G22G13
 -18553949.87049 -14457615.53947  21552863.208    21552863.154
  -5156343.35748  -4017932.84145  22789633.747    22789635.953
 -16459817.74749 -12825824.46646  21986144.701    21986144.412
   -711546.09448                  24946475.975
 -24777051.28449 -19306789.80047  20614431.789    20614431.451
   7147354.42948   5569356.24744  24960693.014    24960692.528
 -20853833.70649 -16249740.35946  20906712.283    20906712.928
  -1195347.21048                  24824844.060
 02  1  2  1 22 30.0000000  0  8G25G29G 1G 4G20G14G22G13
 -18493210.82749 -14410286.44247  21564421.459    21564421.473
  -5082465.65648  -3960365.81445  22803692.855    22803694.830
 -16527329.98349 -12878431.41846  21973296.841    21973296.786
   -741796.00048                  24940719.986
 -24783962.28449 -19312175.00247  20613116.733    20613116.468
   7236317.96948                  24977622.759
 -20921686.95949 -16302613.01246  20893799.707    20893800.703
  -1287339.09348                  24807336.756
 02  1  2  1 23  0.0000000  0  8G25G29G 1G 4G20G14G22G13
 -18432236.89749 -14362774.31947  21576024.364    21576024.301
  -5008388.32148  -3902643.27245  22817789.356    22817789.845
 -16594685.71049 -12930916.38546  21960478.979    21960479.568
   -771522.44148                  24935063.985
 -24790265.72549 -19317086.78047  20611917.100    20611916.794
   7325372.17248                  24994569.757
 -20988999.30849 -16355064.19646  20880990.698    20880991.750
  -1379324.61048                  24789835.113
 02  1  2  1 23 30.0000000  0  8G25G29G 1G 4G20G14G22G13
 -18371040.99749 -14315089.22647  21587669.513    21587669.360
  -4934122.73048  -3844774.04545  22831920.952    22831922.831
 -16661895.10449 -12983287.32446  21947689.693    21947690.243
   -800736.16148                  24929504.152
 -24795972.13549 -19321533.34047  20610830.877    20610830.647
   7414505.23348                  25011530.952
 -21055779.22249 -16407100.49446  20868283.128    20868283.862
  -1471314.09148                  24772327.905
 02  1  2  1 24  0.0000000  0  8G25G29G 1G 4G20G14G22G13
 -18309631.04749 -14267237.34147  21599355.677    21599355.582
  -4859675.43048  -3786763.24945  22846088.534    22846090.136
 -16728963.47849 -13035548.38546  21934927.072    21934926.998
   -829442.39748   -646318.55744  24924040.864    24924037.687
 -24801086.96649 -19325518.92947  20609857.380    20609857.248
   7503710.55048                  25028506.417
 -21122030.58349 -16458724.92747  20855675.137    20855676.312
  -1563313.54048  -1218164.98744  24754821.164    24754820.762
 02  1  2  1 24 30.0000000  0  8G25G29G 1G 4G20G14G22G13
 -18247999.54649 -14219212.81847  21611083.883    21611083.572
  -4785037.84148  -3728604.16245  22860291.763    22860292.947
 -16795881.07849 -13087691.97246  21922193.271    21922193.589
   -857631.54648                  24918676.463
 -24805600.90949 -19329036.29647  20608998.650    20608998.507
   7592996.58248                  25045497.775
 -21187742.12249 -16509928.72747  20843171.564    20843172.541
  -1655313.41648                  24737315.648
 02  1  2  1 25  0.0000000  0  8G25G29G 1G 4G20G14G22G13
 -18186165.05449 -14171030.11747  21622850.692    21622850.274
  -4710227.37848  -3670310.35045  22874527.007    22874529.466
 -16862664.12649 -13139730.70746  21909484.352    21909484.972
   -885320.32848                  24913408.461
 -24809530.83449 -19332098.58447  20608250.963    20608250.661
   7682345.62448                  25062500.233
 -21252928.57149 -16560723.37047  20830766.657    20830767.550
  -1747330.13048                  24719803.266
 02  1  2  1 25 30.0000000  0  8G25G29G 1G 4G20G14G22G13
 -18124110.19649 -14122675.70847  21634659.325    21634659.094
  -4635225.40348  -3611867.34045  22888800.715    22888801.856
 -16929292.44049 -13191648.86846  21896805.703    21896806.119
   -912488.53448   -711029.84444  24908239.637    24908237.821
 -24812856.75149 -19334690.21747  20607617.854    20607617.666
   7771776.55848                  25079518.239
 -21317568.30149 -16611091.99347  20818465.731    20818467.098
  -1839343.74348                  24702295.612
 02  1  2  1 26  0.0000000  0  8G25G29G 4G20G14G 1G22G13
 -18061835.93349 -14074150.34547  21646509.607    21646509.590
  -4560031.57248  -3553274.82545  22903108.994    22903110.018
   -939135.25048                  24903168.919
 -24815577.59649 -19336810.37047  20607100.110    20607099.963
   7861289.37448                  25096552.244
 -16995764.45549 -13243445.24446  21884156.671    21884157.044
 -21381658.51249 -16661032.41947  20806270.407    20806271.289
  -1931353.26548                  24684784.748
 02  1  2  1 26 30.0000000  0  8G25G29G 4G20G14G 1G22G13
 -17999336.50049 -14025449.51947  21658403.074    21658403.031
  -4484639.00748  -3494527.43645  22917455.317    22917457.102
   -965252.66548   -752144.74944  24898197.179    24898197.210
 -24817685.94349 -19338453.25247  20606699.091    20606698.733
   7950890.76848   6195485.58744  25113603.612    25113607.782
 -17062072.19949 -13295113.61046  21871538.341    21871538.774
 -21445189.64949 -16710537.20147  20794180.655    20794181.150
  -2023350.64748                  24667279.793
 02  1  2  1 27  0.0000000  0  8G25G29G 4G20G14G 1G22G13
 -17936622.90249 -13976581.81146  21670336.826    21670336.812
  -4409057.85848  -3435633.11045  22931838.802    22931840.202
   -990849.91948                  24893325.248
 -24819190.86449 -19339625.92847  20606412.567    20606412.419
   8040570.30448                  25130668.759
 -17128224.34049 -13346660.73546  21858950.066    21858950.168
 -21508169.10449 -16759612.10147  20782195.923    20782196.723
  -2115345.50148                  24649772.628
 02  1  2  1 27 30.0000000  0  8G25G29G 4G20G14G 1G22G13
 -17873691.83749 -13927544.64646  21682312.376    21682311.912
  -4333283.94948  -3376588.57945  22946257.472    22946258.826
  -1015921.85048                  24888556.257
 -24820087.48749 -19340324.60847  20606241.692    20606241.647
   8130332.19148                  25147750.409
 -17194215.20449 -13398082.18446  21846392.759    21846393.062
 -21570589.98549 -16808251.74747  20770317.850    20770318.479
  -2207331.88748                  24632269.075
 02  1  2  1 28  0.0000000  0  8G25G29G 4G20G14G 1G22G13
 -17810553.93249 -13878346.31146  21694327.035    21694327.023
  -4257326.52748  -3317401.05045  22960711.926    22960712.923
  -1040476.90048   -810760.96744  24883884.902    24883880.820
 -24820384.47449 -19340556.03847  20606185.079    20606185.137
   8220167.19748                  25164846.285
 -17260053.12749 -13449384.46146  21833863.880    21833864.779
 -21632458.97649 -16856461.35247  20758544.657    20758545.238
  -2299318.72748                  24614764.920
 02  1  2  1 28 30.0000000  0  8G25G 4G20G14G29G 1G22G13
 -17747221.11949 -13828996.09646  21706378.805    21706378.865
  -1064524.65248                  24879308.790
 -24820091.59249 -19340327.83247  20606241.060    20606240.932
   8310064.54948                  25181951.971
  -4181196.25048  -3258078.85645  22975199.216    22975201.071
 -17325747.11649 -13500574.58046  21821362.548    21821363.233
 -21693784.09149 -16904247.16347  20746874.326    20746875.281
  -2391315.52148                  24597256.832
 02  1  2  1 29  0.0000000  0  8G25G 4G20G14G29G 1G22G13
 -17683680.50749 -13779483.95846  21718470.374    21718469.907
  -1088050.10648   -847831.04544  24874831.046    24874826.358
 -24819193.83349 -19339628.28947  20606412.130    20606412.002
   8400038.14048                  25199073.764
  -4104878.68148  -3198610.70245  22989721.854    22989723.198
 -17391281.76749 -13551640.53846  21808892.654    21808892.805
 -21754548.49149 -16951596.04547  20735311.841    20735312.738
  -2483306.73948                  24579753.545
 02  1  2  1 29 30.0000000  0  8G25G 4G20G14G29G 1G22G13
 -17619923.94249 -13729803.54746  21730602.393    21730602.473
  -1111043.32548                  24870453.305
 -24817681.50249 -19338449.86347  20606699.998    20606699.804
   8490096.95748                  25216212.377
  -4028365.06648  -3138989.80445  23004282.152    23004283.565
 -17456646.56449 -13602574.14546  21796453.677    21796453.971
 -21814740.36949 -16998498.80647  20723857.645    20723858.241
  -2575282.12048  -2006711.45044  24562249.500    24562252.910
 02  1  2  1 30  0.0000000  0  8G25G 4G20G14G29G 1G22G13
 -17555963.47649 -13679964.25946  21742773.947    21742773.902
  -1133514.40048                  24866177.005
 -24815564.79849 -19336800.50047  20607102.808    20607102.457
   8580230.01648   6685877.69544  25233364.084    25233367.769
  -3951666.13948  -3079224.51945  23018877.035    23018879.186
 -17521851.11049 -13653382.88046  21784045.255    21784045.781
 -21874368.37249 -17044962.19547  20712510.464    20712511.518
  -2667251.91548                  24544749.010
 02  1  2  1 30 30.0000000  0  8G25G 4G20G14G29G 1G22G13
 -17491810.61749 -13629975.05846  21754982.123    21754982.001
  -1155473.19948                  24861999.474
 -24812853.78149 -19334688.03447  20607618.533    20607618.350
   8670426.78748                  25250527.889
  -3874792.34448  -3019322.98145  23033506.105    23033507.776
 -17586904.41549 -13704073.76946  21771666.503    21771667.031
 -21933440.17749 -17090992.18147  20701269.847    20701270.565
  -2759225.18048                  24527246.632
 02  1  2  1 31  0.0000000  0  8G25G 4G20G14G29G 1G22G13
 -17427452.94649 -13579826.26146  21767228.955    21767229.017
  -1176905.00948                  24857923.904
 -24809533.93449 -19332101.15747  20608250.160    20608250.024
   8760700.53848                  25267707.390
  -3797730.18048  -2959274.63945  23048171.338    23048172.369
 -17651791.52249 -13754635.15446  21759318.925    21759319.095
 -21991939.64749 -17136576.19547  20690137.937    20690138.678
  -2851187.45948                  24509746.626
 02  1  2  1 31 30.0000000  0  8G25G 4G20G14G29G 1G22G13
 -17362887.30849 -13529515.41346  21779514.953    21779515.016
  -1197805.11048   -933354.30644  24853946.559    24853944.161
 -24805600.70149 -19329036.31547  20608998.819    20608998.523
   8851055.45248                  25284901.017
  -3720475.52948  -2899076.32745  23062871.332    23062873.183
 -17716506.91549 -13805062.73246  21747004.045    21747004.252
 -22049860.25449 -17181709.14347  20679115.856    20679116.960
  -2943133.25748  -2293348.60144  24492250.827    24492253.129
 02  1  2  1 32  0.0000000  0  8G25G 4G20G14G29G 1G22G13
 -17298123.49249 -13479050.13746  21791839.632    21791839.786
  -1218181.73948                  24850067.250
 -24801062.46949 -19325500.04947  20609862.625    20609862.314
   8941482.42848                  25302108.692
  -3643037.36648  -2838735.02045  23077608.439    23077610.608
 -17781058.29849 -13855362.50846  21734720.116    21734720.429
 -22107208.58349 -17226396.16547  20668202.497    20668203.532
  -3035071.09648                  24474754.412
 02  1  2  1 32 30.0000000  0  8G25G 4G20G14G29G 1G22G13
 -17233170.83349 -13428437.71046  21804199.676    21804199.346
  -1238042.02748                  24846286.129
 -24795926.64549 -19321498.12147  20610839.977    20610839.717
   9031973.37548                  25319329.373
  -3565423.56548  -2778256.84645  23092376.951    23092379.433
 -17845452.07449 -13905539.48246  21722466.628    21722467.026
 -22163989.89649 -17270641.35047  20657397.542    20657398.186
  -3127007.43048                  24457260.482
 02  1  2  1 33  0.0000000  0  8G25G 4G20G14G29G 1G22G13
 -17168022.45849 -13377672.77946  21816597.050    21816597.231
  -1257377.33448                  24842606.170
 -24790184.46249 -19317023.70947  20611932.618    20611932.347
   9122535.99848   7108450.55044  25336562.692    25336563.915
  -3487626.15048  -2717635.58945  23107181.494    23107184.278
 -17909678.76849 -13955586.25446  21710244.905    21710245.016
 -22220193.69949 -17314436.53547  20646702.244    20646703.002
  -3218932.92948  -2508257.31944  24439768.239    24439763.692
 02  1  2  1 33 30.0000000  0  8G25G 4G20G14G29G 1G22G13
 -17102669.95849 -13326748.79746  21829033.345    21829033.421
  -1276177.42648   -994423.60344  24839030.519    24839029.487
 -24783826.26749 -19312069.28847  20613142.471    20613142.197
   9213179.84948   7179083.47544  25353811.960    25353810.240
  -3409635.81148  -2656864.01045  23122023.993    23122024.667
 -17973727.50549 -14005494.36046  21698056.607    21698056.797
 -22275808.24449 -17357772.55247  20636119.060    20636120.131
  -3310837.45548                  24422278.069
 02  1  2  1 34  0.0000000  0  8G25G 4G20G14G29G 1G22G13
 -17037107.96049 -13275661.56346  21841508.981    21841509.358
  -1294435.48948                  24835557.515
 -24776845.35349 -19306629.63347  20614470.986    20614470.736
   9303910.93748                  25371078.773
  -3331446.19848  -2595937.19045  23136901.521    23136904.836
 -18037590.79549 -14055257.96446  21685903.621    21685903.933
 -22330824.74849 -17400642.56347  20625650.282    20625651.392
  -3402713.55448  -2651462.93044  24404795.332    24404795.372
 02  1  2  1 34 30.0000000  0  8G25G 4G20G14G29G 1G22G13
 -16971366.56649 -13224434.53346  21854019.294    21854019.259
  -1312179.74348  -1022477.31744  24832181.118    24832177.234
 -24769270.01249 -19300726.79147  20615912.409    20615912.204
   9394700.39748                  25388353.959
  -3253086.28148  -2534877.62345  23151813.014    23151814.894
 -18101296.01449 -14104898.39846  21673781.200    21673781.030
 -22385269.96249 -17443067.41247  20615289.144    20615290.099
  -3494588.90748                  24387311.386
 02  1  2  1 35  0.0000000  0  8G25G 4G20G14G29G 1G22G13
 -16905432.39249 -13173057.29146  21866566.358    21866566.597
  -1329395.00248  -1035891.80244  24828904.974    24828904.397
 -24761085.41649 -19294349.20447  20617469.849    20617469.628
   9485562.55948                  25405646.251
  -3174541.50648  -2473674.03645  23166760.619    23166762.292
 -18164827.12449 -14154403.16546  21661691.456    21661691.798
 -22439126.75049 -17485033.75047  20605040.485    20605041.211
  -3586447.62848                  24369831.724
 02  1  2  1 35 30.0000000  0  8G25G 4G20G14G29G 1G22G13
 -16839313.41649 -13121536.05346  21879148.346    21879148.297
  -1346087.86948                  24825727.364
 -24752298.06349 -19287501.93547  20619142.535    20619142.403
   9576489.89448                  25422949.696
  -3095819.12648  -2412332.03845  23181740.444    23181742.796
 -18228189.96549 -14203776.81346  21649633.720    21649634.239
 -22492400.02849 -17526545.40147  20594903.574    20594904.095
  -3678295.99048  -2866202.40744  24352353.423    24352350.622
 02  1  2  1 36  0.0000000  0  8G25G 4G20G14G29G 1G22G13
 -16773009.51749 -13069870.72246  21891765.764    21891765.565
  -1362256.31048  -1061497.99444  24822648.951    24822651.473
 -24742906.33649 -19280183.72947  20620929.392    20620929.209
   9667483.91248                  25440264.474
  -3016917.70648  -2350850.55645  23196754.716    23196757.951
 -18291381.42049 -14253016.91446  21637609.888    21637609.989
 -22545085.98249 -17567599.39047  20584877.448    20584877.991
  -3770131.19548  -2937762.28144  24334877.131    24334878.820
 02  1  2  1 36 30.0000000  0  8G25G 4G20G14G29G 1G22G13
 -16706517.17249 -13018058.54846  21904418.697    21904418.876
  -1377895.36348                  24819673.242
 -24732905.54449 -19272390.92247  20622832.318    20622832.021
   9758548.83248                  25457594.502
  -2937832.77948  -2289226.11945  23211804.722    23211807.899
 -18354395.57849 -14302118.86846  21625617.910    21625618.111
 -22597177.91649 -17608190.50447  20574964.696    20574965.368
  -3861948.01848  -3009307.82944  24317405.889    24317402.086
 02  1  2  1 37  0.0000000  0  8G25G 4G20G14G29G 1G22G13
 -16639833.13649 -12966097.00946  21917108.363    21917108.763
  -1393000.21048  -1085454.26044  24816800.380    24816801.337
 -24722290.94249 -19264119.82147  20624852.592    20624852.354
   9849688.97048                  25474938.584
  -2858560.31648  -2227455.52045  23226889.870    23226890.737
 -18417226.75049 -14351078.22446  21613660.591    21613661.073
 -22648669.25549 -17648313.62947  20565166.246    20565166.930
  -3953740.82248  -3080834.63044  24299937.787    24299937.312
 02  1  2  1 37 30.0000000  0  8G25G 4G20G14G29G 1G22G13
 -16572967.14649 -12913993.69846  21929832.412    21929832.964
  -1407578.93448                  24814026.376
 -24711070.71149 -19255376.80447  20626987.757    20626987.417
   9940895.39448                  25492293.614
  -2779108.67948  -2165545.26945  23242008.899    23242010.114
 -18479882.30349 -14399900.74146  21601738.579    21601738.932
 -22699566.39849 -17687973.73947  20555481.535    20555482.010
  -4045516.88648  -3152348.46544  24282473.477    24282472.081
 02  1  2  1 38  0.0000000  0  8G25G 4G20G14G29G 1G22G13
 -16505911.48149 -12861742.57546  21942592.391    21942592.349
  -1421622.40448                  24811354.767
 -24699236.17049 -19246155.10347  20629239.674    20629239.204
  10032176.36748                  25509664.546
  -2699469.47448  -2103488.89745  23257164.059    23257164.988
 -18542352.10649 -14448578.50946  21589851.397    21589851.383
 -22749858.43149 -17727162.33147  20545911.020    20545911.320
  -4137266.63448  -3223841.75744  24265013.949    24265013.613
 02  1  2  1 38 30.0000000  0  8G25G 4G20G14G29G 1G22G13
 -16438679.93549 -12809354.39946  21955386.408    21955386.791
  -1435143.24548  -1118292.99544  24808781.620    24808779.877
 -24686799.86249 -19236464.49347  20631606.290    20631606.113
  10123519.22248                  25527047.923
  -2619655.69948  -2041296.48245  23272352.054    23272355.002
 -18604647.85949 -14497120.66246  21577996.024    21577996.439
 -22799556.10549 -17765887.79347  20536453.559    20536454.168
  -4229001.58048  -3295323.47344  24247557.787    24247555.450
 02  1  2  1 39  0.0000000  0  7G25G 4G20G29G 1G22G13
 -16371280.50249 -12756835.40346  21968212.459    21968212.897
  -1448147.77348  -1128426.39044  24806306.540    24806303.387
 -24673768.65549 -19226310.32747  20634086.160    20634085.933
  -2539674.33948  -1978973.50145  23287572.379    23287573.415
 -18666774.76949 -14545531.24346  21566173.913    21566174.136
 -22848664.14949 -17804153.81047  20527108.482    20527109.148
  -4320727.69748  -3366798.37544  24230101.853    24230100.997
 02  1  2  1 39 30.0000000  0  7G25G 4G29G20G 1G22G13
 -16303690.10449 -12704167.61346  21981074.157    21981074.332
  -1460611.48048                  24803933.560
  -2459501.21448  -1916501.10045  23302828.845    23302830.785
 -24660117.94849 -19215673.43547  20636683.781    20636683.593
 -18728707.02949 -14593790.15946  21554388.912    21554388.667
 -22897156.26849 -17841939.89647  20517880.761    20517881.356
  -4412419.63248  -3438246.60144  24212654.688    24212656.299
 02  1  2  1 40  0.0000000  0  7G25G 4G20G29G 1G22G13
 -16235935.13249 -12651371.58446  21993967.940    21993967.773
  -1472559.26148                  24801659.329
 -24645873.08049 -19204573.56247  20639394.489    20639394.267
  -2379161.89748  -1853899.17544  23318116.357    23318117.817
 -18790468.70749 -14641916.14346  21542635.854    21542635.825
 -22945055.84449 -17879264.25647  20508765.866    20508766.645
  -4504101.51148  -3509687.00444  24195207.457    24195202.913
 02  1  2  1 40 30.0000000  0  7G25G 4G29G20G 1G22G13
 -16168003.23549 -12598437.70446  22006895.029    22006894.915
  -1483977.61048                  24799486.464
  -2298642.99448  -1791157.33145  23333439.267    23333442.592
 -24631020.42749 -19193000.09047  20642220.625    20642220.347
 -18852044.91549 -14689897.60746  21530918.641    21530918.422
 -22992347.20349 -17916114.67347  20499766.596    20499767.364
  -4595758.78948  -3581108.21644  24177766.006    24177763.842
 02  1  2  1 41  0.0000000  0  7G25G 4G29G20G 1G22G13
 -16099878.53149 -12545353.57846  22019858.488    22019858.789
  -1494849.10248                  24797418.313
  -2217927.71648  -1728262.43545  23348799.179    23348802.232
 -24615543.12549 -19180939.88147  20645165.828    20645165.541
 -18913417.14449 -14737720.13046  21519239.272    21519239.211
 -23039011.57149 -17952476.52447  20490886.619    20490887.573
  -4687373.31348  -3652496.16144  24160331.931    24160331.342
 02  1  2  1 41 30.0000000  0  7G25G 4G29G20G 1G22G13
 -16031592.33649 -12492143.61246  22032853.210    22032853.033
  -1505203.83448  -1172885.61144  24795448.046    24795448.005
  -2137046.54448  -1665238.32544  23364190.031    23364190.877
 -24599471.43449 -19168416.51147  20648224.759    20648224.337
 -18974614.28749 -14785406.22246  21507594.233    21507594.228
 -23085077.10949 -17988371.74547  20482120.477    20482121.440
  -4778974.13048                  24142901.222
 02  1  2  1 42  0.0000000  0  7G25G 4G29G20G 1G22G13
 -15963140.39649 -12438804.49246  22045879.129    22045879.346
  -1515036.13948  -1180547.13944  24793578.008    24793579.241
  -2055994.30848  -1602080.89744  23379613.772    23379615.912
 -24582800.01449 -19155425.82147  20651397.346    20651396.905
 -19035629.67849 -14832950.69246  21495983.401    21495983.534
 -23130536.49849 -18023794.64147  20473470.031    20473470.733
  -4870554.79648  -3795234.93344  24125474.012    24125472.468
 02  1  2  1 42 30.0000000  0  7G25G 4G29G20G 1G22G13
 -15894516.61949 -12385331.46946  22058937.683    22058937.991
  -1524339.13348                  24791808.297
  -1974764.21548  -1538784.88944  23395072.398    23395073.318
 -24565521.98249 -19141962.44747  20654685.177    20654684.729
 -19096454.86949 -14880346.95346  21484408.673    21484408.940
 -23175380.97049 -18058738.39047  20464936.181    20464936.777
  -4962107.56248  -3866574.75444  24108050.749    24108050.192
 02  1  2  1 43  0.0000000  0  7G25G 4G29G20G 1G22G13
 -15825729.44849 -12331731.13746  22072027.685    22072027.589
  -1533119.88548  -1194638.35444  24790137.238    24790135.118
  -1893363.82248  -1475356.20245  23410561.748    23410564.216
 -24547644.71349 -19128032.13547  20658086.917    20658086.868
 -19157095.88749 -14927599.69346  21472868.768    21472869.249
 -23219615.97549 -18093207.23647  20456518.594    20456519.537
  -5053638.05348  -3937897.21244  24090635.010    24090632.897
 02  1  2  1 43 30.0000000  0  7G25G 4G29G20G 1G22G13
 -15756770.35749 -12277996.84246  22085150.055    22085149.934
  -1541367.94448  -1201065.44244  24788567.592    24788564.174
  -1811783.17048  -1411787.04144  23426086.609    23426090.050
 -24529158.29449 -19113627.16047  20661604.268    20661604.220
 -19217541.12249 -14974699.88446  21461366.832    21461367.011
 -23263229.57749 -18127191.88247  20448219.497    20448220.441
  -5145135.27548  -4009193.75144  24073222.738    24073222.647
 02  1  2  1 44  0.0000000  0  7G25G 4G29G20G 1G22G13
 -15687646.44449 -12224134.11646  22098304.174    22098304.160
  -1549090.01248  -1207082.60544  24787096.648    24787099.296
  -1730029.20148  -1348082.80144  23441643.902    23441646.404
 -24510069.15349 -19098752.53447  20665237.030    20665236.915
 -19277795.70949 -15021651.51346  21449900.939    21449901.355
 -23306226.38649 -18160695.91147  20440037.345    20440038.365
  -5236604.52548  -4080468.50544  24055816.974    24055817.186
 02  1  2  1 44 30.0000000  0  7G25G 1G 4G20G29G22G13
 -15618362.50649 -12170146.70446  22111488.150    22111488.245
 -19337861.85849 -15068456.30846  21438470.269    21438470.718
  -1556289.39548  -1212692.55544  24785725.789    24785732.364
 -24490381.11049 -19083411.23147  20668983.967    20668983.802
  -1648105.37248  -1284246.24144  23457234.019    23457235.353
 -23348608.18149 -18193720.70947  20431972.464    20431973.435
  -5328048.46748  -4151723.50244  24038415.539    24038416.366
 02  1  2  1 45  0.0000000  0  7G25G 1G 4G20G29G22G13
 -15548925.61949 -12116040.09846  22124701.770    22124702.079
 -19397744.26749 -15115117.92846  21427075.354    21427075.673
  -1562972.21148                  24784453.134
 -24470100.70249 -19067608.34547  20672843.033    20672842.928
  -1566018.31948  -1220282.51145  23472854.385    23472858.418
 -23390379.43349 -18226269.75547  20424023.453    20424024.405
  -5419472.15848  -4222962.75244  24021017.515    24021016.861
 02  1  2  1 45 30.0000000  0  7G25G 1G 4G20G29G22G13
 -15479326.66549 -12061807.21646  22137946.286    22137946.204
 -19457430.78249 -15161626.91447  21415717.204    21415717.384
  -1569127.90048                  24783282.187
 -24449217.26949 -19051335.56847  20676817.074    20676816.777
  -1483757.64848  -1156183.49445  23488508.690    23488511.892
 -23431527.80549 -18258333.43447  20416193.074    20416193.777
  -5510863.60548  -4294176.82944  24003627.186    24003624.014
 02  1  2  1 46  0.0000000  0  7G25G 1G 4G20G29G22G13
 -15409553.50249 -12007438.58446  22151223.320    22151223.579
 -19516907.23449 -15207972.20947  21404398.715    21404399.107
  -1574743.81848                  24782213.631
 -24427718.45649 -19034583.27647  20680908.200    20680908.006
  -1401310.81448  -1091939.39045  23504197.199    23504199.240
 -23472038.77349 -18289900.43747  20408484.248    20408484.859
  -5602208.86648  -4365354.97644  23986243.848    23986244.019
 02  1  2  1 46 30.0000000  0  7G25G 1G 4G20G29G22G13
 -15339613.37849 -11952939.84846  22164532.851    22164533.288
 -19576178.25949 -15254157.43147  21393120.682    21393120.993
  -1579825.77148                  24781246.852
 -24405610.55449 -19017356.36947  20685115.091    20685114.858
  -1318684.04448  -1027555.12144  23519920.344    23519924.641
 -23511916.81349 -18320974.24847  20400895.875    20400896.662
  -5693512.82748  -4436500.90144  23968870.116    23968869.485
 02  1  2  1 47  0.0000000  0  7G25G 1G 4G29G20G22G13
 -15269516.80449 -11898319.21346  22177871.815    22177872.218
 -19635251.87849 -15300188.83347  21381878.702    21381878.941
  -1584383.55948                  24780381.157
  -1235887.23048   -963038.31045  23535677.987    23535679.947
 -24382903.22849 -18999662.37947  20689436.219    20689436.046
 -23551169.64549 -18351560.88647  20393426.121    20393426.849
  -5784783.88448  -4507621.22444  23951501.963    23951501.200
 02  1  2  1 47 30.0000000  0  7G25G 1G 4G20G29G22G13
 -15199264.58349 -11843577.29746  22191240.502    22191240.780
 -19694126.47849 -15346065.15847  21370675.521    21370675.886
  -1588416.80448                  24779612.979
 -24359596.83249 -18981501.58347  20693871.189    20693871.276
  -1152920.27248   -898388.93545  23551464.590    23551468.858
 -23589795.53849 -18381658.99947  20386076.384    20386077.138
  -5876020.72448  -4578714.83144  23934139.479    23934137.931
 02  1  2  1 48  0.0000000  0  7G25G 1G 4G20G29G22G13
 -15128851.32149 -11788709.89946  22204639.882    22204639.835
 -19752794.13649 -15391780.22847  21359511.820    21359511.923
  -1591919.45248                  24778947.282
 -24335685.41849 -18962869.33947  20698421.526    20698421.423
  -1069777.12148   -833602.34044  23567286.728    23567289.188
 -23627786.46949 -18411262.32747  20378846.817    20378847.458
  -5967215.11548  -4649775.41944  23916786.613    23916786.048
 02  1  2  1 48 30.0000000  0  7G25G 1G 4G20G29G22G13
 -15058283.02549 -11733721.70346  22218068.307    22218068.420
 -19811258.35849 -15437336.77747  21348386.059    21348386.461
  -1594896.39148                  24778380.572
 -24311173.92449 -18943769.50647  20703085.727    20703085.917
   -986462.87748   -768682.34145  23583141.282    23583145.851
 -23665145.67049 -18440373.39547  20371737.608    20371738.535
  -6058371.85348  -4720806.61544  23899438.577    23899438.230
 02  1  2  1 49  0.0000000  0  7G25G 1G 4G20G29G22G13
 -14987550.41449 -11678605.46446  22231528.667    22231528.821
 -19869507.36749 -15482725.62947  21337301.773    21337302.284
  -1597337.35848                  24777916.923
 -24286052.44649 -18924194.35947  20707866.417    20707866.465
   -902967.42248   -703621.17645  23599029.890    23599033.100
 -23701861.11449 -18468982.84647  20364750.251    20364751.231
  -6149478.76048  -4791798.98944  23882103.103    23882102.917
 02  1  2  1 49 30.0000000  0  7G25G 1G 4G20G29G22G13
 -14916658.78749 -11623365.30646  22245018.569    22245019.100
 -19927544.23249 -15527949.17747  21326257.596    21326257.787
  -1599247.09748  -1246166.05344  24777552.608    24777551.392
 -24260326.06649 -18904147.86647  20712762.192    20712762.106
   -819295.58748   -638422.56944  23614953.001    23614956.578
 -23737936.01149 -18497093.17147  20357885.764    20357886.673
  -6240539.05048  -4862755.07244  23864773.511    23864772.555
 02  1  2  1 50  0.0000000  0  7G25G 1G 4G20G29G22G13
 -14845617.88949 -11568008.83246  22258537.508    22258537.798
 -19985375.88249 -15573012.81047  21315252.194    21315252.572
  -1600634.04448  -1247246.80044  24777289.687    24777289.150
 -24234003.41449 -18883636.74647  20717771.405    20717771.248
   -735456.13148   -573093.36644  23630907.058    23630911.172
 -23773377.20449 -18524709.70347  20351141.786    20351142.529
  -6331559.97148  -4933680.45844  23847454.018    23847451.376
 02  1  2  1 50 30.0000000  0  7G 1G25G 4G20G29G22G13
 -20043007.45949 -15617920.54747  21304285.721    21304286.070
 -14774435.17449 -11512541.85746  22272083.407    22272083.651
  -1601505.08348  -1247925.52044  24777122.474    24777122.819
 -24207091.65849 -18862666.58347  20722892.462    20722892.306
   -651455.87148   -507638.85644  23646891.125    23646894.434
 -23808189.92749 -18551836.51847  20344516.936    20344517.698
  -6422546.91948  -5004579.34544  23830139.091    23830137.876
 02  1  2  1 51  0.0000000  0  7G 1G25G 4G20G29G22G13
 -20100432.18249 -15662667.09647  21293358.535    21293358.788
 -14703106.75349 -11456961.35446  22285656.528    22285657.060
  -1601855.47148                  24777056.587
 -24179586.37549 -18841233.93347  20728126.406    20728126.307
   -567290.03748   -442055.32344  23662908.077    23662911.230
 -23842367.69249 -18578468.56147  20338013.368    20338014.213
  -6513493.80248  -5075447.07244  23812832.801    23812830.322
 02  1  2  1 51 30.0000000  0  7G 1G25G 4G20G29G22G13
 -20157650.86149 -15707253.09147  21282469.967    21282470.289
 -14631635.51549 -11401269.55546  22299257.290    22299257.868
  -1601687.70048                  24777088.094
 -24151490.34349 -18819340.96047  20733473.145    20733472.824
   -482961.26648   -376344.83444  23678955.565    23678960.104
 -23875911.36849 -18604606.51947  20331630.483    20331631.125
  -6604401.46948  -5146284.20144  23795533.504    23795530.522
 02  1  2  1 52  0.0000000  0  7G 1G25G 4G20G29G22G13
 -20214664.18949 -15751679.06947  21271620.694    21271621.128
 -14560024.75849 -11345469.04646  22312884.442    22312884.805
  -1601004.11548                  24777217.198
 -24122806.02249 -18796989.56847  20738931.511    20738931.315
   -398471.96848   -310509.26944  23695034.383    23695036.980
 -23908821.38649 -18630250.71547  20325367.793    20325368.612
  -6695270.70748  -5217091.38444  23778240.967    23778240.425
 02  1  2  1 52 30.0000000  0  7G 1G25G 4G20G29G22G13
 -20271468.29849 -15795942.02747  21260811.431    21260811.519
 -14488273.06749 -11289558.72946  22326538.281    22326538.157
  -1599802.67848                  24777446.248
 -24093531.80549 -18774178.52947  20744502.352    20744502.059
   -313820.08748   -244547.02544  23711141.560    23711145.014
 -23941094.26049 -18655398.43147  20319226.602    20319227.347
  -6786097.92648  -5287865.82744  23760958.366    23760956.678
 02  1  2  1 53  0.0000000  0  7G 1G25G 4G20G29G22G13
 -20328043.70149 -15840026.77247  21250045.041    21250045.533
 -14416363.32349 -11233525.24546  22340222.281    22340222.367
  -1598065.61948                  24777774.760
 -24063650.19749 -18750894.19747  20750188.310    20750188.358
   -228987.72248   -178444.14644  23727286.176    23727289.359
 -23972710.66249 -18680034.60147  20313210.444    20313211.122
  -6876863.62248  -5358592.37144  23743685.051    23743685.671
 02  1  2  1 53 30.0000000  0  7G 1G25G 4G20G29G22G13
 -20384399.05749 -15883940.04947  21239321.232    21239321.643
 -14344306.99649 -11177377.55546  22353933.878    22353934.784
  -1595803.66748                  24778205.967
 -24033171.98449 -18727144.97347  20755988.064    20755988.070
   -143985.63948   -112209.03544  23743461.052    23743465.160
 -24003679.52449 -18704166.19647  20307316.763    20307317.625
  -6967577.35948  -5429278.33844  23726423.548    23726423.386
 02  1  2  1 54  0.0000000  0  7G 1G25G 4G20G29G22G13
 -20440536.74049 -15927683.71847  21228638.768    21228639.289
 -14272108.84449 -11121119.34746  22367673.425    22367673.708
  -1593021.00548                  24778735.503
 -24002101.73449 -18702934.42647  20761900.743    20761900.482
    -58817.96548    -45844.84244  23759667.525    23759673.678
 -24034003.42849 -18727795.23847  20301546.279    20301547.079
  -7058241.19248  -5499925.52544  23709170.893    23709168.437
 02  1  2  1 54 30.0000000  0  7G 1G25G 4G20G29G22G13
 -20496457.89649 -15971258.65847  21217997.039    21217997.578
 -14199772.44649 -11064753.41046  22381438.676    22381439.211
  -1589720.48748  -1238742.72944  24779363.780    24779368.802
 -23970442.86149 -18678265.21347  20767925.288    20767925.071
     26512.45848     20646.10944  23775906.220    23775912.255
 -24063683.59949 -18750922.68047  20295898.410    20295899.248
  -7148856.58248  -5570534.94944  23691926.823    23691926.549
 02  1  2  1 55  0.0000000  0  7G 1G25G 4G20G29G22G13
 -20552156.91949 -16014660.51047  21207398.097    21207398.370
 -14127294.31449 -11008277.04546  22395230.290    22395230.980
  -1585898.57348                  24780091.053
 -23938191.86749 -18653134.60947  20774062.087    20774062.408
    112009.22448     87266.71744  23792175.934    23792179.159
 -24092714.95649 -18773544.54547  20290373.994    20290374.762
  -7239418.36248  -5641101.82045  23674693.781    23674693.044
 02  1  2  1 55 30.0000000  0  7G 1G25G 4G20G29G22G13
 -20607632.58149 -16057888.32447  21196841.542    21196841.907
 -14054676.12549 -10951691.54046  22409049.494    22409049.787
  -1581555.97848                  24780916.924
 -23905350.05649 -18627543.62647  20780311.857    20780311.928
    197671.83248    154016.49044  23808476.493    23808483.200
 -24121096.49449 -18795660.05147  20284973.036    20284973.731
  -7329925.49048  -5711626.49244  23657469.997    23657469.098
 02  1  2  1 56  0.0000000  0  7G 1G25G 4G20G29G22G13
 -20662890.51449 -16100946.46847  21186326.110    21186326.322
 -13981925.98349 -10895003.21246  22422893.404    22422893.910
  -1576700.22748                  24781841.740
 -23871925.06449 -18601498.22347  20786673.074    20786673.076
    283492.67848    220889.63344  23824809.105    23824811.788
 -24148834.43449 -18817274.05647  20279694.832    20279695.694
  -7420383.53348  -5782113.31144  23640258.308    23640256.829
 02  1  2  1 56 30.0000000  0  7G 1G25G 4G20G29G22G13
 -20717924.37049 -16143830.01747  21175853.357    21175853.685
 -13909039.77249 -10838208.85146  22436762.867    22436763.540
  -1571326.95548                  24782864.441
 -23837912.65049 -18574995.08647  20793144.900    20793145.227
    369476.26048    287889.53744  23841170.617    23841175.120
 -24175922.53349 -18838381.68347  20274540.157    20274540.823
  -7510786.61248  -5852557.25744  23623052.851    23623051.125
 02  1  2  1 57  0.0000000  0  7G 1G25G 4G20G29G22G13
 -20772736.43649 -16186540.74247  21165423.016    21165423.447
 -13836022.15349 -10781312.08146  22450658.280    22450659.087
  -1565440.55348  -1219823.26444  24783984.553    24783983.353
 -23803317.47349 -18548037.84747  20799728.004    20799728.460
    455618.38548    355013.01144  23857563.109    23857568.612
 -24202363.50649 -18858985.05847  20269508.270    20269508.891
  -7601137.22848  -5922960.34544  23605861.500    23605859.470
 02  1  2  1 57 30.0000000  0  7G 1G25G 4G20G29G22G13
 -20827321.08749 -16229074.25847  21155035.871    21155036.229
 -13762870.02049 -10724310.52446  22464578.450    22464579.515
  -1559037.24748                  24785203.878
 -23768136.36049 -18520624.03947  20806423.238    20806423.303
    541922.99848    422263.04644  23873987.396    23873989.403
 -24228152.21949 -18879080.18047  20264601.125    20264601.838
  -7691429.64448  -5993318.09444  23588678.699    23588678.116
 02  1  2  1 58  0.0000000  0  7G 1G25G 4G20G29G22G13
 -20881681.00549 -16271432.65547  21144691.660    21144692.021
 -13689588.72549 -10667208.31846  22478523.281    22478524.463
  -1552122.03148                  24786519.815
 -23732374.33649 -18492757.57447  20813228.873    20813229.015
    628385.57648    489636.19744  23890439.861    23890443.612
 -24253291.85049 -18898669.52847  20259817.273    20259817.916
  -7781666.96048  -6063632.85044  23571506.889    23571505.924
 02  1  2  1 58 30.0000000  0  7G 1G25G 4G20G29G22G13
 -20935812.74549 -16313613.25347  21134390.802    21134391.151
 -13616177.17549 -10610004.60446  22492493.405    22492494.158
  -1544693.41348                  24787934.034
 -23696030.50549 -18464437.75247  20820144.409    20820144.754
    715007.36948    557133.38344  23906924.412    23906928.556
 -24277779.51249 -18917750.85347  20255157.267    20255158.193
  -7871845.79748  -6133902.12144  23554347.628    23554344.410
 02  1  2  1 59  0.0000000  0  7G 1G25G 4G20G29G22G13
 -20989719.36749 -16355618.43047  21124132.609    21124133.014
 -13542641.27249 -10552704.00046  22506486.955    22506487.987
  -1536756.86648                  24789444.438
 -23659110.19849 -18435668.73047  20827169.955    20827170.206
    801783.45748    624750.82844  23923437.098    23923441.494
 -24301618.97649 -18936327.09447  20250620.802    20250621.676
  -7961969.60848  -6204128.42744  23537195.919    23537194.977
 02  1  2  1 59 30.0000000  0  7G 1G25G 4G20G29G22G13
 -21043394.78249 -16397443.45247  21113918.818    21113919.127
 -13468977.20049 -10495303.51846  22520504.622    22520505.741
  -1528308.54248  -1190889.25744  24791052.410    24791052.603
 -23621610.02449 -18406447.86847  20834306.092    20834306.078
    888717.88548    692491.65044  23939980.499    23939986.463
 -24324804.76549 -18954393.97747  20246208.893    20246209.791
  -8052032.36148  -6274307.18544  23520059.188    23520058.317
 02  1  2  2  0  0.0000000  0  7G 1G25G 4G20G29G22G13
 -21096825.19649 -16439077.57147  21103751.202    21103751.649
 -13395173.11349 -10437793.94046  22534549.152    22534550.372
  -1519336.32848  -1183897.89444  24792760.124    24792758.389
 -23583518.62749 -18376766.31047  20841554.713    20841555.093
    975822.75148    760365.26544  23956555.986    23956561.648
 -24347323.53149 -18971941.10147  20241923.774    20241924.667
  -8142020.34248  -6344427.71544  23502933.746    23502933.651
 02  1  2  2  0 30.0000000  0  7G 1G25G 4G20G29G22G13
 -21150007.19449 -16480518.11647  21093631.314    21093631.694
 -13321228.44849 -10380174.82046  22548620.355    22548621.058
  -1509839.37948  -1176497.63744  24794566.813    24794563.675
 -23544834.88149 -18346623.18047  20848915.649    20848915.931
   1063099.50748    828372.83444  23973165.360    23973169.733
 -24369172.61049 -18988966.39747  20237765.941    20237766.776
  -8231930.64148  -6414487.67744  23485825.547    23485824.546
 02  1  2  2  1  0.0000000  0  7G 1G25G 4G20G29G22G13
 -21202978.17449 -16521794.23647  21083551.011    21083551.446
 -13247182.87949 -10322477.07146  22562710.877    22562712.414
  -1499857.29948  -1168719.45744  24796466.559    24796466.036
 -23505599.00649 -18316049.82047  20856382.745    20856382.672
   1150508.52548    896483.46544  23989798.839    23989800.552
 -24390390.24549 -19005499.66047  20233728.548    20233729.390
  -8321800.79448  -6484516.36344  23468723.723    23468723.566
 02  1  2  2  1 30.0000000  0  7G 1G25G 4G20G29G22G13
 -21255728.57949 -16562898.47647  21073512.961    21073513.376
 -13173029.41749 -10264695.27446  22576821.715    22576822.550
  -1489382.80748  -1160557.52744  24798460.316    24798461.767
 -23465803.95649 -18285040.74147  20863955.524    20863955.599
   1238057.55848    964703.17044  24006458.988    24006464.104
 -24410967.42049 -19021533.85547  20229812.888    20229813.804
  -8411621.52248  -6554506.54045  23451630.694    23451627.884
 02  1  2  2  2  0.0000000  0  8G 1G25G 4G20G 6G29G22G13
 -21308223.54149 -16603803.66347  21063523.065    21063523.605
 -13098735.74149 -10206804.21846  22590959.781    22590961.130
  -1478383.14848  -1151986.32844  24800552.827    24800548.560
 -23425417.40949 -18253570.75547  20871640.198    20871640.605
          .09758          .05854  25505769.404    25505775.256
   1325779.55448   1033057.67644  24023151.674    24023157.953
 -24430870.08149 -19037042.44847  20226025.420    20226026.206
  -8501357.86048  -6624430.98544  23434555.625    23434553.337
 02  1  2  2  2 30.0000000  0  8G 1G25G 4G20G 6G29G22G13
 -21360452.01549 -16644501.20347  21053584.778    21053585.224
 -13024293.14549 -10148797.12446  22605125.546    22605126.758
  -1466849.78248  -1142999.34444  24802748.004    24802749.177
 -23384431.07849 -18221633.41047  20879440.145    20879440.383
      3982.67548                  25506527.385
   1413683.59748   1101554.10044  24039880.766    24039883.964
 -24450087.80949 -19052017.33147  20222368.392    20222369.365
  -8590998.57548  -6694280.87245  23417496.017    23417494.449
 02  1  2  2  3  0.0000000  0  8G 1G25G 4G20G 6G29G22G13
 -21412436.81549 -16685008.85547  21043692.731    21043693.402
 -12949726.93449 -10090693.70546  22619315.722    22619317.243
  -1454807.81448  -1133615.91944  24805039.835    24805037.735
 -23342870.23049 -18189248.38647  20887349.159    20887349.456
      8448.97248                  25507377.331
   1501744.76548   1170172.88044  24056637.393    24056643.349
 -24468644.59349 -19066477.19847  20218837.256    20218838.209
  -8680567.62648  -6764074.95845  23400453.138    23400451.015
 02  1  2  2  3 30.0000000  0  8G 1G25G 4G20G 6G29G22G13
 -21464177.30949 -16725326.14447  21033846.432    21033846.977
 -12875039.21049 -10032495.61346  22633528.281    22633528.939
  -1442259.01448  -1123837.68544  24807427.306    24807427.102
 -23300737.14249 -18156417.46247  20895366.532    20895366.885
     13398.50748                  25508319.281
   1589961.68248   1238913.02744  24073424.110    24073428.871
 -24486540.47449 -19080422.07847  20215431.647    20215432.606
  -8770064.18348  -6833812.52745  23383421.154    23383421.056
 02  1  2  2  4  0.0000000  0  8G 1G25G 4G20G 6G29G22G13
 -21515677.51349 -16765456.20747  21024046.006    21024046.626
 -12800235.77949  -9974207.35546  22647762.822    22647764.273
  -1429209.71448  -1113669.41544  24809909.588    24809909.267
 -23258038.51049 -18123145.85747  20903492.022    20903492.435
     18826.27148                  25509352.188
   1678328.31848   1307769.94744  24090240.918    24090244.140
 -24503780.41149 -19093855.82847  20212151.081    20212152.137
  -8859492.12048  -6903496.63045  23366404.706    23366403.010
 02  1  2  2  4 30.0000000  0  7G 1G25G 4G20G29G22G13
 -21566937.42649 -16805399.02347  21014291.691    21014292.250
 -12725319.53249  -9915831.19346  22662019.287    22662020.001
  -1415662.39148  -1103113.05444  24812487.182    24812485.274
 -23214776.90249 -18089435.56847  20911724.689    20911724.759
   1766842.85748                  24107083.702
 -24520365.27149 -19106779.12947  20208995.321    20208996.357
  -8948851.41148  -6973127.25345  23349399.475    23349397.139
 02  1  2  2  5  0.0000000  0  7G 1G25G 4G20G29G22G13
 -21617943.96049 -16845144.39847  21004585.619    21004586.094
 -12650279.87749  -9857358.86946  22676298.995    22676300.406
  -1401606.43348  -1092160.38444  24815162.133    24815162.550
 -23170942.10149 -18055278.63647  20920065.790    20920066.092
   1855516.05748   1445837.72544  24123959.432    24123967.101
 -24536283.08149 -19119182.64247  20205966.183    20205967.177
  -9038129.67448  -7042694.72545  23332410.319    23332410.712
 02  1  2  2  5 30.0000000  0  7G 1G25G 4G20G29G22G13
 -21668717.82249 -16884708.48147  20994923.771    20994924.243
 -12575139.85149  -9798808.34846  22690597.326    22690598.416
  -1387064.95948  -1080829.36744  24817929.164    24817928.581
 -23126557.48049 -18020693.27347  20928511.980    20928512.440
   1944325.39548   1515039.56244  24140858.539    24140863.796
 -24551555.38449 -19131083.17647  20203060.000    20203061.025
  -9127347.38348  -7112215.03245  23315432.829    23315431.545
 02  1  2  2  6  0.0000000  0  7G25G 4G20G29G 1G22G13
 -12499879.14349  -9740163.77646  22704919.279    22704919.875
  -1372017.93148                  24820792.484
 -23081603.39849 -17985664.17747  20937066.762    20937067.071
   2033291.20448   1584363.32844  24157788.761    24157795.393
 -21719236.57149 -16924073.77847  20985310.411    20985310.927
 -24566160.62249 -19142463.92347  20200280.740    20200281.626
  -9216482.42148  -7181670.89145  23298470.585    23298467.461
 02  1  2  2  6 30.0000000  0  7G25G 4G20G29G 1G22G13
 -12424499.24249  -9681426.31946  22719263.365    22719264.866
  -1356466.78448  -1056986.61644  24823750.756    24823749.703
 -23036081.80149 -17950192.85747  20945729.055    20945729.547
   2122412.60748   1653808.32844  24174747.504    24174755.353
 -21769498.91349 -16963239.27847  20975745.932    20975746.544
 -24580098.93749 -19153324.98547  20197628.478    20197629.462
  -9305533.59948  -7251061.45245  23281525.249    23281523.668
 02  1  2  2  7  0.0000000  0  7G25G 4G20G29G 1G22G13
 -12349009.01349  -9622602.90846  22733628.668    22733630.320
  -1340420.43848  -1044482.96244  24826803.715    24826807.021
 -22990001.79549 -17914286.41747  20954497.604    20954498.179
   2211681.07548   1723367.86644  24191735.134    24191739.195
 -21819511.30949 -17002210.01347  20966228.805    20966229.284
 -24593377.72549 -19163672.12547  20195101.391    20195102.298
  -9394507.71748  -7320391.94745  23264593.597    23264593.807
 02  1  2  2  7 30.0000000  0  8G25G 4G20G27G29G 1G22G13
 -12273418.46749  -9563701.31946  22748013.506    22748014.244
  -1323888.97248                  24829949.472
 -22943373.91149 -17877953.06347  20963371.244    20963371.545
        -1.08958         -.80554  25584163.319    25584164.368
   2301086.93148   1793034.52644  24208748.945    24208753.601
 -21869281.42649 -17040991.96647  20956757.865    20956758.355
 -24606005.66349 -19173512.10847  20192698.479    20192699.547
  -9483412.20348  -7389668.18245  23247676.531    23247674.323
 02  1  2  2  8  0.0000000  0  8G25G 4G20G27G29G 1G22G13
 -12197728.81449  -9504722.50446  22762417.023    22762418.047
  -1306874.04848                  24833187.427
 -22896199.93849 -17841194.18447  20972348.128    20972348.552
    -84777.67848    -66060.50544  25568031.853    25568028.553
   2390629.43348   1862807.66844  24225788.710    24225792.136
 -21918808.06349 -17079584.19247  20947333.608    20947334.145
 -24617982.89949 -19182845.04747  20190419.418    20190420.383
  -9572246.30448  -7458889.57845  23230771.774    23230770.017
 02  1  2  2  8 30.0000000  0  8G20G25G 4G27G29G 1G22G13
 -22848468.87549 -17804001.21147  20981430.887    20981431.464
 -12121928.64449  -9445657.55646  22776841.246    22776843.013
  -1289364.36348  -1004699.07444  24836518.760    24836520.514
   -169497.48448   -132075.86744  25551908.595    25551906.316
   2480320.00948                  24242855.381
 -21968077.54849 -17117976.03147  20937957.661    20937958.274
 -24629296.86149 -19191661.15047  20188266.363    20188267.418
  -9660996.49148  -7528045.56845  23213882.702    23213882.242
 02  1  2  2  9  0.0000000  0  8G20G25G 4G27G29G 1G22G13
 -22800169.37249 -17766365.29847  20990622.216    20990622.455
 -12046006.21549  -9386497.33946  22791289.038    22791290.270
  -1271348.10548                  24839947.198
   -254147.04748   -198036.52644  25535801.338    25535797.508
   2570170.98248   2002709.58644  24259954.371    24259962.562
 -22017075.57949 -17156156.34847  20928633.492    20928634.129
 -24639934.35249 -19199950.13847  20186242.109    20186243.277
  -9749648.06448  -7597124.74345  23197013.441    23197010.778
 02  1  2  2  9 30.0000000  0  8G20G25G 4G27G29G 1G22G13
 -22751314.14349 -17728296.35247  20999919.232    20999919.721
 -11969973.37449  -9327251.09446  22805757.745    22805759.426
  -1252837.80248   -976236.82244  24843470.961    24843470.444
   -338737.24348   -263951.00544  25519703.345    25519704.207
   2660170.72748                  24277081.083
 -22065811.72949 -17194132.60247  20919359.582    20919360.374
 -24649906.26349 -19207720.49847  20184344.462    20184345.667
  -9838210.91948  -7666134.78545  23180160.005    23180160.248
 02  1  2  2 10  0.0000000  0  8G20G25G 4G27G29G 1G22G13
 -22701905.24949 -17689795.98047  21009320.600    21009321.218
 -11893831.59249  -9267919.96546  22820246.914    22820248.627
  -1233834.92048   -961429.40944  24847087.059    24847089.448
   -423268.16248   -329819.23444  25503618.681    25503621.007
   2750317.91348   2143083.29144  24294235.744    24294241.302
 -22114284.99649 -17231904.00847  20910135.444    20910136.100
 -24659212.91949 -19214972.47747  20182573.551    20182574.769
  -9926684.48448  -7735075.23845  23163324.528    23163324.118
 02  1  2  2 10 30.0000000  0  8G20G25G 4G27G29G 1G22G13
 -22651934.24249 -17650857.59847  21018830.621    21018830.789
 -11817571.93549  -9208496.99946  22834759.186    22834760.590
  -1214330.88948   -946231.45044  24850798.693    24850801.133
   -507729.20348   -395632.97444  25487546.956    25487549.230
   2840621.96948                  24311419.988
 -22162483.76849 -17269461.52547  20900963.723    20900964.369
 -24667844.05649 -19221698.07247  20180931.253    20180932.365
 -10015056.88448  -7803936.87545  23146507.755    23146507.095
 02  1  2  2 11  0.0000000  0  8G20G25G 4G27G29G 1G22G13
 -22601408.87049 -17611487.24547  21028445.320    21028445.669
 -11741201.22949  -9148987.50846  22849291.412    22849292.837
  -1194332.94948   -930648.67644  24854604.881    24854604.639
   -592126.25848   -461396.91944  25471485.552    25471488.455
   2931076.35348   2283932.81344  24328632.369    24328630.939
 -22210412.77549 -17306808.83747  20891842.999    20891843.696
 -24675805.80849 -19227902.07647  20179416.104    20179417.040
 -10103333.27248  -7872723.66545  23129709.110    23129707.253
 02  1  2  2 11 30.0000000  0  8G20G25G 4G27G29G 1G22G13
 -22550335.98549 -17571690.25847  21038163.511    21038164.234
 -11664725.86449  -9089396.49146  22863844.794    22863846.681
  -1173847.78048   -914686.20244  24858504.734    24858503.163
   -676464.32048   -527114.81244  25455437.989    25455437.620
   3021674.84148   2354528.28944  24345873.873    24345874.147
 -22258075.98249 -17343949.03147  20882772.919    20882773.537
 -24683103.35449 -19233588.52047  20178027.615    20178028.713
 -10191517.54649  -7941438.71945  23112928.840    23112928.343
 02  1  2  2 12  0.0000000  0  8G20G25G 4G27G29G 1G22G13
 -22498734.64549 -17531481.48947  21047983.655    21047984.059
 -11588164.10849  -9029738.13046  22878414.025    22878416.320
  -1152893.90748   -898358.54444  24862491.550    24862492.612
   -760760.21848   -592799.93044  25439395.377    25439398.974
   3112399.40648                  24363138.148
 -22305489.16549 -17380894.40047  20873750.520    20873751.212
 -24689753.87749 -19238770.78547  20176762.145    20176763.336
 -10279625.59148  -8010094.37245  23096161.344    23096161.446
 02  1  2  2 12 30.0000000  0  8G20G25G 4G27G29G 1G22G13
 -22446599.83749 -17490857.02947  21057904.825    21057905.342
 -11511510.18749  -8970007.94046  22893000.561    22893002.404
  -1131466.18148                  24866569.493
   -845007.16148   -658446.86244  25423364.069    25423365.524
   3203256.16248                  24380428.857
 -22352644.20949 -17417638.61947  20864776.965    20864777.806
 -24695750.93549 -19243443.85747  20175620.743    20175621.974
 -10367649.12549  -8078684.15045  23079413.068    23079410.927
 02  1  2  2 13  0.0000000  0  8G20G25G 4G27G29G 1G22G13
 -22393920.54449 -17449808.29747  21067928.669    21067929.615
 -11434751.97249  -8910196.46946  22907607.721    22907608.878
  -1109553.13248                  24870738.896
   -929191.65348   -724045.15244  25407344.489    25407345.636
   3294256.99348                  24397744.554
 -22399526.90149 -17454170.61947  20855855.666    20855856.345
 -24701081.65549 -19247597.69947  20174606.258    20174607.513
 -10455574.49648  -8147197.44445  23062679.005    23062678.733
 02  1  2  2 13 30.0000000  0  8G20G25G 4G27G29G 1G22G13
 -22340691.19249 -17408330.95046  21078058.606    21078058.970
 -11357883.65249  -8850299.20046  22922235.177    22922236.689
  -1087148.81648   -847128.60544  24875002.025    24874999.246
  -1013306.42748   -789589.11444  25391337.956    25391337.382
   3385408.45148                  24415091.065
 -22446128.59549 -17490483.66847  20846988.058    20846988.896
 -24705738.81749 -19251226.68947  20173720.139    20173721.287
 -10543392.91649  -8215627.41145  23045969.120    23045967.152
 02  1  2  2 14  0.0000000  0  8G20G25G 4G27G29G 1G22G13
 -22286919.72649 -17366431.17947  21088290.704    21088291.209
 -11280912.02149  -8790321.46046  22936882.259    22936884.307
  -1064261.00248   -829293.94444  24879357.317    24879354.261
  -1097356.90348   -855082.95744  25375344.072    25375342.445
   3476703.79348                  24432464.452
 -22492453.98049 -17526581.40947  20838172.412    20838173.419
 -24709728.79949 -19254335.80247  20172960.914    20172962.123
 -10631109.10249  -8283977.71545  23029277.429    23029276.889
 02  1  2  2 14 30.0000000  0  7G20G25G27G29G 1G22G13
 -22232608.81749 -17324111.05846  21098625.458    21098626.108
 -11203839.14249  -8730264.82546  22951549.001    22951550.616
  -1181343.80348   -920527.26344  25359361.341    25359363.914
   3568141.45948                  24449865.356
 -22538502.50449 -17562463.42547  20829409.545    20829410.590
 -24713052.47649 -19256925.71747  20172328.604    20172329.760
 -10718722.12849  -8352247.62345  23012604.404    23012602.535
 02  1  2  2 15  0.0000000  0  8G20G25G 3G27G29G 1G22G13
 -22177780.86149 -17281388.04846  21109059.391    21109059.973
 -11126686.57849  -8670146.08246  22966230.954    22966232.135
        -1.10058                  25243530.424
  -1265287.51748   -985937.91244  25343387.529    25343387.445
   3659699.82348                  24467288.006
 -22584293.38849 -17598144.67447  20820696.171    20820696.874
 -24715730.91649 -19259012.84947  20171818.738    20171819.933
 -10806251.79849  -8420452.57345  22995949.098    22995946.637
 02  1  2  2 15 30.0000000  0  8G20G25G 3G27G29G 1G22G13
 -22122438.06949 -17238263.86846  21119590.921    21119591.252
 -11049455.32049  -8609966.02045  22980927.699    22980930.403
    -89285.64648                  25226540.163
  -1349188.24648  -1051315.12144  25327421.773    25327422.152
   3751377.84248                  24484733.657
 -22629825.60449 -17633624.36347  20812031.477    20812032.413
 -24717764.42849 -19260597.44647  20171431.915    20171433.062
 -10893697.18049  -8488591.86345  22979307.626    22979306.159
 02  1  2  2 16  0.0000000  0  8G20G25G 3G27G29G 1G22G13
 -22066553.95649 -17194717.88046  21130225.119    21130225.643
 -10972117.93648  -8549703.31545  22995643.512    22995646.356
   -178632.41148                  25209538.594
  -1433016.86448  -1116636.11144  25311468.986    25311470.079
   3843203.09648                  24502208.638
 -22675069.08849 -17668879.06447  20803422.277    20803423.205
 -24719124.91049 -19261657.60847  20171173.131    20171174.383
 -10981028.35949  -8556642.16845  22962689.959    22962688.802
 02  1  2  2 16 30.0000000  0  8G20G25G 3G27G29G 1G22G13
 -22010114.05249 -17150738.80746  21140965.363    21140965.841
 -10894659.54149  -8489346.29545  23010385.004    23010386.735
   -268022.16748                  25192527.559
  -1516757.04548  -1181888.18044  25295535.071    25295534.567
   3935191.23648                  24519713.108
 -22720006.19849 -17703895.03347  20794870.896    20794871.565
 -24719796.46249 -19262180.93747  20171045.291    20171046.637
 -11068227.47649  -8624589.56545  22946096.108    22946093.890
 02  1  2  2 17  0.0000000  0  8G20G25G 3G27G29G 1G22G13
 -21953140.00849 -17106343.52246  21151807.244    21151807.878
 -10817100.62348  -8428910.92945  23025142.910    23025145.577
   -357472.20048                  25175505.817
  -1600428.00448  -1247086.31044  25279611.937    25279613.317
   4027321.74248                  24537244.820
 -22764655.26349 -17738686.55947  20786374.435    20786375.059
 -24719798.95549 -19262182.91547  20171044.672    20171046.109
 -11155312.74449  -8692448.24345  22929524.421    22929522.816
 02  1  2  2 17 30.0000000  0  7G20G25G27G29G 1G22G13
 -21895653.35449 -17061548.80446  21162746.521    21162747.142
 -10739461.32848  -8368412.94045  23039917.660    23039920.446
  -1684049.18948  -1312245.66344  25263700.306    25263699.641
   4119574.31248                  24554800.410
 -22809034.47349 -17773267.80047  20777929.750    20777930.303
 -24719152.14349 -19261678.93847  20171167.709    20171169.076
 -11242302.44249  -8760232.47345  22912970.523    22912970.929
 02  1  2  2 18  0.0000000  0  7G20G25G27G29G 1G22G13
 -21837644.06049 -17016346.82946  21173785.049    21173785.977
 -10661730.88248  -8307843.92345  23054710.093    23054711.485
  -1767608.31048  -1377356.67844  25247798.921    25247803.592
   4211959.98048                  24572381.423
 -22853130.59949 -17807628.45647  20769538.278    20769538.853
 -24717844.80249 -19260660.27047  20171416.474    20171417.912
 -11329183.66649  -8827932.14245  22896437.482    22896437.806
 02  1  2  2 18 30.0000000  0  7G20G25G27G29G 1G22G13
 -21779125.98049 -16970748.40346  21184921.226    21184922.145
 -10583922.04248  -8247213.81045  23069515.707    23069518.882
  -1851117.04748  -1442428.44344  25231908.216    25231910.740
   4304465.71148                  24589984.704
 -22896954.16549 -17841776.73647  20761198.711    20761199.482
 -24715889.17249 -19259136.44147  20171788.718    20171790.181
 -11415966.67749  -8895555.32845  22879924.194    22879922.518
 02  1  2  2 19  0.0000000  0  7G20G25G27G29G 1G22G13
 -21720085.74449 -16924743.10046  21196156.058    21196156.857
 -10506020.16848  -8186511.22645  23084340.790    23084342.291
  -1934559.65848  -1507448.64444  25216028.838    25216032.025
   4397106.38548                  24607614.709
 -22940488.00649 -17875699.25747  20752914.711    20752915.547
 -24713270.17649 -19257095.70547  20172287.271    20172288.852
 -11502634.52749  -8963088.75345  22863430.769    22863429.624
 02  1  2  2 19 30.0000000  0  7G20G25G27G29G 1G22G13
 -21660536.82749 -16878341.42246  21207487.729    21207488.720
 -10428037.61848  -8125745.75845  23099180.954    23099182.943
  -2017947.22148  -1572426.01344  25200161.197    25200161.629
   4489869.88448                  24625266.500
 -22983742.27549 -17909403.93247  20744683.675    20744684.629
 -24709999.59549 -19254547.24047  20172909.866    20172911.420
 -11589196.98549  -9030540.05445  22846959.878    22846958.287
 02  1  2  2 20  0.0000000  0  8G20G25G 3G27G29G 1G22G13
 -21600477.41849 -16831541.96446  21218916.623    21218917.673
 -10349971.89348  -8064915.46945  23114035.558    23114038.747
         -.31458                  25073105.196
  -2101275.81948  -1637357.40344  25184304.422    25184306.301
   4582759.24448                  24642942.754
 -23026711.79149 -17942886.71947  20736506.762    20736507.800
 -24706074.14649 -19251488.48547  20173656.491    20173658.130
 -11675648.95749  -9097905.26645  22830507.635    22830507.216
 02  1  2  2 20 30.0000000  0  8G20G25G 3G27G29G 1G22G13
 -21539894.14149 -16784334.28846  21230445.528    21230446.524
 -10271808.27548  -8004008.90745  23128910.405    23128912.669
    -89871.68848                  25056003.588
  -2184529.67248  -1702230.54244  25168461.819    25168464.253
   4675788.74148                  24660647.027
 -23069379.75549 -17976134.52947  20728387.598    20728388.562
 -24701479.09249 -19247907.96547  20174531.073    20174532.803
 -11761973.72349  -9165171.36045  22814080.939    22814079.472
 02  1  2  2 21  0.0000000  0  8G20G25G 3G27G29G 1G22G13
 -21478786.70149 -16736718.18046  21242073.945    21242074.910
 -10193545.14448  -7943024.82145  23143803.436    23143805.766
   -179775.64448                  25038894.499
  -2267706.01548  -1767043.39344  25152634.343    25152633.287
   4768960.15748                  24678376.511
 -23111742.05849 -18009144.17047  20720326.614    20720327.494
 -24696212.39849 -19243804.09747  20175532.896    20175534.618
 -11848167.31349  -9232335.25045  22797678.925    22797677.138
 02  1  2  2 21 30.0000000  0  8G20G25G 3G27G29G 1G22G13
 -21417176.05249 -16688709.96246  21253798.037    21253798.901
 -10115202.24348  -7881978.57145  23158711.711    23158713.666
   -269728.21748                  25021775.199
  -2350823.66448  -1831810.41344  25136817.212    25136818.492
   4862253.75048                  24696130.314
 -23153816.36849 -18041929.39947  20712320.301    20712321.088
 -24690293.61949 -19239192.10847  20176659.194    20176661.086
 -11934247.38749  -9299410.68045  22781298.385    22781297.950
 02  1  2  2 22  0.0000000  0  7G20G25G27G29G 1G22G13
 -21355047.36849 -16640298.08446  21265621.097    21265621.918
 -10036763.38048  -7820857.51745  23173638.506    23173641.708
  -2433865.52148  -1896518.38744  25121014.777    25121016.346
   4955685.26548                  24713909.596
 -23195584.28249 -18074475.87647  20704371.849    20704372.575
 -24683706.49649 -19234059.33147  20177913.061    20177915.006
 -12020195.55849  -9366383.32145  22764943.020    22764942.772
 02  1  2  2 22 30.0000000  0  7G20G25G27G29G 1G22G13
 -21292418.40649 -16591496.36946  21277538.659    21277539.786
  -9958245.31548  -7759674.77745  23188580.380    23188582.551
  -2516846.61948  -1961179.03344  25105223.755    25105224.268
   5049238.69148                  24731712.980
 -23237059.94849 -18106794.62847  20696479.081    20696479.921
 -24676467.20949 -19228418.38047  20179290.910    20179292.722
 -12106025.79049  -9433264.06145  22748610.120    22748608.647
 02  1  2  2 23  0.0000000  0  8G20G25G 3G27G29G 1G22G13
 -21229290.06849 -16542305.54446  21289551.932    21289552.918
  -9879647.93748  -7698430.24945  23203536.113    23203539.250
         -.68258                  24970385.373
  -2599765.77548  -2025791.40044  25089445.464    25089445.336
   5142914.05348                  24749537.728
 -23278240.78849 -18138883.64747  20688642.637    20688643.566
 -24668575.24749 -19222268.85547  20180792.652    20180794.436
 -12191735.66249  -9500051.02545  22732300.078    22732298.241
 02  1  2  2 23 30.0000000  0  8G20G25G 3G27G29G 1G22G13
 -21165667.86449 -16492729.88346  21301658.822    21301660.159
  -9800975.28248  -7637127.05945  23218507.703    23218509.880
    -90100.10648                  24953240.758
  -2682626.06548  -2090357.90544  25073677.631    25073678.179
   5236707.34548                  24767387.159
 -23319128.79949 -18170744.48847  20680862.246    20680863.118
 -24660034.52349 -19215613.79947  20182417.480    20182419.408
 -12277326.82649  -9566745.49145  22716012.392    22716012.058
 02  1  2  2 24  0.0000000  0  8G20G25G 3G27G29G 1G22G13
 -21101541.57349 -16442761.42446  21313861.430    21313862.704
  -9722215.52348  -7575755.98645  23233495.257    23233498.037
   -180222.63048                  24936091.589
  -2765414.73448  -2154868.61144  25057923.280    25057923.997
   5330630.09848                  24785259.790
 -23359710.09349 -18202366.33147  20673140.082    20673141.019
 -24650833.50449 -19208444.22647  20184168.612    20184170.626
 -12362785.15949  -9633336.43245  22699750.747    22699749.396
 02  1  2  2 24 30.0000000  0  8G20G25G 3G27G29G 1G22G13
 -21036910.61949 -16392399.72746  21326160.534    21326162.015
  -9643366.87548  -7514315.65945  23248499.358    23248501.268
   -270362.54448                  24918937.729
  -2848128.69948  -2219321.09144  25042183.755    25042184.167
   5424684.01848                  24803158.275
 -23399980.29949 -18233745.77147  20665476.919    20665477.636
 -24640969.89449 -19200758.34447  20186045.449    20186047.545
 -12448106.92549  -9699820.99745  22683514.794    22683513.085
 02  1  2  2 25  0.0000000  0  8G20G25G 3G27G29G 1G22G13
 -20971779.95449 -16341648.64446  21338554.741    21338555.916
  -9564432.96048  -7452808.86645  23263521.013    23263523.272
   -360519.87748                  24901780.576
  -2930770.48048  -2283717.35244  25026457.079    25026458.968
   5518865.44248                  24821081.221
 -23439940.87149 -18264883.93847  20657872.848    20657873.502
 -24630447.45649 -19192559.09047  20188047.945    20188049.990
 -12533293.03249  -9766199.82445  22667303.134    22667302.823
 02  1  2  2 25 30.0000000  0  8G20G25G13G 3G27G29G 1G22
 -20906159.18249 -16290515.66246  21351042.019    21351043.327
  -9485421.79948  -7391241.89645  23278555.435    23278558.370
 -12618349.00549  -9832477.25846  22651119.454    22651117.305
   -450699.13448                  24884620.879
  -3013347.23448  -2348062.89944  25010743.857    25010744.844
   5613166.31748                  24839025.538
 -23479597.71349 -18295785.43547  20650326.364    20650327.088
 -24619274.30149 -19183852.78047  20190174.349    20190176.215
 02  1  2  2 26  0.0000000  0  8G20G25G13G 3G27G29G 1G22
 -20840045.72549 -16238998.76746  21363622.898    21363624.287
  -9406329.51948  -7329611.70845  23293606.204    23293609.222
 -12703269.10549  -9898648.82745  22634958.007    22634957.514
   -540892.57248                  24867457.203
  -3095853.70348  -2412353.71744  24995042.878    24995043.202
   5707590.81948                  24856994.763
 -23518944.50249 -18326445.33247  20642838.927    20642839.644
 -24607446.19049 -19174636.12147  20192425.429    20192427.174
 02  1  2  2 26 30.0000000  0  8G20G25G13G 3G27G29G 1G22
 -20773444.52149 -16187101.81846  21376297.208    21376298.424
  -9327160.13048  -7267921.42145  23308673.196    23308674.517
 -12788054.59949  -9964715.49445  22618824.900    22618824.401
   -631100.70148                  24850291.486
  -3178292.77448  -2476591.99844  24979355.552    24979357.410
   5802134.71948                  24874985.954
 -23557982.81749 -18356864.85847  20635410.314    20635411.029
 -24594967.02549 -19164912.14647  20194800.111    20194801.880
 02  1  2  2 27  0.0000000  0  8G20G25G13G 3G27G29G 1G22
 -20706354.67149 -16134824.09946  21389063.674    21389065.054
  -9247911.11348  -7206169.13245  23323752.381    23323756.472
 -12872700.29449 -10030673.23745  22602717.260    22602715.909
   -721317.13548                  24833122.921
  -3260660.68948  -2540774.87044  24963680.963    24963684.279
   5896800.63248                  24893001.849
 -23596707.76849 -18387040.20947  20628041.277    20628041.973
 -24581834.42349 -19154679.00147  20197299.171    20197300.943
 02  1  2  2 27 30.0000000  0  8G20G25G13G 3G27G29G 1G22
 -20638789.15949 -16082175.73746  21401920.960    21401922.256
  -9168593.52948  -7144363.41545  23338847.060    23338850.985
 -12957215.57249 -10096529.36145  22586633.963    22586633.312
   -811549.94448                  24815953.084
  -3342967.96348  -2604910.48944  24948019.212    24948020.969
   5991576.98848                  24911035.572
 -23635128.58149 -18416978.56047  20620729.935    20620730.661
 -24568059.81849 -19143945.58547  20199920.496    20199922.301
 02  1  2  2 28  0.0000000  0  8G20G25G13G 3G27G29G 1G22
 -20570743.22349 -16029153.01846  21414870.054    21414871.335
  -9089201.23648  -7082499.44245  23353954.948    23353956.390
 -13041591.72549 -10162277.07046  22570578.911    22570577.765
   -901788.85148                  24798779.613
  -3425207.27248  -2668993.12344  24932368.893    24932369.227
   6086469.75848                  24929094.457
 -23673236.84849 -18446673.36347  20613478.176    20613479.141
 -24553637.06349 -19132707.11347  20202664.872    20202666.640
 02  1  2  2 28 30.0000000  0  8G20G25G13G 3G27G29G 1G22
 -20502222.77749 -15975760.55146  21427908.772    21427909.951
  -9009738.72448  -7020580.79945  23369075.344    23369080.256
 -13125830.86249 -10227918.01546  22554547.646    22554546.096
   -992034.82048                  24781606.326
  -3507381.85748  -2733025.31944  24916732.278    24916734.265
   6181474.71748                  24947173.953
 -23711034.71649 -18476126.30347  20606285.741    20606286.519
 -24538570.73049 -19120967.15347  20205531.844    20205533.691
 02  1  2  2 29  0.0000000  0  8G20G25G13G 3G27G29G 1G22
 -20433228.02649 -15921998.49946  21441038.199    21441039.527
  -8930204.44348  -6958606.23745  23384211.143    23384214.351
 -13209929.36649 -10293449.37546  22538545.105    22538543.752
  -1082283.02948                  24764433.669
  -3589489.33948  -2797005.22044  24901107.346    24901107.848
   6276592.81348                  24965274.637
 -23748518.72249 -18505334.67947  20599152.582    20599153.487
 -24522859.86549 -19108724.96547  20208521.528    20208523.278
 02  1  2  2 29 30.0000000  0  8G20G25G13G 3G27G29G 1G22
 -20363761.94549 -15867869.17546  21454257.280    21454258.747
  -8850600.15148  -6896577.12045  23399359.354    23399361.931
 -13293885.97949 -10358870.18246  22522568.798    22522568.256
  -1172530.98748                  24747259.258
  -3671530.34348  -2860933.36944  24885496.010    24885494.427
   6371822.75048                  24983396.269
 -23785687.81149 -18534297.66247  20592079.647    20592080.610
 -24506505.90449 -19095981.66447  20211633.654    20211635.548
 02  1  2  2 30  0.0000000  0  8G20G25G13G 3G27G29G 1G22
 -20293824.68949 -15813372.70346  21467566.049    21467567.463
  -8770924.29848  -6834492.24245  23414520.446    23414525.226
 -13377697.27149 -10424177.74146  22506619.292    22506618.918
  -1262773.92648                  24730086.835
  -3753502.39248  -2924807.75944  24869896.557    24869899.391
   6467165.54048                  25001539.368
 -23822538.34249 -18563012.41147  20585067.461    20585068.544
 -24489507.67749 -19082736.33947  20214868.465    20214870.120
 02  1  2  2 30 30.0000000  0  8G20G25G13G 3G27G29G 1G22
 -20223409.48249 -15758503.80546  21480965.831    21480967.263
  -8691168.20148  -6772344.84445  23429698.918    23429702.073
 -13461352.02849 -10489363.32846  22490701.242    22490699.320
  -1352999.48748                  24712916.910
  -3835395.98448  -2988620.99744  24854313.677    24854315.255
   6562629.84848                  25019707.058
 -23859059.63849 -18591470.62347  20578117.585    20578118.740
 -24471857.05649 -19068982.65247  20218227.429    20218229.329
 02  1  2  2 31  0.0000000  0  8G20G25G13G 3G27G29G 1G22
 -20152531.86749 -15703274.58746  21494453.600    21494454.791
  -8611346.20948  -6710146.10845  23444888.106    23444891.267
 -13544862.21349 -10554436.26446  22474808.860    22474808.417
  -1443217.92248                  24695748.949
  -3917223.91848  -3052383.09144  24838741.967    24838743.066
   6658201.34848                  25037893.236
 -23895263.61049 -18619681.57047  20571228.071    20571229.291
 -24453568.39349 -19054731.79347  20221707.941    20221709.818
 02  1  2  2 31 30.0000000  0  8G20G25G13G 3G27G29G 1G22
 -20081190.50649 -15647684.01246  21508029.382    21508030.885
  -8531455.22148  -6647893.62945  23460090.668    23460093.981
 -13628222.49049 -10619392.38646  22458947.434    22458946.273
  -1533422.64348                  24678583.769
  -3998982.43548  -3116091.07444  24823183.345    24823187.246
   6753882.70748                  25056102.659
 -23931145.17749 -18647641.28847  20564399.994    20564401.209
 -24434639.15349 -19039981.78347  20225309.988    20225311.634
 02  1  2  2 32  0.0000000  0  8G25G 3G20G27G29G 1G22G13
  -8451497.50148  -6585589.11545  23475307.178    23475310.300
  -1623612.57648                  24661421.235
 -20009389.43249 -15591735.21946  21521692.530    21521693.704
  -4080672.85348  -3179746.02644  24807640.283    24807642.147
   6849671.56848                  25074330.356
 -23966704.50149 -18675349.90847  20557633.425    20557634.623
 -24415071.95349 -19024734.66147  20229033.696    20229035.506
 -13711432.81449 -10684231.67446  22443112.298    22443110.935
 02  1  2  2 32 30.0000000  0  8G20G25G 3G27G29G 1G22G13
 -19937129.65049 -15535428.99046  21535443.282    21535444.291
  -8371472.65048  -6523232.31845  23490534.549    23490539.857
  -1713783.59748                  24644262.173
  -4162293.64548  -3243346.73144  24792106.249    24792109.384
   6945568.42948                  25092579.624
 -24001938.84049 -18702805.29247  20550928.281    20550929.605
 -24394866.53449 -19008990.22547  20232878.604    20232880.397
 -13794490.05749 -10748951.65046  22427306.595    22427306.220
 02  1  2  2 33  0.0000000  0  8G20G25G 3G27G29G 1G22G13
 -19864410.88649 -15478765.11046  21549281.290    21549282.809
  -8291378.32748  -6460821.36145  23505777.280    23505781.430
  -1803929.68848                  24627107.996
  -4243841.65848  -3306890.71144  24776589.899    24776590.465
   7041575.13448                  25110850.428
 -24036843.59449 -18730003.85847  20544286.363    20544287.739
 -24374021.22249 -18992747.17447  20236845.302    20236847.119
 -13877389.83649 -10813548.95246  22411532.263    22411531.449
 02  1  2  2 33 30.0000000  0  8G20G25G 3G27G29G 1G22G13
 -19791233.60549 -15421743.94646  21563206.466    21563207.589
  -8211213.57548  -6398355.51545  23521031.600    23521036.408
  -1894045.80148                  24609959.422
  -4325314.77948  -3370376.33344  24761084.529    24761087.740
   7137692.64848                  25129140.288
 -24071415.42949 -18756943.01547  20537707.883    20537709.270
 -24352535.30849 -18976004.95247  20240934.028    20240935.812
 -13960128.47449 -10878020.68446  22395786.686    22395785.651
 02  1  2  2 34  0.0000000  0  8G20G25G 3G27G29G 1G22G13
 -19717606.72749 -15364372.44946  21577217.473    21577218.819
  -8130985.40548  -6335840.29545  23536298.301    23536302.870
  -1984135.60048                  24592816.471
  -4406719.08448  -3433808.31444  24745594.009    24745595.652
   7233913.70848                  25147451.277
 -24105659.40949 -18783626.68947  20531191.324    20531192.650
 -24330416.57549 -18958769.62347  20245142.957    20245144.901
 -14042710.71049 -10942370.54946  22380073.140    22380072.296
 02  1  2  2 34 30.0000000  0  8G20G25G 3G27G29G 1G22G13
 -19643527.27449 -15306648.29646  21591313.951    21591315.621
  -8050689.00348  -6273271.90345  23551579.252    23551583.771
  -2074190.59948                  24575680.043
  -4488049.00448  -3497182.37344  24730117.735    24730119.653
   7330242.75848                  25165783.024
 -24139568.74549 -18810049.60547  20524738.710    20524740.024
 -24307660.68449 -18941037.80147  20249473.262    20249475.223
 -14125129.62349 -11006593.13946  22364388.800    22364389.270
 02  1  2  2 35  0.0000000  0  7G20G25G 3G27G 1G22G13
 -19568988.09249 -15248565.91446  21605498.272    21605499.864
  -7970315.58748  -6210643.52045  23566873.652    23566876.759
  -2164198.49148                  24558550.569
  -4569294.62248  -3560490.74644  24714657.751    24714660.345
 -24173132.24649 -18836203.04147  20518351.999    20518353.433
 -24284259.19449 -18922802.92047  20253926.392    20253928.356
 -14207373.83549 -11070679.59946  22348737.620    22348737.068
 02  1  2  2 35 30.0000000  0  8G20G25G 3G27G29G 1G22G13
 -19493997.81949 -15190132.03346  21619769.175    21619770.570
  -7889871.74648  -6147960.20645  23582180.919    23582187.538
  -2254162.15648                  24541432.028
  -4650461.88848  -3623738.02944  24699212.249    24699213.550
         -.45558                  25202510.565
 -24206354.56949 -18862090.63847  20512029.797    20512031.095
 -24260219.65549 -18904070.86447  20258501.201    20258503.034
 -14289447.91149 -11134633.49746  22333120.983    22333118.897
 02  1  2  2 36  0.0000000  0  7G20G25G 3G27G 1G22G13
 -19418566.65249 -15131354.59946  21634122.899    21634124.422
  -7809366.23548  -6085228.87445  23597502.238    23597505.036
  -2344086.69548                  24524319.581
  -4731558.44348                  24683778.791
 -24239241.96149 -18887717.24147  20505771.496    20505772.802
 -24235551.11949 -18884848.68547  20263195.334    20263197.154
 -14371357.75949 -11198459.41546  22317531.966    22317532.264
 02  1  2  2 36 30.0000000  0  7G20G25G 3G27G 1G22G13
 -19342700.34749 -15072238.10546  21648560.143    21648561.725
  -7728802.68448  -6022452.32045  23612832.487    23612836.153
  -2433972.11148                  24507215.090
  -4812587.09348  -3750069.52744  24668361.823    24668364.608
 -24271796.34849 -18913084.35747  20499576.691    20499577.981
 -24210258.10349 -18865139.89747  20268008.523    20268010.376
 -14453104.88849 -11262158.54146  22301977.651    22301977.132
 02  1  2  2 37  0.0000000  0  8G20G25G 3G27G 4G 1G22G13
 -19266406.33049 -15012788.32846  21663078.321    21663079.720
  -7648186.45248  -5959634.73245  23628173.059    23628178.354
  -2523820.16348                  24490117.379
  -4893552.44948                  24652953.213
         -.69357                  25172903.624
 -24304021.06149 -18938194.58347  20493444.441    20493445.967
 -24184346.86849 -18844949.37947  20272939.282    20272941.132
 -14534692.43949 -11325733.33646  22286452.350    22286451.441
 02  1  2  2 37 30.0000000  0  8G20G25G 3G27G 4G 1G22G13
 -19189680.88849 -14953002.37246  21677678.965    21677680.710
  -7567512.68648  -5896772.31445  23643525.967    23643529.532
  -2613621.82848                  24473029.242
  -4974448.01148  -3876195.13044  24637558.981    24637560.984
     43481.54347                  25181177.732
 -24335908.31949 -18963041.85547  20487376.447    20487378.032
 -24157812.46849 -18824273.28347  20277988.685    20277990.711
 -14616112.63449 -11389177.71346  22270956.782    22270956.865
 02  1  2  2 38  0.0000000  0  8G20G25G 3G27G 4G 1G22G13
 -19112513.88349 -14892872.35046  21692363.337    21692364.952
  -7486768.73248  -5833855.23745  23658890.668    23658894.994
  -2703361.15848                  24455951.820
  -5055260.70248                  24622181.021
     87363.46548                  25189530.169
 -24367443.73949 -18987614.96147  20481375.466    20481377.027
 -24130643.58149 -18803102.78247  20283158.833    20283160.864
 -14697350.86849 -11452480.29846  22255499.542    22255498.593
 02  1  2  2 38 30.0000000  0  8G20G25G 3G27G 4G 1G22G13
 -19034908.88249 -14832401.02946  21707130.901    21707132.197
  -7405956.64148  -5770885.04745  23674268.849    23674272.696
  -2793036.40248                  24438887.685
  -5135991.63948                  24606819.004
    131641.68248                  25197956.775
 -24398627.24049 -19011913.85047  20475441.803    20475443.252
 -24102842.78549 -18781439.89147  20288449.411    20288451.250
 -14778406.86849 -11515640.89146  22240074.097    22240073.715
 02  1  2  2 39  0.0000000  0  8G20G25G 3G27G 4G 1G22G13
 -18956875.71149 -14771596.06946  21721980.784    21721982.451
  -7325084.22648  -5707867.84945  23689659.453    23689663.686
  -2882651.94248                  24421834.632
  -5216647.77048                  24591469.783
    176306.73348                  25206454.349
 -24429464.66449 -19035943.06247  20469573.640    20469575.029
 -24074418.83249 -18759291.42347  20293858.238    20293860.118
 -14859285.63749 -11578663.38146  22224683.660    22224683.495
 02  1  2  2 39 30.0000000  0  8G20G25G 3G27G 4G 1G22G13
 -18878418.99249 -14710461.07346  21736910.206    21736911.769
  -7244153.99748  -5644805.59045  23705059.244    23705064.695
  -2972206.82548                  24404791.812
  -5297230.85748  -4127709.12845  24576135.800    24576135.455
    221354.42647                  25215025.680
 -24459956.58949 -19059703.05347  20463771.232    20463772.679
 -24045375.01149 -18736659.94247  20299384.905    20299386.879
 -14939987.35349 -11641547.89946  22209326.900    22209326.388
 02  1  2  2 40  0.0000000  0  8G20G25G 3G27G 4G 1G22G13
 -18799534.42349 -14648992.69146  21751921.710    21751923.725
  -7163159.78648  -5581693.52045  23720472.899    23720476.854
  -3061691.03148  -2385731.04944  24387764.613    24387770.589
  -5377733.68248  -4190436.75346  24560817.709    24560816.986
    266789.33947                  25223670.574
 -24490094.68649 -19083187.34747  20458036.365    20458037.762
 -24015705.97549 -18713541.28247  20305030.712    20305032.661
 -15020503.52449 -11704287.83746  22194004.691    22194004.203
 02  1  2  2 40 30.0000000  0  8G20G25G 3G27G 4G 1G22G13
 -18720233.19649 -14587199.63546  21767012.494    21767014.051
  -7082110.67348  -5518538.64345  23735895.959    23735899.163
  -3151109.71448                  24370748.103
  -5458164.43648  -4253116.72744  24545510.589    24545508.204
    312600.73748                  25232391.580
 -24519885.68549 -19106401.17147  20452367.155    20452368.686
 -23985421.59949 -18689943.13147  20310793.857    20310795.925
 -15100840.69049 -11766888.29646  22178717.957    22178717.353
 02  1  2  2 41  0.0000000  0  8G20G25G 3G27G 4G 1G22G13
 -18640534.20549 -14525096.64146  21782178.557    21782179.858
  -7001023.70348  -5455354.30945  23751326.615    23751331.220
  -3240476.47948                  24353742.557
  -5538539.51648  -4315747.76844  24530217.652    24530221.060
    358769.78248                  25241177.108
 -24549344.93449 -19129356.49747  20446761.015    20446762.589
 -23954539.92749 -18665879.55647  20316670.437    20316672.537
 -15181013.90249 -11829361.00646  22163460.728    22163460.151
 02  1  2  2 41 30.0000000  0  8G20G25G 3G27G 4G 1G22G13
 -18560428.00749 -14462676.33946  21797422.227    21797423.940
  -6919887.21048  -5392131.34745  23766766.006    23766772.829
  -3329776.22548                  24336750.266
  -5618846.53848  -4378324.74044  24514934.481    24514937.921
    405306.39047                  25250031.101
 -24578458.71049 -19152042.61547  20441220.975    20441222.632
 -23923050.55649 -18641342.44847  20322662.619    20322664.740
 -15261009.30349 -11891695.14346  22148238.255    22148237.954
 02  1  2  2 42  0.0000000  0  8G20G25G 3G27G 4G 1G22G13
 -18479890.04649 -14399919.60046  21812748.373    21812750.114
  -6838674.73248  -5328849.20345  23782221.142    23782225.717
  -3418978.78448  -2664137.23444  24319774.412    24319785.582
  -5699057.98048  -4440827.26644  24499670.546    24499673.721
    452235.62948                  25258962.588
 -24607198.24249 -19174437.12247  20435752.068    20435753.710
 -23890927.61349 -18616311.65747  20328775.819    20328777.850
 -15340797.59949 -11953867.90546  22133055.299    22133055.237
 02  1  2  2 42 30.0000000  0  8G20G25G 3G27G 4G 1G22G13
 -18398942.80249 -14336843.94046  21828152.092    21828154.129
  -6757406.62948  -5265523.52845  23797685.368    23797687.764
  -3508100.76848                  24302816.261
  -5779193.27448  -4503270.42144  24484422.630    24484426.257
    499534.94947                  25267962.400
 -24635582.02949 -19196554.41547  20430351.156    20430352.786
 -23858192.78249 -18590804.07147  20335005.334    20335007.208
 -15420397.27049 -12015893.68446  22117907.650    22117907.585
 02  1  2  2 43  0.0000000  0  8G20G25G 3G27G 4G 1G22G13
 -18317589.63849 -14273451.97946  21843632.922    21843635.408
  -6676084.52448  -5202156.24045  23813160.410    23813166.103
  -3597139.97648                  24285871.908
  -5859025.47748  -4565474.56346  24469187.344    24469187.129
    547201.47647                  25277034.553
 -24663609.36249 -19218393.94847  20425018.082    20425019.687
 -23824848.36949 -18564821.48447  20341350.379    20341352.462
 -15499806.77149 -12077771.28146  22102797.605    22102797.508
 02  1  2  2 43 30.0000000  0  8G20G25G 3G27G 4G 1G22G13
 -18235830.54249 -14209743.70846  21859191.338    21859193.307
  -6594706.05348  -5138744.66845  23828647.970    23828651.086
  -3686090.78648                  24268944.679
  -5938256.98347  -4627216.34846  24453968.812    24453968.836
    595235.65148                  25286176.097
 -24691276.02449 -19239952.44847  20419753.300    20419754.762
 -23790893.18249 -18538362.97447  20347811.879    20347814.070
 -15579021.63149 -12139497.21246  22087722.790    22087722.719
 02  1  2  2 44  0.0000000  0  7G20G13G25G 3G 4G 1G22
 -18153658.14449 -14145713.38146  21874828.183    21874830.858
 -15658030.00449 -12201062.23846  22072688.091    22072687.904
  -6513261.99548  -5075282.04044  23844145.369    23844152.443
  -3774940.01048  -2941509.63644  24252037.996    24252045.384
    643645.11548                  25295387.291
 -24718570.69949 -19261221.08247  20414559.270    20414560.762
 -23756318.91649 -18511422.06847  20354391.387    20354393.273
 02  1  2  2 44 30.0000000  0  7G20G13G25G 3G27G 1G22
 -18071092.24749 -14081376.43346  21890540.355    21890542.570
 -15736847.40449 -12262478.45746  22057690.037    22057689.418
  -6431769.66248  -5011781.82245  23859652.908    23859660.452
  -3863701.66748  -3010674.49544  24235146.807    24235151.448
         -.42858          .36854  24423575.604    24423578.777
 -24745508.91749 -19282211.95847  20409433.006    20409434.635
 -23721144.27149 -18484013.33647  20361085.101    20361087.005
 02  1  2  2 45  0.0000000  0  7G20G25G 3G27G 1G22G13
 -17988143.50949 -14016741.17246  21906325.200    21906326.971
  -6350237.76048  -4948250.75245  23875168.945    23875172.718
  -3952380.46948  -3079774.82944  24218271.613    24218277.784
    -79756.97848    -62147.66944  24408398.127    24408401.199
 -24772097.04749 -19302930.03347  20404373.376    20404375.011
 -23685378.84349 -18456144.24947  20367890.814    20367892.885
 -15815479.89249 -12323750.58846  22042726.079    22042725.912
 02  1  2  2 45 30.0000000  0  7G20G25G 3G27G 1G22G13
 -17904812.59149 -13951808.10346  21922182.462    21922184.168
  -6268664.75048  -4884687.67945  23890691.181    23890698.686
  -4040971.62348  -3148806.88744  24201413.253    24201422.686
   -159447.28048   -124244.11244  24393233.674    24393236.359
 -24798331.93449 -19323372.85347  20399380.985    20399382.553
 -23649022.43349 -18427814.65447  20374809.259    20374811.562
 -15893923.61949 -12384875.62446  22027799.294    22027798.927
 02  1  2  2 46  0.0000000  0  7G20G25G 3G27G 1G22G13
 -17821090.40949 -13886570.15146  21938114.508    21938116.240
  -6187039.64148  -4821084.00745  23906224.444    23906231.112
  -4129459.96448  -3217758.87244  24184574.454    24184583.389
   -239059.29548   -186279.56244  24378084.709    24378086.233
 -24824200.25149 -19343530.03847  20394458.300    20394459.929
 -23612065.16849 -18399016.86747  20381842.198    20381844.226
 -15972164.70649 -12445842.77046  22012910.779    22012910.526
 02  1  2  2 46 30.0000000  0  7G20G13G25G 3G27G 1G22
 -17736984.88949 -13821033.50646  21954119.472    21954121.662
 -16050206.64349 -12506654.72246  21998059.344    21998059.772
  -6105368.09348  -4757444.17145  23921767.128    23921771.491
  -4217847.95748                  24167755.488
   -318597.79948   -248257.69144  24362948.360    24362951.607
 -24849705.52249 -19363404.32847  20389605.107    20389606.734
 -23574513.65549 -18369756.03847  20388988.099    20388990.152
 02  1  2  2 47  0.0000000  0  7G20G13G25G 3G27G 1G22
 -17652489.41049 -13755192.99946  21970198.700    21970200.901
 -16128038.21749 -12567302.75546  21983248.954    21983248.654
  -6023640.98648  -4693761.05845  23937318.928    23937323.316
  -4306123.02648                  24150956.312
   -398053.27548   -310171.19244  24347828.763    24347831.660
 -24874837.17649 -19382987.50347  20384822.773    20384824.376
 -23536360.50349 -18340026.40547  20396248.402    20396250.429
 02  1  2  2 47 30.0000000  0  7G20G25G 3G27G 1G22G13
 -17567589.47149 -13689037.32646  21986354.145    21986356.528
  -5941842.15148  -4630022.08045  23952884.753    23952891.788
  -4394264.94248  -3424100.45044  24134184.716    24134196.134
   -477408.19548   -372006.27844  24332728.376    24332730.316
 -24899576.61449 -19402265.05547  20380115.179    20380116.728
 -23497590.48949 -18309816.10547  20403625.751    20403628.137
 -16205640.43549 -12627772.07646  21968481.636    21968481.724
 02  1  2  2 48  0.0000000  0  7G20G13G25G 3G27G 1G22
 -17482305.27549 -13622582.23046  22002583.670    22002585.440
 -16283028.88049 -12688074.82146  21953755.001    21953755.067
  -5859989.30548  -4566240.95945  23968461.715    23968465.640
  -4482287.94648  -3492689.76844  24117433.068    24117440.709
   -556679.96148   -433776.57044  24317642.973    24317641.304
 -24923939.92149 -19421249.51647  20375479.144    20375480.648
 -23458222.64649 -18279139.96247  20411117.353    20411119.653
 02  1  2  2 48 30.0000000  0  7G20G13G25G 3G27G 1G22
 -17396654.62549 -13555841.59046  22018882.489    22018885.165
 -16360216.65849 -12748221.18846  21939067.058    21939066.983
  -5778097.75748  -4502429.71745  23984044.520    23984050.065
  -4570203.82548  -3561195.69244  24100704.077    24100712.516
   -635883.25348   -495493.50344  24302571.702    24302573.748
 -24947940.66549 -19439951.46747  20370911.985    20370913.531
 -23418273.75249 -18248011.03747  20418719.496    20418721.787
 02  1  2  2 49  0.0000000  0  7G20G25G 3G27G 1G22G13
 -17310646.30549 -13488822.24646  22035248.987    22035251.372
  -5696174.32148  -4438593.61345  23999634.813    23999642.105
  -4658015.69548  -3629620.52544  24083993.925    24084003.854
   -715024.01048   -557161.76344  24287511.379    24287514.543
 -24971583.43949 -19458374.47547  20366413.060    20366414.627
 -23377751.85949 -18216435.61747  20426430.597    20426432.825
 -16437207.98449 -12808214.48846  21924415.784    21924416.197
 02  1  2  2 49 30.0000000  0  7G20G13G25G 3G27G 1G22
 -17224258.11149 -13421506.90846  22051688.816    22051691.757
 -16513975.63749 -12868033.49246  21909807.926    21909807.455
  -5614194.45148  -4374713.55145  24015236.030    24015240.824
  -4745695.43048                  24067308.154
   -794076.54448   -618761.23544  24272468.653    24272471.832
 -24994841.83649 -19476497.96847  20361987.115    20361988.737
 -23336633.58349 -18184395.47947  20434254.957    20434257.449
 02  1  2  2 50  0.0000000  0  7G20G25G 3G27G 1G22G13
 -17137506.39749 -13353908.28846  22068196.793    22068199.179
  -5532172.01748  -4310800.30445  24030843.303    24030848.334
  -4833253.35748  -3766169.41244  24050648.335    24050658.512
   -873054.44048   -680302.55344  24257438.792    24257441.895
 -25017728.14549 -19494331.51347  20357631.845    20357633.399
 -23294934.61349 -18151902.86047  20442190.056    20442192.519
 -16590531.79949 -12927687.69646  21895239.106    21895239.129
 02  1  2  2 50 30.0000000  0  7G20G13G25G 3G27G 1G22
 -17050377.00549 -13286015.38746  22084777.262    22084780.317
 -16666857.51749 -12987162.34046  21880715.214    21880715.206
  -5450090.92248  -4246841.35745  24046463.779    24046470.321
  -4920669.50248  -3834285.88244  24034011.942    24034023.608
   -951940.55948   -741772.34244  24242427.686    24242429.903
 -25040224.09149 -19511860.87747  20353350.988    20353352.600
 -23252640.02049 -18118946.12547  20450238.578    20450241.008
 02  1  2  2 51  0.0000000  0  7G20G13G25G 3G27G 1G22
 -16962882.18449 -13217837.73146  22101427.194    22101429.518
 -16742960.07849 -13046463.10346  21866233.679    21866234.050
  -5367961.33748  -4182844.62545  24062092.991    24062099.837
  -5007950.70748  -3902297.17144  24017403.760    24017413.937
  -1030744.01648   -803177.77544  24227432.301    24227432.710
 -25062337.58549 -19529092.22347  20349142.809    20349144.409
 -23209761.10149 -18085534.06647  20458398.366    20458400.755
 02  1  2  2 51 30.0000000  0  7G20G13G25G 3G27G 1G22
 -16875041.18749 -13149390.32346  22118142.346    22118145.022
 -16818853.99949 -13105601.29246  21851790.956    21851791.394
  -5285800.17948  -4118823.33045  24077728.177    24077734.851
  -5095109.74448  -3970213.32344  24000817.663    24000826.598
  -1109481.20848   -864531.55144  24212448.412    24212451.560
 -25084083.82649 -19546037.40647  20345004.687    20345006.371
 -23166316.10849 -18051680.89947  20466665.682    20466668.251
 02  1  2  2 52  0.0000000  0  7G20G13G25G 3G27G 1G22
 -16786832.38149 -13080656.31446  22134928.448    22134930.791
 -16894513.34649 -13164556.69446  21837394.306    21837394.144
  -5203583.01548  -4054758.34445  24093373.421    24093379.515
  -5182119.27248  -4038012.95544  23984260.539    23984267.015
  -1188127.42248   -925814.41444  24197483.844    24197486.025
 -25105436.96549 -19562676.27947  20340941.607    20340943.257
 -23122282.83449 -18017369.33047  20475044.928    20475047.649
 02  1  2  2 52 30.0000000  0  7G20G13G25G 3G27G 1G22
 -16698263.30049 -13011641.57146  22151782.304    22151785.204
 -16969940.66649 -13223331.30146  21823040.325    21823040.332
  -5121315.21848  -3990653.95645  24109029.091    24109036.560
  -5268980.71548  -4105697.19044  23967730.821    23967737.109
  -1266687.11848   -987029.86744  24182533.381    24182536.860
 -25126400.23949 -19579011.36247  20336952.595    20336954.511
 -23077667.75149 -17982604.40647  20483535.055    20483537.943
 02  1  2  2 53  0.0000000  0  7G20G13G25G 3G27G 1G22
 -16609353.48649 -12942361.31846  22168701.605    22168703.721
 -17045150.77049 -13281936.65246  21808728.964    21808728.653
  -5039014.52548  -3926523.91645  24124689.782    24124696.234
  -5355707.85148  -4173276.68344  23951227.621    23951236.805
  -1345176.95348  -1048190.89544  24167597.663    24167602.692
 -25146988.98449 -19595054.60447  20333034.703    20333036.406
 -23032489.85249 -17947400.93247  20492131.978    20492134.742
 02  1  2  2 53 30.0000000  0  7G20G13G25G 3G27G 1G22
 -16520105.65249 -12872817.68546  22185685.093    22185687.853
 -17120141.64249 -13340371.16646  21794458.551    21794458.900
  -4956680.81948  -3862368.18745  24140358.673    24140365.537
  -5442297.41148                  23934748.844
  -1423596.40748  -1109297.10644  24152675.200    24152678.384
 -25167201.71249 -19610804.84147  20329188.187    20329189.989
 -22986750.86049 -17911760.23247  20500835.807    20500838.596
 02  1  2  2 54  0.0000000  0  7G20G13G25G 3G27G 1G22
 -16430516.47949 -12803008.06346  22202733.229    22202736.001
 -17194905.22849 -13398628.57546  21780231.308    21780231.301
  -4874308.63248  -3798182.48045  24156033.234    24156040.674
  -5528740.02948  -4308106.86544  23918300.136    23918309.320
  -1501939.05748  -1170343.42144  24137767.189    24137770.318
 -25187030.92649 -19626256.23347  20325414.843    20325416.556
 -22940446.64349 -17875679.09947  20509647.258    20509650.264
 02  1  2  2 54 30.0000000  0  7G20G13G25G 3G27G 1G22
 -16340577.84349 -12732926.12646  22219848.496    22219851.046
 -17269428.16449 -13456698.45446  21766050.566    21766050.420
  -4791886.99648  -3733958.20345  24171717.903    24171724.521
  -5615021.39948  -4375339.07144  23901880.686    23901890.615
  -1580193.34348  -1231320.88145  24122875.696    24122878.038
 -25206464.09249 -19641399.01047  20321717.092    20321718.867
 -22893568.05549 -17839150.39847  20518568.120    20518571.076
 02  1  2  2 55  0.0000000  0  7G20G25G 3G27G 1G22G13
 -16250296.24649 -12662576.95946  22237028.079    22237031.089
  -4709420.39948  -3669698.95045  24187411.349    24187418.820
  -5701142.48548  -4442446.35044  23885492.505    23885503.426
  -1658363.17748  -1292232.52344  24107999.820    24108003.755
 -25225503.84749 -19656235.22347  20318094.158    20318095.905
 -22846121.15249 -17802178.85147  20527596.976    20527600.005
 -17343712.67849 -13514582.55546  21751914.735    21751914.987
 02  1  2  2 55 30.0000000  0  7G20G13G25G 3G27G 1G22
 -16159672.19149 -12591960.93946  22254273.480    22254276.742
 -17417754.36449 -13572277.43846  21737824.564    21737824.747
  -4626906.68648  -3605402.96445  24203113.406    24203121.162
  -5787097.85248  -4509424.49244  23869135.780    23869145.956
  -1736445.81848  -1353076.27144  24093142.238    24093148.262
 -25244146.52549 -19670762.03647  20314546.550    20314548.443
 -22798105.52949 -17764764.15747  20536734.349    20536737.260
 02  1  2  2 56  0.0000000  0  7G20G13G25G 3G27G 1G22
 -16068711.23849 -12521082.40545  22271582.742    22271585.796
 -17491553.81349 -13629783.55846  21723781.293    21723781.151
  -4544348.95548  -3541072.67845  24218824.241    24218830.810
  -5872886.82748                  23852810.646
  -1814443.63148  -1413853.86945  24078299.881    24078302.566
 -25262393.24449 -19684980.31147  20311074.292    20311076.142
 -22749525.99549 -17726910.04947  20545978.873    20545981.648
 02  1  2  2 56 30.0000000  0  7G20G13G25G 3G27G 1G22
 -15977433.46549 -12449956.99946  22288952.946    22288955.740
 -17565126.39549 -13687112.90446  21709781.388    21709781.150
  -4461765.28948  -3476722.19145  24234539.974    24234547.217
  -5958523.76048                  23836514.672
  -1892373.86848  -1474578.80944  24063470.039    24063473.950
 -25280260.05849 -19698902.56147  20307674.377    20307676.255
 -22700402.07649 -17688631.73747  20555327.114    20555330.046
 02  1  2  2 57  0.0000000  0  8G20G13G25G 3G27G 2G 1G22
 -15885816.85249 -12378567.56345  22306386.826    22306389.648
 -17638445.30249 -13744244.57746  21695828.870    21695829.404
  -4379131.11448  -3412332.34645  24250263.858    24250273.042
  -6043980.26848  -4709592.34344  23820252.526    23820261.462
  -1970211.10848  -1535231.30644  24048658.239    24048661.997
         -.44257                  24927315.283
 -25297720.43749 -19712508.10347  20304351.659    20304353.666
 -22650710.70749 -17649911.25847  20564782.920    20564785.980
 02  1  2  2 57 30.0000000  0  7G20G13G25G 3G27G 1G22
 -15793881.71549 -12306929.92545  22323881.481    22323884.921
 -17711525.85049 -13801190.51846  21681922.094    21681922.649
  -4296464.13248  -3347916.93345  24265996.816    24266001.873
  -6129270.74548  -4776052.37044  23804022.863    23804030.792
  -2047972.53148  -1595824.66544  24033861.526    24033862.850
 -25314790.57149 -19725809.55847  20301103.245    20301105.181
 -22600471.57349 -17610763.94847  20574343.399    20574346.193
 02  1  2  2 58  0.0000000  0  7G20G13G25G 3G27G 1G22
 -15701622.22349 -12235039.55745  22341438.194    22341440.673
 -17784357.13549 -13857942.22746  21668062.877    21668062.884
  -4213756.04048  -3283469.45245  24281735.234    24281745.162
  -6214383.45648                  23787826.258
  -2125649.24148  -1656352.06044  24019079.374    24019082.320
 -25331460.44349 -19738799.12747  20297931.196    20297933.334
 -22549677.97549 -17571184.57247  20584008.724    20584011.731
 02  1  2  2 58 30.0000000  0  8G20G13G25G 3G27G 2G 1G22
 -15609050.18949 -12162905.63545  22359053.829    22359056.268
 -17856946.55249 -13914505.46546  21654249.322    21654249.794
  -4131016.31148  -3218997.38245  24297479.214    24297489.639
  -6299324.22348  -4908561.45144  23771662.676    23771669.922
  -2203250.10348  -1716820.33645  24004313.537    24004316.611
        -1.08057                  24870979.100
 -25347737.79749 -19751482.83147  20294833.637    20294835.767
 -22498341.27249 -17531181.99847  20593778.139    20593781.029
 02  1  2  2 59  0.0000000  0  8G20G13G25G 3G27G 2G 1G22
 -15516151.06048 -12090516.84145  22376731.939    22376735.058
 -17929274.58149 -13970865.02646  21640485.906    21640486.439
  -4048227.97048  -3154487.41845  24313235.501    24313242.053
  -6384072.41648  -4974598.95644  23755536.328    23755546.505
  -2280757.48948  -1777215.76944  23989563.843    23989568.246
    -98496.54247                  24852235.650
 -25363603.88749 -19763846.07647  20291814.588    20291816.663
 -22446446.24249 -17490744.35847  20603653.708    20603656.480
 02  1  2  2 59 30.0000000  0  8G20G13G25G 3G27G 2G 1G22
 -15422946.08948 -12017889.75845  22394468.860    22394471.142
 -18001357.41349 -14027033.51846  21626769.099    21626769.500
  -3965409.85148  -3089954.26445  24328994.929    24329002.037
  -6468643.34148  -5040498.35044  23739442.569    23739452.994
  -2358189.31948  -1837552.31244  23974829.283    23974831.711
   -196906.66947                  24833508.710
 -25379075.49049 -19775901.94047  20288870.540    20288872.487
 -22394013.31449 -17449887.58347  20613631.227    20613634.164
 02  1  2  3  0  0.0000000  0  8G20G13G25G 3G27G 2G 1G22
 -15329438.40048 -11945026.74145  22412262.661    22412266.088
 -18073193.19349 -14083009.51246  21613099.507    21613099.825
  -3882562.43048  -3025398.33045  24344760.154    24344768.345
  -6553033.95848  -5106257.18644  23723382.886    23723392.815
  -2435545.53448  -1897829.94745  23960109.780    23960110.302
   -295229.92247                  24814798.166
 -25394151.82549 -19787649.79247  20286001.621    20286003.835
 -22341044.91749 -17408613.56847  20623710.081    20623713.160
 02  1  2  3  0 30.0000000  0  8G20G13G25G 3G27G 2G 1G22
 -15235609.11248 -11871913.15745  22430117.852    22430120.944
 -18144758.56849 -14138774.80046  21599480.620    21599481.040
  -3799664.61048  -2960803.03545  24360536.488    24360546.417
  -6637219.35248  -5171856.19144  23707364.456    23707370.960
  -2512804.38348  -1958031.69545  23945406.619    23945410.553
   -393442.99148                  24796109.767
 -25408809.79549 -19799071.63647  20283212.455    20283214.669
 -22287521.64849 -17366907.19047  20633895.654    20633898.712
 02  1  2  3  1  0.0000000  0  8G20G13G25G 3G27G 2G 1G22
 -15141462.96748 -11798552.66045  22448033.733    22448036.893
 -18216053.04249 -14194329.00446  21585914.404    21585914.535
  -3716718.19148  -2896169.89045  24376319.852    24376330.029
  -6721198.02748  -5237294.10245  23691382.891    23691392.323
  -2589967.09548  -2018158.56445  23930724.259    23930724.916
   -491546.03547                  24777439.944
 -25423050.00449 -19810167.94947  20280502.677    20280504.709
 -22233447.38749 -17324771.46347  20644185.878    20644188.983
 02  1  2  3  1 30.0000000  0  8G20G13G25G 3G27G 2G 1G22
 -15047013.17548 -11724955.55645  22466006.977    22466010.405
 -18287084.72449 -14249678.42846  21572396.790    21572397.236
  -3633734.68848                  24392111.470
  -6804977.55748  -5302576.80945  23675439.949    23675449.630
  -2667044.08648  -2078218.64944  23916055.927    23916056.888
   -589547.67548                  24758791.357
 -25436881.58449 -19820945.86447  20277870.797    20277872.902
 -22178834.83049 -17282216.28247  20654578.229    20654581.054
 02  1  2  3  2  0.0000000  0  8G20G13G25G 3G27G 2G 1G22
 -14952276.63648 -11651135.02345  22484035.019    22484038.066
 -18357865.70849 -14304832.50446  21558928.230    21558928.676
  -3550727.33548  -2766827.31045  24407908.501    24407917.685
  -6888568.31548  -5367712.44545  23659533.225    23659541.664
  -2744048.87848  -2138222.42645  23901402.980    23901404.602
   -687460.10347                  24740159.308
 -25450316.99149 -19831415.07247  20275314.076    20275316.006
 -22123700.01149 -17239254.13647  20665070.055    20665072.914
 02  1  2  3  2 30.0000000  0  8G13G20G25G 3G27G 2G 1G22
 -18428389.41549 -14359786.10246  21545507.950    21545508.569
 -14857251.47648 -11577089.58945  22502117.200    22502119.361
  -3467692.11348                  24423708.586
  -6971962.50048  -5432694.94045  23643664.531    23643672.024
  -2820976.42148  -2198166.04245  23886764.934    23886766.913
   -785276.84747                  24721544.928
 -25463350.09949 -19841570.78747  20272834.046    20272836.150
 -22068040.61849 -17195883.22647  20675661.693    20675664.732
 02  1  2  3  3  0.0000000  0  8G13G20G25G 3G27G 2G 1G22
 -18498646.29649 -14414531.78346  21532138.504    21532138.899
 -14761933.09048 -11502815.66245  22520256.027    22520260.051
  -3384621.97448  -2637395.54345  24439517.082    24439525.521
  -7055149.44448  -5497515.94045  23627833.909    23627842.597
  -2897818.97348  -2258043.42345  23872141.202    23872141.744
   -882988.61848                  24702951.289
 -25475972.27049 -19851406.30447  20270432.173    20270434.327
 -22011851.37149 -17152099.45047  20686354.320    20686357.429
 02  1  2  3  3 30.0000000  0  7G13G20G25G27G 2G 1G22
 -18568624.54649 -14469060.36446  21518822.771    21518823.018
 -14666314.83348 -11428308.07545  22538451.169    22538454.588
  -3301507.64248  -2572631.60345  24455333.932    24455344.854
  -2974566.59748  -2317846.82344  23857538.157    23857540.523
   -980583.97548                  24684379.747
 -25488172.47749 -19860913.03747  20268110.529    20268112.626
 -21955124.91149 -17107897.08747  20697148.782    20697151.861
 02  1  2  3  4  0.0000000  0  7G13G20G25G27G 2G 1G22
 -18638328.47249 -14523375.18146  21505557.605    21505558.155
 -14570406.39848 -11353574.38145  22556702.653    22556705.123
  -3218356.14348                  24471157.080
  -3051225.85348  -2377581.41344  23842947.847    23842952.621
  -1078068.22147                  24665827.422
 -25499956.27449 -19870095.29147  20265868.253    20265870.384
 -21897870.42849 -17063283.29047  20708044.324    20708047.369
 02  1  2  3  4 30.0000000  0  7G13G20G25G27G 2G 1G22
 -18707784.16049 -14577496.56746  21492340.846    21492341.693
 -14474238.11148 -11278638.19645  22575003.003    22575005.359
  -3135195.65748  -2443038.86045  24486982.125    24486992.550
  -3127824.03048  -2437268.38744  23828374.359    23828377.367
  -1175467.22048                  24647294.898
 -25511350.09749 -19878973.65247  20263700.087    20263702.158
 -21840117.71649 -17018281.27947  20719034.348    20719037.513
 02  1  2  3  5  0.0000000  0  7G13G20G25G27G 2G 1G22
 -18776969.55749 -14631407.33646  21479175.982    21479176.004
 -14377793.11748 -11203486.41445  22593356.176    22593359.175
  -3052006.76748  -2378216.85944  24502813.857    24502824.778
  -3204340.97548  -2496892.05344  23813811.967    23813816.185
  -1272759.25748                  24628779.862
 -25522332.69049 -19887531.58247  20261610.177    20261612.344
 -21781849.30649 -16972877.41847  20730122.472    20730125.755
 02  1  2  3  5 30.0000000  0  7G13G20G25G27G 2G 1G22
 -18845860.04349 -14685088.31046  21466066.425    21466066.926
 -14281051.80548 -11128103.72145  22611765.026    22611769.385
  -2968766.88448  -2313355.09044  24518653.618    24518663.795
  -3280753.85048  -2556434.60245  23799272.125    23799275.849
  -1369920.02348                  24610290.914
 -25532880.07349 -19895750.38147  20259603.020    20259605.208
 -21723044.91349 -16927055.89747  20741312.597    20741315.710
 02  1  2  3  6  0.0000000  0  8G13G20G25G31G27G 2G 1G22
 -18914480.91849 -14738559.19746  21453008.024    21453008.646
 -14184044.67648 -11052513.91045  22630225.869    22630228.839
  -2885504.06848                  24534498.177
         -.59158                  25174937.724
  -3357089.85148  -2615917.26445  23784745.463    23784747.878
  -1466975.28248                  24591822.549
 -25543019.06649 -19903650.96047  20257673.562    20257675.580
 -21663734.59349 -16880840.14547  20752599.200    20752602.293
 02  1  2  3  6 30.0000000  0  8G13G20G25G31G27G 2G 1G22
 -18982819.78049 -14791810.33246  21440003.815    21440004.277
 -14086764.16348 -10976711.08245  22648737.612    22648740.193
  -2802208.24848                  24550349.244
   -104010.46248    -81047.18844  25155145.382    25155156.303
  -3433338.52048  -2675331.86644  23770235.463    23770239.368
  -1563913.06348                  24573375.122
 -25552737.88849 -19911224.13147  20255824.463    20255826.515
 -21603910.20749 -16834223.82647  20763983.142    20763986.344
 02  1  2  3  7  0.0000000  0  7G13G20G25G27G 2G 1G22
 -19050871.57049 -14844837.77946  21427053.897    21427054.282
 -13989210.03548 -10900695.01845  22667301.353    22667305.306
  -2718876.60748  -2118637.00044  24566207.927    24566217.359
  -3509496.31948  -2734675.65045  23755743.328    23755747.322
  -1660728.33848                  24554952.992
 -25562032.12949 -19918466.45747  20254055.816    20254057.939
 -21543570.84249 -16787206.22147  20775465.657    20775468.747
 02  1  2  3  7 30.0000000  0  7G13G20G25G27G 2G 1G22
 -19118635.68149 -14897641.06346  21414158.998    21414159.583
 -13891386.86148 -10824469.33845  22685916.990    22685920.133
  -2635511.05148  -2053677.40344  24582071.021    24582081.446
  -3585564.53148  -2793949.65345  23741267.667    23741271.661
  -1757421.11448                  24536551.629
 -25570902.12349 -19925378.21447  20252367.997    20252370.143
 -21482720.60649 -16739790.54247  20787045.198    20787048.351
 02  1  2  3  8  0.0000000  0  8G13G25G31G20G27G 2G 1G22
 -19186127.88849 -14950232.46846  21401315.798    21401316.237
  -2552129.52648                  24597938.787
         -.43258          .27054  25095645.937    25095654.128
 -13793315.53148 -10748050.30245  22704579.217    22704582.392
  -3661560.70348  -2853167.52845  23726806.997    23726810.446
  -1854007.66648                  24518172.635
 -25579364.52549 -19931972.37947  20250757.771    20250759.904
 -21421379.68849 -16691992.51147  20798717.821    20798721.170
 02  1  2  3  8 30.0000000  0  8G13G25G31G20G27G 2G 1G22
 -19253340.26449 -15002605.81546  21388525.670    21388526.239
  -2468727.24548                  24613810.586
   -104451.42948                  25075769.089
 -13694993.12148 -10671435.61245  22723289.103    22723292.596
  -3737478.87448  -2912324.60945  23712359.853    23712365.074
  -1950480.63548                  24499813.835
 -25587412.28949 -19938243.43647  20249226.264    20249228.279
 -21359544.71949 -16643809.50147  20810484.683    20810487.908
 02  1  2  3  9  0.0000000  0  8G13G25G31G20G27G 2G 1G22
 -19320247.33049 -15054741.25546  21375793.691    21375794.308
  -2385280.40048                  24629690.004
   -208987.34948                  25055875.775
 -13596399.11648 -10594609.25645  22742051.846    22742054.603
  -3813295.17448  -2971402.29545  23697932.640    23697935.816
  -2046814.74448                  24481481.984
 -25595020.66049 -19944172.09747  20247778.540    20247780.888
 -21297194.81449 -16595225.24547  20822349.371    20822352.673
 02  1  2  3  9 30.0000000  0  8G13G25G31G20G27G 2G 1G22
 -19386847.69949 -15106637.70846  21363119.906    21363120.537
  -2301789.89348                  24645578.627
   -313605.97748                  25035968.514
 -13497537.14948 -10517574.14445  22760863.974    22760867.272
  -3889009.93548  -3030400.86845  23683524.361    23683528.199
  -2143008.98448                  24463177.413
 -25602189.06549 -19949757.95147  20246414.348    20246416.392
 -21234332.69349 -16546241.86147  20834311.861    20834315.088
 02  1  2  3 10  0.0000000  0  8G13G25G31G20G27G 2G 1G22
 -19453161.08549 -15158310.53646  21350501.033    21350501.842
  -2218277.91648                  24661471.253
   -418326.00648                  25016041.046
 -13398431.82648 -10440349.38645  22779723.029    22779726.577
  -3964644.67648  -3089337.07845  23669132.073    23669136.783
  -2239083.37448                  24444892.453
 -25608938.12949 -19955017.04147  20245130.080    20245132.291
 -21170982.86249 -16496878.44447  20846366.883    20846370.309
 02  1  2  3 10 30.0000000  0  8G13G25G31G20G27G 2G 1G22
 -19519187.86149 -15209760.02846  21337936.710    21337937.633
  -2134747.60848  -1663475.80744  24677366.251    24677376.924
   -523147.26248                  24996093.156
 -13299088.58048 -10362939.24544  22798628.070    22798631.564
  -4040201.67048  -3148212.69245  23654752.994    23654757.854
  -2334525.62347                  24426635.641
 -25615269.36949 -19959950.54247  20243925.250    20243927.537
 -21107150.16349 -16447138.75647  20858514.089    20858517.271
 02  1  2  3 11  0.0000000  0  7G13G20G25G31G27G 1G22
 -19584907.60049 -15260970.26846  21325430.953    21325431.796
 -13199492.40648 -10285332.04244  22817581.070    22817587.776
  -2051180.95248  -1598359.62644  24693269.305    24693279.482
   -628049.01348                  24976131.403
  -4115662.64948  -3207013.47945  23640394.737    23640397.673
 -25621163.58149 -19964543.50947  20242803.774    20242806.141
 -21042818.89949 -16397010.57347  20870755.975    20870759.326
 02  1  2  3 11 30.0000000  0  7G13G25G31G20G27G 1G22
 -19650313.09549 -15311935.63946  21312984.435    21312984.930
  -1967573.10148                  24709180.548
   -733023.27448                  24956155.347
 -13099640.98948 -10207525.91344  22836582.061    22836587.224
  -4191022.07748  -3265735.14145  23626053.905    23626057.248
 -25626614.36449 -19968790.95747  20241766.658    20241769.051
 -20977986.40849 -16346491.81147  20883093.260    20883096.589
 02  1  2  3 12  0.0000000  0  8G13G25G31G20G27G 2G 1G22
 -19715417.98149 -15362666.77846  21300595.165    21300595.903
  -1883939.70348                  24725095.773
   -838082.46348                  24936163.395
 -12999552.67848 -10129535.19144  22855627.278    22855630.383
  -4266294.96848  -3324389.38745  23611729.650    23611733.275
         -.51158                  24372015.629
 -25631635.94049 -19972703.96747  20240811.058    20240813.402
 -20912670.58249 -16295596.42847  20895522.485    20895525.721
 02  1  2  3 12 30.0000000  0  8G13G25G31G20G27G 2G 1G22
 -19780235.81149 -15413174.23446  21288261.316    21288261.780
  -1800296.76148                  24741012.259
   -943239.42648                  24916153.557
 -12899246.32748 -10051374.59544  22874715.995    22874719.376
  -4341496.94048  -3382988.37845  23597419.387    23597421.357
    -95422.53148                  24353858.166
 -25636243.06449 -19976294.01047  20239934.292    20239936.760
 -20846889.97549 -16244338.89047  20908039.770    20908043.192
 02  1  2  3 13  0.0000000  0  8G13G25G31G20G27G 2G 1G22
 -19844743.21549 -15463439.79546  21275986.081    21275986.593
  -1716623.41448  -1337668.04044  24756936.039    24756945.471
  -1048470.24848                  24896128.523
 -12798703.72648  -9973029.84744  22893847.654    22893852.889
  -4416606.53748  -3441515.34845  23583126.662    23583130.121
   -190704.19648                  24335725.641
 -25640413.49049 -19979543.77647  20239140.630    20239143.048
 -20780625.59949 -16192704.39747  20920649.815    20920653.263
 02  1  2  3 13 30.0000000  0  8G13G25G31G20G27G 2G 1G22
 -19908941.96249 -15513464.84846  21263768.640    21263769.624
  -1632923.66548  -1272448.01144  24772863.631    24772869.707
  -1153775.60248                  24876088.859
 -12697931.58848  -9894506.33244  22913025.665    22913029.078
  -4491627.21548  -3499973.06445  23568850.797    23568853.484
   -285847.56048   -222737.17744  24317620.396    24317626.022
 -25644149.81049 -19982455.28047  20238429.764    20238432.611
 -20713883.84949 -16140697.92047  20933350.495    20933353.707
 02  1  2  3 14  0.0000000  0  8G13G25G31G20G27G 2G 1G22
 -19972837.39249 -15563253.55146  21251610.327    21251611.236
  -1549205.45848  -1207213.61644  24788794.846    24788806.512
  -1259160.12248                  24856034.727
 -12596940.13048  -9815811.89344  22932242.274    22932249.664
  -4566565.96948  -3558366.97045  23554590.565    23554593.497
   -380858.37848                  24299540.329
 -25647458.28449 -19985033.39247  20237800.306    20237802.741
 -20646674.60149 -16088327.16347  20946140.091    20946143.438
 02  1  2  3 14 30.0000000  0  8G13G25G31G20G27G 2G 1G22
 -20036433.06249 -15612808.67046  21239508.901    21239509.402
  -1465474.60748                  24804729.332
  -1364626.70048                  24835965.234
 -12495737.96048  -9736953.21544  22951502.174    22951506.708
  -4641428.34248  -3616701.33145  23540344.143    23540348.179
   -475740.75948   -370705.87344  24281485.793    24281490.425
 -25650343.46249 -19987281.66847  20237251.178    20237253.807
 -20579005.92049 -16035598.40347  20959017.171    20959020.439
 02  1  2  3 15  0.0000000  0  8G13G25G31G20G27G 2G 1G22
 -20099710.02649 -15662115.44347  21227467.029    21227467.962
  -1381714.44548  -1076702.32544  24820669.146    24820678.826
  -1470155.61848                  24815883.457
 -12394311.42748  -9657919.77644  22970801.877    22970807.778
  -4716197.28148  -3674962.93945  23526117.213    23526121.117
   -570476.27148                  24263456.891
 -25652787.70349 -19989186.33347  20236786.282    20236788.913
 -20510863.85449 -15982500.76747  20971984.081    20971987.298
 02  1  2  3 15 30.0000000  0  8G22G25G31G20G27G 2G 1G13
 -20442238.00549 -15929026.15147  20985042.936    20985046.646
  -1297912.59448                  24836615.762
  -1575731.36448                  24795792.858
 -12292650.85948  -9578703.94044  22990148.423    22990151.287
  -4790859.69248  -3733141.50145  23511908.661    23511911.092
   -665050.65248                  24245460.909
 -25654777.36249 -19990736.78947  20236407.646    20236410.562
 -20162653.55649 -15711162.39447  21215489.516    21215490.334
 02  1  2  3 16  0.0000000  0  8G22G13G25G31G20G27G 2G 1
 -20373140.47649 -15875183.99147  20998192.066    20998195.495
 -20225270.67849 -15759955.00447  21203574.173    21203574.972
  -1214078.75948   -946078.17344  24852569.640    24852580.314
  -1681360.29048                  24775692.730
 -12190768.50748  -9499315.29344  23009535.343    23009542.191
  -4865424.60348  -3791244.11745  23497720.188    23497723.335
   -759471.46848                  24227492.490
 -25656320.56249 -19991939.37147  20236114.234    20236116.978
 02  1  2  3 16 30.0000000  0  8G22G13G25G31G20G27G 2G 1
 -20303588.51449 -15820987.74046  21011427.414    21011431.011
 -20287574.59449 -15808503.55847  21191718.149    21191719.145
  -1130227.66148                  24868526.089
  -1787054.28948                  24755578.276
 -12088682.16748  -9419767.65744  23028962.785    23028966.849
  -4939906.62048  -3849282.14245  23483546.816    23483549.381
   -853752.05448                  24209552.168
 -25657431.08449 -19992804.79847  20235903.024    20235905.837
 02  1  2  3 17  0.0000000  0  8G25G31G20G27G 2G 1G22G13
  -1046350.42048                  24884488.291
  -1892800.40848                  24735456.125
 -11986384.99848  -9340055.78444  23048428.821    23048433.372
  -5014295.67148  -3907247.70445  23469390.310    23469393.587
   -947881.04047                  24191638.638
 -25658098.05249 -19993324.59147  20235776.011    20235778.883
 -20233574.73749 -15766431.64346  21024750.584    21024754.057
 -20349552.84949 -15856798.35447  21179924.255    21179925.281
 02  1  2  3 17 30.0000000  0  8G22G13G25G31G20G27G 2G 1
 -20163100.93049 -15711517.08546  21038161.592    21038164.944
 -20411202.57249 -15904837.16247  21168192.676    21168193.529
   -962445.72248                  24900454.702
  -1998595.24448                  24715323.230
 -11883878.85348  -9260181.07344  23067935.343    23067946.265
  -5088590.40248  -3965139.79845  23455253.562    23455256.112
  -1041855.91447                  24173755.844
 -25658319.60649 -19993497.30647  20235733.800    20235736.615
 02  1  2  3 18  0.0000000  0  8G22G13G25G31G20G27G 2G 1
 -20092173.09049 -15656248.73046  21051659.013    21051662.219
 -20472525.09449 -15952621.00347  21156523.723    21156524.465
   -878517.56748                  24916426.037
  -2104439.00248                  24695181.407
 -11781170.38948  -9180148.71144  23087480.688    23087485.781
  -5162794.03648  -4022960.87645  23441132.251    23441135.686
  -1135678.53547                  24155901.539
 -25658098.13549 -19993324.80747  20235776.136    20235779.241
 02  1  2  3 18 30.0000000  0  8G22G13G25G31G20G27G 2G 1
 -20020796.36449 -15600630.59346  21065241.055    21065245.020
 -20533521.03649 -16000150.37447  21144916.313    21144917.354
   -794568.97748                  24932401.908
  -2210331.13948  -1722332.42644  24675031.215    24675041.888
 -11678265.01248  -9099962.90044  23107062.765    23107068.898
  -5236908.98348  -4080712.82645  23427028.657    23427031.371
  -1229349.87147                  24138076.683
 -25657435.20049 -19992808.33047  20235902.388    20235905.392
 02  1  2  3 19  0.0000000  0  8G22G13G25G31G20G27G 2G 1
 -19948988.75149 -15544676.69246  21078905.801    21078909.687
 -20594203.58549 -16047435.53947  21133368.553    21133369.636
   -710615.38848                  24948378.005
  -2316284.37148  -1804893.13444  24654868.675    24654880.342
 -11575181.20348  -9019638.05544  23126679.030    23126682.039
  -5310950.13448  -4138407.26545  23412939.440    23412942.469
  -1322883.59047                  24120278.242
 -25656345.33549 -19991959.19947  20236109.661    20236112.782
 02  1  2  3 19 30.0000000  0  8G22G13G25G31G20G27G 2G 1
 -19876734.49349 -15488374.75746  21092655.840    21092659.284
 -20654552.37749 -16094460.63547  21121884.811    21121885.687
   -626638.39848                  24964358.543
  -2422277.31448                  24634698.980
 -11471903.41548                  23146331.354
  -5384898.84448  -4196029.68345  23398867.218    23398870.386
  -1416259.78147                  24102508.136
 -25654808.83149 -19990761.98847  20236401.988    20236405.037
 02  1  2  3 20  0.0000000  0  8G22G13G25G31G20G27G 2G 1
 -19804039.16249 -15431729.13946  21106488.777    21106492.609
 -20714568.27749 -16141226.33747  21110464.141    21110465.101
   -542641.54648   -422884.36044  24980343.373    24980354.046
  -2528310.25248                  24614522.425
 -11368437.55948  -8858539.55744  23166021.299    23166024.054
  -5458757.92348  -4253582.22745  23384812.718    23384816.092
  -1509480.01347                  24084770.716
 -25652828.10349 -19989218.67047  20236779.080    20236782.250
 02  1  2  3 20 30.0000000  0  8G22G13G25G31G20G27G 2G 1
 -19730900.28549 -15374737.91346  21120406.556    21120410.535
 -20774243.95549 -16187726.93747  21099108.303    21099109.258
   -458620.11548                  24996331.941
  -2634374.78948  -2052755.21844  24594337.648    24594349.066
 -11264781.69748  -8777768.96544  23185746.334    23185752.569
  -5532521.84748  -4311060.63045  23370775.464    23370778.687
  -1602537.67648                  24067062.645
 -25650396.87049 -19987324.28247  20237241.772    20237244.868
 02  1  2  3 21  0.0000000  0  8G22G13G25G31G20G27G 2G 1
 -19657328.87549 -15317409.66246  21134407.205    21134411.118
 -20833585.89349 -16233967.47547  21087815.930    21087817.159
   -374582.60648                  25012324.508
  -2740476.34848                  24574147.235
 -11160947.27248  -8696859.26344  23205505.838    23205509.880
  -5606198.89248  -4368471.36945  23356755.184    23356760.244
  -1695439.77048                  24049383.149
 -25647522.58549 -19985084.64547  20237788.707    20237791.901
 02  1  2  3 21 30.0000000  0  8G22G13G25G31G20G27G 2G 1
 -19583318.68849 -15259739.51346  21148490.695    21148494.631
 -20892583.22949 -16279939.49147  21076588.935    21076590.158
   -290520.11448                  25028320.636
  -2846602.93648                  24553950.871
 -11056928.10448  -8615805.59144  23225299.935    23225306.585
  -5679779.80348  -4425807.14245  23342753.558    23342756.871
  -1788175.78348  -1393381.99944  24031737.974    24031741.820
 -25644195.49449 -19982492.18147  20238421.893    20238425.025
 02  1  2  3 22  0.0000000  0  8G22G13G25G31G20G27G 2G 1
 -19508864.46049 -15201723.36746  21162659.209    21162663.290
 -20951225.69849 -16325634.99347  21065430.085    21065431.243
   -206425.32948                  25044324.313
  -2952744.03248                  24533753.417
 -10952719.20548  -8534604.06144  23245131.191    23245131.825
  -5753256.28048  -4483061.56345  23328771.194    23328774.513
  -1880736.03348  -1465506.87444  24014122.399    24014128.221
 -25640406.81749 -19979540.06547  20239143.226    20239146.400
 02  1  2  3 22 30.0000000  0  8G22G13G25G31G20G27G 2G 1
 -19433977.29149 -15143369.86546  21176910.098    21176914.143
 -21009519.54549 -16371058.83647  21054336.930    21054337.927
   -122306.94548                  25060331.190
  -3058904.94048                  24513551.547
 -10848332.38848  -8453263.88644  23264995.429    23264998.394
  -5826636.60748  -4540241.08545  23314807.503    23314811.140
  -1973127.65748  -1537500.31844  23996542.177    23996548.276
 -25636164.16949 -19976234.20447  20239950.829    20239953.953
 02  1  2  3 23  0.0000000  0  8G22G13G25G31G20G27G 2G 1
 -19358666.05949 -15084685.93046  21191241.238    21191245.443
 -21067469.15949 -16416214.44247  21043309.444    21043310.756
    -38171.51348                  25076341.979
  -3165088.71348                  24493345.831
 -10743776.77548  -8371792.23444  23284890.986    23284897.646
  -5899926.67048  -4597350.25845  23300861.198    23300865.087
  -2065355.36848  -1609366.06344  23978991.048    23978997.050
 -25631472.93849 -19972578.79247  20240843.507    20240846.589
 02  1  2  3 23 30.0000000  0  8G22G13G25G31G20G27G 2G 1
 -19282935.41949 -15025675.17746  21205652.380    21205656.351
 -21125074.44649 -16461101.73647  21032347.617    21032348.730
     45979.14848                  25092356.248
  -3271294.31748                  24473135.337
 -10639057.25648  -8290192.80544  23304818.612    23304825.972
  -5973128.15048  -4654390.42245  23286930.624    23286933.731
  -2157419.70248                  23961471.506
 -25626334.31449 -19968574.75247  20241821.170    20241824.342
 02  1  2  3 24  0.0000000  0  8G22G13G25G31G20G27G 2G 1
 -19206783.57849 -14966336.22346  21220143.419    21220147.637
 -21182329.00249 -16505715.73847  21021452.775    21021453.953
    130149.07348                  25108372.994
  -3377514.17448                  24452922.955
 -10534172.26948  -8208464.49044  23324778.221    23324780.457
  -6046236.29949  -4711357.85945  23273020.007    23273023.514
  -2249314.56248  -1752710.97344  23943985.407    23943987.806
 -25620742.87449 -19964217.85147  20242885.263    20242888.403
 02  1  2  3 24 30.0000000  0  8G22G13G25G31G20G27G 2G 1
 -19130212.98449 -14906670.95446  21234714.655    21234718.889
 -21239230.17149 -16550054.37547  21010625.201    21010626.402
    214337.95548                  25124393.383
  -3483745.23048                  24432707.146
 -10429124.73448  -8126609.52244  23344767.937    23344770.721
  -6119250.56249  -4768252.13945  23259125.878    23259128.961
  -2341038.26748  -1824184.03644  23926529.623    23926538.062
 -25614697.67049 -19959507.36847  20244035.920    20244039.117
 02  1  2  3 25  0.0000000  0  8G22G13G25G31G20G27G 2G 1
 -19053224.36349 -14846679.95846  21249364.995    21249369.636
 -21295774.19049 -16594114.71647  20999864.564    20999865.972
    298547.78848                  25140418.931
  -3589982.38648                  24412491.007
 -10323915.70748  -8044628.70744  23364788.786    23364794.127
  -6192168.66548  -4825071.49745  23245248.211    23245252.035
  -2432587.26048  -1895520.83044  23909109.159    23909113.909
 -25608195.89649 -19954441.15147  20245273.304    20245276.423
 02  1  2  3 25 30.0000000  0  8G22G25G31G20G27G 2G 1G13
 -18975823.07149 -14786367.40546  21264094.402    21264098.614
    382775.65748                  25156446.614
  -3696224.99948                  24392273.389
 -10218550.96148  -7962526.55244  23384838.880    23384846.327
  -6264992.86949  -4881817.65645  23231391.435    23231395.194
  -2523962.97248  -1966722.66244  23891721.071    23891726.979
 -25601239.24549 -19949020.45147  20246597.051    20246600.225
 -21351961.57449 -16637897.16447  20989173.140    20989174.440
 02  1  2  3 26  0.0000000  0  8G22G25G31G20G27G 2G 1G13
 -18898009.31849 -14725733.45746  21278901.909    21278906.263
    467023.56148                  25172479.382
  -3802467.73348                  24372056.474
 -10113030.77148  -7880303.28944  23404919.501    23404925.387
  -6337720.56349  -4938488.62945  23217552.118    23217555.228
  -2615161.28848                  23874366.066
 -25593824.63049 -19943242.89347  20248007.956    20248011.093
 -21407787.91349 -16681398.27447  20978549.923    20978551.425
 02  1  2  3 26 30.0000000  0  8G22G25G31G20G27G 2G 1G13
 -18819788.22749 -14664782.10346  21293787.124    21293791.155
    551289.09848                  25188514.909
  -3908710.23048  -3045743.08144  24351839.121    24351849.049
 -10007360.53048                  23425027.051
  -6410353.88648  -4995086.05445  23203729.093    23203732.056
  -2706183.30448                  23857046.641
 -25585953.55349 -19937109.62847  20249505.817    20249508.997
 -21463253.36749 -16724618.17047  20967994.634    20967996.043
 02  1  2  3 27  0.0000000  0  8G22G25G31G20G27G 2G 1G13
 -18741157.16249 -14603511.28446  21308750.062    21308754.310
    635577.09248                  25204554.449
  -4014943.85948  -3128522.40244  24331623.602    24331634.523
  -9901537.88148                  23445165.677
  -6482887.12649  -5051605.47745  23189927.938    23189931.034
  -2797022.13748  -2179495.98044  23839758.439    23839764.960
 -25577620.06549 -19930616.07047  20251091.914    20251095.094
 -21518350.77049 -16767551.27447  20957510.034    20957511.436
 02  1  2  3 27 30.0000000  0  8G22G25G31G20G27G 2G 1G13
 -18662133.95849 -14541934.90646  21323788.066    21323791.707
    719872.25848                  25220595.752
  -4121180.91048                  24311406.991
  -9795580.99648                  23465327.809
  -6555335.23349  -5108058.57745  23176141.247    23176144.437
  -2887691.51848  -2250147.50044  23822505.539    23822504.675
 -25568838.62749 -19923773.47047  20252762.861    20252766.011
 -21573093.35549 -16810207.89347  20947092.941    20947094.290
 02  1  2  3 28  0.0000000  0  8G22G25G31G20G27G 2G 1G13
 -18582707.38849 -14480044.20546  21338902.347    21338906.635
    804188.36448                  25236641.115
  -4227404.22348                  24291193.764
  -9689479.11248  -7550264.05644  23485519.120    23485522.164
  -6627684.00548  -5164434.28745  23162372.476    23162377.230
  -2978176.10248  -2320654.77144  23805287.627    23805292.533
 -25559594.29549 -19916570.14447  20254522.158    20254525.305
 -21627465.03749 -16852575.50047  20936746.354    20936747.752
 02  1  2  3 28 30.0000000  0  8G22G25G31G20G27G 2G 1G13
 -18502884.92949 -14417845.02446  21354092.220    21354096.787
    888520.53148                  25252689.408
  -4333615.56348                  24270981.628
  -9583239.96748                  23505735.401
  -6699937.91849  -5220736.07145  23148625.158    23148628.232
  -3068479.26148  -2391020.76744  23788102.383    23788108.393
 -25549891.31049 -19909009.44447  20256368.752    20256371.880
 -21681468.47449 -16894656.17247  20926469.884    20926471.366
 02  1  2  3 29  0.0000000  0  8G22G25G31G20G27G 2G 1G13
 -18422665.98349 -14355336.89846  21369357.302    21369361.716
    972871.74848                  25268741.233
  -4439808.30748                  24250774.054
  -9476863.02748  -7384589.63244  23525979.035    23525986.135
  -6772093.36148  -5276961.13645  23134892.726    23134895.910
  -3158596.24848  -2461241.79044  23770954.128    23770959.073
 -25539725.57949 -19901088.15847  20258303.092    20258306.234
 -21735098.28949 -16936445.70147  20916264.580    20916265.995
 02  1  2  3 29 30.0000000  0  8G22G25G31G20G27G 2G 1G13
 -18342060.33349 -14292527.44746  21384696.399    21384700.540
   1057234.48548                  25284795.517
  -4545986.54848  -3542321.04444  24230569.138    24230578.818
  -9370358.37848  -7301599.27344  23546246.094    23546253.418
  -6844157.12049  -5333114.75445  23121180.168    23121183.756
  -3248532.99148  -2531322.32144  23753839.355    23753843.424
 -25529103.64249 -19892811.36447  20260324.692    20260327.787
 -21788359.29249 -16977947.83647  20906129.221    20906130.673
 02  1  2  3 30  0.0000000  0  8G22G25G31G20G27G 2G 1G13
 -18261071.30949 -14229419.25346  21400108.107    21400111.964
   1141608.05448                  25300850.422
  -4652147.61048  -3625043.67044  24210366.796    24210376.476
  -9263729.54948  -7218512.17344  23566537.047    23566541.962
  -6916129.29849  -5389197.01745  23107485.249    23107487.537
  -3338288.46348  -2601261.60244  23736759.365    23736767.556
 -25518025.42749 -19884179.03947  20262432.797    20262435.973
 -21841250.36349 -17019161.71247  20896064.682    20896066.055
 02  1  2  3 30 30.0000000  0  8G22G25G31G20G27G 2G 1G13
 -18179696.45049 -14166010.39946  21415593.257    21415597.545
   1225997.56548                  25316911.059
  -4758283.65748                  24190169.351
  -9156974.79248  -7135326.93044  23586852.724    23586856.433
  -6988004.73148  -5445203.90745  23093805.935    23093810.414
  -3427856.16548  -2671054.53944  23719716.004    23719719.996
 -25506484.97149 -19875186.52947  20264628.608    20264631.819
 -21893764.30149 -17060081.71647  20886071.530    20886073.022
 02  1  2  3 31  0.0000000  0  8G22G25G31G20G27G 2G 1G13
 -18097934.58949 -14102299.98846  21431152.508    21431156.662
   1310406.88148                  25332973.674
  -4864387.51048  -3790424.82044  24169978.315    24169989.484
  -9050092.73648                  23607190.801
  -7059778.92049  -5501131.89445  23080149.229    23080152.738
  -3517230.55748  -2740696.89244  23702707.187    23702715.874
 -25494477.68249 -19865830.26147  20266913.648    20266916.772
 -21945895.00449 -17100703.09247  20876151.555    20876153.000
 02  1  2  3 31 30.0000000  0  8G22G25G31G20G27G 2G 1G13
 -18015784.39349 -14038286.98046  21446785.108    21446789.592
   1394839.64548                  25349040.346
  -4970451.94748                  24149795.043
  -8943082.41748  -6968658.12244  23627555.412    23627564.596
  -7131447.30349  -5556977.46546  23066511.667    23066515.372
  -3606406.32648  -2810184.47644  23685738.357    23685745.117
 -25481998.76149 -19856106.46447  20269288.421    20269291.559
 -21997636.45749 -17141021.15747  20866305.166    20866306.843
 02  1  2  3 32  0.0000000  0  8G22G25G31G20G27G 2G 1G13
 -17933254.75649 -13973978.30146  21462489.899    21462494.120
   1479289.31248                  25365112.059
  -5076480.31248  -3955691.30944  24129618.144    24129629.313
  -8835952.90548  -6885180.83644  23647942.182    23647948.033
  -7203016.16248  -5612745.44345  23052890.301    23052893.975
  -3695388.48548  -2879521.20044  23668805.674    23668811.603
 -25469054.21349 -19846019.84747  20271751.724    20271754.811
 -22048993.10049 -17181039.37447  20856532.356    20856534.055
 02  1  2  3 32 30.0000000  0  8G22G25G31G20G27G 2G 1G13
 -17850349.90949 -13909377.24646  21478266.176    21478270.797
   1563754.19348                  25381185.178
  -5182470.57248  -4038280.82944  24109448.528    24109457.712
  -8728708.92448  -6801614.39044  23668349.148    23668357.587
  -7274486.36049  -5668436.57745  23039292.547    23039294.972
  -3784176.88748  -2948706.95344  23651909.705    23651914.460
 -25455644.61249 -19835570.88247  20274303.734    20274306.918
 -22099964.13949 -17220757.12947  20846833.219    20846834.688
 02  1  2  3 33  0.0000000  0  8G22G25G31G20G27G 2G 1G13
 -17767069.91249 -13844483.87846  21494113.947    21494118.818
   1648237.19448                  25397261.839
  -5288417.07248                  24089286.993
  -8621350.67148  -6717958.91644  23688780.233    23688788.424
  -7345855.11549  -5724048.65145  23025710.893    23025714.052
  -3872767.54348  -3017738.56844  23635051.436    23635057.213
 -25441766.81349 -19824757.10247  20276944.659    20276947.816
 -22150544.83949 -17260170.72047  20837208.339    20837209.698
 02  1  2  3 33 30.0000000  0  8G22G25G31G20G27G 2G 1G13
 -17683423.85449 -13779305.27046  21510031.670    21510036.453
   1732731.34548                  25413340.964
  -5394323.15448                  24069133.963
  -8513887.28748  -6634221.47744  23709229.011    23709236.633
  -7417128.33849  -5779586.25446  23012147.026    23012150.958
  -3961165.38548  -3086620.03044  23618229.882    23618233.220
 -25427426.37549 -19813582.82747  20279673.546    20279676.703
 -22200739.78049 -17299283.73047  20827656.580    20827658.174
 02  1  2  3 34  0.0000000  0  8G22G25G31G20G27G 2G 1G13
 -17599423.17949 -13713850.32546  21526016.478    21526021.392
   1817227.90248   1415965.17744  25429419.992    25429422.645
  -5500194.19748  -4285856.86144  24048987.586    24048998.260
  -8406330.51848  -6550411.33944  23729697.403    23729706.587
  -7488314.49349  -5835056.01646  22998602.452    22998605.049
  -4049377.87048  -3155357.00545  23601443.258    23601449.225
 -25412631.52849 -19802054.46547  20282489.062    20282492.257
 -22250555.53949 -17338101.27647  20818176.498    20818177.967
 02  1  2  3 34 30.0000000  0  7G22G25G20G27G 2G 1G13
 -17515059.86249 -13648112.81446  21542070.267    21542075.029
   1901737.37148   1481819.31645  25445501.991    25445506.608
  -8298672.67948                  23750183.149
  -7559402.43349  -5890449.24745  22985074.255    22985077.532
  -4137392.80248  -3223940.05344  23584695.211    23584699.694
 -25397371.07949 -19790163.27147  20285393.139    20285396.229
 -22299979.19349 -17376613.28347  20808771.828    20808773.393
 02  1  2  3 35  0.0000000  0  7G22G25G20G27G 2G 1G13
 -17430335.47249 -13582093.93646  21558192.596    21558197.522
   1986260.57048   1547676.38644  25461586.842    25461592.828
  -8190915.46548  -6382556.00144  23770690.124    23770695.361
  -7630390.87749  -5945764.93046  22971564.866    22971568.584
  -4225207.76548  -3292367.31244  23567983.796    23567990.131
 -25381643.25649 -19777907.88947  20288385.865    20288388.981
 -22349007.87449 -17414817.51947  20799442.054    20799443.575
 02  1  2  3 35 30.0000000  0  7G22G25G20G27G 2G 1G13
 -17345250.75149 -13515794.29546  21574384.301    21574389.315
   2070799.27448                  25477673.956
  -8083059.82948  -6298512.98044  23791213.780    23791219.355
  -7701277.23949  -6001001.06546  22958076.709    22958079.808
  -4312819.41048  -3360636.11745  23551312.424    23551318.914
 -25365445.34949 -19765286.22147  20291468.323    20291471.487
 -22397637.51749 -17452710.81647  20790188.121    20790189.904
 02  1  2  3 36  0.0000000  0  7G22G25G20G27G 2G 1G13
 -17259803.21749 -13449211.95146  21590644.404    21590649.144
   2155358.65148                  25493765.181
  -7975103.77948  -6214391.65844  23811757.506    23811765.945
  -7772056.19449  -6056153.50946  22944607.136    22944611.346
  -4400221.21048  -3428741.45244  23534680.230    23534684.312
 -25348771.95949 -19752294.04047  20294641.143    20294644.293
 -22445861.15649 -17490287.74447  20781011.588    20781013.377
 02  1  2  3 36 30.0000000  0  7G22G25G20G27G 2G 1G13
 -17174004.95649 -13382356.32046  21606971.407    21606976.142
   2239929.10148                  25509858.926
  -7867059.27748  -6130201.48544  23832317.839    23832329.257
  -7842736.67049  -6111229.21046  22931157.228    22931160.554
  -4487421.09148  -3496689.44544  23518086.490    23518092.686
 -25331631.73649 -19738938.09447  20297902.664    20297905.871
 -22493685.81749 -17527553.77347  20771910.651    20771912.480
 02  1  2  3 37  0.0000000  0  7G22G25G20G27G 2G 1G13
 -17087859.19649 -13315229.90446  21623364.301    21623369.273
   2324510.03148                  25525953.873
  -7758929.81748  -6045945.02944  23852894.277    23852899.293
  -7913318.90949  -6166228.37246  22917726.510    22917729.843
  -4574418.24048  -3564479.42944  23501531.732    23501541.412
 -25314024.72449 -19725218.42347  20301253.473    20301256.660
 -22541110.16549 -17564507.86847  20762886.503    20762888.107
 02  1  2  3 37 30.0000000  0  6G22G20G27G 2G 1G13
 -17001354.86949 -13247824.08146  21639825.970    21639830.419
  -7650704.59648  -5961614.00944  23873489.684    23873500.854
  -7983788.70949  -6221139.92546  22904315.542    22904319.681
  -4661197.75648  -3632099.85944  23485017.673    23485023.022
 -25295936.77849 -19711123.99747  20304695.788    20304698.964
 -22588118.32949 -17601137.65747  20753941.211    20753942.706
 02  1  2  3 38  0.0000000  0  7G22G25G20G27G 2G 1G13
 -16914501.65949 -13180146.39846  21656353.591    21656358.460
         -.38758                  25558157.180
  -7542393.53648  -5877216.11244  23894100.704    23894104.977
  -8054152.61749  -6275968.97546  22890926.186    22890929.354
  -4747765.13048  -3699554.98345  23468545.436    23468551.850
 -25277374.17149 -19696659.69547  20308228.172    20308231.348
 -22634715.08149 -17637446.86547  20745074.156    20745075.809
 02  1  2  3 38 30.0000000  0  7G22G25G20G27G 2G 1G13
 -16827332.99949 -13112222.93846  21672941.193    21672946.328
     84607.07148                  25574257.892
  -7434030.14348  -5792777.43244  23914720.958    23914732.624
  -8124441.04749  -6330739.21546  22877551.409    22877553.893
  -4834149.80948  -3766867.75745  23452106.277    23452114.468
 -25258367.26749 -19681849.17647  20311844.927    20311848.269
 -22680929.65649 -17673458.27347  20736279.848    20736281.242
 02  1  2  3 39  0.0000000  0  7G22G25G20G27G 2G 1G13
 -16739817.92149 -13044029.54346  21689595.010    21689600.136
    169234.02548                  25590361.390
  -7325583.78948  -5708274.13144  23935358.877    23935363.088
  -8194619.98049  -6385424.13346  22864195.793    22864200.444
  -4920317.02848  -3834011.05545  23435710.078    23435715.574
 -25238882.03849 -19666665.96447  20315552.880    20315556.143
 -22726726.48249 -17709144.15847  20727565.337    20727566.759
 02  1  2  3 39 30.0000000  0  8G22G25G 8G20G27G 2G 1G13
 -16651960.67849 -12975569.51846  21706313.695    21706319.175
    253878.84248                  25606470.067
         -.65458                  25047460.480
  -7217058.92648  -5623709.64844  23956010.317    23956013.722
  -8264690.36249  -6440024.48046  22850862.204    22850865.856
  -5006266.79748  -3900984.90945  23419353.534    23419361.367
 -25218919.42149 -19651110.77247  20319351.717    20319355.069
 -22772104.73349 -17744503.88547  20718929.935    20718931.349
 02  1  2  3 40  0.0000000  0  8G22G25G 8G20G27G 2G 1G13
 -16563766.52049 -12906846.95646  21723096.751    21723101.538
    338538.80848                  25622580.990
    -92981.47848                  25029767.396
  -7108461.01548  -5539088.22144  23976676.473    23976682.258
  -8334654.64749  -6494542.15446  22837548.886    22837551.942
  -5092000.59948  -3967790.52345  23403039.244    23403045.920
 -25198481.64949 -19635185.32347  20323240.985    20323244.208
 -22817065.40449 -17779538.22847  20710374.326    20710375.826
 02  1  2  3 40 30.0000000  0  8G22G25G 8G20G27G 2G 1G13
 -16475241.23349 -12837866.36746  21739942.615    21739948.063
    423211.09448                  25638692.896
   -185935.78648                  25012078.490
  -6999795.69848                  23997354.434
  -8404515.36749  -6548979.13246  22824253.704    22824257.905
  -5177520.00448  -4034429.01045  23386765.211    23386771.576
 -25177571.32049 -19618891.64247  20327220.033    20327223.373
 -22861609.00549 -17814247.58547  20701897.825    20701899.329
 02  1  2  3 41  0.0000000  0  7G22G 8G20G27G 2G 1G13
 -16386384.95849 -12768627.87646  21756851.306    21756856.723
   -278860.81648                  24994396.758
  -6891063.59348  -5369688.34344  24018046.302    24018053.808
  -8474269.60749  -6603333.11946  22810981.145    22810984.848
  -5262821.17048  -4100897.45745  23370533.217    23370537.861
 -25156185.55749 -19602227.47047  20331289.626    20331293.097
 -22905731.48149 -17848628.79747  20693501.641    20693503.251
 02  1  2  3 41 30.0000000  0  8G22G31G 8G20G27G 2G 1G13
 -16297208.18949 -12699139.63346  21773821.176    21773826.534
         -.96358         -.59954  23748283.290    23748294.708
   -371763.86048                  24976718.481
  -6782275.66848  -5284918.86944  24038748.178    24038755.643
  -8543924.75149  -6657609.89846  22797726.283    22797730.609
  -5347910.94548  -4167201.17245  23354340.533    23354347.722
 -25134332.03449 -19585198.80547  20335448.313    20335451.647
 -22949438.91149 -17882686.58247  20685184.452    20685186.002
 02  1  2  3 42  0.0000000  0  8G22G31G 8G20G27G 2G 1G13
 -16207725.46749 -12629412.99646  21790849.829    21790854.822
   -104698.80648                  23728359.786
   -464656.17348                  24959040.096
  -6673446.32548  -5200117.14944  24059458.000    24059464.161
  -8613492.26449  -6711818.40046  22784487.214    22784491.313
  -5432799.58048  -4233348.16145  23338188.280    23338193.247
 -25112021.88249 -19567814.33347  20339693.819    20339697.130
 -22992740.57349 -17916428.17947  20676944.052    20676945.737
 02  1  2  3 42 30.0000000  0  8G31G 8G20G27G 2G 1G22G13
   -209292.41748   -163084.36244  23708456.495    23708466.920
   -557517.41748                  24941370.228
  -6564558.31748  -5115269.67244  24080178.694    24080187.878
  -8682951.59349  -6765942.59546  22771270.503    22771274.020
  -5517465.81148  -4299321.82245  23322075.182    23322082.850
 -25089234.79449 -19550058.21547  20344029.834    20344033.489
 -16117919.38749 -12559434.40146  21807938.669    21807944.295
 -23035614.92049 -17949836.81047  20668785.604    20668787.220
 02  1  2  3 43  0.0000000  0  8G31G 8G20G27G 2G 1G22G13
   -313778.34148   -244501.71945  23688573.146    23688583.323
   -650347.25248                  24923705.754
  -6455614.76848                  24100910.502
  -8752302.79349  -6819982.51946  22758072.738    22758076.943
  -5601908.67748  -4365121.45745  23306007.499    23306014.801
 -25065970.77549 -19531930.49247  20348456.950    20348460.623
 -16027793.12349 -12489206.31046  21825090.317    21825095.373
 -23078060.21949 -17982911.12147  20660708.741    20660710.471
 02  1  2  3 43 30.0000000  0  8G31G 8G20G27G 2G 1G22G13
   -418156.17248                  23668710.850
   -743148.21248                  24906046.566
  -6346621.40348  -4945449.44044  24121651.367    24121661.792
  -8821548.32349  -6873940.09246  22744895.390    22744900.125
  -5686129.77648  -4430748.24245  23289979.577    23289988.017
 -25042232.26049 -19513433.03247  20352974.184    20352977.863
 -15937352.07749 -12418732.94246  21842299.844    21842305.175
 -23120077.39649 -18015651.82847  20652713.365    20652715.044
 02  1  2  3 44  0.0000000  0  8G31G 8G20G27G 2G 1G22G13
   -522415.08948   -407075.33645  23648870.918    23648881.839
   -835911.93948                  24888394.277
  -6237573.52748  -4860477.41344  24142402.677    24142409.840
  -8890679.96549  -6927808.94746  22731741.201    22731744.744
  -5770120.10848  -4496195.22345  23273997.685    23274003.002
 -25018011.23349 -19494559.55447  20357583.246    20357586.893
 -15846591.04349 -12348010.22346  21859571.457    21859577.737
 -23161656.71049 -18048051.34347  20644800.973    20644802.682
 02  1  2  3 44 30.0000000  0  8G31G 8G20G27G 2G 1G22G13
   -626568.07948   -488233.24145  23629050.977    23629061.153
   -928654.22748                  24870745.797
  -6128490.20748  -4775477.76544  24163160.786    24163171.459
  -8959713.53949  -6981601.38346  22718604.146    22718607.830
  -5853894.77148  -4561474.14245  23258055.184    23258061.498
 -24993323.70849 -19475322.57147  20362281.385    20362284.993
 -15755528.93049 -12277052.90646  21876900.495    21876905.598
 -23202812.48649 -18080120.82647  20636969.001    20636970.713
 02  1  2  3 45  0.0000000  0  8G31G 8G20G27G 2G 1G22G13
   -730605.56748   -569301.20645  23609253.688    23609263.617
  -1021368.66648                  24853103.141
  -6019367.96148  -4690447.83644  24183926.309    24183933.596
  -9028642.58149  -7035312.36646  22705486.547    22705490.969
  -5937446.54048  -4626579.38145  23242156.266    23242162.520
 -24968163.47949 -19455717.28547  20367069.321    20367073.006
 -15664162.50849 -12205858.46846  21894286.703    21894292.918
 -23243536.73549 -18111854.05247  20629219.506    20629221.312
 02  1  2  3 45 30.0000000  0  8G31G 8G20G27G 2G 1G22G13
   -834522.72848                  23589477.921
  -1114053.01148                  24835466.315
  -5910208.36248  -4605388.77344  24204698.859    24204707.795
  -9097464.84749  -7088940.14546  22692390.890    22692394.982
  -6020772.59548  -4691508.72845  23226299.632    23226304.346
 -24942528.53749 -19435742.07647  20371947.601    20371951.179
 -15572492.92149 -12134427.81246  21911731.026    21911736.811
 -23283826.16049 -18143248.44847  20621552.794    20621554.533
 02  1  2  3 46  0.0000000  0  8G31G 8G20G27G 2G 1G22G13
   -938317.10848   -731153.95245  23569727.040    23569736.969
  -1206707.68148                  24817834.155
  -5801014.90948  -4520303.33644  24225478.145    24225489.066
  -9166180.82349  -7142485.11046  22679314.707    22679318.147
  -6103872.44748  -4756261.80245  23210486.161    23210493.152
 -24916419.24649 -19415397.22547  20376916.089    20376919.681
 -15480523.54549 -12062763.54646  21929232.286    21929238.515
 -23323679.68449 -18174303.19347  20613969.369    20613971.069
 02  1  2  3 46 30.0000000  0  8G31G 8G20G27G 2G 1G22G13
  -1041990.65848   -811938.37945  23549997.732    23550008.653
  -1299337.51348                  24800207.787
  -5691795.56048  -4435197.73144  24246262.551    24246273.969
  -9234795.33149  -7195951.00546  22666257.356    22666261.971
  -6186750.12248  -4820841.77445  23194714.935    23194720.839
 -24889840.72849 -19394686.75247  20381973.889    20381977.503
 -15388262.10349 -11990871.68546  21946789.282    21946794.916
 -23363100.43149 -18205020.71147  20606467.699    20606469.247
 02  1  2  3 47  0.0000000  0  8G31G 8G20G27G 2G 1G22G13
  -1145536.64248                  23530294.049
  -1391938.46348                  24782586.635
  -5582549.77448                  24267050.720
  -9303304.46849  -7249334.80446  22653221.013    22653224.716
  -6269400.88348  -4885244.91845  23178987.177    23178993.589
 -24862789.32949 -19373607.82047  20387121.684    20387125.246
 -15295707.92549 -11918751.70446  21964401.757    21964407.745
 -23402083.23849 -18235396.98847  20599049.431    20599051.189
 02  1  2  3 47 30.0000000  0  8G31G 8G20G27G 2G 1G22G13
  -1248934.29248   -973192.85945  23510617.577    23510628.498
  -1484492.73948                  24764973.896
  -5473263.04948  -4264913.39344  24287848.284    24287856.206
  -9371690.61449  -7302622.77346  22640207.364    22640210.948
  -6351806.24548  -4949456.83745  23163305.816    23163312.441
 -24835247.60949 -19352146.82547  20392363.057    20392366.607
 -15202846.52949 -11846392.34146  21982072.999    21982079.443
 -23440609.05549 -18265417.16447  20591718.186    20591720.009
 02  1  2  3 48  0.0000000  0  8G31G 8G20G27G 2G 1G22G13
  -1352181.95748  -1053645.43045  23490970.662    23490980.839
  -1577001.82448                  24747370.126
  -5363940.04348                  24308651.866
  -9439955.03549  -7355815.88446  22627216.655    22627220.847
  -6433966.87948  -5013478.07645  23147671.209    23147676.379
 -24807216.96549 -19330304.85147  20397697.095    20397700.645
 -15109682.14749 -11773796.89546  21999801.488    21999808.030
 -23478677.70549 -18295081.10147  20584474.230    20584475.828
 02  1  2  3 48 30.0000000  0  8G31G 8G20G27G 2G 1G22G13
  -1455289.65748  -1133988.97345  23471349.436    23471360.109
  -1669478.31148                  24729772.930
  -5254596.68648  -4094524.78744  24329459.418    24329466.770
  -9508110.43749  -7408924.05346  22614248.330    22614251.872
  -6515894.90048  -5077318.06345  23132080.786    23132085.660
 -24778710.57349 -19308092.14747  20403121.407    20403125.144
 -15016230.67749 -11700977.74846  22017585.052    22017591.940
 -23516300.34049 -18324397.49247  20577315.027    20577316.702
 02  1  2  3 49  0.0000000  0  8G31G 8G20G27G 2G 1G22G13
  -1558272.96348  -1214235.59645  23451752.442    23451763.611
  -1761940.76148                  24712178.006
  -5145254.68848                  24350267.216
  -9576175.28949  -7461961.66346  22601295.929    22601300.116
  -6597608.03548  -5140990.62145  23116531.161    23116537.899
 -24749747.32849 -19285523.45547  20408632.956    20408636.757
 -14922513.88349 -11627951.83746  22035418.863    22035425.559
 -23553494.23249 -18353379.81347  20570237.435    20570239.050
 02  1  2  3 49 30.0000000  0  8G31G 8G20G27G 2G 1G22G13
  -1661110.56548  -1294368.70245  23432183.690    23432191.881
  -1854370.96748                  24694589.036
  -5035898.86548                  24371076.221
  -9644131.29449  -7514914.44746  22588363.694    22588367.594
  -6679087.21048  -5204480.86645  23101026.479    23101032.920
 -24720309.06049 -19262584.66147  20414235.131    20414238.892
 -14828516.28149 -11554707.12246  22053306.640    22053312.661
 -23590239.72649 -18382012.72047  20563245.032    20563246.675
 02  1  2  3 50  0.0000000  0  8G31G 8G20G27G 2G 1G22G13
  -1763795.73948  -1374383.01945  23412642.262    23412652.190
  -1946764.54548                  24677006.807
  -4926528.75448  -3838888.58644  24391889.525    24391901.191
  -9711974.45949  -7567779.31746  22575454.103    22575457.730
  -6760327.71748  -5267785.13245  23085566.333    23085572.851
 -24690392.04449 -19239272.81147  20419928.499    20419932.218
 -14734237.08149 -11481242.98946  22071246.990    22071253.797
 -23626531.33349 -18410291.94847  20556338.534    20556340.405
 02  1  2  3 50 30.0000000  0  8G31G 8G20G27G 2G 1G22G13
  -1866323.21148  -1454274.48145  23393132.542    23393140.372
  -2039119.16548                  24659432.719
  -4817144.97548                  24412704.744
  -9779702.23849  -7620554.26946  22562565.951    22562569.928
  -6841326.31148  -5330900.91645  23070153.484    23070159.971
 -24659994.07049 -19215586.15847  20425712.884    20425716.602
 -14639676.70949 -11407559.77446  22089241.657    22089248.052
 -23662365.33549 -18438214.60547  20549519.942    20549521.647
 02  1  2  3 51  0.0000000  0  8G31G 8G20G27G 2G 1G22G13
  -1968694.78448  -1534044.46845  23373651.073    23373661.746
  -2131439.47548                  24641865.192
  -4707755.54648                  24433521.329
  -9847319.31749  -7673242.94846  22549698.684    22549702.121
  -6922087.16848  -5393831.43445  23054784.560    23054791.298
 -24629120.25449 -19191528.70547  20431587.718    20431591.691
 -14544843.11249 -11333663.64946  22107288.072    22107294.497
 -23697745.00449 -18465783.21747  20542787.506    20542789.100
 02  1  2  3 51 30.0000000  0  8G31G 8G20G27G 2G 1G22G13
  -2070910.99448  -1613693.36545  23354200.200    23354210.128
  -2223728.95848                  24624301.821
  -4598367.03448  -3583179.28144  24454337.297    24454344.934
  -9914829.12049  -7725848.02646  22536852.256    22536856.464
  -7002613.01848  -5456578.86945  23039461.492    23039468.052
 -24597774.36449 -19167103.41747  20437552.750    20437556.573
 -14449742.92049 -11259559.81246  22125385.081    22125391.705
 -23732672.43249 -18492999.43047  20536140.899    20536142.684
 02  1  2  3 52  0.0000000  0  8G31G 8G20G27G 2G 1G22G13
  -2172964.14548                  23334780.072
  -2315982.79948                  24606747.447
  -4488977.94148                  24475154.093
  -9982226.90149  -7778365.82246  22524026.645    22524030.848
  -7082898.38248  -5519138.86745  23024183.548    23024191.739
 -24565952.24649 -19142307.04447  20443608.765    20443612.504
 -14354374.24049 -11185246.75246  22143532.896    22143539.614
 -23767141.58749 -18519858.55147  20529581.639    20529583.655
 02  1  2  3 52 30.0000000  0  8G31G 8G20G27G 2G 1G22G13
  -2274848.18048  -1772605.31045  23315392.135    23315402.064
  -2408198.04048  -1876522.25744  24589199.957    24589205.433
  -4379588.46248                  24495969.566
 -10049509.71149  -7830794.02346  22511223.281    22511226.655
  -7162939.52848  -5581508.58845  23008951.779    23008957.475
 -24533651.40549 -19117137.67247  20449755.588    20449759.269
 -14258737.20649 -11110724.57946  22161732.390    22161739.166
 -23801148.10949 -18546357.18247  20523110.222    20523112.133
 02  1  2  3 53  0.0000000  0  8G31G 8G20G27G 2G 1G22G13
  -2376567.65948  -1851867.15045  23296035.865    23296045.049
  -2500382.16448                  24571657.058
  -4270209.45948                  24516784.852
 -10116685.03849  -7883138.46346  22498440.680    22498444.085
  -7242743.60448  -5643693.57245  22993766.525    22993772.416
 -24500879.78149 -19091601.47247  20455991.600    20455995.499
 -14162842.64949 -11036001.74246  22179980.696    22179987.748
 -23834698.44149 -18572500.33847  20516725.855    20516727.845
 02  1  2  3 53 30.0000000  0  8G31G 8G20G27G 2G 1G22G13
  -2478120.56148  -1930999.17445  23276710.006    23276719.687
  -2592535.85748                  24554122.011
  -4160844.73248                  24537596.397
 -10183753.64649  -7935399.74246  22485677.760    22485682.137
  -7322310.63448  -5705693.84945  22978624.782    22978630.874
 -24467638.45749 -19065699.24447  20462317.226    20462321.259
 -14066694.18949 -10961081.06346  22198277.398    22198284.160
 -23867792.14149 -18598287.67147  20510428.454    20510430.390
 02  1  2  3 54  0.0000000  0  8G31G 8G20G27G 2G 1G22G13
  -2579497.77048  -2009994.31045  23257419.315    23257428.996
  -2684652.78348                  24536592.429
  -4051491.56348                  24558405.578
 -10250709.35149  -7987573.04646  22472935.826    22472940.170
  -7401633.67448  -5767504.00845  22963530.497    22963536.551
 -24433921.59349 -19039426.44447  20468733.526    20468737.458
 -13970288.88449 -10885960.24546  22216622.369    22216629.405
 -23900421.26349 -18623713.00347  20504219.323    20504221.174
 02  1  2  3 54 30.0000000  0  8G31G 8G20G27G 2G 1G22G13
  -2680684.15348  -2088840.74545  23238163.531    23238174.452
  -2776720.55148                  24519072.036
  -3942140.62048                  24579215.238
 -10317539.58349  -8039648.56946  22460219.373    22460223.125
  -7480699.80048  -5829113.94645  22948484.150    22948490.374
 -24399717.44849 -19012773.95047  20475242.356    20475246.260
 -13873617.12949 -10810631.81346  22235018.955    22235025.811
 -23932572.34549 -18648765.83147  20498101.373    20498103.253
 02  1  2  3 55  0.0000000  0  8G31G 8G20G27G 2G 1G22G13
  -2781691.52648  -2167547.67045  23218943.201    23218952.137
  -2868753.95048                  24501559.548
  -3832809.92648                  24600020.282
 -10384259.11349  -8091637.85646  22447522.849    22447526.964
  -7559523.29548  -5890534.85445  22933484.837    22933491.476
 -24365041.16449 -18985753.57147  20481841.130    20481845.078
 -13776696.89449 -10735109.73646  22253462.539    22253469.318
 -23964259.02049 -18673456.79547  20492071.687    20492073.675
 02  1  2  3 55 30.0000000  0  8G31G 8G20G27G 2G 1G22G13
  -2882518.43148  -2246113.98845  23199755.760    23199765.689
  -2960754.09548                  24484051.370
  -3723503.93248                  24620821.195
 -10450869.26949  -8143541.91246  22434847.165    22434851.633
  -7638104.76848  -5951767.13645  22918530.711    22918538.594
 -24329894.54149 -18958366.66847  20488529.700    20488533.516
 -13679532.50149 -10659397.41546  22271952.652    22271960.179
 -23995481.15049 -18697785.76647  20486130.366    20486132.104
 02  1  2  3 56  0.0000000  0  8G31G 8G20G27G 2G 1G22G13
  -2983150.62748                  23180606.129
  -3052709.93948                  24466553.590
  -3614214.47448                  24641618.090
 -10517358.87049  -8195352.03746  22422194.971    22422198.367
  -7716432.32148  -6012801.59545  22903625.859    22903631.949
 -24294267.02749 -18930605.06347  20495309.085    20495313.270
 -13582115.90349 -10583488.60546  22290490.028    22290497.331
 -24026226.42249 -18721743.15547  20480279.906    20480281.548
 02  1  2  3 56 30.0000000  0  8G31G 8G20G27G 2G 1G22G13
  -3083593.56948  -2402795.70045  23161492.967    23161500.775
  -3144630.04348  -2450366.33644  24449061.326    24449068.722
  -3504953.40948                  24662410.343
 -10583736.23149  -8247074.70346  22409563.943    22409567.954
  -7794514.03548  -6073644.46745  22888767.525    22888773.577
 -24258167.51649 -18902475.66247  20502178.440    20502182.791
 -13484458.50349 -10507392.12546  22309073.785    22309081.250
 -24056502.17049 -18745334.68847  20474518.577    20474520.303
 02  1  2  3 57  0.0000000  0  8G31G 8G20G27G 2G 1G22G13
  -3183849.27948  -2480916.94045  23142414.130    23142425.052
  -3236519.21148  -2521968.31444  24431576.233    24431584.673
  -3395728.64248                  24683194.825
 -10650006.12749  -8298713.63746  22396953.071    22396956.667
  -7872354.34648  -6134299.22845  22873954.818    22873961.078
 -24221601.51649 -18873982.78147  20509136.805    20509141.147
 -13386568.29049 -10431114.25746  22327702.326    22327710.091
 -24086312.22149 -18768563.35447  20468845.622    20468847.441
 02  1  2  3 57 30.0000000  0  8G31G 8G20G27G 2G 1G22G13
  -3283920.57348  -2558894.45645  23123371.538    23123381.714
  -3328382.83148  -2593550.47144  24414094.878    24414099.429
  -3286549.10848                  24703971.604
 -10716174.29549  -8350273.31946  22384361.643    22384365.318
  -7949958.21848  -6194769.76945  22859187.127    22859194.244
 -24184575.15549 -18845131.16547  20516182.967    20516187.388
 -13288453.82249 -10354661.64146  22346373.233    22346380.597
 -24115660.71149 -18791432.36047  20463260.922    20463262.897
 02  1  2  3 58  0.0000000  0  8G31G 8G20G27G 2G 1G22G13
  -3383780.91848  -2636707.63145  23104368.477    23104378.902
  -3420197.39048  -2665094.35344  24396623.146    24396630.441
  -3177394.48848                  24724743.515
 -10782217.03749  -8401735.25946  22371794.036    22371797.875
  -8027301.51049  -6255037.24545  22844469.582    22844475.092
 -24147065.63549 -18815903.02147  20523320.852    20523325.311
 -13190094.66849 -10278018.35746  22365090.067    22365097.306
 -24144523.04149 -18813922.52247  20457768.674    20457770.470
 02  1  2  3 58 30.0000000  0  8G31G 8G20G27G 2G 1G22G13
  -3483435.01848  -2714360.06045  23085404.788    23085414.716
  -3511970.63548  -2736606.08044  24379160.129    24379165.088
  -3068275.31948                  24745508.128
 -10848141.98349  -8453105.41746  22359249.178    22359253.054
  -8104391.37349  -6315107.23645  22829799.761    22829805.869
 -24109081.35849 -18786304.93147  20530548.965    20530553.404
 -13091501.48549 -10201192.72446  22383851.937    22383859.271
 -24172905.73349 -18836038.92747  20452367.968    20452369.831
 02  1  2  3 59  0.0000000  0  8G31G 8G20G27G 2G 1G22G13
  -3582867.08648  -2791839.50345  23066483.366    23066492.550
  -3603689.45648  -2808075.34244  24361704.305    24361714.234
  -2959182.10748                  24766268.405
 -10913936.18049  -8504373.67846  22346729.128    22346733.337
  -8181214.28449  -6374969.22246  22815181.159    22815186.815
 -24070609.93049 -18756327.24047  20537869.817    20537874.258
 -12992664.38848 -10124177.04446  22402659.652    22402667.373
 -24200794.56849 -18857770.51347  20447060.989    20447062.823
 02  1  2  3 59 30.0000000  0  8G31G 8G20G27G 2G 1G22G13
  -3682090.30948  -2869156.20445  23047602.178    23047610.866
  -3695369.65748  -2879514.49544  24344260.478    24344265.805
  -2850133.72648  -2220925.58744  24787020.157    24787029.341
 -10979615.55649  -8555552.48346  22334230.184    22334234.661
  -8257785.56949  -6434635.11946  22800609.451    22800616.438
 -24031667.75449 -18725982.75547  20545280.032    20545284.646
 -12893602.26448 -10046985.99746  22421510.929    22421519.120
 -24228204.32149 -18879128.81747  20441844.898    20441846.978
 02  1  2  4  0  0.0000000  0  8G31G 8G20G27G 2G 1G22G13
  -3781095.98748  -2946303.40545  23028761.585    23028770.769
  -3787005.46048  -2950919.00544  24326822.272    24326829.782
  -2741127.61948                  24807762.741
 -11045174.25549  -8606637.24546  22321754.871    22321759.264
  -8334099.10249  -6494100.17946  22786087.645    22786094.218
 -23992249.96649 -18695267.69047  20552781.280    20552785.757
 -12794312.38048  -9969617.45946  22440405.432    22440414.368
 -24255128.39849 -18900108.68847  20436721.218    20436723.221
 02  1  2  4  0 30.0000000  0  8G31G 8G20G27G 2G 1G22G13
  -3879885.19548  -3023281.93045  23009962.654    23009974.072
  -3878601.07148  -3022292.22344  24309392.257    24309402.682
  -2632171.07848  -2051085.26744  24828496.981    24828505.917
 -11110616.32049  -8657631.12346  22309302.478    22309306.441
  -8410158.41049  -6553367.12546  22771613.978    22771620.233
 -23952361.20049 -18664185.59447  20560372.286    20560376.715
 -12694801.94948  -9892077.11146  22459341.633    22459350.320
 -24281569.38349 -18920712.10547  20431689.797    20431691.890
 02  1  2  4  1  0.0000000  0  8G31G 8G20G27G 2G 1G22G13
  -3978445.99748  -3100082.49745  22991207.191    22991217.119
  -3970147.36348  -3093626.98944  24291971.575    24291981.255
  -2523258.19448                  24849223.725
 -11175932.49149  -8708526.88846  22296872.598    22296876.870
  -8485953.92549  -6612428.52746  22757190.566    22757197.869
 -23911993.04449 -18632729.92247  20568053.944    20568058.218
 -12595064.73548  -9814360.02245  22478321.257    22478328.424
 -24307517.09049 -18940931.13947  20426752.367    20426754.459
 02  1  2  4  1 30.0000000  0  8G31G 8G20G27G 2G 1G22G13
  -4076784.13048  -3176709.56345  22972494.296    22972504.722
  -4061653.19348  -3164930.26444  24274558.258    24274563.443
  -2414400.79148                  24869937.460
 -11241131.54949  -8759331.40046  22284465.693    22284469.826
  -8561493.79549  -6671290.72946  22742815.988    22742821.849
 -23871155.15849 -18600908.23547  20575825.033    20575829.625
 -12495112.53548  -9736475.42746  22497341.281    22497350.465
 -24332979.58749 -18960772.09147  20421907.135    20421909.098
 02  1  2  4  2  0.0000000  0  8G31G 8G20G27G 2G 1G22G13
  -4174894.72748  -3253159.31545  22953823.737    22953833.914
  -4153116.13948  -3236200.10144  24257153.721    24257160.301
  -2305599.94048                  24890642.882
 -11306211.16949  -8810042.84546  22272082.119    22272085.964
  -8636775.62349  -6729951.86446  22728489.905    22728495.566
 -23829846.31349 -18568719.61547  20583685.697    20583690.234
 -12394946.18248  -9658423.95745  22516402.769    22516410.661
 -24357953.62049 -18980232.42747  20417154.805    20417156.776
 02  1  2  4  2 30.0000000  0  8G31G 8G20G27G 2G 1G22G13
  -4272779.84348  -3329433.42845  22935197.181    22935204.929
  -4244541.23348  -3307440.45344  24239755.549    24239765.478
  -2196863.62548                  24911335.163
 -11371176.31849  -8860665.09546  22259719.323    22259723.485
  -8711803.92249  -6788415.45346  22714212.497    22714217.943
 -23788072.14949 -18536168.44447  20591635.590    20591639.967
 -12294573.80848  -9580211.96145  22535503.363    22535512.298
 -24382443.03349 -18999315.13047  20412494.726    20412496.813
 02  1  2  4  3  0.0000000  0  8G31G 8G20G27G 2G 1G22G13
  -4370423.02448  -3405518.99445  22916615.469    22916626.639
  -4335914.64048  -3378640.51644  24222368.700    24222376.494
  -2088181.28948                  24932016.074
 -11436013.21349  -8911187.40646  22247381.208    22247385.659
  -8786564.67349  -6846670.54746  22699985.765    22699992.117
 -23745819.59249 -18503244.47447  20599675.931    20599680.409
 -12193984.62548  -9501831.02545  22554645.056    22554653.247
 -24406432.78149 -19018008.46847  20407929.401    20407931.455
 02  1  2  4  3 30.0000000  0  8G31G 8G20G27G 2G 1G22G13
  -4467820.63348  -3481413.20045  22898082.430    22898092.358
  -4427235.88048  -3449799.93644  24204990.530    24204996.770
  -1979555.55348                  24952687.282
 -11500721.16649  -8961609.25046  22235068.004    22235072.064
  -8861056.76849  -6904716.31746  22685811.148    22685816.387
 -23703088.77949 -18469947.82847  20607807.337    20607812.017
 -12093180.82548  -9423282.86445  22573827.555    22573834.478
 -24429921.54649 -19036311.42347  20403459.684    20403461.638
 02  1  2  4  4  0.0000000  0  8G31G 8G20G27G 2G 1G22G13
  -4564975.24448  -3557118.08545  22879593.136    22879603.065
  -4518510.30748  -3520922.85644  24187621.672    24187627.451
  -1870995.09048                  24973345.735
 -11565305.67249  -9011934.90946  22222777.916    22222782.171
  -8935285.40349  -6962556.79746  22671685.140    22671691.613
 -23659886.17549 -18436283.55447  20616028.540    20616033.326
 -11992171.10048  -9344574.21746  22593049.479    22593058.415
 -24452913.78749 -19054227.48247  20399084.373    20399086.301
 02  1  2  4  4 30.0000000  0  8G31G 8G20G27G 2G 1G22G13
  -4661884.86848  -3632632.09145  22861153.177    22861162.609
  -4609738.80548  -3592009.98645  24170261.726    24170267.216
  -1762503.77048                  24993992.173
 -11629767.46649  -9062164.94946  22210510.903    22210515.745
  -9009250.70349  -7020192.07746  22657610.196    22657615.944
 -23616213.25749 -18402252.79247  20624339.468    20624343.899
 -11890959.19548  -9265708.06445  22612309.099    22612318.532
 -24475409.44549 -19071756.60447  20394803.595    20394805.548
 02  1  2  4  5  0.0000000  0  8G31G 8G20G27G 2G 1G22G13
  -4758555.02448                  22842756.604
  -4700929.61048  -3663067.71745  24152907.627    24152913.344
  -1654092.78148                  25014621.696
 -11694114.64049  -9112305.67946  22198266.459    22198270.873
  -9082960.52049  -7077628.29246  22643583.679    22643590.292
 -23572079.29449 -18367862.79547  20632737.900    20632742.601
 -11789556.42248  -9186693.14445  22631606.406    22631614.219
 -24497415.55249 -19088904.26047  20390615.865    20390617.805
 02  1  2  4  5 30.0000000  0  8G31G 8G20G27G 2G 1G22G13
  -4854979.03148  -3783095.12345  22824408.270    22824417.950
  -4792078.84348  -3734092.99644  24135563.607    24135569.195
  -1545761.79448                  25035236.537
 -11758343.51549  -9162354.22846  22186043.879    22186048.612
  -9156410.92349  -7134862.35546  22629606.287    22629612.670
 -23527481.35749 -18333111.24747  20641224.288    20641229.315
 -11687961.96748  -9107528.90145  22650938.481    22650947.914
 -24518927.62449 -19105666.94847  20386522.277    20386524.475
 02  1  2  4  6  0.0000000  0  8G31G 8G20G27G 2G 1G22G13
  -4951147.17548  -3858031.35045  22806108.345    22806117.281
  -4883179.72448  -3805080.68444  24118227.364    24118231.366
  -1437506.93048                  25055836.683
 -11822447.18849  -9212305.23646  22173845.579    22173850.204
  -9229594.70549  -7191888.66346  22615680.126    22615687.151
 -23482413.65949 -18297993.64947  20649800.796    20649805.443
 -11586172.04948  -9028212.35045  22670309.776    22670318.216
 -24539938.10149 -19122038.80147  20382524.196    20382526.435
 02  1  2  4  6 30.0000000  0  8G31G 8G20G27G 2G 1G22G13
  -5047042.77148  -3932755.20645  22787859.561    22787870.234
  -4974218.54348  -3876019.97944  24100902.724    24100909.275
  -1329317.39948                  25076424.664
 -11886411.69649  -9262147.81146  22161673.703    22161678.345
  -9302497.49949  -7248696.01246  22601807.112    22601813.771
 -23436863.33649 -18262500.02147  20658468.817    20658473.623
 -11484175.65548  -8948734.89645  22689718.016    22689728.193
 -24560432.09749 -19138008.19447  20378624.467    20378626.804
 02  1  2  4  7  0.0000000  0  8G31G 8G20G27G 2G 1G22G13
  -5142681.96748  -4007279.26545  22769660.225    22769669.657
  -5065214.16148  -3946925.65644  24083587.662    24083595.275
  -1221215.47648                  25096995.583
 -11950255.98849  -9311896.70346  22149524.280    22149529.179
  -9375138.28649  -7305299.21846  22587984.258    22587990.651
 -23390850.07549 -18226645.66447  20667225.032    20667229.811
 -11381994.83048  -8869113.73545  22709163.724    22709172.412
 -24580427.57149 -19153589.11747  20374819.424    20374821.747
 02  1  2  4  7 30.0000000  0  8G31G 8G20G27G 2G 1G22G13
  -5238052.22048  -4081593.75045  22751512.368    22751521.800
  -5156156.81148  -4017790.04944  24066280.957    24066286.885
  -1113194.49448                  25117552.421
 -12013970.30649  -9361544.31446  22137399.922    22137404.846
  -9447506.84349  -7361690.28846  22574212.628    22574219.131
 -23344365.31649 -18190423.86047  20676070.708    20676075.351
 -11279622.92148  -8789343.70545  22728643.673    22728653.849
 -24599914.06749 -19168773.42747  20371111.458    20371113.866
 02  1  2  4  8  0.0000000  0  8G31G 8G20G27G 2G 1G22G13
  -5333157.04748  -4155701.40645  22733413.685    22733423.365
  -5247052.81048  -4088618.12745  24048983.823    24048990.760
  -1005264.01748                  25138090.640
 -12077560.88149  -9411095.50946  22125299.749    22125303.865
  -9519609.13849  -7417873.88446  22560492.399    22560498.705
 -23297416.35649 -18153840.34247  20685004.971    20685009.639
 -11177069.03248  -8709431.87945  22748159.837    22748169.021
 -24618896.96849 -19183565.33547  20367499.038    20367501.388
 02  1  2  4  8 30.0000000  0  8G31G 8G20G27G 2G 1G22G13
  -5427988.05248  -4229595.69745  22715368.116    22715377.548
  -5337896.95348  -4159405.79044  24031697.146    24031704.066
   -897421.61948                  25158612.889
 -12141022.18049  -9460545.95646  22113223.177    22113227.527
  -9591439.65949  -7473845.69246  22546823.379    22546830.073
 -23249998.81749 -18116891.73347  20694028.497    20694033.109
 -11074330.93548  -8629376.52245  22767710.402    22767719.586
 -24637370.05649 -19197959.98547  20363983.528    20363985.910
 02  1  2  4  9  0.0000000  0  7G31G 8G27G 2G 1G22G13
  -5522553.63648  -4303283.12445  22697373.057    22697382.241
  -5428700.11848  -4230161.56345  24014418.583    24014425.549
 -12204365.20849  -9509904.23946  22101169.027    22101174.175
  -9663008.99049  -7529613.99546  22533204.223    22533210.779
 -23202124.73749 -18079587.35347  20703138.616    20703143.310
 -10971422.36148  -8549188.31345  22787293.321    22787301.760
 -24655343.65349 -19211965.41447  20360563.707    20360566.074
 02  1  2  4  9 30.0000000  0  7G31G 8G27G 2G 1G22G13
  -5616841.28148  -4376753.98345  22679430.404    22679440.084
  -5519452.59348  -4300877.83044  23997148.050    23997154.166
 -12267580.16749  -9559162.71446  22089139.975    22089144.675
  -9734307.31549  -7585171.11946  22519636.858    22519643.198
 -23153785.50049 -18041920.50347  20712337.290    20712341.680
 -10868336.94948  -8468862.31645  22806910.439    22806918.878
 -24672807.50049 -19225573.64647  20357240.190    20357242.562
 02  1  2  4 10  0.0000000  0  7G31G 8G27G 2G 1G22G13
  -5710856.90348  -4450012.84545  22661539.764    22661548.700
  -5610163.31048  -4371561.55344  23979887.354    23979893.587
 -12330675.79649  -9608328.19846  22077133.731    22077138.048
  -9805343.08949  -7640523.66046  22506118.695    22506125.407
 -23104991.15749 -18003899.02447  20721622.411    20721627.423
 -10765086.11448  -8388407.45045  22826557.963    22826567.395
 -24689769.37749 -19238790.73947  20354012.552    20354015.005
 02  1  2  4 10 30.0000000  0  8G31G 8G 3G27G 2G 1G22G13
  -5804604.51848  -4523062.85146  22643700.916    22643710.100
  -5700838.84848  -4442217.90045  23962630.968    23962640.897
         -.35559          .33056  22084772.443    22084779.118
 -12393658.79849  -9657405.92346  22065148.920    22065153.049
  -9876122.78949  -7695676.65946  22492649.832    22492655.958
 -23055749.54949 -17965529.03547  20730993.372    20730998.251
 -10661679.84148  -8307831.44245  22846236.702    22846245.141
 -24706235.37249 -19251621.40347  20350879.289    20350881.786
 02  1  2  4 11  0.0000000  0  8G31G 8G 3G27G 2G 1G22G13
  -5898047.44048  -4595875.43146  22625918.846    22625926.303
  -5791445.20148  -4512820.24145  23945390.712    23945394.926
    -28914.26449    -22530.01746  22079270.793    22079277.759
 -12456495.14749  -9706369.36846  22053190.598    22053195.071
  -9946612.16349  -7750603.44146  22479236.219    22479243.054
 -23006027.76649 -17926784.90747  20740455.045    20740459.779
 -10558086.73848  -8227109.82845  22865948.824    22865959.001
 -24722170.54449 -19264038.42447  20347846.692    20347849.295
 02  1  2  4 11 30.0000000  0  8G31G 8G 3G27G 2G 1G22G13
  -5991184.85548  -4668449.94346  22608195.242    22608204.178
  -5881984.40548  -4583370.20344  23928160.303    23928168.742
    -57260.39549    -44617.96346  22073877.416    22073884.581
 -12519186.76549  -9755220.02246  22041260.670    22041265.601
 -10016813.04749  -7805305.41546  22465877.380    22465883.122
 -22955828.85149 -17887669.00247  20750007.511    20750012.383
 -10454311.95948  -8146246.67845  22885697.490    22885707.419
 -24737576.03349 -19276042.70847  20344914.953    20344917.329
 02  1  2  4 12  0.0000000  0  8G31G 8G 3G27G 2G 1G22G13
  -6084016.70248  -4740786.36345  22590530.308    22590539.740
  -5972459.11148  -4653870.08945  23910944.773    23910951.191
    -85040.30049    -66264.67646  22068590.943    22068597.845
 -12581736.37749  -9803960.01346  22029359.057    22029363.220
 -10086728.04749  -7859784.63546  22452572.961    22452579.441
 -22905156.87349 -17848184.49247  20759650.163    20759655.282
 -10350361.08848  -8065246.28545  22905478.674    22905489.595
 -24752454.24049 -19287636.10547  20342083.758    20342086.128
 02  1  2  4 12 30.0000000  0  8G31G 8G 3G27G 2G 1G22G13
  -6176552.62248  -4812892.16446  22572920.379    22572931.052
  -6062881.84848  -4724329.43145  23893736.500    23893745.684
   -112265.48849    -87479.13746  22063410.181    22063417.278
 -12644156.22049  -9852598.87546  22017481.455    22017485.323
 -10156369.47449  -7914050.66946  22439320.814    22439327.237
 -22854025.29649 -17808341.84947  20769380.469    20769385.433
 -10246249.43348  -7984120.63745  22925290.991    22925300.423
 -24766816.97149 -19298827.82447  20339350.775    20339353.208
 02  1  2  4 13  0.0000000  0  8G31G 8G 3G27G 2G 1G22G13
  -6268781.88548  -4884759.03246  22555370.314    22555379.498
  -6153244.62048  -4794742.04745  23876541.516    23876548.576
   -138926.92249   -108254.30946  22058336.527    22058344.444
 -12706438.09449  -9901130.22646  22005628.053    22005632.964
 -10225729.11449  -7968097.14246  22426122.102    22426127.831
 -22802427.04149 -17768135.54947  20779198.955    20779204.259
 -10141972.17748  -7902865.92245  22945134.271    22945144.696
 -24780655.67149 -19309611.23747  20336717.426    20336719.572
 02  1  2  4 13 30.0000000  0  8G31G 8G 3G27G 2G 1G22G13
  -6360705.12748  -4956387.44746  22537876.932    22537887.605
  -6243550.64248  -4865110.40145  23859357.799    23859364.161
   -165027.16649   -128592.19146  22053369.761    22053377.324
 -12768585.43449  -9949556.73246  21993802.050    21993806.726
 -10294810.07249  -8021926.47246  22412976.246    22412982.578
 -22750366.69049 -17727569.15747  20789106.015    20789111.181
 -10037535.23848  -7821486.81645  22965007.888    22965018.561
 -24793972.69149 -19319988.15947  20334183.543    20334185.711
 02  1  2  4 14  0.0000000  0  8G31G 8G 3G27G 2G 1G22G13
  -6452329.44948  -5027782.91346  22520442.178    22520451.610
  -6333809.97748  -4935442.36544  23842180.987    23842186.592
   -190575.32449   -148499.86746  22048508.069    22048515.817
 -12830608.02149  -9997886.03746  21982000.756    21982005.010
 -10363622.16349  -8075546.29546  22399881.538    22399887.978
 -22697855.66949 -17686651.59547  20799098.676    20799104.057
  -9932951.75648  -7739993.50545  22984910.780    22984919.964
 -24806777.62049 -19329966.05047  20331746.937    20331749.106
 02  1  2  4 14 30.0000000  0  8G31G 8G 3G27G 2G 1G22G13
  -6543650.38748  -5098942.00146  22503064.687    22503072.878
  -6424020.89048  -5005736.62045  23825016.155    23825020.185
   -215569.10549   -167975.56546  22043751.914    22043759.194
 -12892504.07049 -10046116.74246  21970221.703    21970225.968
 -10432163.42349  -8128955.06346  22386838.812    22386844.923
 -22644893.63749 -17645382.58447  20809177.047    20809182.323
  -9828222.73448  -7658386.79845  23004838.649    23004849.819
 -24819067.97649 -19339542.99547  20329408.058    20329410.232
 02  1  2  4 15  0.0000000  0  8G31G 8G 3G27G 2G 1G22G13
  -6634657.68248  -5169856.66446  22485745.483    22485755.412
  -6514176.02948  -5075987.43544  23807857.895    23807869.064
   -240000.36049   -187012.93446  22039103.041    22039111.232
 -12954266.11149 -10094243.03146  21958468.275    21958472.990
 -10500426.30349  -8182146.92746  22373848.728    22373855.029
 -22591474.38649 -17603757.29247  20819342.331    20819348.023
  -9723343.77348  -7576663.24345  23024798.410    23024805.745
 -24830835.88349 -19348712.85547  20327168.642    20327170.720
 02  1  2  4 15 30.0000000  0  8G31G 8G 3G27G 2G 1G22G13
  -6725346.64748  -5240523.30746  22468488.747    22468498.179
  -6604273.42348  -5146193.16245  23790714.207    23790720.707
   -263866.04949   -205609.59146  22034561.248    22034569.935
 -13015892.08149 -10142263.28246  21946741.153    21946746.024
 -10568408.65449  -8235120.18446  22360912.352    22360918.675
 -22537597.06149 -17561775.05447  20829594.795    20829600.662
  -9618315.73648  -7494823.52145  23044783.525    23044793.950
 -24842078.67949 -19357473.54147  20325029.157    20325031.403
 02  1  2  4 16  0.0000000  0  8G31G 8G 3G27G 2G 1G22G13
  -6815705.13748  -5310932.43146  22451293.357    22451302.045
  -6694303.14148  -5216346.18544  23773582.264    23773586.338
   -287155.88249   -223757.54746  22030129.687    22030136.874
 -13077372.07649 -10190169.79746  21935042.464    21935046.836
 -10636100.70549  -8287867.24346  22348030.428    22348037.218
 -22483253.43849 -17519429.46247  20839936.449    20839941.974
  -9513131.80148  -7412862.34145  23064800.914    23064809.354
 -24852786.27949 -19365817.16647  20322991.787    20322994.016
 02  1  2  4 16 30.0000000  0  8G31G 8G 3G27G 2G 1G22G13
  -6905744.56349  -5381092.93746  22434159.998    22434167.577
  -6784279.73748  -5286457.71745  23756459.407    23756467.847
   -309883.68549   -241467.55746  22025804.900    22025812.004
 -13138720.56749 -10237973.83046  21923368.398    21923372.651
 -10703516.92949  -8340399.36746  22335201.942    22335208.164
 -22428459.15749 -17476732.72047  20850363.083    20850368.792
  -9407809.31748  -7330793.18945  23084842.451    23084853.869
 -24862972.39049 -19373754.43647  20321053.431    20321055.775
 02  1  2  4 17  0.0000000  0  8G31G 8G 3G27G 2G 1G22G13
  -6995461.50348  -5451002.16346  22417086.738    22417096.914
  -6874202.51148  -5356527.63945  23739348.120    23739356.311
   -332047.93349   -258738.43246  22021587.098    22021594.432
 -13199936.72149 -10285674.74746  21911718.732    21911723.431
 -10770656.47349  -8392715.89346  22322425.731    22322432.450
 -22373214.92349 -17433685.37747  20860876.149    20860881.567
  -9302350.30248  -7248617.68745  23104911.540    23104921.717
 -24872636.04649 -19381284.61347  20319214.508    20319216.737
 02  1  2  4 17 30.0000000  0  8G31G 8G 3G27G 2G 1G22G13
  -7084854.54949  -5520658.99646  22400076.544    22400084.078
  -6964072.46848  -5426556.18245  23722245.612    23722254.299
   -353649.06949   -275570.50946  22017476.206    22017483.713
 -13261021.52849 -10333273.32146  21900094.520    21900099.264
 -10837520.26049  -8444817.53946  22309701.684    22309708.375
 -22317522.93249 -17390289.15747  20871473.924    20871479.725
  -9196758.81648  -7166338.90745  23125004.885    23125012.699
 -24881777.57549 -19388407.93547  20317474.857    20317477.016
 02  1  2  4 18  0.0000000  0  8G31G 8G 3G27G 2G 1G22G13
  -7173912.71349  -5590054.92146  22383129.265    22383137.457
  -7053881.39948  -5496537.22645  23705156.966    23705164.281
   -374678.00149   -291956.70646  22013474.647    22013481.611
 -13321966.71949 -10380763.09546  21888497.681    21888501.988
 -10904100.12249  -8496697.95346  22297032.190    22297038.561
 -22261376.54649 -17346538.85247  20882158.300    20882164.205
  -9091029.46048  -7083952.72445  23145124.394    23145135.067
 -24890388.26449 -19395117.61547  20315836.501    20315838.861
 02  1  2  4 18 30.0000000  0  8G31G 8G 3G27G 2G 1G22G13
  -7262635.42048  -5659189.44446  22366244.645    22366254.574
  -7143631.43848  -5566472.36845  23688077.173    23688084.836
   -395136.62749   -307898.49346  22009581.732    22009588.547
 -13382774.25549 -10428145.61246  21876926.577    21876931.001
 -10970398.00849  -8548358.63446  22284415.603    22284422.121
 -22204779.23749 -17302437.17047  20892928.745    20892934.338
  -8985167.27148  -7001463.04645  23165270.486    23165280.663
 -24898469.96949 -19401415.10647  20314298.451    20314300.831
 02  1  2  4 19  0.0000000  0  8G31G 8G 3G27G 2G 1G22G13
  -7351007.84449  -5728051.02446  22349429.195    22349438.379
  -7233310.46748  -5636352.19845  23671012.858    23671020.285
   -415012.01949   -323385.80446  22005799.324    22005806.379
 -13443431.94649 -10475411.36646  21865382.702    21865388.417
 -11036401.74049  -8599790.10946  22271856.110    22271862.603
 -22147720.33949 -17257975.82047  20903786.890    20903792.303
  -8879162.99048  -6918862.65845  23185441.482    23185452.404
 -24906010.13149 -19407290.61147  20312863.300    20312865.710
 02  1  2  4 19 30.0000000  0  8G31G 8G 3G27G 2G 1G22G13
  -7439028.70649  -5796638.65546  22332679.145    22332686.809
  -7322920.00948  -5706177.91145  23653960.098    23653967.844
   -434305.31149   -338419.51346  22002127.926    22002135.807
 -13503941.21249 -10522561.50746  21853868.149    21853873.212
 -11102112.90049  -8650993.59446  22259351.042    22259357.763
 -22090202.83849 -17213157.13047  20914731.818    20914737.686
  -8773020.95148  -6836154.91045  23205641.514    23205650.698
 -24913009.83449 -19412744.96647  20311531.789    20311534.280
 02  1  2  4 20  0.0000000  0  8G31G 8G 3G27G 2G 1G22G13
  -7526703.45348  -5864956.57946  22315994.188    22316004.364
  -7412468.17048  -5775955.78645  23636920.004    23636929.684
   -453023.95349   -353005.45146  21998565.550    21998573.741
 -13564309.94049 -10569602.12446  21842381.047    21842385.755
 -11167539.34949  -8701975.24446  22246901.456    22246906.938
 -22032236.20449 -17167988.45847  20925762.519    20925768.578
  -8666752.04448                  23225862.638
 -24919476.79549 -19417784.17847  20310300.734    20310303.281
 02  1  2  4 20 30.0000000  0  8G31G 8G 3G27G 2G 1G22G13
  -7614030.73249  -5933003.75146  22299377.332    22299385.772
  -7501955.91748  -5845686.58145  23619891.327    23619898.607
   -471168.73649   -367144.22346  21995112.638    21995120.829
 -13624539.30649 -10616534.14946  21830919.599    21830924.408
 -11232682.54149  -8752736.16346  22234504.845    22234511.345
 -21973823.28049 -17122472.01547  20936879.043    20936884.144
  -8560360.38848  -6670446.08945  23246109.305    23246118.489
 -24925412.05949 -19422409.08847  20309171.410    20309174.127
 02  1  2  4 21  0.0000000  0  8G31G 8G 3G27G 2G 1G22G13
  -7701014.68649  -6000783.40746  22282824.967    22282833.903
  -7591390.45348  -5915375.88645  23602872.349    23602881.036
   -488746.53649   -380841.18646  21991767.414    21991774.879
 -13684636.05049 -10663362.83646  21819483.883    21819488.403
 -11297549.28949  -8803281.67446  22222161.779    22222167.799
 -21914972.49649 -17076614.41047  20948077.203    20948083.327
  -8453855.81448  -6587455.86045  23266376.829    23266387.254
 -24930821.90649 -19426624.59547  20308142.314    20308144.865
 02  1  2  4 21 30.0000000  0  8G31G 8G 3G27G 2G 1G22G13
  -7787638.48749  -6068282.43646  22266339.816    22266349.993
  -7680757.41748  -5985012.53445  23585867.264    23585873.602
   -505742.31749   -394084.63146  21988533.333    21988541.171
 -13744585.75649 -10710076.95246  21808075.808    21808080.802
 -11362125.48649  -8853600.77646  22209872.703    22209879.155
 -21855670.88649 -17030405.51047  20959362.363    20959368.375
  -8347226.88048  -6504368.73145  23286667.680    23286679.098
 -24935691.94249 -19430419.48047  20307215.597    20307218.048
 02  1  2  4 22  0.0000000  0  8G31G 8G 3G27G 2G 1G22G13
  -7873895.87249  -6135495.93346  22249926.721    22249934.343
  -7770053.19748  -6054593.68145  23568873.995    23568880.877
   -522152.07649   -406871.43346  21985410.634    21985418.417
 -13804384.71749 -10756673.56246  21796696.411    21796701.324
 -11426407.59949  -8903690.71746  22197640.630    22197646.965
 -21795916.44349 -16983843.73247  20970733.981    20970739.205
  -8240472.93548  -6421184.19945  23306982.258    23306993.924
 -24940018.49149 -19433790.87847  20306392.247    20306394.856
 02  1  2  4 22 30.0000000  0  8G31G 8G 3G27G 2G 1G22G13
  -7959787.53049  -6202424.46546  22233581.382    22233589.821
  -7859281.16348  -6124121.96345  23551894.147    23551901.751
   -537978.73949   -419203.87846  21982399.298    21982406.327
 -13864035.95149 -10803155.06046  21785345.297    21785350.115
 -11490398.78649  -8953553.96646  22185463.080    22185469.508
 -21735713.97349 -16936932.85147  20982189.611    20982195.534
  -8133599.69648  -6337906.72045  23327319.819    23327329.747
 -24943804.24649 -19436740.88047  20305671.889    20305674.579
 02  1  2  4 23  0.0000000  0  8G31G 8G 3G27G 2G 1G22G13
  -8045317.76349  -6269071.35246  22217304.820    22217314.997
  -7948447.59848  -6193602.27645  23534926.964    23534933.685
   -553228.86949   -431087.08246  21979497.316    21979504.378
 -13923546.10149 -10849526.62446  21774020.905    21774025.813
 -11554105.64049  -9003195.65646  22173340.435    22173346.742
 -21675071.60349 -16889679.17947  20993729.337    20993735.546
  -8026616.67848  -6254543.72045  23347678.759    23347688.687
 -24947055.55349 -19439274.41247  20305053.221    20305055.849
 02  1  2  4 23 30.0000000  0  8G31G 8G 3G27G 2G 1G22G13
  -8130474.55749  -6335427.25946  22201101.769    22201110.208
  -8037543.48448  -6263027.61745  23517972.402    23517980.311
   -567892.45649   -442513.24846  21976707.035    21976714.608
 -13982905.72249 -10895780.90746  21762725.271    21762729.872
 -11617518.99449  -9052608.63446  22161272.689    22161279.312
 -21613981.65649 -16842076.74247  21005354.850    21005360.820
  -7919517.48848                  23368058.506
 -24949762.83149 -19441384.01547  20304538.162    20304540.753
 02  1  2  4 24  0.0000000  0  8G31G 8G 3G27G 2G 1G22G13
  -8215256.70049  -6401491.23546  22184966.830    22184976.262
  -8126569.98548  -6332398.88145  23501031.431    23501038.957
   -581970.54249   -453483.18046  21974027.854    21974034.951
 -14042116.15849 -10941918.94446  21751457.825    21751462.491
 -11680640.35849  -9101794.08946  22149262.004    22149267.908
 -21552447.22549 -16794127.96947  21017064.907    21017070.888
  -7812306.12848  -6087549.26145  23388461.551    23388471.480
 -24951927.33249 -19443070.68347  20304126.283    20304128.953
 02  1  2  4 24 30.0000000  0  8G31G 8G 3G27G 2G 1G22G13
  -8299658.17649  -6467258.57046  22168906.751    22168915.190
  -8215524.02348  -6401713.69545  23484103.157    23484110.618
   -595459.91249   -463994.37746  21971461.076    21971467.924
 -14101173.86649 -10987937.93146  21740219.324    21740224.456
 -11743466.68449  -9150749.65246  22137305.569    22137312.016
 -21490466.68149 -16745831.56347  21028858.724    21028865.090
  -7704982.54348                  23408883.464
 -24953545.61749 -19444331.74247  20303818.315    20303820.841
 02  1  2  4 25  0.0000000  0  8G31G 8G 3G27G 2G 1G22G13
  -8383691.30749  -6532738.87146  22152915.637    22152924.076
  -8304420.17148  -6470983.41045  23467187.176    23467194.080
   -608374.82149   -474057.94246  21969004.004    21969010.674
 -14160093.31449 -11033849.17046  21729007.461    21729012.258
 -11806012.52649  -9199486.65246  22125404.309    22125410.434
 -21428056.21749 -16697200.16047  21040735.532    21040741.608
  -7597563.57548  -5920218.17045  23429325.852    23429336.525
 -24954632.42649 -19445178.65547  20303611.250    20303614.032
 02  1  2  4 25 30.0000000  0  8G31G 8G 3G27G 2G 1G22G13
  -8467355.61349  -6597931.78346  22136994.031    22137003.463
  -8393260.43848  -6540209.62345  23450281.938    23450288.097
   -620717.14749   -483675.33146  21966654.939    21966662.209
 -14218876.59949 -11079654.30446  21717821.716    21717826.127
 -11868279.98949  -9248006.74746  22113554.672    22113561.421
 -21365219.54749 -16648236.66747  21052692.907    21052699.047
  -7490054.55848  -5836445.28645  23449784.244    23449795.662
 -24955189.50649 -19445612.79447  20303505.231    20303508.009
 02  1  2  4 26  0.0000000  0  8G31G 8G 3G27G 2G 1G22G13
  -8550632.15949  -6662822.53846  22121147.648    22121155.839
  -8482028.80748  -6609379.77945  23433388.290    23433399.459
   -632470.53449   -492833.80846  21964418.439    21964426.030
 -14277507.28249 -11125340.51346  21706664.319    21706669.003
 -11930253.28449  -9296297.61846  22101761.506    22101767.619
 -21301942.15149 -16598929.75947  21064734.000    21064740.522
  -7382441.83148                  23470262.503
 -24955200.51949 -19445621.42147  20303503.239    20303505.971
 02  1  2  4 26 30.0000000  0  8G31G 8G 3G27G 2G 1G22G13
  -8633516.41649  -6727407.63746  22105375.365    22105383.804
  -8570722.87848  -6678492.07445  23416511.807    23416519.234
   -643632.78949   -501531.64946  21962293.719    21962301.103
 -14335983.27249 -11170906.20246  21695536.636    21695541.150
 -11991930.27449  -9344357.60546  22090025.287    22090031.161
 -21238223.70849 -16549279.15847  21076860.043    21076866.139
  -7274726.15348                  23490760.662
 -24954663.32049 -19445202.87747  20303605.756    20303608.535
 02  1  2  4 27  0.0000000  0  8G31G 8G 3G27G 2G 1G22G13
  -8716009.95649  -6791688.25946  22089676.799    22089686.231
  -8659346.84548  -6747549.74945  23399645.731    23399654.418
   -654207.85749   -509771.95346  21960282.130    21960289.517
 -14394308.57049 -11216354.48546  21684438.178    21684442.512
 -12053315.23149  -9392190.03146  22078343.163    22078349.626
 -21174070.03349 -16499289.41647  21089067.615    21089073.941
  -7166914.37948                  23511275.862
 -24953582.05449 -19444360.40547  20303811.329    20303814.128
 02  1  2  4 27 30.0000000  0  8G31G 8G 3G27G 2G 1G22G13
  -8798108.28649  -6855660.90846  22074053.906    22074062.593
  -8747898.83648  -6816551.33445  23382795.969    23382805.898
   -664193.64349   -517553.07346  21958381.288    21958388.436
 -14452480.95549 -11261683.60547  21673368.454    21673372.540
 -12114406.36949  -9439793.52246  22066719.289    22066724.717
 -21109480.79649 -16448960.27347  21101358.886    21101365.078
  -7059007.21348  -5500565.87245  23531811.355    23531823.021
 -24951954.30749 -19443092.10747  20304121.456    20304124.174
 02  1  2  4 28  0.0000000  0  8G31G 8G 3G27G 2G 1G22G13
  -8879793.62449  -6919311.75146  22058509.902    22058517.703
  -8836363.26048  -6885484.71145  23365961.669    23365971.597
   -673574.79249   -524863.04946  21956596.469    21956603.283
 -14510484.94149 -11306881.51447  21662330.325    21662334.966
 -12175188.50049  -9487156.21846  22055151.376    22055158.166
 -21044442.30249 -16398281.05447  21113735.484    21113742.007
  -6950992.02148                  23552365.741
 -24949764.83549 -19441386.09347  20304538.203    20304541.007
 02  1  2  4 28 30.0000000  0  8G31G 8G 3G27G 2G 1G22G13
  -8961077.02849  -6982649.40646  22043041.412    22043050.348
  -8924754.01948  -6954360.69945  23349141.061    23349147.630
   -682365.00149   -531712.56446  21954923.897    21954931.309
 -14568334.13849 -11351958.80447  21651321.472    21651326.187
 -12235675.50649  -9534288.93946  22043642.166    22043648.210
 -20978970.11149 -16347263.86447  21126194.263    21126200.857
  -6842885.43548                  23572938.154
 -24947027.32449 -19439253.03447  20305059.417    20305062.123
 02  1  2  4 29  0.0000000  0  8G31G 8G 3G27G 2G 1G22G13
  -9041961.86649  -7045676.47346  22027650.082    22027658.769
  -9013076.64348  -7023183.55045  23332333.231    23332342.167
   -690569.93749   -538106.03446  21953362.562    21953369.618
 -14626034.00249 -11396919.72547  21640341.925    21640346.665
 -12295873.22249  -9581196.23746  22032186.321    22032192.535
 -20913071.80749 -16295914.62647  21138734.629    21138740.821
  -6734695.64348                  23593526.271
 -24943747.74749 -19436697.57947  20305683.433    20305686.164
 02  1  2  4 29 30.0000000  0  8G31G 8G 3G27G 2G 1G22G13
  -9122459.36049  -7108401.72446  22012331.821    22012340.509
  -9101344.92148  -7091964.03945  23315536.505    23315547.674
   -698203.32149   -544054.13446  21951909.997    21951917.172
 -14683598.01549 -11441774.76647  21629388.000    21629392.497
 -12355795.56849  -9627888.96846  22020783.922    22020790.069
 -20846763.00549 -16244245.54047  21151352.798    21151359.165
  -6626439.30848                  23614127.689
 -24939939.55849 -19433730.20647  20306408.219    20306410.961
 02  1  2  4 30  0.0000000  0  8G31G 8G 3G27G 2G 1G22G13
  -9202537.58349  -7170800.26346  21997093.482    21997102.418
  -9189529.15348  -7160679.06245  23298757.992    23298764.041
   -705235.69949   -549533.92446  21950572.185    21950578.703
 -14740996.60149 -11486500.92647  21618465.064    21618469.633
 -12415413.32749  -9674344.35246  22009438.782    22009445.266
 -20780015.91449 -16192234.95947  21164054.338    21164060.965
  -6518089.54648                  23634745.444
 -24935573.48149 -19430328.12747  20307239.034    20307241.932
 02  1  2  4 30 30.0000000  0  8G31G 8G 3G27G 2G 1G22G13
  -9282199.46049  -7232874.38146  21981934.391    21981942.831
  -9277634.83448  -7229332.88745  23281990.634    23281999.073
   -711672.64149   -554549.74446  21949347.152    21949354.308
 -14798234.96649 -11531102.25247  21607572.923    21607577.820
 -12474731.98649  -9720566.66646  21998150.938    21998156.927
 -20712837.64649 -16139888.39647  21176838.436    21176844.518
  -6409654.25548                  23655380.585
 -24930655.06449 -19426495.65847  20308174.993    20308177.594
 02  1  2  4 31  0.0000000  0  8G31G 8G 3G27G 2G 1G22G13
  -9361441.97949  -7294621.72546  21966854.685    21966864.117
  -9365661.27148  -7297924.94645  23265238.927    23265247.863
   -717513.70849   -559101.24946  21948235.320    21948242.589
 -14855312.32149 -11575578.09047  21596711.625    21596716.478
 -12533751.19549  -9766555.64946  21986919.779    21986926.262
 -20645229.37549 -16087206.76547  21189703.538    21189710.038
  -6301135.61848                  23676031.293
 -24925183.49449 -19422232.15147  20309216.150    20309219.068
 02  1  2  4 31 30.0000000  0  8G31G 8G 3G27G 2G 1G22G13
  -9440271.34849  -7356047.14446  21951853.978    21951862.666
  -9453616.88348  -7366461.81845  23248503.820    23248508.873
   -722767.67949   -563195.28646  21947235.869    21947242.808
 -14912237.35349 -11619935.22747  21585879.184    21585883.826
 -12592479.94249  -9812318.28946  21975744.261    21975750.191
 -20577201.92049 -16034198.49647  21202649.061    21202655.574
  -6192545.24848                  23696695.539
 -24919167.57349 -19417544.47747  20310361.008    20310363.967
 02  1  2  4 32  0.0000000  0  8G31G 8G 3G27G 2G 1G22G13
  -9518678.32449  -7417143.41446  21936933.498    21936942.186
  -9541495.07748  -7434938.35345  23231779.252    23231788.436
   -727427.42549   -566826.28346  21946348.800    21946356.138
 -14969002.72849 -11664167.94847  21575077.022    21575081.669
 -12650911.47449  -9857849.33346  21964624.635    21964630.661
 -20508750.12349 -15980859.55647  21215674.869    21215681.307
  -6083878.62548                  23717374.810
 -24912600.34949 -19412427.22347  20311610.669    20311613.460
 02  1  2  4 32 30.0000000  0  8G31G 8G 3G27G 2G 1G22G13
  -9596660.92049  -7477908.99246  21922093.737    21922102.920
  -9629296.22048  -7503354.82845  23215072.500    23215079.690
   -731493.86749   -569994.97746  21945575.709    21945582.522
 -15025608.98049 -11708276.72847  21564305.169    21564309.762
 -12709046.75249  -9903149.53846  21953562.060    21953568.062
 -20439876.38649 -15927191.84647  21228781.468    21228787.959
  -5975138.98748                  23738067.127
 -24905483.31049 -19406881.53947  20312965.011    20312967.917
 02  1  2  4 33  0.0000000  0  8G31G 8G 3G27G 2G 1G22G13
  -9674206.76249  -7538334.24046  21907337.655    21907345.846
  -9717010.22948  -7571703.43645  23198380.261    23198387.158
   -734957.30949   -572693.79846  21944916.038    21944922.305
 -15082045.82149 -11752253.52547  21553565.808    21553570.293
 -12766876.07949  -9948211.34546  21942557.050    21942563.717
 -20370572.31149 -15873188.81347  21241969.779    21241976.510
  -5866319.13348                  23758775.171
 -24897805.96249 -19400899.25747  20314425.835    20314428.756
 02  1  2  4 33 30.0000000  0  8G31G 8G 3G27G 2G 1G22G13
  -9751323.93349  -7598425.47146  21892662.645    21892670.516
  -9804647.59748  -7639992.31045  23181703.390    23181712.326
   -737828.23349   -574930.91946  21944369.895    21944376.592
 -15138323.36049 -11796106.15847  21542856.379    21542861.227
 -12824410.12849  -9993043.06846  21931609.270    21931615.415
 -20300850.52749 -15818860.28647  21255237.547    21255244.239
  -5757431.99348                  23779496.272
 -24889579.15149 -19394488.80647  20315991.335    20315994.264
 02  1  2  4 34  0.0000000  0  8G31G 8G 3G27G 2G 1G22G13
  -9828003.62749  -7658175.81146  21878070.592    21878080.273
  -9892201.87048  -7708216.41045  23165043.113    23165048.965
   -740100.68849   -576701.69546  21943937.414    21943944.435
 -15194435.25349 -11839829.71747  21532178.411    21532183.140
 -12881642.66949 -10037639.84746  21920718.401    21920724.557
 -20230706.76849 -15764202.96747  21268585.147    21268592.407
  -5648473.99748                  23800231.045
 -24880796.90049 -19387645.53847  20317662.875    20317665.854
 02  1  2  4 34 30.0000000  0  8G31G 8G 3G27G 2G 1G22G13
  -9904250.18449  -7717588.65846  21863561.979    21863569.712
  -9979679.29548  -7776380.65645  23148396.582    23148403.936
   -741781.53249   -578011.48746  21943617.437    21943624.138
 -15250387.80049 -11883429.11047  21521531.373    21521536.337
 -12938580.64349 -10082007.09246  21909882.661    21909889.400
 -20160149.34649 -15709223.32747  21282012.321    21282018.589
  -5539454.20248                  23820976.276
 -24871465.70249 -19380374.54247  20319438.638    20319441.450
 02  1  2  4 35  0.0000000  0  8G31G 8G 3G27G 2G 1G22G13
  -9980063.17849  -7776663.66846  21849134.380    21849142.571
 -10067081.73248  -7844486.42445  23131763.872    23131771.734
   -742873.01849   -578862.02746  21943409.938    21943417.339
 -15306182.48849 -11926905.46247  21510914.285    21510918.788
 -12995225.96549 -10126146.29146  21899103.960    21899109.875
 -20089181.90549 -15653924.16047  21295516.236    21295523.650
  -5430376.96748                  23841734.201
 -24861587.61949 -19372677.39847  20321318.442    20321321.253
 02  1  2  4 35 30.0000000  0  8G31G 8G 3G27G 2G 1G22G13
 -10055434.51549  -7835394.52946  21834792.011    21834800.202
 -10154403.44548  -7912529.33345  23115147.586    23115155.069
   -743369.63449   -579249.02146  21943315.500    21943322.392
 -15361813.39549 -11970254.18047  21500327.508    21500331.940
 -13051573.55249 -10170053.48046  21888381.161    21888387.645
 -20017800.81749 -15598302.67247  21309100.406    21309107.073
  -5321239.36248                  23862501.911
 -24851157.15249 -19364549.81247  20323303.324    20323306.196
 02  1  2  4 36  0.0000000  0  8G31G 8G 3G27G 2G 1G22G13
 -10130365.13149  -7893781.97446  21820533.318    21820541.096
 -10241647.89548  -7980512.03645  23098545.928    23098551.943
   -743275.01449   -579175.33346  21943333.157    21943340.565
 -15417283.89849 -12013477.92347  21489771.516    21489776.386
 -13107627.10949 -10213731.56546  21877715.042    21877721.023
 -19946011.62549 -15542363.18647  21322761.551    21322768.472
  -5212047.31348                  23883281.274
 -24840178.22649 -19355994.86947  20325392.650    20325395.602
 02  1  2  4 36 30.0000000  0  7G31G 8G27G 2G 1G22G13
 -10204847.70549  -7951820.30146  21806359.507    21806368.195
 -10328809.57648  -8048430.25845  23081959.895    23081966.204
 -15472588.57349 -12056572.49147  21479247.844    21479252.497
 -13163381.66849 -10257176.68046  21867105.025    21867110.934
 -19873810.88149 -15486102.99846  21336500.939    21336508.132
  -5102798.32048                  23904070.660
 -24828645.97549 -19347008.76847  20327587.318    20327590.202
 02  1  2  4 37  0.0000000  0  7G31G 8G27G 2G 1G22G13
 -10278862.46749  -8009494.11946  21792275.507    21792283.322
 -10415871.00348  -8116270.36645  23065392.160    23065398.775
 -15527709.55149 -12099523.92647  21468758.914    21468763.322
 -13218820.07449 -10300375.43446  21856555.582    21856561.806
 -19801183.23549 -15429510.14246  21350321.650    21350328.714
  -4993477.43648                  23924874.614
 -24816543.18849 -19337578.07547  20329890.441    20329893.345
 02  1  2  4 37 30.0000000  0  7G31G 8G27G 2G 1G22G13
 -10352416.14049  -8066808.64046  21778277.387    21778285.826
 -10502841.25348  -8184039.43345  23048842.059    23048850.250
 -15582655.86149 -12142339.25047  21458302.812    21458307.395
 -13273951.88549 -10343335.29046  21846063.868    21846070.259
 -19728139.94149 -15372593.39246  21364221.539    21364227.950
  -4884096.29348                  23945689.231
 -24803879.57349 -19327710.37047  20332300.174    20332303.063
 02  1  2  4 38  0.0000000  0  7G31G 8G27G 2G 1G22G13
 -10425515.42249  -8123769.07846  21764368.006    21764376.197
 -10589729.28648  -8251744.43645  23032307.913    23032316.353
 -15637436.18349 -12185025.24247  21447878.660    21447883.531
 -13328786.44149 -10386063.48147  21835629.924    21835635.144
 -19654691.89249 -15315361.23446  21378198.253    21378205.480
  -4774666.42048                  23966514.003
 -24790664.16449 -19317412.71447  20334815.092    20334818.149
 02  1  2  4 38 30.0000000  0  7G31G 8G27G 2G 1G22G13
 -10498169.06949  -8180382.28246  21750542.649    21750550.490
 -10676545.60048  -8319393.57745  23015787.747    23015795.138
 -15692061.00349 -12227590.05647  21437483.664    21437488.269
 -13383334.69849 -10428568.61646  21825248.812    21825255.440
 -19580851.99949 -15257823.76946  21392248.975    21392256.372
  -4665201.19248                  23987343.750
 -24776908.28649 -19306693.92047  20337432.725    20337435.692
