     2.10           OBSERVATION DATA    G (GPS)             RINEX VERSION / TYPE
teqc  2004Apr5                          20041208 15:58:10UTCPGM / RUN BY / DATE
OBSERVATION MODE: Permanent                                 COMMENT
CHUM Chumysh (CHUM)                                         MARKER NAME
25601M001                                                   MARKER NUMBER
T136                ROGUE SNR-8000       3.20               REC # / TYPE / VERS
113                 AOAD/M_T        NONE                    ANT # / TYPE
        0.0900        0.0000        0.0000                  ANTENNA: DELTA H/E/N
  1228950.8690  4508079.8894  4327868.4913                  APPROX POSITION XYZ
  74.75109756  42.99850108  716.3236  LonLatAlt  S/W        COMMENT
Linux 2.0.36|Pentium II|gcc -static|Linux|486/DX+           COMMENT
BIT 2 OF LLI FLAGS DATA COLLECTED UNDER A/S CONDITION       COMMENT
Konovalov           IVTAN                                   OBSERVER / AGENCY
     1     1                                                WAVELENGTH FACT L1/2
     5    L1    L2    C1    P2    P1                        # / TYPES OF OBSERV
    30.0000                                                 INTERVAL
    P1 =    P1  TurboRogue; =    Y1  Benchmark              COMMENT
    L1 = L1(P1) TurboRogue; = L1(Y1) Benchmark              COMMENT
    P2 =    P2  TurboRogue; =    Y2  Benchmark              COMMENT
    L2 = L2(P2) TurboRogue; = L2(Y2) Benchmark              COMMENT
 SNR is mapped to RINEX snr flag value [1,4-9]              COMMENT
    SNR:  >=316 >=100 >=31.6 >=10 >=3.2    >0 bad=0         COMMENT
L1 & L2:      9     8     7     6     5     4     1         COMMENT
  2002     1     4     0     0    0.0000000     GPS         TIME OF FIRST OBS
  2002     1     4    23    59   30.0000000     GPS         TIME OF LAST OBS
                                                            END OF HEADER
 02  1  4  0  0  0.0000000  0  8G 1G20G29G21G22G14G11G25
  -5599427.57848  -4363188.99844  24114995.395    24114998.563
 -18016223.19149 -14038610.23646  21914793.514    21914792.833
 -13436325.11849 -10469861.10647  21221984.097    21221984.036
  -4572706.77948                  24589674.232
  -6690226.53848  -5213164.20944  23612506.208    23612506.252
  -4129198.81149  -3217557.18646  22666583.706    22666583.236
 -13248403.66349 -10323431.66245  22823543.390    22823543.025
 -24226832.86749 -18878047.17447  20478920.452    20478919.898
 02  1  4  0  0 30.0000000  0  8G 1G20G29G21G22G14G11G25
  -5681117.39348  -4426843.39345  24099451.862    24099451.812
 -18094324.10949 -14099468.09346  21899930.347    21899930.487
 -13390184.08849 -10433907.06147  21230764.624    21230764.527
  -4463164.74548                  24610519.482
  -6803354.65548  -5301316.02145  23590978.411    23590981.486
  -4056274.17949  -3160732.82645  22680461.149    22680460.185
 -13189135.77449 -10277248.90645  22834822.270    22834822.506
 -24215936.75949 -18869556.69147  20480993.880    20480993.445
 02  1  4  0  1  0.0000000  0  8G 1G20G29G21G22G14G11G25
  -5762734.13748  -4490440.84945  24083919.655    24083922.715
 -18172090.20049 -14160065.04046  21885132.468    21885131.884
 -13343821.19849 -10397780.13747  21239587.150    21239587.031
  -4353463.50648                  24631393.932
  -6916400.47148  -5389403.66644  23569466.272    23569465.779
  -3983202.54449  -3103793.91745  22694366.378    22694366.347
 -13129469.39449 -10230755.63745  22846176.727    22846175.938
 -24204588.54149 -18860713.90847  20483153.442    20483153.005
 02  1  4  0  1 30.0000000  0  7G 1G20G29G22G14G11G25
  -5844285.58148  -4553987.36345  24068401.094    24068401.494
 -18249526.95949 -14220405.37246  21870396.921    21870396.077
 -13297244.95349 -10361486.96347  21248449.970    21248450.124
  -7029369.18148  -5477431.26744  23547969.146    23547968.778
  -3909992.48249  -3046747.14445  22708297.767    22708297.839
 -13069415.28448 -10183960.22145  22857603.384    22857603.027
 -24192797.57549 -18851526.13947  20485397.496    20485397.047
 02  1  4  0  2  0.0000000  0  7G 1G20G29G22G14G11G25
  -5925763.78448  -4617476.85145  24052896.416    24052896.932
 -18326624.63949 -14280481.48246  21855725.425    21855725.028
 -13250448.08149 -10325021.87647  21257355.191    21257355.268
  -7142250.04548  -5565390.39544  23526489.087    23526491.046
  -3836636.80349  -2989586.91745  22722257.038    22722257.533
 -13008968.49049 -10136858.81745  22869107.103    22869106.638
 -24180557.60349 -18841988.51147  20487726.598    20487726.127
 02  1  4  0  2 30.0000000  0  8G 1G20G29G30G22G14G11G25
  -6007186.58048  -4680923.15945  24037401.282    24037405.835
 -18403398.76949 -14340305.47546  21841116.130    21841115.316
 -13203448.91949 -10288399.15247  21266299.104    21266298.566
         -.52758         1.05854  23540801.255    23540800.261
  -7255057.92948  -5653292.65344  23505021.726    23505020.213
  -3763153.73749  -2932327.41045  22736240.342    22736239.912
 -12948149.42049 -10089467.34345  22880680.949    22880679.538
 -24167887.88149 -18832116.01647  20490137.379    20490136.959
 02  1  4  0  3  0.0000000  0  8G 1G20G29G30G22G14G11G25
  -6088565.97448  -4744335.68045  24021917.371    24021918.311
 -18479859.14249 -14399884.98246  21826565.734    21826565.626
 -13156259.54349 -10251628.21547  21275278.975    21275278.499
     47615.91448     37104.72544  23549862.096    23549863.366
  -7367801.79848  -5741145.02944  23483567.397    23483567.359
  -3689556.04649  -2874978.58345  22750245.841    22750245.387
 -12886972.97848 -10041797.39245  22892321.188    22892320.661
 -24154801.23149 -18821918.63647  20492627.440    20492627.091
 02  1  4  0  3 30.0000000  0  8G 1G20G29G30G22G14G11G25
  -6169874.18848  -4807692.70445  24006442.788    24006445.445
 -18555975.78249 -14459196.64546  21812081.797    21812080.812
 -13108852.99949 -10214688.06247  21284299.782    21284299.759
     95777.19848     74632.95144  23559027.253    23559027.771
  -7480451.05248  -5828923.67444  23462130.550    23462130.978
  -3615816.86949  -2817519.50445  22764277.651    22764278.008
 -12825414.28648  -9993829.61145  22904036.105    22904035.628
 -24141271.31149 -18811375.83747  20495202.235    20495201.928
 02  1  4  0  4  0.0000000  0  8G 1G20G29G30G22G14G11G25
  -6251117.74048  -4870999.31845  23990983.552    23990986.338
 -18631753.18249 -14518243.96346  21797661.743    21797661.853
 -13061236.15649 -10177584.03947  21293361.170    21293361.073
    144474.95948    112579.23444  23568294.763    23568296.041
  -7593009.46148  -5916631.51144  23440711.757    23440713.093
  -3541943.58649  -2759955.92745  22778335.339    22778335.528
 -12763483.09649  -9945571.56645  22915821.586    22915821.230
 -24127306.68549 -18800494.30547  20497859.744    20497859.493
 02  1  4  0  4 30.0000000  0  8G 1G20G29G30G22G14G11G25
  -6332298.21048  -4934256.79445  23975534.658    23975537.445
 -18707190.69749 -14577026.44146  21783306.217    21783305.904
 -13013410.99649 -10140317.69147  21302461.957    21302461.924
    193705.81148    150940.92244  23577662.733    23577663.576
  -7705475.60448  -6004267.49244  23419309.957    23419310.439
  -3467938.27549  -2702289.46545  22792417.802    22792417.949
 -12701183.41348  -9897026.38345  22927675.923    22927675.518
 -24112909.94449 -18789276.06347  20500599.329    20500599.024
 02  1  4  0  5  0.0000000  0  8G 1G20G29G30G22G14G11G25
  -6413414.14648  -4997464.01345  23960100.013    23960100.022
 -18782284.80649 -14635541.32546  21769016.993    21769016.058
 -12965376.88149 -10102888.52247  21311602.659    21311602.628
    243469.23948    189717.60445  23587131.525    23587132.862
  -7817845.24048  -6091828.23744  23397927.324    23397928.764
  -3393800.12949  -2644519.50445  22806526.719    22806525.885
 -12638516.76449  -9848195.21645  22939602.408    22939601.000
 -24098081.07949 -18777721.09947  20503421.184    20503420.831
 02  1  4  0  5 30.0000000  0  8G 1G20G29G30G22G14G11G25
  -6494466.83748  -5060621.92945  23944675.831    23944678.216
 -18857034.93849 -14693788.17946  21754791.823    21754791.316
 -12917135.64449 -10065297.96047  21320782.603    21320782.369
    293761.94748    228906.72145  23596703.293    23596701.391
  -7930117.11748  -6179312.81444  23376562.130    23376562.717
  -3319531.28549  -2586647.70545  22820658.909    22820658.385
 -12575487.65648  -9799081.64845  22951595.580    22951595.781
 -24082822.60449 -18765831.37547  20506324.787    20506324.453
 02  1  4  0  6  0.0000000  0  8G 1G20G29G30G22G14G11G25
  -6575458.34148  -5123732.13145  23929262.909    23929266.124
 -18931440.86449 -14751766.81446  21740632.517    21740632.523
 -12868689.83049 -10027547.98947  21330001.604    21330001.354
    344580.14648    268505.32745  23606372.558    23606373.173
  -8042290.06048  -6266720.32145  23355216.368    23355217.113
  -3245134.69349  -2528676.34945  22834815.795    22834815.605
 -12512100.80548  -9749689.30145  22963657.109    22963656.789
 -24067138.44049 -18753609.94747  20509309.025    20509308.837
 02  1  4  0  6 30.0000000  0  8G 1G20G29G30G22G14G11G25
  -6656373.02448  -5186782.45745  23913866.296    23913867.093
 -19005484.63649 -14809463.25646  21726543.416    21726542.534
 -12820024.20049  -9989626.72247  21339262.282    21339262.085
    395937.52148    308524.07445  23616145.482    23616146.770
  -8154345.72148  -6354036.42145  23333893.405    23333893.093
  -3170595.39549  -2470593.80045  22849001.357    22848999.915
 -12448343.86949  -9700008.58945  22975791.671    22975788.842
 -24051014.42949 -18741045.78447  20512377.197    20512377.121
 02  1  4  0  7  0.0000000  0  8G 1G20G29G30G22G14G11G25
  -6737212.09548  -5249773.89945  23898481.720    23898483.671
 -19079165.45249 -14866876.87846  21712521.479    21712520.907
 -12771140.32449  -9951535.39446  21348564.594    21348564.613
    447830.81748    348960.39545  23626020.463    23626021.224
  -8266282.32248  -6441259.76145  23312592.485    23312594.510
  -3095915.39849  -2412401.62145  22863211.775    22863211.147
 -12384220.95248  -9650042.67445  22987991.489    22987992.018
 -24034453.32649 -18728141.02847  20515528.934    20515528.711
 02  1  4  0  7 30.0000000  0  8G 1G20G29G30G22G14G11G25
  -6817982.01348  -5312711.44345  23883112.924    23883113.115
 -19152487.95649 -14924011.28746  21698568.673    21698568.586
 -12722045.40249  -9913279.62146  21357907.017    21357907.114
    500251.62148    389807.78545  23635995.922    23635996.800
  -8378103.43748  -6528393.10844  23291313.640    23291315.351
  -3021101.69949  -2354105.25045  22877448.075    22877447.580
 -12319741.52248  -9599798.96645  23000262.502    23000261.060
 -24017462.94349 -18714901.76747  20518762.243    20518762.049
 02  1  4  0  8  0.0000000  0  8G 1G20G29G30G22G14G11G25
  -6898689.49148  -5375600.37645  23867754.810    23867756.851
 -19225456.30049 -14980869.73346  21684683.844    21684683.311
 -12672746.37149  -9874864.79747  21367288.708    21367288.394
    553191.41648    431059.58145  23646070.460    23646069.291
  -8489812.73648  -6615439.28644  23270055.646    23270057.174
  -2946161.46949  -2295710.28745  22891709.388    22891707.886
 -12254915.05948  -9549284.85945  23012599.052    23012597.714
 -24000051.54349 -18701334.44347  20522075.510    20522075.337
 02  1  4  0  8 30.0000000  0  8G 1G20G29G30G22G14G11G25
  -6979337.14048  -5438442.66645  23852407.463    23852408.863
 -19298071.01449 -15037452.62646  21670865.233    21670864.743
 -12623246.42249  -9836293.41746  21376707.797    21376707.597
    606645.62748    472712.18645  23656241.981    23656242.273
  -8601410.05348  -6702398.24245  23248819.351    23248819.272
  -2871098.36349  -2237219.58645  22905992.726    22905992.802
 -12189747.00948  -9498504.55945  23024998.768    23024998.371
 -23982223.24849 -18687442.26447  20525468.124    20525467.957
 02  1  4  0  9  0.0000000  0  8G 1G20G29G30G22G14G11G25
  -7059933.18148  -5501244.74845  23837070.932    23837072.428
 -19370338.31749 -15093764.80746  21657113.127    21657112.710
 -12573554.32049  -9797572.30746  21386163.774    21386163.664
    660603.80748    514757.50745  23666510.699    23666508.795
  -8712900.61148  -6789273.99545  23227603.460    23227603.635
  -2795921.32849  -2178640.11745  22920298.789    22920298.176
 -12124249.01048  -9447467.16645  23037464.133    23037464.655
 -23963987.78649 -18673232.81647  20528938.180    20528938.067
 02  1  4  0  9 30.0000000  0  8G 1G20G29G30G22G14G11G25
  -7140465.12948  -5563996.86945  23821745.396    23821748.076
 -19442243.88749 -15149795.11746  21643430.332    21643430.257
 -12523658.26749  -9758692.27546  21395658.826    21395659.032
    715076.38848    557203.70445  23676876.445    23676876.380
  -8824269.24948  -6876054.72745  23206410.851    23206411.940
  -2720618.69749  -2119962.74545  22934628.681    22934627.597
 -12058411.49248  -9396165.20345  23049991.586    23049990.597
 -23945334.28849 -18658697.61347  20532487.703    20532487.569
 02  1  4  0 10  0.0000000  0  8G 1G20G29G30G22G14G11G25
  -7220931.71648  -5626698.09345  23806433.850    23806436.228
 -19513784.37749 -15205540.95646  21629816.489    21629816.018
 -12473557.51449  -9719652.73946  21405192.803    21405192.711
    770062.36048    600049.88845  23687339.182    23687338.138
  -8935511.76948  -6962737.20045  23185241.823    23185241.360
  -2645189.89649  -2061187.09145  22948981.686    22948981.811
 -11992236.33748  -9344600.16545  23062584.664    23062584.168
 -23926263.08849 -18643836.93147  20536116.796    20536116.403
 02  1  4  0 10 30.0000000  0  8G 1G20G29G30G22G14G11G25
  -7301321.44748  -5689339.42645  23791136.694    23791138.681
 -19584946.07449 -15260991.62346  21616274.761    21616274.237
 -12423241.04349  -9680445.11246  21414767.710    21414767.527
    825571.17748    643303.50545  23697902.913    23697901.780
  -9046614.03748  -7049310.38745  23164100.393    23164102.663
  -2569624.34849  -2002304.87445  22963362.095    22963361.787
 -11925715.28848  -9292765.59945  23075243.372    23075243.831
 -23906764.50349 -18628643.22147  20539827.498    20539827.247
 02  1  4  0 11  0.0000000  0  8G 1G20G29G30G22G14G11G25
  -7381625.07748  -5751913.63545  23775855.008    23775856.713
 -19655717.83749 -15316138.44946  21602807.450    21602806.783
 -12372700.14849  -9641062.61446  21424385.293    21424385.054
    881610.01848    686970.13045  23708566.532    23708568.099
  -9157563.60448  -7135764.58045  23142986.816    23142987.973
  -2493913.41949  -1943309.35845  22977769.556    22977768.378
 -11858842.21548  -9240656.73245  23087968.304    23087967.142
 -23886830.67049 -18613110.36047  20543620.694    20543620.393
 02  1  4  0 11 30.0000000  0  8G 1G20G29G30G22G14G11G25
  -7461860.21348  -5814434.49245  23760586.332    23760587.986
 -19726114.86249 -15370993.26746  21589411.662    21589411.049
 -12321952.65249  -9601519.12046  21434042.047    21434041.938
    938159.33848    731034.54145  23719327.253    23719328.937
  -9268375.08848  -7222111.19045  23121900.721    23121900.079
  -2418075.24849  -1884214.70845  22992200.633    22992199.839
 -11791637.09748  -9188289.12145  23100758.574    23100758.251
 -23866480.62249 -18597253.17147  20547493.213    20547492.963
 02  1  4  0 12  0.0000000  0  8G 1G20G29G30G22G14G11G25
  -7542040.00748  -5876912.21445  23745328.255    23745330.501
 -19796148.15849 -15425564.66646  21576084.221    21576083.822
 -12271012.44549  -9561825.47246  21443736.034    21443735.741
    995203.68048    775484.67044  23730182.524    23730182.028
  -9379058.88048  -7308358.29345  23100837.981    23100838.202
  -2342123.60149  -1825031.62945  23006654.062    23006654.218
 -11724116.11048  -9135675.36645  23113605.883    23113605.094
 -23845729.23549 -18581083.26347  20551442.338    20551442.062
 02  1  4  0 12 30.0000000  0  8G 1G20G29G30G22G14G11G25
  -7622149.16048  -5939334.87045  23730085.006    23730088.147
 -19865800.54149 -15479839.24946  21562830.222    21562829.841
 -12219864.42849  -9521969.88646  21453469.325    21453469.135
   1052756.44248    820330.96444  23741134.530    23741137.368
  -9489596.61148  -7394491.57445  23079803.025    23079804.561
  -2266043.86549  -1765748.74445  23021131.500    23021131.076
 -11656267.14648  -9082806.04545  23126517.648    23126517.238
 -23824562.89349 -18564590.00847  20555470.252    20555469.869
 02  1  4  0 13  0.0000000  0  8G 1G20G29G30G22G14G11G25
  -7702184.95148  -6001700.37445  23714854.529    23714854.934
 -19935067.22349 -15533813.28246  21549648.795    21549648.525
 -12168506.70449  -9481950.89446  21463242.008    21463242.135
   1110817.69348    865573.54344  23752183.264    23752183.024
  -9599982.76048  -7480506.75845  23058797.497    23058800.182
  -2189834.39649  -1706364.75945  23035633.606    23035633.009
 -11588091.11448  -9029681.86945  23139491.736    23139493.527
 -23802980.35749 -18547772.45047  20559576.934    20559576.583
 02  1  4  0 13 30.0000000  0  8G 1G20G29G30G22G14G11G25
  -7782158.46948  -6064017.32445  23699634.295    23699636.227
 -20003957.31649 -15587493.87046  21536539.421    21536538.750
 -12116950.94949  -9441777.59046  21473052.916    21473052.733
   1169374.43148    911202.63244  23763325.325    23763326.636
  -9710225.62848  -7566410.27745  23037818.282    23037819.374
  -2113507.03449  -1646888.90445  23050158.042    23050157.564
 -11519602.16848  -8976313.86844  23152523.687    23152522.792
 -23780994.42149 -18530640.54947  20563760.383    20563760.152
 02  1  4  0 14  0.0000000  0  8G 1G20G29G30G22G14G11G25
  -7862073.53548  -6126288.76045  23684429.424    23684428.889
 -20072472.47549 -15640882.30346  21523501.554    21523500.921
 -12065201.42649  -9401453.30546  21482900.431    21482900.373
   1228420.34848    957212.94744  23774562.140    23774562.194
  -9820326.00748  -7652202.77045  23016867.552    23016868.114
  -2037066.24849  -1587324.68145  23064704.637    23064703.521
 -11450807.07648  -8922707.33444  23165614.931    23165615.412
 -23758610.57349 -18513198.59247  20568020.139    20568019.788
 02  1  4  0 14 30.0000000  0  8G 1G20G29G30G22G14G11G25
  -7941915.56548  -6188503.25645  23669233.428    23669236.588
 -20140596.38249 -15693965.86646  21510537.664    21510537.282
 -12013243.97449  -9360967.00046  21492787.966    21492787.840
   1287968.00948   1003613.70944  23785893.899    23785894.147
  -9930266.42148  -7737870.62145  22995946.625    22995948.334
  -1960498.30848  -1527661.36945  23079274.798    23079275.380
 -11381694.29648  -8868853.20244  23178767.266    23178765.095
 -23735815.63649 -18495436.30147  20572357.922    20572357.509
 02  1  4  0 15  0.0000000  0  8G 1G20G29G30G22G14G11G25
  -8021670.25548  -6250649.68545  23654058.466    23654059.531
 -20208312.37349 -15746731.56946  21497652.433    21497651.574
 -11961065.10749  -9320308.16546  21502716.921    21502716.942
   1348029.18948   1050414.61044  23797322.795    23797323.915
 -10040029.70248  -7823400.44445  22975059.618    22975062.278
  -1883789.60648  -1467888.38945  23093871.958    23093871.170
 -11312253.02048  -8814743.14544  23191981.338    23191982.328
 -23712597.47849 -18477344.22447  20576776.032    20576775.501
 02  1  4  0 15 30.0000000  0  8G 1G20G29G30G22G14G11G25
  -8101355.26648  -6312741.81645  23638893.531    23638896.751
 -20275636.39949 -15799191.84646  21484840.518    21484839.980
 -11908682.81349  -9279490.81046  21512685.020    21512685.178
   1408583.95148   1097600.14244  23808845.831    23808846.400
 -10149630.76548  -7908803.85545  22954202.820    22954204.135
  -1806958.64549  -1408020.12445  23108493.185    23108491.181
 -11242503.92948  -8760393.24244  23205253.746    23205250.094
 -23688975.44849 -18458937.44347  20581271.034    20581270.620
 02  1  4  0 16  0.0000000  0  8G 1G20G29G30G22G14G11G25
  -8180964.18748  -6374774.71345  23623743.828    23623747.001
 -20342559.65849 -15851339.83846  21472105.715    21472105.113
 -11856091.15849  -9238510.31546  21522692.750    21522692.686
   1469636.67248   1145173.69044  23820463.517    23820465.269
 -10259059.97748  -7994073.38245  22933379.140    22933379.500
  -1729999.38048  -1348051.89045  23123137.221    23123136.182
 -11172443.55648  -8705800.72944  23218586.071    23218586.993
 -23664944.74749 -18440212.22447  20585844.256    20585843.777
 02  1  4  0 16 30.0000000  0  8G 1G20G29G30G22G14G11G25
  -8260508.86548  -6436757.50345  23608606.608    23608611.196
 -20409092.32949 -15903183.47346  21459445.618    21459444.838
 -11803302.62249  -9197376.40646  21532738.040    21532738.157
   1531172.80548   1193123.94244  23832174.367    23832173.782
 -10368326.41348  -8079216.05545  22912586.195    22912587.199
  -1652924.76848  -1287993.78345  23137804.039    23137803.709
 -11102087.14148  -8650977.55344  23231974.768    23231974.332
 -23640519.02749 -18421179.19747  20590492.462    20590492.002
 02  1  4  0 17  0.0000000  0  8G 1G20G29G30G22G14G11G25
  -8339979.22148  -6498682.38345  23593484.510    23593486.282
 -20475222.22249 -15954713.25846  21446860.696    21446860.088
 -11750307.54649  -9156081.55746  21542822.788    21542822.704
   1593200.23848   1241456.97544  23843977.239    23843978.532
 -10477417.17248  -8164221.83545  22891827.236    22891827.010
  -1575725.35348  -1227838.40745  23152495.112    23152494.873
 -11031427.67548  -8595918.23244  23245420.139    23245419.190
 -23615689.65349 -18401831.63547  20595217.201    20595216.615
 02  1  4  0 17 30.0000000  0  8G 1G20G29G30G22G14G11G25
  -8419374.84448  -6560549.04745  23578376.955    23578377.831
 -20540947.02749 -16005927.39646  21434353.769    21434353.291
 -11697106.29449  -9114626.05746  21552946.463    21552946.065
   1655716.92848   1290171.28144  23855873.488    23855871.224
 -10586329.04648  -8249088.21745  22871102.321    22871102.829
  -1498401.49448  -1167586.07245  23167208.609    23167208.863
 -10960468.11248  -8540625.09744  23258923.632    23258921.916
 -23590458.31349 -18382170.85047  20600018.502    20600017.976
 02  1  4  0 18  0.0000000  0  8G 1G20G29G30G22G14G11G25
  -8498699.80048  -6622360.64045  23563280.767    23563283.657
 -20606268.72149 -16056827.41746  21421923.367    21421922.894
 -11643703.61649  -9073013.60146  21563108.682    21563108.758
   1718716.30948   1339261.68944  23867862.507    23867861.919
 -10695063.19548  -8333816.13245  22850410.507    22850411.122
  -1420958.19348  -1107240.67145  23181945.955    23181946.222
 -10889215.70248  -8485103.71744  23272482.803    23272483.384
 -23564830.48749 -18362201.11247  20604895.400    20604894.837
 02  1  4  0 18 30.0000000  0  8G 1G20G29G30G22G14G11G25
  -8577954.59648  -6684117.56445  23548198.509    23548201.962
 -20671185.85249 -16107412.19646  21409570.162    21409569.519
 -11590100.17949  -9031244.70746  21573309.498    21573309.491
   1782195.62248   1388726.08344  23879942.234    23879941.907
 -10803617.00648  -8418403.50845  22829753.312    22829754.223
  -1343396.32948  -1046802.87645  23196705.779    23196705.337
 -10817674.07548  -8429356.99644  23286096.409    23286097.377
 -23538808.32749 -18341924.11047  20609847.132    20609846.596
 02  1  4  0 19  0.0000000  0  8G 1G20G29G30G22G14G11G25
  -8657131.66248  -6745813.93945  23533134.115    23533134.624
 -20735689.00549 -16157674.39346  21397295.655    21397295.378
 -11536289.06549  -8989313.98846  21583549.456    21583549.232
   1846159.98848   1438568.44244  23892114.121    23892114.083
 -10911980.25548  -8502842.39745  22809132.886    22809132.997
  -1265709.33548   -986267.58445  23211488.754    23211489.328
 -10745838.86348  -8373381.52644  23299765.721    23299765.581
 -23512386.69949 -18321335.83147  20614875.086    20614874.518
 02  1  4  0 19 30.0000000  0  8G 1G20G29G30G22G14G11G25
  -8736238.98048  -6807455.96845  23518078.831    23518080.890
 -20799784.22549 -16207618.71946  21385098.571    21385098.159
 -11482279.04249  -8947228.27646  21593827.013    21593826.876
   1910598.72748   1488780.45644  23904376.095    23904375.555
 -11020157.95348  -8587136.70145  22788547.117    22788548.200
  -1187906.08648   -925641.70345  23226294.484    23226293.626
 -10673721.50248  -8317186.22644  23313490.420    23313489.069
 -23485575.22349 -18300443.77747  20619977.186    20619976.581
 02  1  4  0 20  0.0000000  0  8G 1G20G29G30G22G14G11G25
  -8815273.81548  -6869041.52045  23503039.865    23503040.537
 -20863466.67849 -16257241.40946  21372980.368    21372979.904
 -11428067.60449  -8904985.60646  21604143.283    21604143.199
   1975512.41848   1539362.52144  23916729.253    23916730.324
 -11128144.36848  -8671281.95845  22767997.815    22767998.636
  -1109984.64648   -864923.71945  23241122.373    23241122.833
 -10601322.39148  -8260771.36444  23327267.190    23327266.876
 -23458372.49549 -18279246.86047  20625153.820    20625153.302
 02  1  4  0 20 30.0000000  0  8G 1G20G29G30G22G14G11G25
  -8894239.58448  -6930573.26145  23488012.782    23488012.989
 -20926737.94249 -16306543.69146  21360940.154    21360939.659
 -11373658.99049  -8862589.30046  21614496.783    21614496.893
   2040895.00148   1590309.98344  23929170.890    23929170.630
 -11235940.09848  -8755278.60745  22747485.228    22747486.445
  -1031948.99848   -804116.73945  23255972.282    23255971.716
 -10528647.94348  -8204141.95444  23341096.604    23341096.373
 -23430783.66449 -18257749.07547  20630403.568    20630403.054
 02  1  4  0 21  0.0000000  0  8G 1G20G29G30G22G14G11G25
  -8973116.58648  -6992035.82445  23473003.011    23473003.336
 -20989576.16549 -16355508.53746  21348982.963    21348982.627
 -11319033.82049  -8820024.25046  21624891.727    21624891.520
   2106763.84048   1641636.34144  23941705.133    23941705.660
 -11343522.44548  -8839108.98445  22727012.526    22727013.326
   -953780.05348   -743205.89345  23270847.687    23270846.995
 -10455681.96948  -8147285.36744  23354982.574    23354979.063
 -23402791.01049 -18235936.61747  20635730.386    20635729.854
 02  1  4  0 21 30.0000000  0  8G 1G20G29G30G22G14G11G25
  -9051906.77448  -7053430.71645  23458010.217    23458010.717
 -21051981.54749 -16404136.10346  21337107.192    21337106.689
 -11264194.68849  -8777292.47646  21635327.162    21635326.879
   2173114.31348   1693338.02744  23954330.976    23954332.943
 -11450890.51248  -8922772.39745  22706581.450    22706582.169
   -875480.59948   -682193.35445  23285746.983    23285746.731
 -10382429.55548  -8090205.60544  23368921.057    23368919.495
 -23374398.55849 -18213812.62847  20641133.617    20641133.082
 02  1  4  0 22  0.0000000  0  8G 1G20G29G30G22G14G11G25
  -9130620.97648  -7114766.44945  23443031.042    23443032.526
 -21113963.24949 -16452433.53046  21325312.086    21325311.674
 -11209153.10549  -8734402.95746  21645801.387    21645801.134
   2239932.89848   1745404.42044  23967046.263    23967046.892
 -11558052.34048  -9006275.10445  22686188.998    22686189.506
   -797062.42248   -621088.30645  23300669.799    23300668.272
 -10308904.78048  -8032913.58844  23382912.379    23382910.844
 -23345618.99549 -18191386.99647  20646609.995    20646609.433
 02  1  4  0 22 30.0000000  0  8G 1G20G29G30G22G14G11G25
  -9209259.06548  -7176042.83045  23428066.459    23428068.661
 -21175519.00549 -16500399.05346  21313599.106    21313598.543
 -11153909.41649  -8691355.94846  21656313.914    21656313.626
   2307217.17948   1797833.73144  23979850.070    23979849.121
 -11665005.05348  -9089614.87245  22665837.023    22665838.325
   -718526.20448   -559891.27545  23315615.031    23315614.548
 -10235111.21348  -7975412.12144  23396955.010    23396953.625
 -23316453.77249 -18168660.84947  20652160.117    20652159.551
 02  1  4  0 23  0.0000000  0  8G 1G20G29G30G22G14G11G25
  -9287828.41448  -7237265.66645  23413115.925    23413116.244
 -21236654.50149 -16548037.10046  21301965.085    21301964.610
 -11098471.76849  -8648157.80646  21666863.669    21666863.305
   2374957.49248   1850618.37144  23992740.568    23992740.083
 -11771753.00048  -9172795.08945  22645523.239    22645523.783
   -639880.02148   -498608.52945  23330580.422    23330579.020
 -10161059.33848  -7917709.38444  23411046.717    23411046.129
 -23286912.48849 -18145641.67247  20657781.766    20657781.197
 02  1  4  0 23 30.0000000  0  8G 1G20G29G30G22G14G11G25
  -9366313.72448  -7298423.03145  23398180.396    23398180.271
 -21297352.33449 -16595334.11546  21290414.332    21290413.834
 -11042825.06149  -8604796.75346  21677452.658    21677452.268
   2443166.26048   1903768.05744  24005720.341    24005721.119
 -11878277.81748  -9255801.42845  22625251.485    22625253.506
   -561109.40848   -437228.87345  23345569.992    23345570.001
 -10086736.96548  -7859795.85944  23425189.436    23425189.131
 -23256981.29849 -18122318.67347  20663477.336    20663476.850
 02  1  4  0 24  0.0000000  0  8G 1G20G29G30G22G14G11G25
  -9444729.67548  -7359526.34945  23383258.554    23383259.618
 -21357625.28749 -16642300.05347  21278945.345    21278944.914
 -10986984.61249  -8561284.73746  21688078.598    21688078.394
   2511826.48748   1957269.47944  24018785.770    24018787.060
 -11984591.35048  -9338643.14045  22605021.529    22605020.935
   -482229.60248   -375764.11445  23360580.914    23360579.788
 -10012162.00048  -7801685.49744  23439380.512    23439379.383
 -23226676.43449 -18098704.50247  20669244.070    20669243.602
 02  1  4  0 24 30.0000000  0  8G 1G20G29G30G22G14G11G25
  -9523067.94448  -7420569.13445  23368350.941    23368351.582
 -21417463.18349 -16688926.98647  21267558.490    21267557.994
 -10930942.85149  -8517615.85146  21698743.117    21698742.735
   2580943.68948   2011127.04544  24031939.534    24031939.204
 -12090682.48548  -9421311.53445  22584832.734    22584834.941
   -403233.01548   -314208.35145  23375613.102    23375611.678
  -9937329.63748  -7743374.60644  23453620.810    23453622.903
 -23195991.97249 -18074794.54447  20675083.247    20675082.772
 02  1  4  0 25  0.0000000  0  8G 1G20G29G30G22G14G11G25
  -9601324.15348  -7481547.96345  23353458.935    23353461.346
 -21476859.79749 -16735210.06047  21256255.801    21256255.181
 -10874695.79449  -8473786.99946  21709446.443    21709446.166
   2650519.65848   2065342.06244  24045177.283    24045180.504
 -12196543.92248  -9503800.95645  22564688.442    22564689.350
   -324116.19548   -252558.88245  23390668.507    23390667.035
  -9862238.71548  -7684862.20844  23467910.085    23467909.045
 -23164925.46649 -18050586.88747  20680995.036    20680994.525
 02  1  4  0 25 30.0000000  0  8G 1G20G29G30G22G14G11G25
  -9679502.23048  -7542465.89845  23338582.086    23338583.687
 -21535817.37849 -16781151.03447  21245036.061    21245035.576
 -10818248.16549  -8429801.85246  21720188.195    21720187.831
   2720547.63248   2119909.34344  24058503.996    24058505.121
 -12302176.91548  -9586112.36645  22544587.265    22544587.962
   -244883.92648   -190819.45245  23405745.804    23405746.811
  -9786896.72748  -7626154.14044  23482246.996    23482247.374
 -23133482.67049 -18026086.01347  20686978.320    20686977.887
 02  1  4  0 26  0.0000000  0  8G 1G20G29G30G22G14G11G25
  -9757595.87548  -7603318.06845  23323721.849    23323722.496
 -21594327.79549 -16826743.56747  21233902.072    21233901.734
 -10761594.22049  -8385655.94246  21730968.791    21730968.988
   2791031.18048   2174831.55844  24071916.852    24071916.161
 -12407572.23448  -9668238.57445  22524531.076    22524533.088
   -165530.61448   -128985.74445  23420846.412    23420846.447
  -9711300.77048  -7567248.25144  23496633.270    23496631.216
 -23101659.33749 -18001288.61447  20693033.919    20693033.524
 02  1  4  0 26 30.0000000  0  8G 1G20G29G30G22G14G11G25
  -9835615.56348  -7664112.60145  23308874.602    23308875.707
 -21652399.60149 -16871994.32647  21222851.494    21222851.077
 -10704744.86749  -8341357.77246  21741787.017    21741787.194
   2861957.44348   2230098.72044  24085414.200    24085413.946
 -12512737.30049  -9750185.36145  22504518.675    22504518.614
    -86067.75748    -67066.65245  23435967.280    23435967.704
  -9635464.41548  -7508154.97444  23511063.969    23511064.468
 -23069467.44549 -17976204.03147  20699159.884    20699159.562
 02  1  4  0 27  0.0000000  0  8G 1G20G29G30G22G14G11G25
  -9913567.00548  -7724853.94045  23294040.930    23294042.194
 -21710037.00449 -16916906.58747  21211883.503    21211882.867
 -10647706.79849  -8296912.54946  21752641.177    21752640.823
   2933317.67148   2285704.10744  24098993.832    24098992.305
 -12617675.29048  -9831955.20745  22484549.417    22484550.482
     -6501.73548     -5067.15745  23451108.606    23451109.091
  -9559396.81048  -7448881.51844  23525538.733    23525538.926
 -23036914.88949 -17950838.39847  20705354.345    20705353.974
 02  1  4  0 27 30.0000000  0  8G 1G20G29G30G22G14G11G25
  -9991435.29648  -7785530.49545  23279223.683    23279224.093
 -21767223.00649 -16961467.10847  21201001.241    21201000.880
 -10590465.48649  -8252308.95146  21763533.550    21763533.774
   3005123.99648   2341657.05944  24112656.861    24112655.142
 -12722368.32848  -9913534.17345  22464626.832    22464627.335
     73181.56948     57023.71745  23466272.003    23466271.368
  -9483086.38448                  23540060.458
 -23003988.61049 -17925181.54947  20711620.028    20711619.656
 02  1  4  0 28  0.0000000  0  8G 1G20G29G30G22G14G11G25
 -10069221.58148  -7846143.16345  23264421.303    23264421.745
 -21823957.10449 -17005675.49847  21190205.300    21190204.975
 -10533022.51849  -8207548.22146  21774464.663    21774464.611
   3077372.85348   2397954.88044  24126405.899    24126405.490
 -12826814.49849  -9994920.77745  22444751.654    22444753.109
    152980.27348    119204.50145  23481457.105    23481456.638
  -9406537.66848  -7329770.52144  23554626.557    23554628.417
 -22970691.62449 -17899235.84447  20717956.342    20717955.957
 02  1  4  0 28 30.0000000  0  8G 1G20G29G30G22G14G11G25
 -10146921.23848  -7906688.32245  23249635.146    23249635.339
 -21880232.79349 -17049526.68147  21179496.280    21179495.869
 -10475373.89649  -8162627.23746  21785434.817    21785435.203
   3150065.98748   2454598.90444  24140238.378    24140238.494
 -12931006.38749 -10076109.26045  22424924.539    22424925.013
    232898.24348    181478.23445  23496664.806    23496663.294
  -9329749.37848  -7269935.49044  23569240.214    23569239.080
 -22937021.41449 -17872999.32047  20724363.333    20724363.020
 02  1  4  0 29  0.0000000  0  8G 1G20G29G30G22G14G11G25
 -10224535.07748  -7967166.61045  23234865.277    23234867.363
 -21936048.98849 -17093019.81947  21168874.640    21168874.191
 -10417521.09749  -8117547.16246  21796444.070    21796443.983
   3223199.96848   2511586.36744  24154155.645    24154156.114
 -13034941.93049 -10157097.98345  22405146.017    22405147.500
    312933.93848    243843.69845  23511895.383    23511895.076
  -9252725.74248                  23583894.840
 -22902980.78849 -17846474.15447  20730840.663    20730840.409
 02  1  4  0 29 30.0000000  0  8G 1G20G29G30G22G14G11G25
 -10302068.92948  -8027582.56145  23220111.601    23220112.011
 -21991410.31049 -17136158.51447  21158339.792    21158339.248
 -10359470.82149  -8072313.19546  21807490.707    21807490.338
   3296765.64548   2568910.24244  24168154.693    24168157.952
 -13138624.37549 -10237889.48645  22385416.108    22385417.753
    393080.29848    306295.37545  23527146.500    23527146.468
  -9175476.06248                  23598597.014
 -22868577.66249 -17819666.51847  20737387.718    20737387.437
 02  1  4  0 30  0.0000000  0  8G 1G20G29G30G22G14G11G25
 -10379508.93048  -8087925.39645  23205375.596    23205375.993
 -22046300.81649 -17178930.33547  21147894.533    21147894.201
 -10301209.79049  -8026915.01046  21818577.332    21818577.570
   3370774.50348   2626579.48844  24182238.001    24182236.504
 -13242036.95049 -10318470.70045  22365737.322    22365739.350
    473350.57248    368843.62045  23542421.948    23542421.597
  -9097989.91647                  23613339.817
 -22833799.94249 -17792566.99647  20744005.848    20744005.564
 02  1  4  0 30 30.0000000  0  8G 1G20G29G30G22G14G11G25
 -10456866.97848  -8148204.36445  23190654.437    23190655.553
 -22100730.81749 -17221343.32247  21137536.892    21137536.465
 -10242750.44049  -7981362.29046  21829701.764    21829701.478
   3445211.61948   2684582.42644  24196403.991    24196404.549
 -13345188.61749 -10398848.59845  22346108.109    22346107.726
    553732.01148    431478.49545  23557717.249    23557716.142
  -9020282.56548                  23628128.370
 -22798661.39349 -17765186.30447  20750692.371    20750692.315
 02  1  4  0 31  0.0000000  0  8G 1G20G29G30G22G14G11G25
 -10534134.35248  -8208412.66645  23175951.023    23175952.808
 -22154689.89349 -17263389.35647  21127268.913    21127268.431
 -10184084.50049  -7935648.60646  21840865.599    21840865.273
   3520083.01648   2742923.72444  24210649.875    24210652.092
 -13448067.89449 -10479014.25045  22326530.901    22326531.748
    634232.61448    494206.21345  23573036.267    23573036.018
  -8942348.44448                  23642959.480
 -22763155.46149 -17737519.34547  20757449.035    20757448.814
 02  1  4  0 31 30.0000000  0  8G 1G20G29G30G22G14G11G25
 -10611316.73448  -8268554.74745  23161264.158    23161263.028
 -22208181.93249 -17305071.46447  21117089.708    21117089.292
 -10125218.39749  -7889778.92946  21852067.702    21852067.788
   3595380.10848   2801596.76044  24224979.558    24224976.821
 -13550677.56149 -10558969.82345  22307005.043    22307006.178
    714845.90048    557021.73845  23588376.946    23588377.099
  -8864196.90848                  23657830.518
 -22727289.66249 -17709571.96647  20764274.276    20764273.794
 02  1  4  0 32  0.0000000  0  8G 1G20G29G30G22G14G11G25
 -10688410.28648  -8328627.61145  23146592.741    23146593.536
 -22261201.36949 -17346385.31247  21107000.707    21107000.164
 -10066148.82849  -7843750.73246  21863308.001    21863307.715
   3671103.91248   2860602.31944  24239389.633    24239386.493
 -13653010.99249 -10638710.15445  22287531.408    22287532.475
    795574.77248    619927.32445  23603738.336    23603738.551
  -8785827.58848                  23672744.600
 -22691062.51249 -17681343.01347  20771167.883    20771167.649
 02  1  4  0 32 30.0000000  0  8G 1G20G29G30G22G14G11G25
 -10765427.02348  -8388640.60745  23131937.667    23131939.149
 -22313758.73449 -17387339.10547  21096999.064    21096998.786
 -10006888.52349  -7797573.89446  21874585.210    21874584.945
   3747239.55348   2919928.75144  24253878.353    24253878.338
 -13755077.40249 -10718242.39245  22268108.519    22268110.202
    876406.49348    682913.04945  23619121.192    23619119.224
  -8707255.64548                  23687695.042
 -22654487.72549 -17652843.17247  20778127.877    20778127.609
 02  1  4  0 33  0.0000000  0  8G 1G20G29G30G22G14G11G25
 -10842353.16448  -8448583.02345  23117299.092    23117299.318
 -22365838.52049 -17427920.75647  21087088.400    21087088.026
  -9947424.45849  -7751238.27846  21885900.527    21885900.002
   3823797.76748   2979584.49244  24268447.189    24268447.965
 -13856860.11449 -10797553.59645  22248739.991    22248740.971
    957353.66048    745988.75945  23634524.036    23634524.627
  -8628470.92048                  23702689.021
 -22617553.42849 -17624063.19547  20785156.387    20785156.041
 02  1  4  0 33 30.0000000  0  8G 1G20G29G30G22G14G11G25
 -10919194.87148  -8508459.65145  23102676.119    23102676.530
 -22417445.25849 -17468133.80047  21077268.031    21077267.428
  -9887763.28249  -7704749.07546  21897253.746    21897253.666
   3900769.58648   3039562.52544  24283093.089    24283095.893
 -13958362.76549 -10876646.54745  22229424.940    22229425.607
   1038409.68148    809149.25745  23649948.591    23649948.232
  -8549483.00448                  23717719.166
 -22580268.16049 -17595009.73547  20792251.432    20792251.087
 02  1  4  0 34  0.0000000  0  8G 1G20G29G30G22G14G11G25
 -10995942.91849  -8568263.28645  23088072.384    23088073.471
 -22468568.30649 -17507969.94547  21067539.711    21067539.257
  -9827896.70049  -7658099.82346  21908646.159    21908645.771
   3978161.09848   3099867.58644  24297821.560    24297822.844
 -14059573.27949 -10955511.87645  22210165.163    22210166.441
   1119582.70748    872400.95845  23665395.885    23665395.290
  -8470286.45948                  23732790.417
 -22542624.61849 -17565677.10047  20799414.797    20799414.583
 02  1  4  0 34 30.0000000  0  8G20G 1G29G30G22G14G11G25
 -22519219.06349 -17547438.07047  21057901.143    21057900.555
 -11072610.49648  -8628004.21545  23073481.863    23073483.113
  -9767838.32449  -7611301.11846  21920074.718    21920074.873
   4055956.35548   3160487.21744  24312624.689    24312625.242
 -14160501.92849 -11034157.56846  22190959.443    22190960.452
   1200858.80548    935732.97145  23680861.960    23680861.504
  -8390897.46648                  23747896.267
 -22504638.25149 -17536077.32847  20806643.500    20806643.364
 02  1  4  0 35  0.0000000  0  8G 1G20G29G30G22G14G11G25
 -11149190.91248  -8687677.24145  23058908.857    23058909.709
 -22569389.37749 -17586531.82547  21048353.927    21048353.559
  -9707582.27249  -7564348.37246  21931541.059    21931540.885
   4134159.05248   3221424.37044  24327506.650    24327505.375
 -14261139.35949 -11112576.33946  22171808.633    22171809.143
   1282243.86348    999149.86845  23696348.575    23696348.281
  -8311312.97748                  23763042.733
 -22466304.20549 -17506206.63647  20813937.898    20813937.667
 02  1  4  0 35 30.0000000  0  8G 1G20G29G30G22G14G11G25
 -11225686.54448  -8747284.19445  23044352.853    23044353.092
 -22619080.31749 -17625252.03747  21038898.435    21038897.987
  -9647131.65049  -7517244.02046  21943044.795    21943044.705
   4212763.61548   3282674.68944  24342464.590    24342465.134
 -14361485.25649 -11190767.92346  22152713.454    22152714.148
   1363734.13148   1062648.73045  23711856.136    23711855.047
  -8231539.02148                  23778222.851
 -22427627.15749 -17476068.67347  20821297.810    20821297.513
 02  1  4  0 36  0.0000000  0  8G20G 1G29G30G22G14G11G25
 -22668286.68649 -17663594.66647  21029534.471    21029534.096
 -11302093.96948  -8806822.43045  23029812.761    23029814.442
  -9586483.47649  -7469985.72446  21954585.549    21954585.336
   4291770.64848   3344238.53044  24357498.012    24357497.774
 -14461533.35849 -11268727.47446  22133674.722    22133675.346
   1445332.55848   1126231.91945  23727384.173    23727383.166
  -8151575.40648                  23793438.199
 -22388605.69449 -17445662.33247  20828723.379    20828723.208
 02  1  4  0 36 30.0000000  0  8G20G 1G29G30G22G14G11G25
 -22717003.51049 -17701555.82947  21020263.899    21020263.578
 -11378409.94949  -8866289.40145  23015291.015    23015291.050
  -9525635.36749  -7422571.62546  21966164.657    21966164.228
   4371180.54648   3406116.34144  24372610.586    24372611.410
 -14561277.68949 -11346450.31946  22114694.032    22114694.736
   1527041.38548   1189901.11345  23742932.397    23742932.926
  -8071422.52548                  23808693.093
 -22349238.43249 -17414986.53947  20836215.010    20836214.767
 02  1  4  0 37  0.0000000  0  8G20G 1G29G30G22G14G11G25
 -22765226.72549 -17739132.36247  21011087.686    21011087.252
 -11454631.79249  -8925683.03745  23000786.490    23000786.219
  -9464585.31349  -7375000.16946  21977781.817    21977782.022
   4450992.77348   3468307.68344  24387798.057    24387796.854
 -14660712.73449 -11423932.15246  22095772.223    22095773.010
   1608862.44848   1253657.73845  23758502.651    23758502.897
  -7991081.02248                  23823979.931
 -22309525.14149 -17384041.11847  20843771.740    20843771.447
 02  1  4  0 37 30.0000000  0  8G20G 1G29G30G22G14G11G25
 -22812955.68549 -17776323.76247  21002005.186    21002004.722
 -11530760.34048  -8985003.96545  22986298.381    22986300.271
  -9403334.68849  -7327272.43846  21989437.615    21989437.320
   4531203.73148   3530809.68644  24403062.011    24403061.796
 -14759836.58449 -11501171.50346  22076909.443    22076909.731
   1690794.33748   1317500.74645  23774094.073    23774092.699
  -7910555.41348                  23839303.989
 -22269468.17049 -17352827.89447  20851394.396    20851394.152
 02  1  4  0 38  0.0000000  0  8G20G 1G29G30G22G14G11G25
 -22860188.83049 -17813128.81247  20993016.892    20993016.508
 -11606795.38849  -9044252.03345  22971831.150    22971830.904
  -9341884.11849  -7279388.89746  22001131.375    22001131.058
   4611810.27348   3593620.03344  24418400.500    24418399.996
 -14858646.34349 -11578166.11346  22058106.743    22058107.756
   1772836.19148   1381429.44645  23789705.576    23789704.822
  -7829848.82448                  23854660.167
 -22229069.59449 -17321348.49047  20859082.073    20859081.848
 02  1  4  0 38 30.0000000  0  8G 1G20G29G30G22G14G11G25
 -11682742.72248  -9103431.76845  22957377.262    22957377.892
 -22906930.29149 -17849550.73347  20984122.232    20984121.813
  -9280239.96149  -7231354.51046  22012861.853    22012862.021
   4692803.75448   3656731.76544  24433812.925    24433812.625
 -14957145.13149 -11654918.39946  22039362.891    22039364.067
   1854981.17448   1445438.49445  23805338.022    23805337.100
  -7748970.66748                  23870052.793
 -22188337.41349 -17289609.12847  20866833.162    20866832.810
 02  1  4  0 39  0.0000000  0  8G 1G20G29G30G22G14G11G25
 -11758596.63648  -9162538.70245  22942942.836    22942944.279
 -22953173.10249 -17885584.09247  20975322.679    20975322.195
  -9218397.53449  -7183165.63746  22024630.122    22024630.080
   4774186.64948   3720146.97344  24449300.347    24449301.749
 -15055324.57449 -11731421.85246  22020680.412    22020681.051
   1937234.22848   1509531.76545  23820989.825    23820989.214
  -7667918.78147                  23885473.851
 -22147268.30349 -17257607.22347  20874648.444    20874648.082
 02  1  4  0 39 30.0000000  0  8G 1G20G29G30G22G14G11G25
 -11834355.26949  -9221571.37545  22928527.952    22928528.619
 -22998914.27949 -17921226.57347  20966618.340    20966618.051
  -9156355.81149  -7134821.46746  22036435.939    22036436.395
   4855957.51648   3783864.53744  24464859.908    24464861.014
 -15153180.29749 -11807673.05746  22002058.472    22002059.672
   2019596.13048   1573709.83145  23836662.680    23836662.784
  -7586695.01048                  23900933.055
 -22105862.53649 -17225342.99347  20882527.754    20882527.259
 02  1  4  0 40  0.0000000  0  8G 1G20G29G30G22G14G11G25
 -11910021.58148  -9280532.11145  22914127.033    22914128.464
 -23044154.88649 -17956478.99447  20958009.385    20958008.981
  -9094118.06649  -7086324.56846  22048279.755    22048279.686
   4938110.57348   3847879.84344  24480493.382    24480494.649
 -15250712.22549 -11883671.94546  21983499.019    21983500.480
   2102063.04148   1637969.72345  23852355.506    23852354.643
  -7505305.41847                  23916418.929
 -22064124.90849 -17192820.16647  20890470.249    20890469.796
 02  1  4  0 40 30.0000000  0  8G 1G20G29G30G22G14G11G25
 -11985595.81749  -9339421.11445  22899747.918    22899747.635
 -23088893.75649 -17991340.45947  20949495.812    20949495.377
  -9031685.33849  -7037675.70846  22060160.371    22060160.212
   5020642.61048   3912190.58144  24496199.479    24496199.569
 -15347917.96649 -11959416.67346  21965001.353    21965002.281
   2184633.78448   1702310.50745  23868069.101    23868067.163
  -7423753.73347                  23931937.712
 -22022058.03749 -17160040.78147  20898475.454    20898475.076
 02  1  4  0 41  0.0000000  0  8G 1G20G29G30G22G14G11G25
 -12061078.73348  -9398238.94845  22885383.018    22885384.310
 -23133130.47449 -18025810.63147  20941077.541    20941077.150
  -8969059.32149  -6988876.24446  22072077.695    22072077.639
   5103549.57648   3976793.34344  24511975.850    24511973.035
 -15444795.66549 -12034905.78746  21946565.737    21946566.983
   2267306.92648   1766731.10145  23883800.200    23883799.971
  -7342044.52147                  23947485.839
 -21979664.95349 -17127007.20647  20906542.408    20906541.906
 02  1  4  0 41 30.0000000  0  8G 1G20G29G30G22G14G11G25
 -12136468.01148  -9456983.80645  22871035.700    22871036.783
 -23176861.21449 -18059886.53247  20932756.178    20932755.848
  -8906238.01749  -6939924.59446  22084032.275    22084032.605
   5186830.93148   4041687.89044  24527823.840    24527824.549
 -15541340.26449 -12110135.32946  21928194.511    21928194.501
   2350084.01548   1831232.69645  23899552.517    23899552.635
  -7260178.74347                  23963065.636
 -21936945.18249 -17093719.07447  20914671.648    20914671.242
 02  1  4  0 42  0.0000000  0  7G 1G20G29G30G22G14G25
 -12211758.16249  -9515651.43145  22856711.024    22856710.409
 -23220079.29349 -18093562.96047  20924532.005    20924531.379
  -8843217.11349  -6890817.41746  22096024.776    22096024.611
   5270488.62648   4106875.66544  24543742.683    24543743.083
 -15637543.71649 -12185099.04546  21909886.904    21909888.204
   2432969.20248   1895818.52345  23915325.404    23915323.079
 -21893895.61049 -17060173.95647  20922863.750    20922863.303
 02  1  4  0 42 30.0000000  0  8G 1G20G29G30G22G14G11G25
 -12286939.70048  -9574234.43645  22842402.698    22842402.897
 -23262774.00949 -18126831.57347  20916407.538    20916407.119
  -8779987.58749  -6841547.67546  22108056.753    22108056.719
   5354529.18948   4172361.79444  24559735.534    24559733.967
 -15733393.85349 -12259787.45646  21891647.875    21891648.270
   2515971.25048   1960495.39845  23931119.488    23931119.087
         -.62057                  23994314.350
 -21850508.50649 -17026365.82447  20931120.146    20931119.773
 02  1  4  0 43  0.0000000  0  8G 1G20G29G30G22G14G11G25
 -12362025.18848  -9632742.59045  22828114.149    22828115.637
 -23304956.44649 -18159701.00847  20908380.728    20908380.153
  -8716562.94349  -6792125.89946  22120126.290    22120126.289
   5438936.88648   4238134.00644  24575797.694    24575797.301
 -15828900.51349 -12334208.21046  21873472.877    21873474.494
   2599076.66048   2025252.80645  23946934.344    23946934.235
     82335.83447                  24009982.176
 -21806798.84849 -16992306.35347  20939437.936    20939437.556
 02  1  4  0 43 30.0000000  0  8G 1G20G29G30G22G14G11G25
 -12437016.38749  -9691177.27546  22813845.201    22813845.115
 -23346627.19249 -18192171.72447  20900450.850    20900450.556
  -8652945.70149  -6742554.03446  22132232.430    22132232.198
   5523706.70048   4304188.40244  24591928.073    24591931.961
 -15924063.01349 -12408360.80446  21855364.817    21855365.397
   2682282.67348   2090088.61245  23962768.813    23962769.355
    164815.16747                  24025677.577
 -21762770.94349 -16957998.90247  20947815.873    20947815.656
 02  1  4  0 44  0.0000000  0  8G 1G20G29G30G22G14G11G25
 -12511903.43648  -9749530.79945  22799593.177    22799593.813
 -23387775.03049 -18224234.97947  20892620.586    20892620.268
  -8589126.58449  -6692824.86746  22144376.611    22144376.703
   5608845.26848   4370530.09844  24608130.472    24608127.872
 -16018868.75549 -12482235.39946  21837323.333    21837324.177
   2765597.96248   2155009.60144  23978622.041    23978619.729
    247443.61748                  24041401.871
 -21718416.96349 -16923437.36547  20956256.024    20956255.667
 02  1  4  0 44 30.0000000  0  8G 1G20G29G30G22G14G11G25
 -12586683.00849  -9807800.57146  22785363.549    22785365.382
 -23428395.43149 -18255887.24547  20884890.569    20884890.128
  -8525103.25749  -6642936.58246  22156559.701    22156560.082
   5694352.85248   4437159.38744  24624401.648    24624402.399
 -16113311.93249 -12555827.47746  21819351.692    21819352.507
   2849025.01448   2220017.62745  23994497.836    23994496.209
    330220.98148                  24057153.609
 -21673735.45749 -16888620.61547  20964758.835    20964758.811
 02  1  4  0 45  0.0000000  0  8G 1G20G29G30G22G14G11G25
 -12661366.70049  -9865995.63446  22771152.374    22771151.986
 -23468498.75749 -18287136.59247  20877259.194    20877258.777
  -8460887.92649  -6592898.68246  22168780.008    22168779.706
   5780214.66648   4504064.68644  24640740.537    24640744.575
 -16207401.25649 -12629143.82146  21801446.983    21801448.194
   2932551.41848   2285103.08845  24010392.831    24010392.989
    413132.15148                  24072931.980
 -21628740.09449 -16853559.30047  20973321.188    20973320.932
 02  1  4  0 45 30.0000000  0  8G 1G20G29G30G22G14G11G25
 -12735962.48248  -9924122.19446  22756954.647    22756956.024
 -23508091.74349 -18317988.27247  20869725.210    20869724.801
  -8396489.29149  -6542717.94946  22181034.587    22181034.316
   5866419.49648   4571237.22044  24657145.218    24657146.143
 -16301142.26649 -12702188.75146  21783608.597    21783609.425
   3016168.31548   2350259.07045  24026304.699    24026303.729
    496165.56348                  24088732.473
 -21583441.40849 -16818261.62847  20981941.107    20981940.800
 02  1  4  0 46  0.0000000  0  8G 1G20G29G30G22G14G11G25
 -12810458.19449  -9982170.77046  22742781.254    22742781.738
 -23547161.08549 -18348431.92047  20862290.586    20862290.274
  -8331896.17249  -6492385.66346  22193325.624    22193326.086
   5952976.17648   4638683.96944  24673615.443    24673614.377
 -16394520.33949 -12774950.87946  21765839.655    21765841.051
   3099886.79348   2415494.19845  24042235.263    24042234.024
    579329.90648                  24104556.919
 -21537829.38049 -16782719.79847  20990620.641    20990620.439
 02  1  4  0 46 30.0000000  0  8G 1G20G29G30G22G14G11G25
 -12884854.36949 -10040141.79346  22728623.606    22728624.305
 -23585706.16749 -18378467.04947  20854955.403    20854954.956
  -8267109.92749  -6441902.90146  22205654.745    22205654.351
   6039880.87748   4706401.88744  24690153.635    24690156.885
 -16487533.46649 -12847428.63246  21748139.612    21748140.161
   3183705.43148   2480807.37244  24058185.498    24058184.720
    662620.79748                  24120408.186
 -21491906.94749 -16746936.08947  20999359.549    20999359.095
 02  1  4  0 47  0.0000000  0  8G 1G20G29G30G22G14G11G25
 -12959136.88149 -10098024.25346  22714486.872    22714488.009
 -23623711.67949 -18408081.73947  20847723.233    20847722.769
  -8202117.04049  -6391259.10646  22218022.180    22218022.060
   6127144.67048   4774399.63944  24706759.092    24706760.243
 -16580164.64849 -12919608.77246  21730512.836    21730513.553
   3267637.30048   2546208.78745  24074157.792    24074157.432
    746049.14848                  24136284.203
 -21445661.97149 -16710901.04647  21008159.600    21008159.287
 02  1  4  0 47 30.0000000  0  8G 1G20G29G30G22G14G11G25
 -13033321.36849 -10155830.32046  22700372.151    22700371.589
 -23661192.23549 -18437287.37047  20840590.974    20840590.418
  -8136934.10349  -6340467.23246  22230426.016    22230425.756
   6214748.72248   4842662.48344  24723429.707    24723429.063
 -16672427.29949 -12991501.74246  21712955.101    21712956.285
   3351665.80348   2611685.47945  24090147.439    24090149.418
    829595.62848                  24152181.080
 -21399112.36649 -16674628.63147  21017017.727    21017017.450
 02  1  4  0 48  0.0000000  0  8G 1G20G29G30G22G14G11G25
 -13107401.40349 -10213555.01346  22686273.802    22686274.759
 -23698140.22949 -18466078.02147  20833559.998    20833559.504
  -8071555.34349  -6289522.76546  22242866.952    22242867.247
   6302695.91848   4911192.71644  24740165.502    24740166.236
 -16764312.17649 -13063100.34346  21695470.737    21695471.636
   3435796.28548   2677241.64644  24106156.748    24106153.912
    913263.01648                  24168103.757
 -21352253.74849 -16638115.43147  21025935.023    21025934.386
 02  1  4  0 48 30.0000000  0  8G 1G20G29G30G22G14G11G25
 -13181384.24949 -10271203.96046  22672195.502    22672196.025
 -23734561.72449 -18494458.41047  20826629.169    20826628.703
  -8005988.83049  -6238431.99446  22255344.359    22255343.896
   6390975.98148   4979982.40544  24756964.348    24756966.615
 -16855824.08649 -13134408.31246  21678056.055    21678057.005
   3520020.78348   2742871.07045  24122185.202    24122182.079
    997040.64648                  24184045.738
 -21305095.78149 -16601368.97147  21034908.773    21034908.335
 02  1  4  0 49  0.0000000  0  8G 1G20G29G30G22G14G11G25
 -13255244.75949 -10328757.58846  22658141.111    22658140.621
 -23770430.72949 -18522408.28947  20819803.321    20819802.819
  -7940210.39649  -6187176.09046  22267861.135    22267861.113
   6479610.44948   5049048.11644  24773831.466    24773828.159
 -16946935.62549 -13205404.32046  21660718.601    21660719.429
   3604363.07548   2808592.28244  24138233.752    24138233.838
   1080949.66148                  24200013.768
 -21257615.73149 -16564371.53347  21043943.859    21043943.282
 02  1  4  0 49 30.0000000  0  7G 1G20G29G22G14G11G25
 -13329005.93149 -10386233.79946  22644103.647    22644104.169
 -23805769.23149 -18549944.78447  20813078.780    20813078.366
  -7874243.97949  -6135773.71846  22280414.436    22280414.288
 -17037667.23249 -13276104.27046  21643452.506    21643453.938
   3688799.08348   2874386.52244  24154302.319    24154300.638
   1164963.74948                  24215999.059
 -21209838.82149 -16527142.77547  21053035.513    21053035.055
 02  1  4  0 50  0.0000000  0  8G 1G20G29G 4G22G14G11G25
 -13402662.10249 -10443628.18946  22630087.969    22630088.288
 -23840570.50249 -18577062.65947  20806456.446    20806456.053
  -7808084.62049  -6084220.99146  22293004.169    22293003.748
         -.69358                  25327843.850
 -17128010.76649 -13346501.83146  21626260.990    21626261.456
   3773333.64748   2940257.55444  24170388.474    24170386.682
   1249084.64048                  24232008.982
 -21161761.45749 -16489679.89547  21062184.212    21062183.573
 02  1  4  0 50 30.0000000  0  8G 1G20G29G 4G22G14G11G25
 -13476223.15749 -10500948.47346  22616089.717    22616090.267
 -23874843.61349 -18603768.98347  20799934.586    20799934.071
  -7741743.22749  -6032526.41746  22305628.723    22305628.537
    -53372.92048                  25317687.088
 -17217973.80449 -13416602.90346  21609141.038    21609142.415
   3857955.93448   3006196.94344  24186491.201    24186492.195
   1333298.93148   1038934.48144  24248032.556    24248032.693
 -21113396.08749 -16451992.59447  21071387.860    21071387.275
 02  1  4  0 51  0.0000000  0  8G 1G20G29G 4G22G14G11G25
 -13549662.94749 -10558174.26546  22602113.749    22602114.669
 -23908561.26049 -18630042.47647  20793518.134    20793517.697
  -7675194.59849  -5980670.35746  22318291.974    22318291.926
   -106277.58348                  25307620.232
 -17307527.58549 -13486385.07246  21592099.919    21592100.273
   3942690.71948   3072224.03244  24202616.568    24202615.806
   1417629.38748                  24264082.059
 -21064718.93049 -16414062.34747  21080650.794    21080650.344
 02  1  4  0 51 30.0000000  0  8G 1G20G29G 4G22G14G11G25
 -13622996.28649 -10615317.10646  22588159.482    22588159.980
 -23941737.29449 -18655893.93347  20787204.971    20787204.703
  -7608454.07849  -5928664.77846  22330992.558    22330992.979
   -158728.11648                  25297639.639
 -17396684.38449 -13555857.90246  21575133.568    21575134.123
   4027522.46348   3138326.62044  24218758.701    24218758.631
   1502057.64848   1170434.77644  24280147.906    24280147.607
 -21015746.67249 -16375902.14947  21089969.909    21089969.442
 02  1  4  0 52  0.0000000  0  8G 1G20G29G 4G22G14G11G25
 -13696219.79049 -10672374.35746  22574225.567    22574225.957
 -23974367.43749 -18681320.02347  20780995.925    20780995.469
  -7541519.18549  -5876507.74146  22343729.963    22343730.058
   -210720.20748                  25287745.596
 -17485438.40749 -13625016.88446  21558244.838    21558245.193
   4112453.65048   3204506.72644  24234921.313    24234923.018
   1586583.56548                  24296233.407
 -20966478.43349 -16337511.31847  21099345.276    21099344.857
 02  1  4  0 52 30.0000000  0  8G 1G20G29G 4G22G14G11G25
 -13769324.40149 -10729338.97846  22560313.434    22560313.812
 -24006441.65349 -18706312.91847  20774892.641    20774892.066
  -7474381.69749  -5824192.84646  22356505.793    22356506.389
   -262243.86048                  25277940.591
 -17573777.92449 -13693852.86546  21541433.947    21541435.289
   4197492.14548   3270770.46144  24251103.300    24251103.600
   1671212.56148   1302243.76044  24312336.432    24312338.191
 -20916906.99149 -16298884.22347  21108778.587    21108778.203
 02  1  4  0 53  0.0000000  0  8G 1G20G29G 4G22G14G11G25
 -13842318.68149 -10786217.62646  22546424.125    22546424.567
 -24037967.65549 -18730878.63747  20768893.400    20768892.910
  -7407051.13849  -5771727.49946  22369318.238    22369317.953
   -313306.69048                  25268224.334
 -17661709.47949 -13762370.95546  21524701.273    21524702.755
   4282628.35148   3337110.27944  24267303.770    24267302.218
   1755932.46048                  24328458.920
 -20867043.52349 -16260029.57947  21118267.031    21118266.545
 02  1  4  0 53 30.0000000  0  8G 1G20G29G 4G22G14G11G25
 -13915195.91649 -10843005.05946  22532555.437    22532556.548
 -24068937.77949 -18755011.20447  20762999.657    20762999.164
  -7339521.69949  -5719107.18846  22382168.961    22382169.421
   -363901.35248                  25258597.175
 -17749223.96449 -13830564.05346  21508047.684    21508048.714
   4367867.89848   3403530.64644  24283525.038    24283527.229
   1840746.04948                  24344597.246
 -20816883.64249 -16220943.95947  21127812.042    21127811.688
 02  1  4  0 54  0.0000000  0  8G 1G20G29G 4G22G14G11G25
 -13987973.70249 -10899714.99846  22518706.101    22518706.667
 -24099368.92249 -18778723.78647  20757208.789    20757208.425
  -7271811.84849  -5666346.28846  22395053.554    22395053.518
   -414044.26048                  25249054.862
 -17836336.35149 -13898443.83246  21491470.723    21491471.455
   4453192.14648   3470017.04144  24299761.659    24299762.779
   1925632.44548                  24360750.634
 -20766447.26349 -16181642.88647  21137410.309    21137409.716
 02  1  4  0 54 30.0000000  0  8G 1G20G29G 4G22G14G11G25
 -14060639.82949 -10956337.94246  22504879.201    22504879.451
 -24129247.99249 -18802006.18047  20751522.878    20751522.531
  -7203910.28549  -5613436.00646  22407974.834    22407975.029
   -463722.49048                  25239600.329
 -17923032.36149 -13965999.15346  21474973.273    21474974.370
   4538612.14048   3536577.99744  24316016.304    24316017.687
   2010600.05948                  24376919.739
 -20715724.37349 -16142118.55547  21147062.197    21147061.806
 02  1  4  0 55  0.0000000  0  8G 1G20G29G 4G22G14G11G25
 -14133191.35749 -11012871.58746  22491071.795    22491072.424
 -24158571.31549 -18824855.52847  20745942.930    20745942.434
  -7135815.06149  -5560374.81646  22420933.104    22420934.350
   -512932.28848                  25230236.744
 -18009306.65749 -14033225.86946  21458555.663    21458556.929
   4624129.62748   3603214.90444  24332289.668    24332290.254
   2095648.10848                  24393104.161
 -20664714.43549 -16102370.55247  21156769.013    21156768.682
 02  1  4  0 55 30.0000000  0  8G 1G20G29G 4G22G14G11G25
 -14205626.23249 -11069314.32946  22477288.508    22477289.802
 -24187336.07749 -18847269.63047  20740469.370    20740468.817
  -7067524.99249  -5507161.79946  22433928.075    22433928.568
   -561670.99848                  25220962.225
 -18095154.77849 -14100120.50646  21442219.778    21442220.594
   4709745.90548   3669928.82344  24348582.340    24348579.142
   2180775.03848                  24409302.823
 -20613417.59349 -16062398.99347  21166530.615    21166530.250
 02  1  4  0 56  0.0000000  0  8G 1G20G29G 4G22G14G11G25
 -14277956.64349 -11125675.67346  22463525.013    22463524.693
 -24215553.98349 -18869257.61347  20735099.626    20735099.122
  -6999053.42949  -5453807.36446  22446957.835    22446957.701
   -609949.93648                  25211774.378
 -18180586.64049 -14166690.77646  21425962.294    21425963.081
   4795447.23448   3736709.06744  24364891.211    24364889.592
   2265965.15548                  24425514.500
 -20561848.76849 -16022215.49947  21176343.627    21176343.349
 02  1  4  0 56 30.0000000  0  8G 1G20G29G 4G22G14G11G25
 -14350175.94649 -11181950.43646  22449781.326    22449781.813
 -24243217.38049 -18890813.51047  20729835.402    20729834.997
  -6930394.47049  -5400306.90546  22460023.378    22460022.813
   -657761.56148                  25202675.783
 -18265593.51149 -14232929.88746  21409785.813    21409786.605
   4881239.35048   3803559.94444  24381215.818    24381217.843
   2351221.37548                  24441737.655
 -20510003.55749 -15981816.63647  21186209.263    21186209.390
 02  1  4  0 57  0.0000000  0  8G 1G20G29G 4G22G14G11G25
 -14422284.50149 -11238138.90846  22436059.754    22436060.372
 -24270325.90949 -18911937.04347  20724676.841    20724676.328
  -6861549.39949  -5346661.41645  22473123.902    22473124.123
   -705105.48548                  25193667.932
 -18350173.42049 -14298836.29646  21393691.056    21393691.705
   4967120.87248   3870480.56144  24397559.116    24397561.179
   2436539.63048                  24457973.978
 -20457884.50449 -15941204.39147  21196127.116    21196127.103
 02  1  4  0 57 30.0000000  0  8G 1G20G29G 4G22G14G11G25
 -14494276.67249 -11294236.68846  22422360.575    22422361.016
 -24296873.50949 -18932623.48747  20719624.798    20719624.325
  -6792513.58149  -5292867.29846  22486260.991    22486261.604
   -751975.51348                  25184747.993
 -18434318.27449 -14364403.70346  21377678.958    21377679.517
   5053096.14448   3937474.19844  24413920.146    24413916.638
   2521921.97348                  24474221.318
 -20405488.23249 -15900376.12947  21206098.074    21206097.748
 02  1  4  0 58  0.0000000  0  8G 1G20G29G 4G22G14G11G25
 -14566150.27049 -11350242.07746  22408682.883    22408683.271
 -24322857.20649 -18952870.52747  20714680.167    20714679.896
  -6723285.98449  -5238923.74345  22499434.690    22499435.289
   -798368.74848                  25175919.905
 -18518023.81049 -14429628.78746  21361749.745    21361750.465
   5139166.39848   4004541.89744  24430297.981    24430298.828
   2607366.91948                  24490480.399
 -20352814.81649 -15859331.91247  21216121.433    21216121.243
 02  1  4  0 58 30.0000000  0  8G 1G20G29G 4G22G14G11G25
 -14637901.17149 -11406151.85846  22395028.859    22395029.577
 -24348272.40149 -18972674.57947  20709843.634    20709843.237
  -6653863.19249  -5184828.08746  22512645.516    22512645.597
   -844280.31348                  25167183.096
 -18601283.63149 -14494506.55846  21345906.389    21345906.939
   5225334.69348   4071685.91144  24446695.649    24446697.631
   2692874.99648                  24506753.505
 -20299862.73949 -15818070.55147  21226197.974    21226197.565
 02  1  4  0 59  0.0000000  0  8G 1G20G29G 4G22G14G11G25
 -14709513.01349 -11461953.28946  22381402.708    22381402.698
 -24373102.05549 -18992022.36347  20705119.026    20705119.048
  -6584229.97649  -5130568.47245  22525895.905    22525896.828
   -889693.30848                  25158541.119
 -18684079.21349 -14559022.58246  21330150.699    21330151.660
   5311616.17748   4138918.13044  24463114.631    24463113.483
   2778459.01748                  24523037.671
 -20246617.64449 -15776580.86947  21236330.270    21236330.038
 02  1  4  0 59 30.0000000  0  7G 1G20G29G22G14G11G25
 -14780998.52649 -11517656.26946  22367798.051    22367798.903
 -24397358.23249 -19010923.28147  20700503.128    20700503.044
  -6514399.86149  -5076155.41445  22539184.328    22539184.875
 -18766420.91849 -14623184.93946  21314481.463    21314482.635
   5397997.17948   4206227.91944  24479552.132    24479553.635
   2864102.69348                  24539336.798
 -20193094.39749 -15734874.44147  21246515.258    21246515.154
 02  1  4  1  0  0.0000000  0  7G 1G20G29G22G14G11G25
 -14852349.35449 -11573254.29546  22354220.936    22354221.212
 -24421032.29449 -19029370.60647  20695998.282    20695998.156
  -6444365.50449  -5021583.21045  22552511.666    22552511.654
 -18848298.40649 -14686985.56946  21298900.720    21298901.749
   5484484.63548   4273620.65444  24496010.736    24496012.002
   2949810.59148                  24555645.000
 -20139287.45749 -15692946.95847  21256754.760    21256754.511
 02  1  4  1  0 30.0000000  0  7G 1G20G29G22G14G11G25
 -14923583.27849 -11628761.22846  22340665.843    22340665.912
 -24444141.36449 -19047377.67847  20691600.834    20691600.697
  -6374145.95649  -4966866.69745  22565874.058    22565873.763
 -18929727.20249 -14750436.57146  21283405.814    21283406.951
   5571059.49548   4341081.50044  24512485.911    24512485.365
   3035561.26448                  24571964.963
 -20085217.00349 -15650814.13647  21267043.743    21267043.412
 02  1  4  1  1  0.0000000  0  7G 1G20G29G22G14G11G25
 -14994720.94749 -11684193.17046  22327128.060    22327128.891
 -24466705.43549 -19064960.07447  20687306.926    20687306.632
  -6303762.51249  -4912022.49245  22579267.216    22579267.254
 -19010725.84449 -14813552.39046  21267991.757    21267992.382
   5657700.01548   4408593.50544  24528971.453    24528970.479
   3121330.36748                  24588284.237
 -20030905.89549 -15608493.79647  21277378.769    21277378.472
 02  1  4  1  1 30.0000000  0  7G 1G20G29G22G14G11G25
 -15065740.92649 -11739533.39246  22313614.249    22313615.364
 -24488702.75449 -19082100.84647  20683120.907    20683120.905
  -6233194.89449  -4857034.76345  22592695.894    22592696.375
 -19091270.68049 -14876314.59046  21252664.897    21252665.563
   5744426.69148   4476172.62344  24545475.848    24545474.919
   3207135.79748                  24604613.182
 -19976335.26649 -15565971.23647  21287763.218    21287762.909
 02  1  4  1  2  0.0000000  0  7G 1G20G29G22G14G11G25
 -15136618.89249 -11794762.96046  22300126.817    22300127.261
 -24510108.64449 -19098780.76447  20679047.702    20679047.523
  -6162419.90849  -4801885.44345  22606164.127    22606163.910
 -19171335.52049 -14938702.76246  21237428.895    21237429.573
   5831262.64148   4543836.87344  24562000.570    24562000.946
   3292998.08548                  24620952.069
 -19921482.90149 -15523229.13847  21298201.445    21298201.168
 02  1  4  1  2 30.0000000  0  6G 1G20G29G22G14G25
 -15207373.60349 -11849896.49546  22286661.956    22286662.540
 -24530941.26649 -19115013.97947  20675083.575    20675083.589
  -6091457.37248  -4746589.97945  22619667.362    22619668.865
 -19250936.83849 -15000729.75446  21222281.153    21222282.040
   5918187.72248   4611570.60144  24578541.579    24578542.052
 -19866369.98149 -15480284.00947  21308688.892    21308688.583
 02  1  4  1  3  0.0000000  0  6G 1G20G29G22G14G25
 -15278011.20549 -11904938.76546  22273220.444    22273221.007
 -24551206.58449 -19130805.14247  20671227.355    20671227.133
  -6020314.16549  -4691153.74145  22633206.337    22633207.406
 -19330078.66249 -15062398.69946  21207221.210    21207221.827
   6005194.70048   4679368.15744  24595098.925    24595100.535
 -19811005.07249 -15437142.52047  21319224.740    21319224.248
 02  1  4  1  3 30.0000000  0  8G 1G20G29G13G22G14G11G25
 -15348530.42949 -11959888.79346  22259801.408    22259802.059
 -24570902.97449 -19146152.98047  20667478.611    20667478.703
  -5948990.31248  -4635576.74445  22646778.006    22646778.669
         -.53457                  25182129.901
 -19408758.05149 -15123707.30946  21192248.893    21192249.522
   6092283.70748   4747229.58944  24611671.288    24611670.215
         -.49957                  24670001.031
 -19755389.20649 -15393805.48747  21329808.089    21329807.805
 02  1  4  1  4  0.0000000  0  7G 1G20G29G22G14G11G25
 -15418909.18249 -12014729.36846  22246407.859    22246408.516
 -24590007.87549 -19161039.91947  20663843.101    20663843.002
  -5877464.93448  -4579842.71045  22660389.012    22660390.033
 -19486950.45949 -15184636.45546  21177369.476    21177370.232
   6179475.88048                  24628263.095
     85984.30348                  24686365.998
 -19699502.68449 -15350257.54847  21340442.812    21340442.555
 02  1  4  1  4 30.0000000  0  7G 1G20G29G22G14G11G25
 -15489155.93349 -12069467.07746  22233041.283    22233041.677
 -24608529.69949 -19175472.51347  20660318.814    20660318.602
  -5805747.22048  -4523958.79845  22674037.099    22674037.237
 -19564662.62349 -15245191.38346  21162580.844    21162582.333
   6266761.01248   4883185.71544  24644873.954    24644870.768
    171997.65547                  24702731.071
 -19643356.70149 -15306507.43247  21351127.329    21351127.075
 02  1  4  1  5  0.0000000  0  7G 1G20G29G22G14G11G25
 -15559287.76249 -12124115.25046  22219695.462    22219696.030
 -24626484.91049 -19189463.59147  20656902.016    20656901.642
  -5733855.33848  -4467939.18445  22687716.936    22687717.299
 -19641909.39849 -15305383.66546  21147881.856    21147882.716
   6354121.00848   4951258.31844  24661497.769    24661498.834
    258019.04648                  24719102.902
 -19586970.08949 -15262569.81647  21361856.929    21361856.762
 02  1  4  1  5 30.0000000  0  7G 1G20G29G22G14G11G25
 -15629297.57449 -12178668.33646  22206372.007    22206373.011
 -24643866.02349 -19203007.32047  20653594.108    20653593.884
  -5661783.37048  -4411779.23645  22701431.912    22701431.407
 -19718681.87849 -15365206.36946  21133271.874    21133273.129
   6441561.84348   5019393.90644  24678137.023    24678137.021
    344051.91147                  24735472.830
 -19530338.70349 -15218441.46847  21372633.484    21372633.313
 02  1  4  1  6  0.0000000  0  7G 1G20G29G22G14G11G25
 -15699171.32749 -12233115.40546  22193076.337    22193076.229
 -24660659.10349 -19216092.84247  20650398.349    20650398.144
  -5589518.51048  -4355468.97045  22715183.763    22715184.784
 -19794963.95049 -15424646.93846  21118756.662    21118757.426
   6529096.17648   5087602.36644  24694795.060    24694793.768
    430106.33647                  24751848.736
 -19473450.81749 -15174113.24947  21383459.241    21383459.028
 02  1  4  1  6 30.0000000  0  7G 1G20G29G22G14G11G25
 -15768919.30649 -12287464.47446  22179803.327    22179803.779
 -24676874.24049 -19228728.01847  20647313.005    20647312.809
  -5517072.04748  -4299017.21845  22728969.660    22728970.741
 -19870764.10649 -15483711.98946  21104331.751    21104332.795
   6616712.56848   5155874.72344  24711466.882    24711466.190
    516168.48048                  24768227.198
 -19416319.30849 -15129595.19747  21394330.740    21394330.555
 02  1  4  1  7  0.0000000  0  7G 1G20G29G22G14G11G25
 -15838533.03049 -12341708.91846  22166555.803    22166556.738
 -24692502.71549 -19240906.05347  20644339.075    20644338.768
  -5444436.55648  -4242418.16445  22742791.727    22742793.468
 -19946071.97949 -15542393.43846  21090001.261    21090002.015
   6704418.29148   5224216.70644  24728157.319    24728161.571
    602243.46648                  24784605.830
 -19358937.73049 -15084882.28747  21405249.974    21405249.906
 02  1  4  1  7 30.0000000  0  8G 1G20G29G13G22G14G11G25
 -15907993.65349 -12395834.06646  22153339.084    22153339.295
 -24707525.50949 -19252612.13147  20641480.434    20641480.112
  -5371594.27148  -4185657.98245  22756653.439    22756653.709
         -.42458                  25042307.189
 -20020866.63549 -15600674.98446  21075768.803    21075769.263
   6792230.75548   5292641.88744  24744867.686    24744867.966
    688346.16748                  24800990.897
 -19301289.46149 -15039961.56547  21416220.457    21416220.172
 02  1  4  1  8  0.0000000  0  8G 1G20G29G13G22G14G11G25
 -15977302.15749 -12449840.68446  22140149.684    22140150.244
 -24721943.62449 -19263847.02747  20638736.845    20638736.631
  -5298547.40148  -4128738.37245  22770553.359    22770553.284
    -91873.69648                  25024824.312
 -20095147.34449 -15658556.04946  21061633.334    21061634.132
   6880462.52048                  24761598.952
    774472.14247                  24817378.625
 -19243378.12749 -14994835.85447  21427240.454    21427240.176
 02  1  4  1  8 30.0000000  0  8G 1G20G29G13G22G14G11G25
 -16046477.83749 -12503743.80146  22126985.182    22126985.651
 -24735776.18049 -19274625.64647  20636104.663    20636104.332
  -5225316.46148  -4071675.33345  22784489.321    22784489.993
   -183760.24848                  25007339.568
 -20168931.49949 -15716050.18846  21047592.553    21047593.254
   6969213.33948                  24778347.092
    860598.38448                  24833768.936
 -19185225.35749 -14949522.01047  21438306.527    21438306.282
 02  1  4  1  9  0.0000000  0  7G 1G29G20G13G22G11G25
 -16115536.83249 -12557555.99546  22113844.898    22113845.293
  -5151918.56048  -4014482.19645  22798456.197    22798457.248
 -24749039.36249 -19284960.59647  20633580.799    20633580.544
   -275676.12748                  24989847.714
 -20242233.61549 -15773168.71446  21033643.683    21033644.422
    946704.83247                  24850154.699
 -19126849.95249 -14904034.68647  21449415.239    21449414.940
 02  1  4  1  9 30.0000000  0  8G 1G29G20G13G22G 4G11G25
 -16184453.19849 -12611257.04846  22100730.281    22100730.654
  -5078329.19248  -3957139.86145  22812459.959    22812461.415
 -24761707.21449 -19294831.65447  20631169.972    20631169.588
   -367595.61348                  24972355.775
 -20315025.84749 -15829889.92746  21019791.990    21019792.444
         -.28758                  24998542.046
   1032813.76347                  24866540.160
 -19068228.45749 -14858355.60247  21460570.468    21460570.166
 02  1  4  1 10  0.0000000  0  8G 1G29G20G13G22G 4G11G25
 -16253238.44449 -12664855.93446  22087639.736    22087640.330
  -5004560.69648  -3899657.96045  22826497.221    22826497.534
 -24773791.29549 -19304247.82447  20628870.299    20628870.234
   -459530.94248                  24954862.145
 -20387317.86649 -15886221.36046  21006034.406    21006035.504
    -34560.65348                  24991965.056
   1118910.38447                  24882924.150
 -19009374.39149 -14812495.29647  21471769.963    21471769.618
 02  1  4  1 10 30.0000000  0  7G 1G29G20G13G22G 4G25
 -16321874.09549 -12718338.25846  22074579.798    22074579.919
  -4930595.87448  -3842023.06945  22840573.026    22840573.765
 -24785273.10149 -19313194.69147  20626685.188    20626684.874
   -551463.92948                  24937367.337
 -20459089.50049 -15942147.29846  20992377.155    20992377.853
    -68603.77948                  24985487.012
 -18950271.95949 -14766441.45547  21483016.819    21483016.470
 02  1  4  1 11  0.0000000  0  8G 1G29G25G20G13G22G 4G14
 -16390366.45249 -12771708.91046  22061546.823    22061547.261
  -4856442.41448  -3784241.19445  22854684.245    22854684.641
 -18890930.12649 -14720201.06947  21494309.039    21494308.776
 -24796158.84949 -19321677.09647  20624614.016    20624613.882
   -643401.15348                  24919871.636
 -20530345.30249 -15997671.28946  20978817.994    20978818.746
   -102135.87048                  24979104.480
         -.29758                  24862305.150
 02  1  4  1 11 30.0000000  0  8G 1G29G25G20G13G22G 4G14
 -16458737.99749 -12824985.42946  22048534.673    22048535.995
  -4782123.71548  -3726330.56645  22868825.457    22868827.762
 -18831373.10649 -14673793.01247  21505642.353    21505642.021
 -24806471.17249 -19329712.67847  20622651.659    20622651.529
   -735365.40748                  24902371.151
 -20601105.90149 -16052809.40246  20965352.255    20965352.972
   -135179.33448   -105334.08544  24972817.580    24972817.621
     88484.52648     68949.05844  24879144.047    24879144.607
 02  1  4  1 12  0.0000000  0  8G 1G29G25G20G13G22G 4G14
 -16526972.92649 -12878155.49546  22035550.274    22035550.965
  -4707625.22748  -3668279.85245  22883002.742    22883003.102
 -18771588.16349 -14627207.34747  21517019.091    21517018.965
 -24816194.29749 -19337289.14647  20620801.135    20620800.966
   -827341.03048                  24884869.423
 -20671353.88449 -16107548.07646  20951984.746    20951985.813
   -167718.34548                  24966626.261
    177048.05948    137959.42144  24895997.376    24895997.427
 02  1  4  1 12 30.0000000  0  8G 1G29G25G20G13G22G 4G14
 -16595059.91249 -12931210.27446  22022595.030    22022594.841
  -4632937.11848  -3610081.36845  22897215.990    22897216.540
 -18711566.25549 -14580437.03547  21528440.904    21528440.525
 -24825317.24549 -19344397.93947  20619065.133    20619064.949
   -919317.21648                  24867367.456
 -20741076.43449 -16161877.32246  20938716.902    20938717.938
   -199741.87048                  24960531.616
    265699.99348    207038.68244  24912867.114    24912867.021
 02  1  4  1 13  0.0000000  0  8G 1G29G25G20G13G22G 4G14
 -16663015.81849 -12984162.92646  22009662.300    22009662.705
  -4558077.20348  -3551749.02745  22911460.458    22911461.072
 -18651326.92249 -14533497.30247  21539903.889    21539903.740
 -24833857.12649 -19351052.39847  20617440.396    20617440.088
  -1011311.09748                  24849859.892
 -20810288.71449 -16215808.94946  20925546.257    20925547.565
   -231266.62548                  24954533.075
    354422.36448    276172.81144  24929750.841    24929751.027
 02  1  4  1 13 30.0000000  0  8G 1G29G25G20G13G22G 4G14
 -16730826.50249 -13037002.40146  21996758.213    21996759.335
  -4483032.32948  -3493272.55345  22925741.584    22925742.768
 -18590858.04649 -14486378.70547  21551410.784    21551410.697
 -24841799.70549 -19357241.42547  20615928.956    20615928.744
  -1103308.61548                  24832355.489
 -20878974.68749 -16269330.47646  20912475.764    20912476.593
   -262278.41248                  24948631.042
    443228.16348                  24946649.947
 02  1  4  1 14  0.0000000  0  8G 1G29G25G20G13G22G 4G14
 -16798477.12549 -13089717.16146  21983885.763    21983885.394
  -4407789.32648  -3434641.69945  22940059.854    22940060.163
 -18530147.36849 -14439071.68947  21562963.759    21562963.707
 -24849130.44249 -19362953.69347  20614534.112    20614533.816
  -1195295.45148                  24814848.567
 -20947118.23349 -16322429.33746  20899508.600    20899509.285
   -292762.85648                  24942831.009
    532130.50048    414646.26644  24963567.480    24963568.338
 02  1  4  1 14 30.0000000  0  8G 1G29G25G20G13G22G 4G14
 -16865965.71949 -13142305.69146  21971042.288    21971042.244
  -4332347.27648  -3375855.72545  22954416.195    22954416.913
 -18469195.37349 -14391576.63547  21574562.544    21574562.546
 -24855847.73349 -19368187.94947  20613255.867    20613255.555
  -1287269.99848                  24797347.660
 -21014715.63249 -16375102.61747  20886644.746    20886645.649
   -322717.84048   -251467.93644  24937131.336    24937130.728
    621130.08148                  24980503.735
 02  1  4  1 15  0.0000000  0  8G 1G29G25G20G13G22G 4G14
 -16933301.27149 -13194774.92546  21958228.523    21958229.423
  -4256716.37448  -3316922.63245  22968807.666    22968808.899
 -18408013.28549 -14343902.28747  21586204.855    21586204.797
 -24861960.91449 -19372951.47147  20612092.354    20612092.168
  -1379241.38048                  24779845.988
 -21081774.35049 -16427356.16247  20873884.523    20873885.302
   -352152.80248                  24931528.900
    710216.50448                  24997457.177
 02  1  4  1 15 30.0000000  0  8G 1G29G25G20G13G22G 4G14
 -17000505.39449 -13247141.75446  21945440.211    21945441.126
  -4180919.58648  -3257860.24145  22983231.394    22983232.563
 -18346625.67349 -14296067.78847  21597886.815    21597886.687
 -24867491.90349 -19377261.33747  20611039.620    20611039.699
  -1471231.72348                  24762339.170
 -21148314.53749 -16479205.65046  20861221.765    20861222.634
   -381089.30248                  24926022.610
    799366.93148                  25014421.446
 02  1  4  1 16  0.0000000  0  8G 1G29G25G20G13G22G 4G14
 -17067563.96849 -13299395.18246  21932679.509    21932679.777
  -4104944.04648  -3198658.58245  22997689.315    22997690.374
 -18285020.51249 -14248063.76947  21609610.021    21609609.893
 -24872426.92649 -19381106.81547  20610100.401    20610100.379
  -1563227.23548                  24744835.077
 -21214320.45549 -16530638.82546  20848661.368    20848662.393
   -409513.51948                  24920613.112
    888593.90548    692408.96944  25031401.043    25031404.295
 02  1  4  1 16 30.0000000  0  8G 1G29G20G13G22G 4G14G25
 -17134469.36649 -13351529.25246  21919947.768    21919948.211
  -4028783.40548  -3139312.69245  23012181.857    23012182.181
 -24876758.64949 -19384482.19247  20609276.334    20609276.127
  -1655220.32148                  24727327.953
 -21279783.11349 -16581648.67446  20836204.722    20836205.299
   -437418.03248                  24915303.651
    977903.73948    762000.84144  25048396.477    25048399.691
 -18223192.64649 -14199886.21447  21621375.622    21621375.448
 02  1  4  1 17  0.0000000  0  8G 1G29G20G13G22G 4G14G25
 -17201223.70749 -13403545.61046  21907244.331    21907245.086
  -3952440.87748  -3079825.07245  23026710.288    23026710.178
 -24880489.51649 -19387389.36547  20608566.441    20608566.427
  -1747212.93448                  24709823.122
 -21344702.97749 -16632235.57546  20823850.258    20823851.359
   -464804.99148   -362185.20244  24910093.495    24910092.411
   1067292.97548                  25065406.739
 -18161146.32749 -14151538.43947  21633182.529    21633182.448
 02  1  4  1 17 30.0000000  0  8G 1G29G20G13G22G 4G14G25
 -17267830.77149 -13455447.20946  21894570.123    21894570.633
  -3875921.80948  -3020199.89445  23041271.071    23041272.014
 -24883623.85949 -19389831.71647  20607969.834    20607969.749
  -1839210.45348                  24692316.212
 -21409082.64049 -16682401.53347  20811599.358    20811600.441
   -491678.92648   -383125.92444  24904979.315    24904978.112
   1156756.32248                  25082430.920
 -18098888.12149 -14103025.55447  21645029.687    21645029.313
 02  1  4  1 18  0.0000000  0  8G 1G29G20G13G22G 4G14G25
 -17334289.36249 -13507233.11346  21881923.247    21881923.535
  -3799226.24848  -2960437.17345  23055865.365    23055866.179
 -24886160.98349 -19391808.70047  20607487.008    20607486.781
  -1931211.51548                  24674809.136
 -21472919.48649 -16732144.52047  20799452.017    20799452.643
   -518038.90948                  24899962.129
   1246293.48548                  25099469.870
 -18036419.44149 -14054348.66346  21656917.256    21656916.683
 02  1  4  1 18 30.0000000  0  8G 1G29G20G13G22G 4G14G25
 -17400592.54749 -13558897.92346  21869306.006    21869306.601
  -3722348.57648  -2900532.54345  23070495.285    23070495.629
 -24888094.28149 -19393315.17347  20607119.300    20607119.100
  -2023209.26548                  24657302.899
 -21536205.17749 -16781458.04247  20787408.827    20787409.449
   -543878.27748                  24895043.645
   1335909.98748                  25116523.796
 -17973735.85249 -14005504.31946  21668845.450    21668845.393
 02  1  4  1 19  0.0000000  0  8G 1G29G20G13G22G 4G14G25
 -17466736.96549 -13610439.02146  21856719.106    21856719.806
  -3645286.65348  -2840484.37045  23085159.525    23085159.233
 -24889421.13249 -19394349.08847  20606866.597    20606866.555
  -2115200.85848                  24639796.429
 -21598934.85849 -16830338.30647  20775471.723    20775472.339
   -569193.97648                  24890227.804
   1425607.87448   1110859.78544  25133591.959    25133594.583
 -17910836.48649 -13956491.83446  21680814.794    21680814.501
 02  1  4  1 19 30.0000000  0  8G 1G29G20G13G22G 4G14G25
 -17532717.33149 -13661852.28746  21844163.831    21844164.383
  -3568036.85248  -2780289.78845  23099860.324    23099860.663
 -24890136.80149 -19394906.76247  20606730.122    20606729.946
  -2207181.08348                  24622294.387
 -21661102.14849 -16878780.34747  20763642.033    20763642.635
   -593981.10248                  24885512.932
   1515394.79648   1180823.06844  25150663.422    25150666.535
 -17847718.32249 -13907308.85946  21692825.815    21692825.514
 02  1  4  1 20  0.0000000  0  8G 1G20G29G13G22G 4G14G25
 -17598544.02149 -13713145.80446  21831636.812    21831637.341
 -24890252.17049 -19394996.66447  20606708.337    20606708.414
  -3490610.61248  -2719957.71145  23114593.557    23114593.177
  -2299160.72748                  24604789.726
 -21722715.89349 -16926791.04847  20751916.993    20751917.615
   -618250.62548   -481753.20344  24880894.367    24880893.142
   1605979.18747   1251407.82245  25167780.397    25167779.927
 -17784394.36049 -13857965.51946  21704875.811    21704875.702
 02  1  4  1 20 30.0000000  0  7G 1G20G29G13G22G 4G25
 -17664217.44449 -13764319.89546  21819139.868    21819140.371
 -24889768.32649 -19394619.65147  20606800.510    20606800.604
  -3413009.80448  -2659489.62345  23129360.378    23129359.956
  -2391140.28648  -1863224.18244  24587287.864    24587284.686
 -21783775.39749 -16974369.87447  20740297.539    20740298.359
   -642003.46848                  24876373.973
 -17720867.29949 -13808463.92146  21716964.903    21716964.846
 02  1  4  1 21  0.0000000  0  8G 1G20G29G13G22G 4G14G25
 -17729716.13249 -13815357.82946  21806676.471    21806676.516
 -24888664.30649 -19393759.38447  20607010.955    20607010.713
  -3335214.15248  -2598869.70745  23144164.180    23144164.306
  -2483098.71748                  24569788.562
 -21844257.80749 -17021499.02247  20728788.735    20728789.178
   -665218.55548                  24871954.061
         -.29658                  25202019.831
 -17657117.97849 -13758789.13246  21729095.499    21729095.149
 02  1  4  1 21 30.0000000  0  8G 1G20G29G13G22G 4G14G25
 -17795063.30549 -13866277.69646  21794240.849    21794241.426
 -24886964.31249 -19392434.71947  20607334.446    20607334.090
  -3257248.54748  -2538117.37645  23159001.261    23159001.968
  -2575059.84148                  24552288.465
 -21904185.30349 -17068195.76347  20717384.541    20717385.037
   -687919.65148                  24867632.967
     90085.53948                  25219163.421
 -17593172.40149 -13708961.42446  21741264.082    21741263.914
 02  1  4  1 22  0.0000000  0  8G 1G20G29G13G22G 4G14G25
 -17860243.61449 -13917067.54346  21781837.226    21781837.811
 -24884653.68449 -19390634.23747  20607773.998    20607773.875
  -3179098.87648  -2477221.59045  23173871.703    23173874.032
  -2667008.54848                  24534791.724
 -21963541.39249 -17114447.25747  20706089.494    20706090.312
   -710092.13448                  24863414.967
    180251.70048                  25236321.173
 -17529017.83649 -13658970.86546  21753472.561    21753472.211
 02  1  4  1 22 30.0000000  0  8G 1G20G29G13G22G 4G14G25
 -17925261.74149 -13967731.01346  21769465.029    21769465.388
 -24881737.67449 -19388362.03147  20608328.728    20608328.414
  -3100771.04648  -2416187.01345  23188777.799    23188778.230
  -2758949.73448  -2149828.82344  24517294.948    24517296.627
 -22022329.52849 -17160256.18847  20694902.725    20694903.289
   -731740.86848   -570187.09244  24859297.919    24859294.346
    270492.26148                  25253493.742
 -17464661.21849 -13608822.86346  21765719.288    21765719.315
 02  1  4  1 23  0.0000000  0  8G 1G20G29G13G22G 4G14G25
 -17990115.98649 -14018266.78446  21757123.777    21757123.964
 -24878215.36449 -19385617.38047  20608998.999    20608998.836
  -3022265.14148  -2355013.68145  23203717.030    23203718.467
  -2850882.03848  -2221464.34844  24499802.009    24499805.415
 -22080546.69849 -17205620.21547  20683824.440    20683825.027
   -752865.09748   -586647.54144  24855278.473    24855272.737
    360807.33248                  25270681.198
 -17400103.27749 -13558517.98946  21778003.721    21778003.603
 02  1  4  1 23 30.0000000  0  8G 1G20G29G13G22G 4G14G25
 -18054824.59649 -14068689.07446  21744810.089    21744810.503
 -24874105.83949 -19382415.16147  20609781.216    20609781.042
  -2943600.76548  -2293716.84945  23218686.463    23218687.661
  -2942824.15348                  24482305.226
 -22138210.21149 -17250552.81847  20672851.117    20672852.165
   -773483.72648                  24851353.692
    451177.10748                  25287877.677
 -17335364.86449 -13508072.48146  21790323.459    21790323.130
 02  1  4  1 24  0.0000000  0  8G 1G20G29G13G22G 4G14G25
 -18119371.50149 -14118985.36646  21732527.090    21732527.416
 -24869393.84349 -19378743.48447  20610678.049    20610677.776
  -2864762.95548  -2232284.87645  23233688.541    23233688.112
  -3034759.95248                  24464810.200
 -22195302.88049 -17295040.60947  20661986.650    20661987.276
   -793581.08648                  24847526.976
    541616.36348                  25305087.803
 -17270432.43049 -13457475.79146  21802679.649    21802679.233
 02  1  4  1 24 30.0000000  0  8G 1G20G29G13G22G 4G14G25
 -18183743.45649 -14169145.32146  21720277.862    21720278.418
 -24864066.75249 -19374592.51247  20611691.785    20611691.495
  -2785739.79948  -2170708.48445  23248726.348    23248725.124
  -3126676.59748  -2436369.06544  24447320.671    24447320.133
 -22251810.11549 -17339072.21947  20651233.747    20651234.308
   -813144.68148                  24843803.190
    632136.92448    492571.61844  25322314.256    25322314.615
 -17205295.07649 -13406719.42146  21815074.914    21815075.018
 02  1  4  1 25  0.0000000  0  8G 1G20G29G13G22G 4G14G25
 -18247944.16549 -14219171.84246  21708060.947    21708061.152
 -24858129.41049 -19369966.02047  20612821.561    20612821.441
  -2706536.51248  -2108991.72545  23263798.362    23263799.370
  -3218578.05548                  24429830.284
 -22307734.65649 -17382649.78347  20640591.486    20640592.374
   -832178.79948                  24840183.196
    722733.56948    563164.35744  25339553.297    25339551.359
 -17139958.80949 -13355808.05546  21827508.266    21827507.919
 02  1  4  1 25 30.0000000  0  8G 1G20G29G13G22G 4G14G25
 -18311974.00649 -14269065.22046  21695876.151    21695876.555
 -24851582.95749 -19364864.89847  20614067.278    20614067.061
  -2627155.16048  -2047136.21445  23278904.523    23278905.857
  -3310465.16048  -2579580.86944  24412345.795    24412344.666
 -22363076.05949 -17425772.95547  20630060.728    20630061.603
   -850684.60048   -662870.47744  24836663.076    24836660.737
    813403.99848                  25356808.525
 -17074426.38049 -13304743.84146  21839978.179    21839978.154
 02  1  4  1 26  0.0000000  0  8G 1G20G29G13G22G 4G14G25
 -18375835.13249 -14318827.12946  21683723.732    21683724.092
 -24844430.84049 -19359291.82747  20615428.301    20615428.113
  -2547599.40848  -1985144.79644  23294043.469    23294045.285
  -3402340.37648  -2651171.92744  24394862.508    24394858.485
 -22417835.48549 -17468442.63747  20619640.352    20619641.176
   -868665.25048   -676881.36944  24833241.731    24833238.534
    904144.62048                  25374076.507
 -17008702.86849 -13253530.73046  21852484.880    21852484.721
 02  1  4  1 26 30.0000000  0  8G 1G20G29G13G22G 4G14G25
 -18439527.54449 -14368457.57946  21671603.735    21671603.876
 -24836673.84349 -19353247.42647  20616904.314    20616904.116
  -2467870.67448  -1923018.60144  23309214.834    23309215.794
  -3494203.96148  -2722753.89444  24377381.345    24377381.481
 -22472011.97349 -17510658.08247  20609330.233    20609330.964
   -886121.54948   -690483.68244  24829919.879    24829915.500
    994953.87648                  25391355.637
 -16942790.66849 -13202170.59446  21865027.857    21865028.146
 02  1  4  1 27  0.0000000  0  8G 1G20G29G13G22G 4G14G25
 -18503049.93949 -14417955.54446  21659515.432    21659515.866
 -24828311.53649 -19346731.35047  20618495.706    20618495.395
  -2387968.89248  -1860757.55944  23324419.639    23324421.342
  -3586054.76648  -2794325.89244  24359902.846    24359902.530
 -22525603.25049 -17552417.51647  20599132.740    20599133.196
   -903052.82348                  24826696.469
   1085831.44348                  25408651.170
 -16876690.73649 -13150664.16746  21877606.300    21877606.136
 02  1  4  1 27 30.0000000  0  8G 1G20G29G13G22G 4G14G25
 -18566395.44049 -14467315.67446  21647461.358    21647461.706
 -24819338.20449 -19339739.15047  20620203.655    20620203.581
  -2307888.96748  -1798357.73745  23339659.186    23339660.564
  -3677886.24848  -2865882.85944  24342426.997    24342425.335
 -22578601.54749 -17593714.89047  20589047.627    20589048.079
   -919453.27248                  24823574.083
   1176782.61748                  25425958.373
 -16810399.19049 -13099008.44146  21890221.284    21890221.408
 02  1  4  1 28  0.0000000  0  8G 1G20G29G13G22G 4G14G25
 -18629568.56249 -14516541.48246  21635440.676    21635440.681
 -24809759.27849 -19332275.06147  20622025.990    20622025.688
  -2227636.70948  -1735823.60944  23354930.293    23354931.257
  -3769703.25748  -2937428.55244  24324955.614    24324953.128
 -22631010.47949 -17634553.01547  20579074.388    20579074.863
   -935327.94348   -728826.32844  24820553.509    24820554.017
   1267801.63148                  25443278.293
 -16743922.45649 -13047208.40946  21902871.405    21902871.211
 02  1  4  1 28 30.0000000  0  8G 1G20G29G13G22G 4G14G25
 -18692567.18349 -14565631.31746  21623451.555    21623451.827
 -24799573.93249 -19324338.43647  20623964.211    20623964.186
  -2147211.50648  -1673154.70244  23370234.260    23370237.508
  -3861504.04248  -3008961.56244  24307486.305    24307487.299
 -22682827.19549 -17674929.67247  20569214.064    20569214.673
   -950676.02148                  24817634.233
   1358888.73348                  25460612.544
 -16677261.01549 -12995264.44546  21915556.485    21915556.857
 02  1  4  1 29  0.0000000  0  8G 1G20G29G13G22G 4G14G25
 -18755394.60749 -14614587.75046  21611495.245    21611495.847
 -24788786.77649 -19315932.86647  20626017.397    20626017.233
  -2066618.32148  -1610354.92944  23385570.822    23385572.511
  -3953292.31748  -3080484.84144  24290019.584    24290018.024
 -22734054.16049 -17714846.78047  20559466.091    20559466.386
   -965501.43148                  24814813.717
   1450039.06648                  25477957.990
 -16610420.68449 -12943181.08746  21928275.897    21928275.872
 02  1  4  1 29 30.0000000  0  8G 1G20G29G13G22G 4G14G25
 -18818037.74149 -14663400.57946  21599575.647    21599576.179
 -24777385.77749 -19307048.98147  20628186.810    20628186.543
  -1985845.45848  -1547415.16244  23400941.647    23400944.686
  -4045055.07848  -3151988.28744  24272557.087    24272555.873
 -22784677.42449 -17754293.47947  20549833.360    20549833.539
   -979792.39248                  24812094.867
   1541264.03248                  25495316.812
 -16543391.02549 -12890950.20946  21941030.768    21941030.848
 02  1  4  1 30  0.0000000  0  8G 1G20G29G13G22G 4G14G25
 -18880509.29749 -14712079.71046  21587687.790    21587687.779
 -24765384.92749 -19297697.67947  20630470.354    20630470.096
  -1904907.46948  -1484346.71844  23416344.276    23416345.378
  -4136805.62848  -3223482.19544  24255098.207    24255094.993
 -22834709.26749 -17793279.33147  20540312.015    20540312.422
   -993562.37648                  24809474.484
   1632549.02148                  25512688.458
 -16476187.19449 -12838583.61546  21953819.405    21953819.260
 02  1  4  1 30 30.0000000  0  7G 1G29G20G13G22G 4G25
 -18942797.51249 -14760615.97546  21575834.045    21575834.260
  -1823793.94148  -1421141.48944  23431780.158    23431779.787
 -24752773.46049 -19287870.57047  20632870.338    20632870.017
  -4228531.89148  -3294957.17244  24237642.669    24237644.099
 -22884137.01449 -17831794.45847  20530906.042    20530906.580
  -1006800.79348                  24806954.742
 -16408799.81149 -12786073.99246  21966643.182    21966642.988
 02  1  4  1 31  0.0000000  0  7G 1G29G13G20G22G 4G25
 -19004892.77549 -14809001.88446  21564018.071    21564017.877
  -1742496.75348  -1357793.13444  23447250.326    23447252.711
  -4320225.15348  -3366406.43344  24220194.202    24220193.794
 -24739543.17949 -19277561.26947  20635388.024    20635387.798
 -22932950.34749 -17869830.82147  20521617.308    20521617.773
  -1019499.06948                  24804537.188
 -16341222.05449 -12733416.02146  21979502.445    21979502.061
 02  1  4  1 31 30.0000000  0  7G 1G29G13G20G22G 4G25
 -19066794.10849 -14857236.69346  21552238.743    21552238.843
  -1661016.60248  -1294302.24944  23462755.583    23462756.884
  -4411884.78648  -3437829.47944  24202752.381    24202751.440
 -24725694.50649 -19266770.10747  20638023.421    20638023.156
 -22981147.73949 -17907387.23247  20512445.398    20512445.807
  -1031657.35148                  24802222.965
 -16273455.52049 -12680610.95146  21992398.490    21992398.384
 02  1  4  1 32  0.0000000  0  7G 1G29G13G20G22G 4G25
 -19128508.52149 -14905325.84346  21540494.950    21540494.822
  -1579362.02748  -1230675.43644  23478293.329    23478295.010
  -4503517.71948  -3509231.74844  24185314.540    24185312.559
 -24711235.44849 -19255503.31847  20640774.728    20640774.494
 -23028735.43549 -17944468.55447  20503390.039    20503390.613
  -1043283.49948   -812947.54144  24800010.409    24800017.157
 -16205509.13349 -12627665.75146  22005328.298    22005327.913
 02  1  4  1 32 30.0000000  0  7G 1G29G13G20G22G 4G25
 -19190050.37649 -14953280.53046  21528783.783    21528783.855
  -1497548.91048  -1166925.08045  23493862.852    23493864.852
  -4595138.73448  -3580624.71444  24167880.088    24167876.921
 -24696182.02149 -19243773.38647  20643638.976    20643638.743
 -23075727.26449 -17981085.56547  20494447.535    20494448.158
  -1054393.20548                  24797897.384
 -16137400.03349 -12574593.75146  22018288.640    22018288.810
 02  1  4  1 33  0.0000000  0  7G 1G29G13G20G22G 4G25
 -19251406.44549 -15001090.45246  21517107.837    21517108.054
  -1415565.90048  -1103042.34644  23509463.045    23509466.421
  -4686734.83848  -3651998.22944  24150449.250    24150448.196
 -24680522.34649 -19231571.05247  20646619.116    20646618.816
 -23122109.36549 -18017227.46347  20485621.442    20485621.990
  -1064974.47048                  24795883.700
 -16069117.44349 -12521386.56846  22031282.807    22031282.610
 02  1  4  1 33 30.0000000  0  7G 1G29G13G20G22G 4G25
 -19312589.26149 -15048765.36846  21505465.561    21505465.669
  -1333426.83648  -1039038.02645  23525094.291    23525096.907
  -4778318.75748  -3723362.28544  24133022.545    24133019.502
 -24664270.37549 -19218907.18847  20649712.228    20649711.863
 -23167893.84249 -18052903.67847  20476908.866    20476909.495
  -1075040.94748   -837693.60044  24793969.085    24793970.034
 -16000676.55149 -12468056.03546  22044306.501    22044306.041
 02  1  4  1 34  0.0000000  0  7G 1G25G29G20G13G22G 4
 -19373585.33049 -15096294.76346  21493858.346    21493858.488
 -15932066.27149 -12414593.51046  22057362.614    22057362.551
  -1251120.12048   -974903.05145  23540756.027    23540759.941
 -24647414.07549 -19205772.42047  20652920.012    20652919.560
  -4869877.41548  -3794706.69644  24115597.774    24115598.505
 -23213066.69349 -18088103.30547  20468312.737    20468313.523
  -1084580.52548                  24792154.007
 02  1  4  1 34 30.0000000  0  7G 1G25G29G20G13G22G 4
 -19434397.80449 -15143681.09046  21482285.796    21482286.069
 -15863292.13149 -12361003.30946  22070450.045    22070450.032
  -1168650.21048   -910640.93445  23556449.971    23556451.442
 -24629957.81749 -19192170.15347  20656241.661    20656241.514
  -4961414.44448  -3866034.13744  24098180.181    24098179.742
 -23257630.48249 -18122828.33747  20459832.368    20459832.850
  -1093597.35448                  24790438.356
 02  1  4  1 35  0.0000000  0  7G 1G25G29G20G13G22G 4
 -19495030.98849 -15190927.71746  21470747.551    21470748.012
 -15794361.09149 -12307290.84646  22083567.017    22083567.051
  -1086023.22748   -846256.41945  23572173.817    23572177.240
 -24611907.54649 -19178105.01747  20659676.088    20659675.923
  -5052934.10148  -3937348.14344  24080764.658    24080762.689
 -23301589.16249 -18157081.85947  20451467.596    20451468.162
  -1102097.09148   -858776.30144  24788820.797    24788821.823
 02  1  4  1 35 30.0000000  0  7G 1G25G29G20G13G22G 4
 -19555472.94449 -15238025.34146  21459246.191    21459246.649
 -15725263.67449 -12253448.73746  22096716.089    22096715.862
  -1003228.76248   -781741.39544  23587928.718    23587929.361
 -24593252.83249 -19163568.88747  20663225.714    20663225.609
  -5144424.71648  -4008639.52544  24063353.919    24063354.073
 -23344930.26349 -18190854.15147  20443220.100    20443220.750
  -1110068.91448                  24787301.945
 02  1  4  1 36  0.0000000  0  7G 1G25G29G20G13G22G 4
 -19615708.55749 -15284962.17946  21447783.815    21447784.013
 -15655987.13449 -12199467.05746  22109898.799    22109898.833
   -920253.43048   -717085.43544  23603718.862    23603721.118
 -24573980.23849 -19148551.29447  20666893.556    20666893.491
  -5235871.53848  -4079896.74644  24045952.830    24045951.078
 -23387638.45149 -18224133.26247  20435092.950    20435093.599
  -1117499.34148                  24785887.393
 02  1  4  1 36 30.0000000  0  7G 1G25G20G29G13G22G 4
 -19675760.20649 -15331755.66946  21436355.960    21436356.340
 -15586556.43849 -12145365.25846  22123111.038    22123110.832
 -24554113.80749 -19133070.97047  20670674.247    20670673.982
   -837121.30348   -652307.29344  23619538.468    23619539.425
  -5327297.14648  -4151137.46844  24028553.978    24028552.351
 -23429735.55349 -18256936.20347  20427082.135    20427082.689
  -1124412.33348                  24784570.693
 02  1  4  1 37  0.0000000  0  8G 1G25G20G29G13G22G 4G 6
 -19735636.47349 -15378412.49346  21424962.332    21424962.431
 -15516982.61249 -12091151.92146  22136350.732    22136350.530
 -24533663.46949 -19117135.65347  20674565.570    20674565.309
   -753842.54548   -587414.93244  23635386.323    23635388.395
  -5418710.14348  -4222368.31744  24011159.272    24011161.507
 -23471229.91449 -18289269.47147  20419185.694    20419186.296
  -1130817.39148                  24783352.766
         -.26657                  25535026.861
 02  1  4  1 37 30.0000000  0  8G 1G25G20G29G13G22G 4G 6
 -19795291.87149 -15424897.20646  21413609.821    21413610.190
 -15447222.50249 -12036793.44146  22149625.523    22149625.551
 -24512585.36949 -19100711.17047  20678576.701    20678576.663
   -670373.34648   -522374.14944  23651270.093    23651274.179
  -5510065.77448  -4293554.47444  23993774.454    23993775.182
 -23512075.66849 -18321097.33547  20411413.301    20411413.772
  -1136670.52048                  24782238.939
    -11815.96848                  25532778.377
 02  1  4  1 38  0.0000000  0  8G 1G25G20G29G13G22G 4G 6
 -19854725.89449 -15471209.42847  21402299.756    21402300.209
 -15377278.18149 -11982291.40846  22162935.499    22162935.522
 -24490880.97849 -19083798.67347  20682706.924    20682706.727
   -586714.91448   -457185.91044  23667189.079    23667192.516
  -5601363.79448  -4364695.75944  23976400.855    23976398.883
 -23552272.04549 -18352419.18747  20403764.106    20403764.656
  -1141972.62248                  24781230.597
    -23147.20648                  25530621.971
 02  1  4  1 38 30.0000000  0  8G 1G25G20G29G13G22G 4G 6
 -19913960.74749 -15517366.45647  21391028.365    21391028.185
 -15307174.42849 -11927665.15146  22176275.904    22176275.918
 -24468574.32249 -19066416.87647  20686951.659    20686951.487
   -502891.37648   -391869.05844  23683141.196    23683141.506
  -5692626.83248  -4435809.83444  23959035.047    23959035.062
 -23591841.26449 -18383252.34647  20396234.328    20396234.832
  -1146747.65248                  24780322.822
    -34016.70448                  25528553.822
 02  1  4  1 39  0.0000000  0  8G 1G25G20G29G13G22G 4G 6
 -19972998.75449 -15563370.10147  21379793.060    21379793.351
 -15236916.29949 -11872918.59946  22189645.592    22189645.514
 -24445669.41949 -19048568.91347  20691310.339    20691310.361
   -418906.57648   -326426.51144  23699122.644    23699123.052
  -5783857.33648  -4506898.47644  23941673.186    23941674.444
 -23630785.47149 -18413598.48147  20388823.524    20388824.021
  -1150999.46748                  24779513.189
    -44427.20248                  25526572.787
 02  1  4  1 39 30.0000000  0  8G 1G25G20G29G13G22G 4G 6
 -20031829.86949 -15609212.52947  21368598.320    21368598.548
 -15166496.08749 -11818045.74646  22203046.357    22203046.050
 -24422157.79449 -19030248.18147  20695784.332    20695784.137
   -334752.46648   -260852.05544  23715136.104    23715139.522
  -5875045.41148  -4577954.10144  23924321.993    23924318.794
 -23669094.46649 -18443449.65047  20381533.984    20381534.492
  -1154719.43748                  24778806.989
    -54368.92348                  25524681.171
 02  1  4  1 40  0.0000000  0  8G 1G25G20G29G13G22G 4G 6
 -20090455.97249 -15654895.20147  21357442.433    21357442.593
 -15095917.90049 -11763049.80346  22216476.638    22216476.417
 -24398043.19649 -19011457.59947  20700373.401    20700373.282
   -250432.19448   -195148.10944  23731183.161    23731182.694
  -5966192.98648  -4648978.19844  23906975.724    23906974.035
 -23706769.68549 -18472806.96947  20374364.408    20374365.018
  -1157910.68548   -902268.55444  24778199.250    24778194.619
    -63843.81548                  25522878.012
 02  1  4  1 40 30.0000000  0  8G 1G25G20G29G13G22G 4G 6
 -20148883.74549 -15700423.33347  21346323.621    21346324.070
 -15025190.93549 -11707937.92546  22229935.903    22229935.576
 -24373334.22649 -18992203.87247  20705075.146    20705075.140
   -165954.41048   -129321.44544  23747257.869    23747261.073
  -6057307.01348  -4719976.09144  23889638.291    23889639.283
 -23743817.88549 -18501675.69447  20367314.196    20367315.031
  -1160581.92148                  24777691.885
    -72858.99048                  25521162.799
 02  1  4  1 41  0.0000000  0  8G 1G25G20G29G13G22G 4G 6
 -20207113.24849 -15745796.97047  21335243.083    21335243.503
 -14954317.91349 -11652712.23146  22243422.470    22243422.578
 -24348032.87849 -18972488.55047  20709890.015    20709889.984
    -81320.94548    -63373.50044  23763363.464    23763366.632
  -6148388.36348  -4790948.54744  23872305.855    23872306.336
 -23780239.07049 -18530055.83847  20360383.142    20360383.790
  -1162734.83648                  24777280.831
    -81414.98548    -63439.11544  25519534.362    25519534.264
 02  1  4  1 41 30.0000000  0  8G 1G25G20G29G13G22G 4G 6
 -20265132.30649 -15791006.62647  21324202.160    21324202.634
 -14883289.15149 -11597365.18546  22256938.818    22256939.083
 -24322128.56549 -18952303.39147  20714819.652    20714819.407
      3478.60948      2703.93344  23779500.906    23779504.843
  -6239424.65648  -4861885.89644  23854981.810    23854981.657
 -23816020.91949 -18557937.79947  20353574.309    20353574.867
  -1164358.51248                  24776973.283
    -89500.00348                  25517995.821
 02  1  4  1 42  0.0000000  0  8G 1G25G20G29G13G22G 4G 6
 -20322940.15549 -15836051.70447  21313201.580    21313201.940
 -14812106.32749 -11541898.09646  22270484.744    22270484.170
 -24295622.68149 -18931649.47247  20719863.727    20719863.577
     88443.22848     68909.94344  23795668.647    23795670.877
  -6330415.17548  -4932787.54844  23837667.631    23837670.371
 -23851162.76449 -18585321.06147  20346887.314    20346887.794
  -1165454.05248   -908146.47944  24776763.069    24776760.911
    -97113.79648                  25516547.004
 02  1  4  1 42 30.0000000  0  8G 1G25G20G29G13G22G 4G 6
 -20380541.16149 -15880935.60047  21302240.782    21302241.096
 -14740776.20149 -11486316.22446  22284058.326    22284058.229
 -24268521.67349 -18910531.82147  20725020.723    20725020.441
    173566.89548    135239.87744  23811866.568    23811869.816
  -6421364.97248  -5003657.52644  23820359.772    23820359.745
 -23885668.94349 -18612209.00147  20340320.976    20340321.446
  -1166027.55648                  24776654.089
   -104261.20247                  25515186.781
 02  1  4  1 43  0.0000000  0  8G 1G25G20G29G13G22G 4G 6
 -20437948.54149 -15925668.61647  21291316.771    21291317.194
 -14669314.64749 -11430631.94146  22297657.028    22297656.866
 -24240840.64949 -18888962.20847  20730288.113    20730287.822
    258834.43848    201681.92344  23828093.568    23828093.935
  -6512287.40448  -5074506.16944  23803058.614    23803056.128
 -23919552.89049 -18638612.08247  20333873.162    20333873.609
  -1166094.07748                  24776641.046
   -110955.99647    -86458.23044  25513912.751    25513912.106
 02  1  4  1 43 30.0000000  0  8G 1G25G20G29G13G22G 4G 6
 -20495136.93249 -15970230.99847  21280433.994    21280434.398
 -14597698.80249 -11374827.43246  22311285.118    22311284.791
 -24212556.39849 -18866922.54947  20735670.746    20735670.567
    344269.36048    268254.34444  23844351.139    23844354.253
  -6603157.45048  -5145313.98644  23785765.159    23785766.592
 -23952789.29249 -18664510.58447  20327548.543    20327549.017
  -1165629.87048                  24776728.624
   -117173.31247                  25512729.251
 02  1  4  1 44  0.0000000  0  8G 1G25G20G29G13G22G 4G 6
 -20552114.50549 -16014629.10847  21269591.508    21269591.561
 -14525939.04749 -11318910.79646  22324940.616    22324940.406
 -24183678.74749 -18844420.50047  20741165.828    20741165.710
    429861.83348    334949.60244  23860639.124    23860640.012
  -6693983.18848  -5216087.24044  23768482.941    23768478.177
 -23985386.31849 -18689910.87447  20321345.367    20321345.821
  -1164644.82448                  24776916.397
   -122921.63947                  25511635.519
 02  1  4  1 44 30.0000000  0  8G 1G25G20G29G13G22G 4G 6
 -20608875.25549 -16058858.25847  21258790.506    21258790.862
 -14454032.20649 -11262879.54146  22338624.082    22338623.675
 -24154203.96149 -18821453.15447  20746774.825    20746774.653
    515616.07048    401770.87944  23876958.135    23876960.007
  -6784758.87948  -5286821.50444  23751208.497    23751207.060
 -24017338.22249 -18714808.47447  20315265.489    20315265.967
  -1163134.86448                  24777202.459
   -128195.79247                  25510632.258
 02  1  4  1 45  0.0000000  0  8G 1G25G20G29G13G22G 4G 6
 -20665429.56749 -16102926.54947  21248028.043    21248028.351
 -14381990.77749 -11206743.42046  22352332.567    22352332.978
 -24124144.66249 -18798030.33947  20752494.502    20752494.496
    601519.75148    468708.60944  23893305.016    23893308.146
  -6875495.18448  -5357525.09544  23733941.465    23733940.827
 -24048655.51549 -18739211.57647  20309305.787    20309306.332
  -1161112.00448                  24777587.688
   -133006.55547                  25509716.941
 02  1  4  1 45 30.0000000  0  8G 1G25G20G29G13G22G 4G 6
 -20721768.91149 -16146827.33747  21237307.402    21237307.721
 -14309809.00849 -11150497.94546  22366069.083    22366069.009
 -24093494.46149 -18774147.08547  20758327.105    20758327.045
    687579.48448    535767.91544  23909681.517    23909687.512
  -6966184.24048  -5428191.90144  23716684.775    23716682.670
 -24079330.11249 -18763113.87147  20303468.536    20303469.079
  -1158569.85348                  24778071.405
   -137346.14647                  25508891.189
 02  1  4  1 46  0.0000000  0  8G 1G25G20G29G13G22G 4G 6
 -20777887.96349 -16190556.46647  21226628.273    21226628.566
 -14237484.08849 -11094140.92846  22379832.178    22379831.904
 -24062249.95749 -18749800.73647  20764272.889    20764272.528
    773798.85148    602951.65744  23926089.151    23926095.151
  -7056820.62548  -5498817.63644  23699436.283    23699436.654
 -24109356.78449 -18786511.29147  20297754.777    20297755.344
  -1155504.89748                  24778655.198
   -141209.68147                  25508155.806
 02  1  4  1 46 30.0000000  0  8G 1G25G20G29G13G22G 4G 6
 -20833792.32449 -16234118.30647  21215989.836    21215990.179
 -14165024.12349 -11037678.67746  22393620.148    22393620.474
 -24030418.91249 -18724997.34147  20770330.094    20770329.994
    860170.54048    670254.02044  23942525.215    23942528.936
  -7147410.17848  -5569406.82345  23682198.538    23682199.166
 -24138741.16449 -18809408.22847  20292163.047    20292163.558
  -1151924.60148                  24779336.767
   -144603.51447                  25507510.184
 02  1  4  1 47  0.0000000  0  8G 1G25G20G29G13G22G 4G 6
 -20889468.89149 -16277502.64547  21205395.241    21205395.360
 -14092418.03949 -10981102.56946  22407437.137    22407437.052
 -23997990.70649 -18699728.62847  20776500.585    20776500.963
    946705.65048    737683.77044  23958992.840    23958996.119
  -7237940.06648                  23664969.770
 -24167470.61649 -18831794.83247  20286695.836    20286696.388
  -1147817.57648                  24780119.088
   -147515.41748                  25506956.126
 02  1  4  1 47 30.0000000  0  8G 1G25G20G29G13G22G 4G 6
 -20944920.65649 -16320711.81347  21194843.165    21194843.566
 -14019671.51449 -10924417.03046  22421280.288    22421280.821
 -23964970.60049 -18673998.69747  20782784.576    20782784.711
   1033399.35248    805237.04544  23975489.388    23975494.170
  -7328413.34048  -5710448.22844  23647754.851    23647753.002
 -24195548.57149 -18853673.77647  20281352.909    20281353.355
  -1143189.04748                  24780999.507
   -149949.09148                  25506492.862
 02  1  4  1 48  0.0000000  0  8G 1G25G20G29G13G22G 4G 6
 -21000149.98149 -16363747.65547  21184333.053    21184333.417
 -13946789.46949 -10867625.89846  22435149.089    22435149.383
 -23931363.23649 -18647811.16647  20789180.148    20789180.028
   1120247.26948    872910.53444  23992017.091    23992016.643
  -7418832.71548  -5780904.84344  23630547.765    23630547.156
 -24222977.87649 -18875047.28047  20276133.370    20276133.702
  -1138043.39448                  24781978.830
   -151907.54148                  25506120.199
 02  1  4  1 48 30.0000000  0  8G 1G25G20G29G13G22G 4G 6
 -21055154.48649 -16406608.31347  21173865.925    21173866.306
 -13873772.49549 -10810729.61846  22449044.228    22449044.164
 -23897168.47049 -18621165.91447  20795686.629    20795686.657
   1207249.86448    940704.54944  24008573.473    24008576.196
  -7509196.12748  -5851317.87544  23613352.098    23613351.770
 -24249756.53549 -18895913.78147  20271037.291    20271037.818
  -1132380.45548   -882374.95244  24783057.389    24783058.317
   -153389.39048                  25505838.350
 02  1  4  1 49  0.0000000  0  8G 1G20G29G13G22G 4G 6G25
 -21109934.61349 -16449294.13247  21163441.725    21163442.149
 -23862389.02249 -18594065.06847  20802305.084    20802304.995
   1294404.83348   1008617.23344  24025158.077    24025159.703
  -7599504.09548  -5921687.70244  23596167.873    23596164.778
 -24275885.47749 -18916274.01047  20266065.225    20266065.710
  -1126202.41948   -877560.91044  24784232.848    24784233.363
   -154395.69348                  25505646.819
 -13800622.89749 -10753730.00046  22462964.085    22462964.556
 02  1  4  1 49 30.0000000  0  8G 1G20G29G13G22G 4G 6G25
 -21164490.19349 -16491804.97947  21153060.109    21153060.508
 -23827027.15749 -18566510.39247  20809034.594    20809034.820
   1381710.60048   1076647.50244  24041772.398    24041776.209
  -7689756.54548  -5992014.29144  23578991.998    23578993.182
 -24301364.81249 -18936128.04847  20261216.830    20261217.248
  -1119511.15848   -872346.95544  24785506.880    24785509.121
   -154927.00348                  25505545.817
 -13727342.78449 -10696628.68646  22476908.635    22476908.968
 02  1  4  1 50  0.0000000  0  8G 1G20G29G13G22G 4G 6G25
 -21218815.85549 -16534136.66747  21142722.455    21142722.844
 -23791079.88549 -18538499.55447  20815875.349    20815875.360
   1469170.63548   1144797.93044  24058415.482    24058422.142
  -7779948.38948  -6062293.59744  23561830.865    23561827.688
 -24326189.75249 -18955472.16847  20256492.612    20256493.138
  -1112303.38548   -866730.50844  24786878.532    24786875.508
   -154978.52348   -120762.47744  25505535.901    25505535.153
 -13653929.47249 -10639423.57846  22490878.865    22490878.980
 02  1  4  1 50 30.0000000  0  8G 1G20G29G13G22G 4G 6G25
 -21272906.99649 -16576285.61647  21132429.060    21132429.344
 -23754545.01849 -18510030.85247  20822827.191    20822827.395
   1556787.58948   1213070.63044  24075087.680    24075088.327
  -7870074.89548  -6132522.06944  23544678.719    23544679.171
 -24350356.32649 -18974303.27947  20251893.851    20251894.405
  -1104576.70648   -860709.76244  24788348.331    24788351.314
   -154546.78348                  25505618.375
 -13580380.97049 -10582113.12946  22504874.859    22504875.016
 02  1  4  1 51  0.0000000  0  8G 1G20G29G13G22G 4G 6G25
 -21326764.05149 -16618252.16347  21122180.503    21122180.952
 -23717425.35449 -18481106.46347  20829890.727    20829890.796
   1644558.89148   1281463.62944  24091790.831    24091794.842
  -7960137.27048  -6202700.49344  23527541.285    23527538.783
 -24373865.39749 -18992622.05047  20247420.345    20247420.793
  -1096333.66348   -854286.58844  24789917.768    24789919.486
   -153633.02048                  25505792.169
 -13506699.81349 -10524699.31446  22518895.675    22518896.283
 02  1  4  1 51 30.0000000  0  8G 1G20G29G13G22G 4G 6G25
 -21380393.76449 -16660041.55947  21111975.343    21111975.650
 -23679730.18349 -18451733.62547  20837064.131    20837063.823
   1732476.08348   1349970.27544  24108520.675    24108523.933
  -8050142.46648  -6272834.39944  23510413.981    23510412.140
 -24396724.45649 -19010434.32147  20243070.577    20243071.033
  -1087583.22248   -847468.08344  24791583.285    24791585.247
   -152245.03548   -118632.60444  25506056.326    25506056.912
 -13432895.26649 -10467189.36046  22532940.446    22532940.733
 02  1  4  1 52  0.0000000  0  8G 1G20G29G13G22G 4G 6G25
 -21433791.00849 -16701649.81147  21101814.037    21101814.307
 -23641456.74949 -18421910.19647  20844347.057    20844347.210
   1820542.35048   1418593.08144  24125280.162    24125284.616
  -8140085.08548  -6342919.56045  23493297.661    23493296.227
 -24418928.84349 -19027736.45947  20238845.018    20238845.482
  -1078322.22448   -840251.69444  24793345.430    24793344.640
   -150378.53548   -117178.23044  25506411.798    25506414.712
 -13358964.90349 -10409581.36146  22547008.913    22547009.360
 02  1  4  1 52 30.0000000  0  8G 1G20G29G13G22G 4G 6G25
 -21486963.99149 -16743083.31547  21091695.730    21091695.984
 -23602616.04149 -18391644.73747  20851738.168    20851738.287
   1908747.30948   1487323.94944  24142064.591    24142070.179
  -8229973.77248  -6412962.62645  23476193.701    23476192.580
 -24440487.56449 -19044535.47747  20234742.800    20234743.272
  -1068561.39948   -832645.86544  24795202.835    24795200.989
   -148042.83548   -115358.26544  25506856.256    25506856.737
 -13284919.38149 -10351883.62146  22561099.190    22561100.175
 02  1  4  1 53  0.0000000  0  8G 1G20G29G13G22G 4G 6G25
 -21539889.68449 -16784324.12747  21081624.202    21081624.511
 -23563187.65249 -18360921.34347  20859241.824    20859241.692
   1997111.98948   1556179.29044  24158880.672    24158883.931
  -8319785.64548  -6482945.91144  23459102.029    23459103.406
 -24461378.40249 -19060814.06647  20230767.345    20230767.909
  -1058280.13348   -824634.50544  24797159.308    24797159.458
   -145215.91748   -113155.52044  25507394.183    25507396.339
 -13210738.21249 -10294080.19646  22575215.628    22575215.888
 02  1  4  1 53 30.0000000  0  8G 1G20G29G13G22G 4G 6G25
 -21592584.71549 -16825385.20047  21071596.586    21071597.016
 -23523190.57549 -18329754.81547  20866852.626    20866852.800
   2085618.00248   1625144.73944  24175722.323    24175725.407
  -8409537.52748  -6552882.42345  23442023.749    23442021.096
 -24481618.70349 -19076585.74547  20226915.804    20226916.322
  -1047497.08948   -816232.19644  24799210.954    24799212.020
   -141915.22048                  25508022.424
 -13136440.28849 -10236185.78646  22589354.103    22589354.657
 02  1  4  1 54  0.0000000  0  8G 1G20G29G13G22G 4G 6G25
 -21645042.16749 -16866261.14547  21061613.819    21061614.327
 -23482620.59849 -18298141.87847  20874572.599    20874572.984
   2174270.10848   1694224.03444  24192592.955    24192597.225
  -8499222.71848  -6622766.96845  23424956.361    23424954.170
 -24501202.31849 -19091845.72547  20223188.845    20223189.370
  -1036207.72048                  24801359.633
   -138134.89248   -107637.92244  25508741.785    25508739.917
 -13062021.28649 -10178197.03346  22603515.631    22603516.266
 02  1  4  1 54 30.0000000  0  8G 1G20G29G13G22G 4G 6G25
 -21697254.50049 -16906946.09147  21051678.720    21051679.120
 -23441472.81549 -18266078.69947  20882403.371    20882403.633
   2263073.77248   1763421.41544  24209492.656    24209497.475
  -8588833.84448  -6692593.77944  23407904.259    23407901.224
 -24520122.59849 -19106588.82047  20219588.805    20219589.389
  -1024406.82248   -798239.74944  24803606.169    24803604.472
   -133868.45148                  25509553.802
 -12987475.85549 -10120109.76546  22617701.459    22617702.267
 02  1  4  1 55  0.0000000  0  8G 1G20G29G13G22G 4G 6G25
 -21749222.94749 -16947441.00247  21041789.649    21041790.019
 -23399750.96349 -18233568.19547  20890342.552    20890342.351
   2352025.95448                  24226419.200
  -8678372.18248  -6762363.91845  23390865.734    23390864.237
 -24538381.41249 -19120816.48747  20216114.043    20216114.579
  -1012097.89248   -788648.41144  24805948.165    24805947.531
   -129118.24848                  25510457.644
 -12912807.84749 -10061926.98946  22631910.515    22631910.399
 02  1  4  1 55 30.0000000  0  8G 1G20G29G13G22G 4G 6G25
 -21800950.32149 -16987748.05447  21031945.846    21031946.260
 -23357460.63749 -18200614.72447  20898390.036    20898390.412
   2441121.84148   1902159.59744  24243373.848    24243378.634
  -8767840.57248  -6832079.49945  23373839.903    23373838.459
 -24555982.50449 -19134531.64047  20212764.763    20212765.478
   -999286.20948   -778665.27644  24808384.886    24808386.146
   -123888.21048                  25511452.813
 -12838022.80749 -10003653.02046  22646141.345    22646141.720
 02  1  4  1 56  0.0000000  0  8G 1G20G29G13G22G 4G 6G25
 -21852438.12749 -17027868.43247  21022147.808    21022148.343
 -23314606.24949 -18167221.72547  20906545.287    20906545.395
   2530357.58448                  24260354.880
  -8857241.19048  -6901742.31445  23356828.703    23356826.296
 -24572928.42349 -19147736.26847  20209540.056    20209540.673
   -985975.74348   -768293.48144  24810917.869    24810918.349
   -118181.06248                  25512538.994
 -12763124.33949  -9945290.66246  22660394.486    22660394.828
 02  1  4  1 56 30.0000000  0  7G 1G20G29G13G22G 4G25
 -21903672.13849 -17067791.05347  21012398.389    21012399.095
 -23271176.23949 -18133380.19147  20914809.642    20914809.542
   2619745.74848   2041346.48544  24277364.701    24277371.052
  -8946559.68348  -6971341.13245  23339830.159    23339829.599
 -24589205.73049 -19160419.89747  20206442.798    20206443.358
   -972154.62848   -757523.82744  24813547.709    24813550.343
 -12688100.36549  -9886830.51446  22674671.548    22674671.718
 02  1  4  1 57  0.0000000  0  7G 1G20G29G13G22G 4G25
 -21954668.85449 -17107528.77147  21002694.210    21002694.719
 -23227189.72749 -18099105.02447  20923179.878    20923180.086
   2709267.57448                  24294400.258
  -9035812.60448  -7040888.85445  23322847.407    23322846.464
 -24604832.00949 -19172596.23947  20203469.029    20203469.610
   -957841.64348   -746370.84644  24816271.132    24816267.965
 -12612970.19149  -9828287.60646  22688967.595    22688968.525
 02  1  4  1 57 30.0000000  0  7G 1G20G29G13G22G 4G25
 -22005416.71349 -17147072.57047  20993037.286    20993037.758
 -23182638.03249 -18064389.45447  20931657.837    20931657.915
   2798932.70348                  24311463.545
  -9124988.76548  -7110376.76145  23305876.289    23305874.691
 -24619796.73549 -19184257.08347  20200621.541    20200622.136
   -943027.94648   -734827.73344  24819090.675    24819090.726
 -12537724.80749  -9769654.93146  22703286.924    22703286.973
 02  1  4  1 58  0.0000000  0  7G 1G20G29G13G22G 4G25
 -22055919.90149 -17186425.71747  20983426.849    20983427.187
 -23137528.30649 -18029239.04647  20940242.227    20940242.262
   2888734.65948                  24328552.382
  -9214092.19448  -7179807.96645  23288921.655    23288919.628
 -24634105.13049 -19195406.50147  20197898.732    20197899.233
   -927720.20448   -722899.60344  24822002.829    24822006.152
 -12462370.85649  -9710937.65946  22717625.961    22717627.026
 02  1  4  1 58 30.0000000  0  8G 1G20G29G13G22G 4G27G25
 -22106157.12049 -17225571.62347  20973867.197    20973867.602
 -23091841.91849 -17993639.30147  20948935.602    20948935.925
   2978692.85048                  24345671.492
  -9303101.84248  -7249166.13545  23271982.818    23271981.982
 -24647736.94149 -19206028.71347  20195304.549    20195305.136
   -911899.55048   -710571.83944  24825012.019    24825015.175
         -.02058         -.16854  25608168.534    25608168.926
 -12386889.21549  -9652120.88646  22731989.386    22731990.808
 02  1  4  1 59  0.0000000  0  8G 1G20G29G13G22G 4G27G25
 -22156137.96049 -17264517.74547  20964356.014    20964356.488
 -23045591.46049 -17957600.02147  20957736.932    20957737.155
   3068795.68348                  24362817.472
  -9392027.47548  -7318458.81945  23255061.459    23255058.678
 -24660702.72749 -19216131.94847  20192837.165    20192837.678
   -895578.22148                  24828118.030
    -84829.81248                  25592024.055
 -12311291.88949  -9593213.97446  22746375.612    22746375.953
 02  1  4  1 59 30.0000000  0  8G 1G20G29G13G22G 4G27G25
 -22205858.73749 -17303261.22147  20954894.494    20954894.874
 -22998776.12749 -17921120.58147  20966646.020    20966645.843
   3159044.70448                  24379991.213
  -9480865.46748  -7387683.23645  23238156.653    23238153.885
 -24673000.04349 -19225714.29447  20190497.192    20190497.737
   -878755.07748                  24831319.392
   -169597.95948   -132154.41544  25575894.708    25575897.461
 -12235577.68149  -9534215.98846  22760783.534    22760783.918
 02  1  4  2  0  0.0000000  0  8G 1G20G29G13G22G 4G27G25
 -22255324.25249 -17341805.78947  20945481.746    20945482.236
 -22951403.52549 -17884206.90347  20975660.578    20975661.038
   3249432.80448                  24397191.745
  -9569620.88248  -7456843.29945  23221266.073    23221266.689
 -24684634.98049 -19234780.50147  20188283.156    20188283.674
   -861437.46148   -671250.78144  24834613.781    24834616.138
   -254310.40448   -198164.05644  25559773.242    25559773.931
 -12159754.03449  -9475132.73746  22775212.153    22775213.690
 02  1  4  2  0 30.0000000  0  8G20G 1G29G13G22G 4G27G25
 -22903473.94249 -17846859.21847  20984781.218    20984781.573
 -22304531.66949 -17380149.24847  20936117.515    20936118.097
   3339960.89748   2602549.87645  24414419.017    24414418.246
  -9658290.93548  -7525936.84845  23204393.274    23204390.226
 -24695605.90649 -19243329.29947  20186195.539    20186196.095
   -843625.20048                  24838002.664
   -338965.32048   -264128.93044  25543663.915    25543669.292
 -12083820.03249  -9415963.49046  22789662.429    22789662.487
 02  1  4  2  1  0.0000000  0  8G20G 1G29G13G22G 4G27G25
 -22855002.20449 -17809089.07047  20994005.480    20994005.664
 -22353492.98349 -17418300.94647  20926800.515    20926801.048
   3430614.91148                  24431671.170
  -9746887.77148  -7594973.32545  23187533.584    23187531.124
 -24705925.96949 -19251370.93747  20184231.576    20184232.318
   -825332.93348                  24841484.768
   -423575.65748   -330059.04544  25527563.672    25527563.991
 -12007790.38849  -9356719.70746  22804130.288    22804130.555
 02  1  4  2  1 30.0000000  0  8G20G 1G29G13G22G 4G27G25
 -22805982.37749 -17770891.84447  21003333.512    21003333.575
 -22402199.27449 -17456253.92147  20917532.271    20917532.774
   3521401.59848                  24448946.769
  -9835402.61448  -7663945.93045  23170689.708    23170689.015
 -24715587.54949 -19258899.47147  20182393.061    20182393.823
   -806554.42348   -628484.80144  24845058.937    24845061.981
   -508133.65548   -395948.38544  25511472.408    25511475.745
 -11931658.59549  -9297396.33946  22818617.755    22818618.472
 02  1  4  2  2  0.0000000  0  8G20G 1G29G13G22G 4G27G25
 -22756404.53849 -17732259.80547  21012767.161    21012767.554
 -22450637.52749 -17493998.03847  20908314.830    20908315.285
   3612331.86948                  24466250.043
  -9923822.33949  -7732844.40645  23153864.693    23153863.350
 -24724578.87049 -19265905.72747  20180682.118    20180682.885
   -787279.47048   -613465.41644  24848726.875    24848726.206
   -592627.19648   -461787.49344  25495395.455    25495395.690
 -11855413.94449  -9237985.03846  22833127.097    22833127.692
 02  1  4  2  2 30.0000000  0  8G20G 1G29G13G22G 4G27G25
 -22706278.19449 -17693200.35747  21022306.891    21022307.076
 -22498814.17749 -17531538.30747  20899147.142    20899147.626
   3703397.18348                  24483580.860
 -10012153.62648  -7801673.96945  23137055.021    23137053.782
 -24732907.69349 -19272395.75047  20179097.284    20179097.915
   -767516.75748   -598065.91944  24852487.353    24852488.947
   -677063.73148   -527582.23044  25479326.784    25479324.524
 -11779065.45849  -9178492.82746  22847655.017    22847656.343
 02  1  4  2  3  0.0000000  0  8G20G 1G29G13G22G 4G27G25
 -22655596.60849 -17653708.25147  21031950.742    21031950.819
 -22546719.38349 -17568867.05147  20890030.943    20890031.517
   3794604.94648                  24500936.248
 -10100386.89549  -7870427.16445  23120265.761    23120263.900
 -24740565.73449 -19278363.08847  20177640.033    20177640.640
   -747259.83848   -582281.31644  24856343.961    24856343.791
   -761434.87248   -593326.00844  25463271.596    25463272.038
 -11702605.58149  -9118913.81446  22862205.280    22862206.026
 02  1  4  2  3 30.0000000  0  8G20G 1G29G13G22G 4G27G25
 -22604368.51449 -17613790.29947  21041698.962    21041699.377
 -22594358.68849 -17605988.59747  20880965.427    20880966.114
   3885947.78748                  24518318.471
 -10188527.54848  -7939108.19045  23103491.809    23103491.314
 -24747559.79649 -19283813.03947  20176309.252    20176309.893
   -726516.78048   -566117.89844  24860291.266    24860292.325
   -845747.02248   -659023.85044  25447227.661    25447230.195
 -11626042.42849  -9059254.33046  22876775.140    22876776.968
 02  1  4  2  4  0.0000000  0  8G20G 1G29G13G22G 4G27G25
 -22552595.94549 -17573448.08247  21051551.767    21051551.579
 -22641731.11449 -17642902.19747  20871950.752    20871951.283
   3977424.49548                  24535726.557
 -10276574.74149  -8007716.37645  23086738.526    23086736.525
 -24753890.39349 -19288746.00547  20175104.619    20175105.201
   -705289.26548   -549576.97544  24864330.551    24864333.997
   -930000.31248   -724675.76244  25431193.636    25431194.919
 -11549376.97449  -8999515.14846  22891363.431    22891364.768
 02  1  4  2  4 30.0000000  0  8G20G 1G29G13G22G 4G27G25
 -22500279.50249 -17532682.06746  21061506.994    21061507.307
 -22688834.19249 -17679605.91647  20862987.211    20862987.971
   4069035.26548                  24553159.845
 -10364526.21749  -8076250.00945  23070001.314    23069998.862
 -24759556.55649 -19293161.23347  20174026.092    20174026.799
   -683577.87848   -532659.02144  24868462.191    24868461.564
  -1014193.24748   -790280.62544  25415173.471    25415174.088
 -11472609.25049  -8939696.25746  22905972.323    22905973.447
 02  1  4  2  5  0.0000000  0  8G20G 1G29G13G22G 4G27G25
 -22447423.83349 -17491495.88046  21071564.718    21071565.188
 -22735669.42849 -17716100.92847  20854074.939    20854075.551
   4160776.51448                  24570617.780
 -10452383.68248  -8144710.35845  23053281.392    23053280.652
 -24764561.06949 -19297060.88847  20173073.896    20173074.785
   -661386.63248   -515367.27144  24872684.632    24872685.984
  -1098328.51848   -855840.53244  25399162.000    25399164.335
 -11395743.28149  -8879800.82746  22920599.587    22920601.212
 02  1  4  2  5 30.0000000  0  8G20G 1G29G13G22G 4G27G25
 -22394025.39849 -17449886.75446  21081726.787    21081726.814
 -22782230.14449 -17752382.03247  20845215.020    20845215.759
   4252652.97148                  24588100.790
 -10540140.01249  -8213091.91645  23036583.903    23036581.931
 -24768898.80449 -19300440.97547  20172248.435    20172249.046
   -638711.56548   -497698.30044  24876999.980    24877001.261
  -1182400.32948   -921351.04044  25383165.038    25383166.817
 -11318774.72649  -8819825.44546  22935246.073    22935248.023
 02  1  4  2  6  0.0000000  0  7G20G 1G29G13G22G27G25
 -22340087.01749 -17407856.89546  21091990.500    21091990.622
 -22828515.91649 -17788448.88847  20836406.787    20836407.462
   4344662.55348                  24605610.970
 -10627794.91949  -8281394.44045  23019902.305    23019901.579
 -24772571.00149 -19303302.46147  20171549.834    20171550.622
  -1266409.47048   -986812.67844  25367177.734    25367177.312
 -11241705.63249  -8759771.75046  22949912.076    22949913.586
 02  1  4  2  6 30.0000000  0  7G20G 1G29G13G22G27G25
 -22285619.13749 -17365414.43746  21102355.192    21102355.388
 -22874533.86249 -17824307.05247  20827649.930    20827650.502
   4436796.11348                  24623142.937
 -10715355.70749  -8349623.60845  23003241.030    23003239.042
 -24775586.36049 -19305652.12847  20170975.903    20170976.547
  -1350364.26148  -1052231.96744  25351201.915    25351202.490
 -11164545.50149  -8699647.09145  22964595.184    22964595.606
 02  1  4  2  7  0.0000000  0  8G20G 1G29G13G22G 3G27G25
 -22230630.11749 -17322565.89946  21112820.021    21112820.211
 -22920289.06549 -17859960.48247  20818943.165    20818943.595
   4529046.34048                  24640697.475
 -10802827.77549  -8417783.68845  22986594.853    22986593.656
 -24777951.51749 -19307495.14347  20170525.828    20170526.505
         -.64158                  25236509.119
  -1434270.79648  -1117613.68744  25335234.839    25335235.026
 -11087301.98449  -8639457.47245  22979294.552    22979295.434
 02  1  4  2  7 30.0000000  0  8G20G 1G29G13G22G 3G27G25
 -22175109.84549 -17279303.39846  21123384.832    21123384.766
 -22965768.32949 -17895398.89547  20810288.682    20810289.357
   4621424.22348                  24658277.646
 -10890197.43349  -8485863.91545  22969969.183    22969968.467
 -24779654.86649 -19308822.46447  20170201.883    20170202.594
    -89295.00648                  25219517.350
  -1518116.89248  -1182948.27744  25319279.774    25319281.706
 -11009963.50148  -8579193.84245  22994010.803    22994012.554
 02  1  4  2  8  0.0000000  0  8G20G 1G29G13G22G 3G27G25
 -22119047.89049 -17235618.80846  21134053.090    21134053.534
 -23010957.82349 -17930611.52447  20801689.698    20801690.178
   4713941.25748                  24675882.762
 -10977451.30949  -8553853.95945  22953365.576    22953364.095
 -24780684.40849 -19309624.74047  20170005.986    20170006.811
   -178650.02348                  25202513.233
  -1601889.97848  -1248226.00844  25303337.514    25303340.081
 -10932518.86149  -8518847.49845  23008749.151    23008749.695
 02  1  4  2  8 30.0000000  0  8G20G 1G29G13G22G 3G27G25
 -22062461.76549 -17191525.77946  21144821.019    21144821.419
 -23055871.52849 -17965609.24747  20793142.779    20793143.273
   4806581.12748                  24693512.096
 -11064603.33549  -8621764.62845  22936780.471    22936778.594
 -24781055.89349 -19309914.24447  20169935.274    20169936.018
   -268078.29448                  25185495.299
  -1685605.31248  -1313458.74944  25287407.874    25287407.278
 -10854984.95248  -8458431.59045  23023502.848    23023504.459
 02  1  4  2  9  0.0000000  0  8G20G 1G29G13G22G 3G27G25
 -22005341.90349 -17147016.84646  21155690.921    21155691.034
 -23100496.77949 -18000382.20147  20784650.926    20784651.423
   4899354.40748                  24711166.107
 -11151641.07749  -8689586.25545  22920218.189    22920217.320
 -24780758.37549 -19309682.44847  20169991.642    20169992.557
   -357565.91248                  25168466.096
  -1769251.31948  -1378637.46744  25271489.992    25271490.383
 -10777350.79248  -8397937.57845  23038276.057    23038277.722
 02  1  4  2  9 30.0000000  0  7G20G13G 1G29G22G27G25
 -21947693.19949 -17102095.83346  21166660.639    21166661.162
 -11238565.78549  -8757319.81445  22903676.108    22903675.365
 -23144834.90249 -18034931.41847  20776213.976    20776214.474
   4992257.58848                  24728844.883
 -24779794.94449 -19308931.75747  20170175.052    20170176.048
  -1852830.33048  -1443763.95544  25255585.783    25255587.204
 -10699620.30048  -8337368.51345  23053068.427    23053070.014
 02  1  4  2 10  0.0000000  0  8G20G13G 1G29G22G 3G27G25
 -21889519.84949 -17056766.00146  21177730.733    21177731.168
 -11325378.28749  -8824965.90845  22887157.337    22887155.859
 -23188886.82349 -18069257.62347  20767830.789    20767831.258
   5085287.61548                  24746548.370
 -24778168.14549 -19307664.15547  20170484.595    20170485.697
         -.86858                  25134372.725
  -1936344.61148  -1508840.02644  25239693.215    25239696.428
 -10621796.90848  -8276727.04145  23067877.604    23067878.707
 02  1  4  2 10 30.0000000  0  8G20G13G 1G29G22G 3G27G25
 -21830824.96049 -17011029.77846  21188900.243    21188900.701
 -11412078.21049  -8892524.30745  22870658.300    22870657.767
 -23232652.27649 -18103360.59947  20759502.345    20759502.767
   5178442.31648                  24764275.876
 -24775879.66649 -19305880.96247  20170920.142    20170921.250
    -89664.41548                  25117310.866
  -2019794.81148  -1573866.19044  25223813.244    25223811.769
 -10543882.69548  -8216014.78945  23082704.153    23082705.799
 02  1  4  2 11  0.0000000  0  8G20G13G 1G29G22G 3G27G25
 -21771613.25149 -16964890.84246  21200167.894    21200168.496
 -11498667.17249  -8959996.23845  22854181.405    22854180.233
 -23276132.57049 -18137241.37547  20751228.484    20751229.134
   5271718.26548                  24782025.048
 -24772932.75649 -19303584.70447  20171481.152    20171482.366
   -179385.49848                  25100237.096
  -2103183.55648  -1638844.40844  25207944.391    25207946.380
 -10465881.26448  -8155234.61145  23097547.885    23097548.850
 02  1  4  2 11 30.0000000  0  7G20G13G 1G29G22G27G25
 -21711884.20949 -16918348.78646  21211533.667    21211534.450
 -11585141.23849  -9027378.64345  22837725.975    22837724.582
 -23319323.95649 -18170897.02747  20743009.421    20743010.056
   5365116.83948                  24799798.991
 -24769325.56849 -19300773.94747  20172167.551    20172168.675
  -2186507.98448  -1703772.52344  25192088.910    25192088.365
 -10387791.07448  -8094385.24045  23112407.793    23112409.682
 02  1  4  2 12  0.0000000  0  7G20G13G 1G29G22G27G25
 -21651646.87249 -16871410.66046  21222996.582    21222997.064
 -11671505.40149  -9094675.40145  22821291.060    22821290.215
 -23362231.72349 -18204331.68047  20734844.268    20734844.914
   5458630.61448                  24817594.279
 -24765065.27249 -19297454.27347  20172978.170    20172979.336
  -2269774.84348  -1768655.77344  25176244.198    25176246.621
 -10309620.07948  -8033472.94045  23127283.251    23127285.654
 02  1  4  2 12 30.0000000  0  7G20G13G25G 1G29G22G27
 -21590887.41849 -16824065.68646  21234559.045    21234559.847
 -11757742.92449  -9161873.48145  22804880.794    22804879.939
 -10231353.04148  -7972485.78045  23142177.436    23142177.794
 -23404838.49849 -18237531.80147  20726736.840    20726737.431
   5552274.54548                  24835413.820
 -24760136.49249 -19293613.70347  20173915.930    20173917.194
  -2352967.77648  -1833481.46044  25160412.857    25160414.980
 02  1  4  2 13  0.0000000  0  8G20G13G25G 1G29G22G 3G27
 -21529623.92449 -16776327.95646  21246216.865    21246217.418
 -11843868.21549  -9228984.11145  22788491.881    22788489.891
 -10153006.76248  -7911436.87845  23157086.351    23157087.349
 -23447158.74349 -18270508.65247  20718683.793    20718684.395
   5646031.77048                  24853256.559
 -24754555.69449 -19289265.06847  20174977.982    20174979.305
        -1.16058                  25031846.606
  -2436102.49548  -1898261.77244  25144593.578    25144594.221
 02  1  4  2 13 30.0000000  0  8G20G13G25G 1G29G22G 3G27
 -21467849.33449 -16728191.96846  21257972.381    21257972.944
 -11929870.83049  -9295999.15845  22772125.799    22772125.582
 -10074573.03548  -7850319.83945  23172011.824    23172014.188
 -23489182.14749 -18303254.19247  20710687.075    20710687.596
   5739910.66948                  24871119.816
 -24748314.53949 -19284401.87147  20176165.364    20176166.776
    -89958.09648                  25014728.953
  -2519169.67948  -1962989.49644  25128785.549    25128786.681
 02  1  4  2 14  0.0000000  0  8G20G13G25G 1G29G22G 3G27
 -21405572.09349 -16679664.30546  21269823.443    21269823.886
 -12015755.32649  -9362922.14945  22755783.004    22755781.206
  -9996059.37248  -7789140.51245  23186953.012    23186954.629
 -23530913.72749 -18335772.33747  20702745.449    20702746.119
   5833903.77848                  24889008.177
 -24741420.08149 -19279029.60847  20177477.754    20177479.000
   -179957.81048                  24997602.182
  -2602175.61348  -2027669.44844  25112990.662    25112993.588
 02  1  4  2 14 30.0000000  0  7G20G13G25G 1G22G 3G27
 -21342785.84949 -16630740.01946  21281771.009    21281771.795
 -12101511.73949  -9429745.35545  22739463.629    22739462.151
  -9917457.65048  -7727892.57745  23201909.881    23201911.981
 -23572343.26849 -18368055.13947  20694861.600    20694862.240
 -24733864.18449 -19273141.93547  20178915.869    20178917.075
   -269988.49348                  24980470.370
  -2685111.21348  -2092294.57544  25097208.445    25097209.443
 02  1  4  2 15  0.0000000  0  8G20G13G25G 1G 4G22G 3G27
 -21279499.65449 -16581426.16146  21293814.520    21293815.293
 -12187145.65549  -9496473.09445  22723168.401    22723167.933
  -9838776.02348  -7666582.38545  23216883.132    23216884.521
 -23613476.39549 -18400106.96547  20687034.245    20687034.876
         -.49558                  24975952.876
 -24725654.55949 -19266744.86747  20180477.596    20180478.905
   -360054.70348                  24963330.915
  -2767983.45048  -2156870.36444  25081438.275    25081441.438
 02  1  4  2 15 30.0000000  0  8G20G13G25G 1G 4G22G 3G27
 -21215717.36149 -16531725.73746  21305951.502    21305952.143
 -12272657.08949  -9563105.39845  22706895.631    22706895.272
  -9760017.10248  -7605211.95845  23231870.734    23231872.521
 -23654313.22449 -18431927.90047  20679263.506    20679264.038
     31947.52548     24894.72144  24982032.279    24982032.186
 -24716793.55349 -19259840.22747  20182163.777    20182165.275
   -450155.30648   -350769.60744  24946186.526    24946187.076
  -2850793.47148  -2221397.61144  25065679.866    25065680.253
 02  1  4  2 16  0.0000000  0  8G20G13G25G 1G 4G22G 3G27
 -21151438.36449 -16481638.26746  21318183.275    21318183.778
 -12358041.73049  -9629638.90445  22690648.621    22690647.265
  -9681178.49148  -7543779.44045  23246872.623    23246874.491
 -23694849.58849 -18463514.71647  20671549.840    20671550.366
     64340.37748     50135.87544  24988196.826    24988195.482
 -24707279.07749 -19252426.39147  20183974.514    20183976.147
   -540284.51048                  24929035.365
  -2933538.30348  -2285874.13544  25049933.870    25049935.545
 02  1  4  2 16 30.0000000  0  8G20G13G25G 1G 4G22G 3G27
 -21086663.83449 -16431164.66946  21330509.929    21330510.674
 -12443297.46149  -9696071.96845  22674423.538    22674422.735
  -9602260.28048  -7482284.88445  23261891.165    23261893.002
 -23735083.06649 -18494865.51547  20663893.654    20663894.084
     97177.05748     75722.88644  24994445.879    24994446.751
 -24697111.06749 -19244503.30847  20185909.496    20185910.907
   -630438.83748                  24911878.564
  -3016216.74948  -2350298.87444  25034201.426    25034201.762
 02  1  4  2 17  0.0000000  0  8G20G13G25G 1G 4G22G 3G27
 -21021400.63049 -16380310.28646  21342929.127    21342929.690
 -12528427.25649  -9762406.89745  22658225.048    22658224.366
  -9523267.93248  -7420732.57145  23276922.641    23276925.049
 -23775016.76349 -18525982.72147  20656294.740    20656295.298
    130451.39248    101650.89244  25000777.083    25000780.110
 -24686294.65449 -19236074.97647  20187967.964    20187969.439
   -720619.88648                  24894717.814
  -3098833.33748  -2414675.44744  25018478.962    25018480.019
 02  1  4  2 17 30.0000000  0  8G20G13G25G 1G 4G22G 3G27
 -20955637.48049 -16329066.34246  21355443.341    21355443.961
 -12613415.99949  -9828631.92645  22642051.885    22642050.687
  -9444188.69248  -7359112.55845  23291970.251    23291973.386
 -23814635.72649 -18556854.67347  20648755.440    20648755.970
    164174.74748                  25007193.630
 -24674817.15149 -19227131.50747  20190152.206    20190153.520
   -810811.41848                  24877554.644
  -3181373.98348  -2478992.83144  25002772.897    25002772.405
 02  1  4  2 18  0.0000000  0  8G20G13G25G 1G 4G22G 3G27
 -20889374.47649 -16277432.90246  21368053.151    21368053.532
 -12698260.13449  -9894744.26245  22625905.989    22625905.543
  -9365021.39048  -7297423.91645  23307036.902    23307038.104
 -23853936.64349 -18587478.79047  20641276.751    20641277.286
    198347.45048                  25013695.947
 -24662677.50149 -19217672.08447  20192462.183    20192463.433
   -901008.75048                  24860390.231
  -3263836.54248  -2543249.34144  24987080.261    24987082.883
 02  1  4  2 18 30.0000000  0  8G20G13G25G 1G 4G22G 3G27
 -20822622.78749 -16225418.66346  21380755.584    21380756.280
 -12782966.83949  -9960749.52045  22609788.108    22609786.299
  -9285775.87548  -7235674.33345  23322115.905    23322119.083
 -23892927.08749 -18617861.00047  20633857.164    20633857.594
    232958.58548                  25020282.446
 -24649885.35949 -19207704.22447  20194896.755    20194898.024
   -991217.71248                  24843224.223
  -3346229.69848  -2607451.80544  24971401.716    24971404.055
 02  1  4  2 19  0.0000000  0  8G20G13G25G 1G 4G22G 3G27
 -20755387.84749 -16173027.87346  21393549.825    21393550.821
 -12867537.98349 -10026649.13845  22593693.354    22593692.267
  -9206456.16848  -7173866.92545  23337210.130    23337211.221
 -23931608.62849 -18648002.51047  20626496.410    20626496.830
    268003.09248                  25026951.754
 -24636444.75349 -19197231.07047  20197454.438    20197455.646
  -1081438.68648                  24826055.560
  -3428556.30148  -2671602.40844  24955734.916    24955737.332
 02  1  4  2 19 30.0000000  0  8G20G13G25G 1G 4G22G 3G27
 -20687672.48349 -16120262.72546  21406435.654    21406436.243
 -12951972.35949 -10092442.19445  22577627.203    22577626.258
  -9127063.17148  -7112002.40045  23352318.674    23352319.250
 -23969980.34049 -18677902.58947  20619194.315    20619194.740
    303478.42448                  25033703.619
 -24622357.16749 -19186253.77447  20200135.112    20200136.413
  -1171669.55848                  24808885.477
  -3510816.63548  -2735701.37944  24940081.497    24940083.281
 02  1  4  2 20  0.0000000  0  8G20G13G25G 1G 4G22G 3G27
 -20619481.02949 -16067126.59546  21419412.385    21419413.255
 -13036270.16749 -10158128.83646  22561585.257    22561584.603
  -9047600.19348  -7050083.36545  23367439.307    23367442.209
 -24008042.68949 -18707561.60047  20611951.413    20611951.887
    339380.69548    264452.84544  25040535.302    25040530.965
 -24607625.37349 -19174774.49947  20202938.356    20202939.797
  -1261909.21148                  24791712.429
  -3593012.35748  -2799750.01044  24924440.097    24924440.582
 02  1  4  2 20 30.0000000  0  8G20G13G25G 1G 4G22G 3G27
 -20550811.47449 -16013617.92046  21432479.323    21432480.435
 -13120425.94949 -10223704.79846  22545570.978    22545569.752
  -8968063.45848  -6988106.89345  23382574.869    23382578.375
 -24045789.93849 -18736975.08947  20604768.505    20604768.927
    375712.33748                  25047448.705
 -24592246.09149 -19162790.69147  20205864.896    20205866.230
  -1352150.90648                  24774540.474
  -3675138.99048  -2863744.76644  24908812.329    24908815.974
 02  1  4  2 21  0.0000000  0  8G20G13G25G 1G 4G22G 3G27
 -20481660.34849 -15959734.00146  21445638.651    21445639.277
 -13204432.21749 -10289164.26846  22529585.847    22529584.742
  -8888447.91548  -6926068.95645  23397725.832    23397727.439
 -24083214.76449 -18766137.33847  20597646.724    20597647.424
    412477.05148                  25054444.685
 -24576214.48049 -19150298.57247  20208915.599    20208917.018
  -1442385.48848                  24757370.160
  -3757190.51948  -2927681.01044  24893198.056    24893199.505
 02  1  4  2 21 30.0000000  0  8G20G13G25G 1G 4G22G 3G27
 -20412039.65149 -15905484.17846  21458887.022    21458887.750
 -13288297.29449 -10354513.71746  22513625.858    22513625.377
  -8808764.23848  -6863977.98645  23412888.421    23412892.134
 -24120325.44749 -18795054.80047  20590584.910    20590585.526
    449662.92648                  25061519.800
 -24559541.44749 -19137306.64547  20212088.612    20212089.991
  -1532619.90748                  24740198.981
  -3839176.48048  -2991566.20644  24877597.291    24877598.083
 02  1  4  2 22  0.0000000  0  8G20G13G25G 1G 4G22G 3G27
 -20341954.40149 -15850872.37446  21472224.149    21472224.585
 -13372021.91949 -10419753.71846  22497694.389    22497693.166
  -8729015.45048  -6801836.27445  23428064.949    23428066.366
 -24157123.14049 -18823728.37847  20583582.713    20583583.474
    487265.65948                  25068675.464
 -24542230.42649 -19123817.58347  20215382.843    20215384.330
  -1622853.69448                  24723027.815
  -3921099.00048  -3055401.91044  24862006.807    24862011.242
 02  1  4  2 22 30.0000000  0  8G20G13G25G 1G 4G22G 3G27
 -20271401.90249 -15795896.47646  21485649.977    21485650.624
 -13455599.49949 -10484879.15146  22481789.621    22481789.840
  -8649197.59448  -6739640.72945  23443253.746    23443257.355
 -24193601.52349 -18852153.15447  20576640.893    20576641.767
    525288.09348                  25075911.342
 -24524277.64649 -19109828.45047  20218799.449    20218800.895
  -1713079.45648                  24705858.182
  -4002953.00848  -3119184.29044  24846432.145    24846433.207
 02  1  4  2 23  0.0000000  0  8G20G13G25G 1G 4G22G 3G27
 -20200384.57449 -15740558.37546  21499164.234    21499164.762
 -13539028.45549 -10549888.76246  22465914.034    22465913.296
  -8569311.24248  -6677391.81345  23458455.210    23458457.480
 -24229759.00149 -18880327.86147  20569760.360    20569761.211
    563728.33248                  25083227.195
 -24505683.97749 -19095339.92147  20222337.807    20222339.145
  -1803293.88448                  24688691.589
  -4084738.11948  -3182912.94444  24830867.386    24830868.742
 02  1  4  2 23 30.0000000  0  8G20G13G25G 1G 4G22G 3G27
 -20128904.24549 -15684859.49246  21512766.404    21512767.418
 -13622306.25349 -10614780.60446  22450067.536    22450064.713
  -8489356.42948  -6615089.56145  23473671.303    23473674.997
 -24265593.58649 -18908250.96047  20562941.180    20562942.254
    602584.83448    469546.75644  25090621.979    25090620.988
 -24486450.04849 -19080352.48747  20225997.765    20225999.140
  -1893493.48848                  24671527.065
  -4166453.56948  -3246587.29544  24815319.161    24815320.323
 02  1  4  2 24  0.0000000  0  8G20G13G25G 1G 4G22G 3G27
 -20056951.05449 -15628792.15146  21526458.657    21526459.103
 -13705419.36949 -10679544.11846  22434250.139    22434248.686
  -8409321.69048  -6552725.04345  23488900.554    23488903.644
 -24301091.56649 -18935911.77147  20556186.189    20556187.200
    641867.72848                  25098096.480
 -24466564.61249 -19064857.38847  20229782.036    20229783.457
  -1983663.17048                  24654369.093
  -4248086.77048  -3310197.66744  24799783.621    24799785.614
 02  1  4  2 24 30.0000000  0  8G20G13G 1G 4G22G 3G27G25
 -19984544.29749 -15572371.37846  21540237.339    21540237.893
 -13788383.11249 -10744191.23046  22418463.886    22418462.762
 -24336268.31449 -18963322.26947  20549492.146    20549493.042
    681558.19648                  25105648.774
 -24446045.84549 -19048868.78147  20233686.641    20233687.951
  -2073816.87448                  24637212.781
  -4329654.43048  -3373756.92944  24784262.236    24784259.035
  -8329224.98648  -6490312.22445  23504143.193    23504144.860
 02  1  4  2 25  0.0000000  0  8G20G13G 1G 4G22G 3G27G25
 -19911676.87049 -15515591.64946  21554103.445    21554104.430
 -13871186.29249 -10808713.23146  22402706.315    22402705.292
 -24371112.87849 -18990473.92147  20542861.680    20542862.712
    721663.38248                  25113279.411
 -24424885.41649 -19032380.18347  20237713.309    20237714.730
  -2163942.48748                  24620062.809
  -4411146.80848  -3437257.46144  24768754.797    24768754.332
  -8249057.55848  -6427844.30145  23519398.852    23519401.239
 02  1  4  2 25 30.0000000  0  8G20G13G 1G 4G22G 3G27G25
 -19838346.84949 -15458451.45246  21568057.988    21568058.792
 -13953822.60949 -10873105.21646  22386981.721    22386980.425
 -24405619.45049 -19017362.21047  20536295.452    20536296.421
    762185.81148                  25120991.203
 -24403080.02049 -19015389.01547  20241862.708    20241864.252
  -2254032.41048                  24602919.488
  -4492559.34148  -3500695.75944  24753261.441    24753261.345
  -8168815.36148  -6365318.13545  23534667.711    23534671.337
 02  1  4  2 26  0.0000000  0  8G20G13G 1G 4G22G 3G27G25
 -19764567.01449 -15400960.75746  21582097.752    21582098.498
 -14036300.92249 -10937374.07646  22371287.234    22371286.509
 -24439796.84149 -19043993.99547  20529791.674    20529792.502
    803112.96248    625802.38844  25128779.766    25128782.920
 -24380641.11749 -18997904.20547  20246132.634    20246134.174
  -2344093.86248                  24585782.229
  -4573901.79548  -3564079.47044  24737783.151    24737784.129
  -8088509.23248  -6302742.16145  23549950.609    23549953.259
 02  1  4  2 26 30.0000000  0  8G20G 1G 4G13G22G 3G27G25
 -19690333.88749 -15343116.84846  21596223.657    21596224.195
 -24473637.58449 -19070363.45247  20523352.133    20523353.011
    844448.80648                  25136645.799
 -14118613.43849 -11001513.74346  22355622.126    22355621.331
 -24357564.15049 -18979922.20247  20250524.015    20250525.599
  -2434117.81648                  24568650.655
  -4655168.12348  -3627403.87644  24722318.452    24722324.044
  -8008134.11148  -6240112.38845  23565245.466    23565247.632
 02  1  4  2 27  0.0000000  0  8G20G 1G 4G13G22G 3G27G25
 -19615653.21049 -15284924.20046  21610434.897    21610436.201
 -24507143.81049 -19096472.24947  20516976.203    20516977.055
    886187.66248                  25144589.414
 -14200761.83749 -11065525.52546  22339991.352    22339989.094
 -24333853.80649 -18961446.65947  20255036.092    20255037.627
  -2524104.70048                  24551526.481
  -4736361.40248  -3690671.32844  24706869.025    24706871.259
  -7927694.22248  -6177432.17545  23580552.040    23580555.443
 02  1  4  2 27 30.0000000  0  8G20G 1G 4G13G22G 3G27G25
 -19540533.93849 -15226389.78946  21624730.219    21624730.873
 -24540320.21249 -19122324.03747  20510662.720    20510663.719
    928321.03348                  25152607.353
 -14282750.93649 -11129413.18946  22324388.357    22324387.328
 -24309517.60449 -18942483.43147  20259667.222    20259668.684
  -2614058.10348                  24534408.745
  -4817487.97448  -3753886.81544  24691429.034    24691430.147
  -7847196.58648  -6114706.96745  23595871.656    23595875.039
 02  1  4  2 28  0.0000000  0  8G20G 1G 4G13G22G 3G27G25
 -19464978.07349 -15167515.17846  21639107.758    21639109.248
 -24573164.76149 -19147917.24247  20504412.592    20504413.538
    970847.14248                  25160699.091
 -14364578.55449 -11193175.01646  22308816.819    22308816.976
 -24284556.40649 -18923033.19647  20264417.056    20264418.540
  -2703974.60848                  24517298.787
  -4898547.10248  -3817049.76344  24676006.166    24676005.742
  -7766641.51448  -6051937.00745  23611200.238    23611203.346
 02  1  4  2 28 30.0000000  0  8G20G 1G 4G13G22G 3G27G25
 -19388976.88249 -15108293.55446  21653570.666    21653571.417
 -24605664.63149 -19173241.86847  20498228.168    20498229.148
   1013775.04447                  25168865.650
 -14446231.65249 -11256800.86046  22293280.404    22293278.137
 -24258960.38249 -18903088.29147  20269287.907    20269289.470
  -2793839.92348                  24500196.892
  -4979526.93948  -3880150.95044  24660595.832    24660600.084
  -7686018.31348  -5989113.95445  23626541.972    23626545.812
 02  1  4  2 29  0.0000000  0  8G20G 1G 4G13G22G 3G27G25
 -19312532.89149 -15048726.90146  21668117.368    21668118.559
 -24637818.43649 -19198296.83747  20492109.316    20492110.255
   1057102.92947                  25177111.339
 -14527708.43649 -11320289.31246  22277774.043    22277773.541
 -24232730.68049 -18882649.61247  20274279.302    20274280.858
  -2883650.93448                  24483107.585
  -5060427.50848                  24645199.766
  -7605327.50948  -5926238.24845  23641898.265    23641901.489
 02  1  4  2 29 30.0000000  0  8G20G 1G 4G13G22G 3G27G25
 -19235649.81349 -14988818.09346  21682747.975    21682749.017
 -24669625.96549 -19223081.97247  20486056.487    20486057.558
   1100827.11248                  25185433.155
 -14609008.42449 -11383639.99146  22262304.089    22262303.794
 -24205870.03849 -18861719.29547  20279390.774    20279392.384
  -2973405.94648                  24466026.798
  -5141249.77548                  24629819.679
  -7524570.94848  -5863311.28645  23657265.774    23657268.062
 02  1  4  2 30  0.0000000  0  8G20G 1G 4G13G22G 3G27G25
 -19158347.68849 -14928582.77246  21697458.060    21697459.156
 -24701103.26549 -19247609.78847  20480066.720    20480067.841
   1144928.00348                  25193825.636
 -14690147.12549 -11446865.00746  22246864.166    22246863.227
 -24178397.25549 -18840311.98447  20284618.926    20284620.553
  -3063119.43848                  24448954.728
  -5222010.95648                  24614451.632
  -7443766.74748  -5800347.22145  23672642.185    23672644.317
 02  1  4  2 30 30.0000000  0  8G20G 1G 4G13G22G 3G27G25
 -19080615.52349 -14868012.34046  21712249.974    21712251.036
 -24732235.67049 -19271868.85647  20474142.733    20474143.892
   1189416.53348                  25202292.289
 -14771109.88649 -11509952.92446  22231456.675    22231455.714
 -24150300.34549 -18818418.34347  20289965.662    20289967.250
  -3152774.86148  -2456706.38044  24431894.724    24431898.803
  -5302697.35148                  24599098.217
  -7362902.24048  -5737336.16545  23688030.617    23688032.551
 02  1  4  2 31  0.0000000  0  8G20G 1G 4G13G22G 3G27G25
 -19002457.50349 -14807110.08146  21727123.164    21727123.771
 -24763022.97649 -19295859.01347  20468284.022    20468285.110
   1234289.35047                  25210829.163
 -14851896.36749 -11572903.47746  22216084.358    22216083.541
 -24121582.27349 -18796040.68147  20295430.409    20295432.038
  -3242370.88048                  24414844.160
  -5383310.20248  -4194784.70745  24583756.356    24583753.186
  -7281979.54248  -5674279.74345  23703429.938    23703434.142
 02  1  4  2 31 30.0000000  0  8G20G 1G 4G13G22G 3G27G25
 -18923869.26749 -14745872.58846  21742077.898    21742079.029
 -24793456.65349 -19319573.62047  20462492.772    20462493.909
   1279550.96347                  25219440.928
 -14932497.66249 -11635709.72546  22200745.871    22200745.744
 -24092237.60049 -18773174.75947  20301014.297    20301015.884
  -3331897.36148  -2596282.20844  24397807.932    24397813.873
  -5463842.29348  -4257530.33346  24568433.907    24568434.199
  -7200992.30448  -5611173.06245  23718841.459    23718845.203
 02  1  4  2 32  0.0000000  0  8G20G 1G 4G13G22G 3G27G25
 -18844860.22449 -14684307.19346  21757113.239    21757114.233
 -24823542.09149 -19343016.87547  20456767.878    20456768.913
   1325192.33847                  25228127.964
 -15012918.69249 -11698375.51146  22185442.686    22185442.902
 -24062274.48249 -18749826.93147  20306716.207    20306717.819
  -3421358.18948                  24380784.294
  -5544300.15348  -4320229.97745  24553121.877    24553122.342
  -7119947.93548  -5548021.83645  23734264.045    23734265.824
 02  1  4  2 32 30.0000000  0  8G20G 1G 4G13G22G 3G27G25
 -18765432.49849 -14622415.55146  21772227.665    21772228.419
 -24853277.70249 -19366187.52747  20451109.071    20451110.159
   1371211.43548                  25236885.948
 -15093157.06549 -11760898.96746  22170173.817    22170173.230
 -24031694.31349 -18725998.28847  20312535.517    20312537.097
  -3510750.16948                  24363773.361
  -5624683.41848                  24537825.916
  -7038846.71248  -5484826.32145  23749696.826    23749700.446
 02  1  4  2 33  0.0000000  0  8G20G 1G 4G13G22G 3G27G25
 -18685592.72349 -14560202.83646  21787420.647    21787421.533
 -24882665.77049 -19389087.37547  20445516.599    20445517.727
   1417602.11148                  25245714.185
 -15173215.11249 -11823281.90746  22154938.647    22154938.974
 -24000502.29749 -18701692.88147  20318471.058    20318472.657
  -3600411.50947                  24346772.942
  -5704995.38048                  24522543.281
  -6957692.83148  -5421589.79945  23765139.910    23765142.998
 02  1  4  2 33 30.0000000  0  8G20G 1G 4G13G22G 3G27G25
 -18605332.90049 -14497662.80846  21802693.651    21802694.854
 -24911694.29949 -19411707.06147  20439992.799    20439994.044
   1464372.76847                  25254612.944
 -15253080.89849 -11885515.03946  22139741.505    22139740.861
 -23968689.47049 -18676903.72447  20324525.041    20324526.478
  -3690403.19647                  24329791.066
  -5785225.38848  -4507968.38544  24507275.113    24507282.473
  -6876476.67048  -5358304.73844  23780595.901    23780599.928
 02  1  4  2 34  0.0000000  0  7G20G 1G 4G13G22G27G25
 -18524663.93849 -14434803.97546  21818044.620    21818046.354
 -24940370.18649 -19434051.95347  20434536.123    20434537.231
   1511512.84947                  25263583.505
 -15332760.71249 -11947603.24746  22124578.273    22124577.802
 -23936265.66549 -18651638.48347  20330695.409    20330696.878
  -5865381.38348  -4570427.58844  24492022.969    24492026.039
  -6795207.04148  -5294977.97844  23796060.519    23796063.448
 02  1  4  2 34 30.0000000  0  7G20G 1G 4G13G22G27G25
 -18443589.71149 -14371629.35646  21833472.444    21833473.412
 -24968693.10049 -19456121.80547  20429146.762    20429147.874
   1559018.85348                  25272624.633
 -15412253.86349 -12009546.01346  22109451.919    22109451.350
 -23903233.72849 -18625899.37747  20336981.310    20336982.852
  -5945464.34548  -4632829.92344  24476783.900    24476785.120
  -6713885.74148  -5231610.57445  23811534.985    23811538.088
 02  1  4  2 35  0.0000000  0  8G20G 1G 4G13G22G 3G27G25
 -18362123.71449 -14308149.44246  21848974.946    21848976.376
 -24996672.32449 -19477923.84647  20423822.796    20423823.949
   1606877.40148                  25281732.548
 -15491569.22349 -12071350.23946  22094359.049    22094358.215
 -23869606.06449 -18599696.06847  20343380.284    20343381.839
        -1.16658         -.65054  24278933.953    24278938.822
  -6025484.93948  -4695183.65344  24461556.650    24461559.601
  -6632524.45348  -5168211.95544  23827019.254    23827023.310
 02  1  4  2 35 30.0000000  0  7G20G 1G13G22G 3G27G25
 -18280247.09649 -14244349.57946  21864555.438    21864556.977
 -25024285.14449 -19499440.38347  20418568.128    20418569.148
 -15570683.90449 -12132998.09646  22079303.000    22079302.787
 -23835362.97249 -18573013.20347  20349896.666    20349898.262
    -88922.49748    -69289.96644  24262012.356    24262018.715
  -6105421.54048  -4757471.97644  24446344.893    24446346.971
  -6551102.04948  -5104766.14745  23842512.622    23842517.785
 02  1  4  2 36  0.0000000  0  7G20G13G 1G22G 3G27G25
 -18197967.45349 -14180235.67646  21880213.000    21880214.298
 -15649600.73849 -12194491.78546  22064286.601    22064285.430
 -25051535.00449 -19520674.09147  20413382.632    20413383.700
 -23800510.99749 -18545855.88647  20356529.070    20356530.671
   -177750.39648   -138506.39744  24245109.425    24245119.602
  -6185278.65048  -4819698.32844  24431149.249    24431150.575
  -6469623.70848  -5041276.79544  23858017.120    23858021.076
 02  1  4  2 36 30.0000000  0  7G20G13G 1G22G 3G27G25
 -18115297.50949 -14115817.63246  21895944.637    21895946.081
 -15728328.05149 -12255837.79946  22049304.793    22049304.263
 -25078430.54149 -19541631.70247  20408264.525    20408265.685
 -23765061.87649 -18518233.26047  20363274.774    20363276.476
   -266492.12248   -207655.80844  24228221.975    24228228.586
  -6265066.15948  -4881870.45144  24415965.479    24415970.354
  -6388100.53648  -4977752.54745  23873531.598    23873536.026
 02  1  4  2 37  0.0000000  0  7G20G 1G13G22G 3G27G25
 -18032222.92749 -14051084.29446  21911753.757    21911754.958
 -25104953.13449 -19562298.70147  20403217.311    20403218.562
 -15806846.81549 -12317021.30046  22034362.985    22034362.668
 -23729000.12449 -18490133.25947  20370136.964    20370138.681
   -355127.23148   -276722.04944  24211355.143    24211359.934
  -6344766.76448  -4943974.89844  24400799.316    24400801.724
  -6306515.76548  -4914180.26345  23889056.422    23889059.376
 02  1  4  2 37 30.0000000  0  7G20G 1G13G22G 3G27G25
 -17948752.23249 -13986042.29246  21927637.325    21927638.727
 -25131107.16849 -19582678.52247  20398240.297    20398241.387
 -15885160.92949 -12378045.34246  22019461.213    22019459.683
 -23692333.37149 -18461561.82847  20377114.452    20377115.997
   -443658.67848   -345707.57144  24194507.800    24194514.685
  -6424386.01548  -5006015.90544  24385648.281    24385649.730
  -6224876.08048  -4850565.23545  23904591.875    23904597.296
 02  1  4  2 38  0.0000000  0  7G20G 1G13G22G 3G27G25
 -17864888.77249 -13920694.24046  21943596.622    21943597.751
 -25156891.67549 -19602770.39347  20393333.618    20393334.792
 -15963269.28749 -12438909.04846  22004596.984    22004596.393
 -23655063.91049 -18432520.75547  20384206.789    20384208.257
   -532083.82648   -414610.23244  24177681.776    24177688.352
  -6503924.07648  -5067993.69444  24370513.448    24370515.007
  -6143182.04848  -4786907.80045  23920139.255    23920142.407
 02  1  4  2 38 30.0000000  0  7G20G 1G13G22G 3G27G25
 -17780634.62649 -13855041.75246  21959629.428    21959630.506
 -25182304.97949 -19622573.00947  20388497.928    20388499.186
 -16041169.46649 -12499610.54146  21989773.283    21989772.843
 -23617193.07549 -18403011.07547  20391413.434    20391414.999
   -620399.31048   -483427.43644  24160875.706    24160883.897
  -6583380.66248  -5129907.98244  24355392.211    24355394.715
  -6061434.13048  -4723208.42945  23935694.843    23935702.425
 02  1  4  2 39  0.0000000  0  7G20G 1G13G22G 3G27G25
 -17696003.95349 -13789095.88046  21975734.524    21975735.983
 -25207356.82049 -19642093.97647  20383730.796    20383731.924
 -16118870.92449 -12560157.19346  21974987.313    21974986.937
 -23578733.84749 -18373042.90847  20398731.731    20398733.455
   -708613.17548   -552165.41244  24144088.860    24144095.364
  -6662766.31948  -5191767.00844  24340286.568    24340285.760
  -5979643.96248  -4659476.13345  23951259.094    23951264.068
 02  1  4  2 39 30.0000000  0  7G20G13G 1G22G 3G27G25
 -17610993.07249 -13722853.73246  21991911.015    21991912.748
 -16196365.52349 -12620542.64846  21960240.430    21960239.671
 -25232039.65549 -19661327.40547  20379033.927    20379035.102
 -23539681.81849 -18342612.81647  20406162.950    20406164.612
   -796716.30648   -620817.18044  24127323.772    24127328.300
  -6742074.83848  -5253565.92244  24325194.168    24325194.543
  -5897805.91848  -4595706.50445  23966833.362    23966836.435
 02  1  4  2 40  0.0000000  0  7G20G 1G13G22G 3G27G25
 -17525599.86049 -13656313.66446  22008161.473    22008162.846
 -25256346.99049 -19680268.24047  20374408.530    20374409.648
 -16273646.47749 -12680761.62946  21945534.897    21945534.000
 -23500033.89849 -18311718.39047  20413707.865    20413709.571
   -884700.29248   -689376.04544  24110579.982    24110591.152
  -6821300.89748  -5315300.56744  24310117.860    24310117.633
  -5815915.80748  -4531896.33045  23982415.387    23982420.243
 02  1  4  2 40 30.0000000  0  7G20G13G 1G22G 3G27G25
 -17439842.72049 -13589490.01146  22024480.209    22024482.164
 -16350727.36349 -12740824.71246  21930866.361    21930866.331
 -25280292.91049 -19698927.45147  20369851.807    20369852.863
 -23459807.47849 -18280373.18347  20421362.778    20421364.583
   -972577.64048   -757851.79544  24093858.781    24093865.120
  -6900459.77748  -5376982.90344  24295055.138    24295055.518
  -5733989.27848  -4468057.78245  23998006.363    23998011.075
 02  1  4  2 41  0.0000000  0  7G20G 1G13G22G 3G27G25
 -17353704.16549 -13522369.16146  22040871.735    22040873.551
 -25303856.00949 -19717288.36547  20365368.015    20365369.171
 -16427586.14249 -12800714.72846  21916241.152    21916240.768
 -23418984.22449 -18248562.90847  20429130.916    20429132.859
  -1060325.32348   -826226.59644  24077159.497    24077164.672
  -6979531.32348  -5438597.11944  24280007.932    24280008.514
  -5652006.80548  -4404175.62845  24013608.125    24013611.346
 02  1  4  2 41 30.0000000  0  7G20G 1G13G22G 3G27G25
 -17267196.90349 -13454961.00946  22057334.092    22057335.587
 -25327044.73549 -19735357.55547  20360955.183    20360956.294
 -16504230.95849 -12860438.01246  21901655.878    21901655.637
 -23377575.96849 -18216296.79147  20437010.728    20437012.661
  -1147950.16748   -894505.57044  24060485.747    24060492.881
  -7058524.96648  -5500150.70144  24264976.045    24264978.005
  -5569978.81248  -4340258.00445  24029216.486    24029220.758
 02  1  4  2 42  0.0000000  0  7G20G13G 1G22G 3G27G25
 -17180321.60449 -13387266.06946  22073865.585    22073867.352
 -16580658.04949 -12919991.65246  21887112.184    21887111.789
 -25349855.57849 -19753132.29147  20356614.382    20356615.479
 -23335582.71449 -18183574.82647  20445001.757    20445003.598
  -1235446.85348   -962684.71344  24043836.300    24043842.309
  -7137438.62548  -5561641.90844  24249958.788    24249957.760
  -5487904.02648  -4276303.96445  24044835.846    24044840.836
 02  1  4  2 42 30.0000000  0  7G20G13G 1G22G 3G27G25
 -17093089.28649 -13319292.93346  22090465.741    22090467.431
 -16656873.26449 -12979380.19446  21872609.479    21872608.940
 -25372295.12849 -19770617.70547  20352344.204    20352345.462
 -23293014.15749 -18150404.57547  20453102.466    20453104.243
  -1322820.29248  -1030767.84444  24027208.111    24027218.040
  -7216279.81648  -5623076.67644  24234956.268    24234956.721
  -5405790.98948  -4212320.07645  24060462.059    24060466.128
 02  1  4  2 43  0.0000000  0  7G20G13G 1G22G 3G27G25
 -17005499.54949 -13251041.29046  22107133.441    22107134.875
 -16732871.34149 -13038599.52946  21858147.102    21858146.784
 -25394358.97149 -19787810.37247  20348145.570    20348146.639
 -23249869.09049 -18116785.09547  20461312.739    20461314.459
  -1410064.41948  -1098750.18244  24010607.405    24010614.561
  -7295045.48348  -5684452.54644  24219966.829    24219970.012
  -5323636.73548  -4148304.11845  24076095.512    24076101.239
 02  1  4  2 43 30.0000000  0  7G20G13G 1G22G 3G27G25
 -16917548.86749 -13182508.39546  22123869.626    22123871.871
 -16808644.35249 -13097643.48846  21843728.267    21843727.996
 -25416039.24249 -19804704.15747  20344020.037    20344021.224
 -23206143.27349 -18082713.08247  20469633.547    20469635.594
  -1497169.90348  -1166624.47444  23994031.041    23994039.481
  -7373729.03048  -5745764.47444  24204994.780    24204995.292
  -5241435.63548  -4084251.65445  24091737.647    24091744.639
 02  1  4  2 44  0.0000000  0  7G20G13G 1G22G 3G27G25
 -16829238.03749 -13113694.86046  22140674.903    22140676.938
 -16884188.42349 -13156509.05346  21829352.604    21829352.369
 -25437332.82249 -19821296.62347  20339968.256    20339969.457
 -23161836.88949 -18048188.67647  20478064.756    20478066.784
  -1584131.55848  -1234386.73844  23977482.913    23977489.556
  -7452328.45848  -5807010.88544  24190037.674    24190039.815
  -5159186.30148  -4020161.56845  24107389.978    24107393.952
 02  1  4  2 44 30.0000000  0  7G20G13G 1G22G 3G27G25
 -16740567.49349 -13044601.03646  22157548.336    22157549.879
 -16959499.31849 -13215192.93046  21815021.493    21815020.978
 -25458235.90049 -19837584.79547  20335990.604    20335991.863
 -23116949.33449 -18013211.41547  20486606.719    20486608.794
  -1670943.76448  -1302032.53944  23960962.800    23960970.992
  -7530841.02948  -5868189.60444  24175097.260    24175099.611
  -5076887.01948  -3956032.62945  24123050.493    24123056.876
 02  1  4  2 45  0.0000000  0  7G20G13G 1G22G 3G27G25
 -16651544.02849 -12975232.20846  22174489.092    22174491.506
 -17034579.29649 -13273696.85946  21800734.676    21800734.380
 -25478751.17549 -19853570.78747  20332086.671    20332088.022
 -23071486.88549 -17977786.17947  20495257.765    20495260.011
  -1757607.60948  -1369562.77544  23944470.784    23944480.217
  -7609270.48248  -5929303.50444  24160172.805    24160177.970
  -4994541.82148  -3891867.86945  24138720.990    24138725.317
 02  1  4  2 45 30.0000000  0  7G20G13G 1G22G 3G27G25
 -16562174.71449 -12905593.88346  22191495.672    22191497.030
 -17109430.00749 -13332022.13746  21786490.653    21786490.607
 -25498881.12449 -19869256.52147  20328256.061    20328257.366
 -23025455.31649 -17941917.48147  20504017.253    20504019.516
  -1844123.99648                  23928006.886
  -7687620.36948  -5990355.46944  24145262.616    24145264.267
  -4912155.36448  -3827670.95945  24154398.845    24154404.699
 02  1  4  2 46  0.0000000  0  8G20G13G 1G 2G22G 3G27G25
 -16472470.50249 -12835694.60046  22208565.857    22208567.681
 -17184057.65449 -13390173.61246  21772289.728    21772289.203
 -25518632.68049 -19884647.40847  20324497.537    20324498.843
         -.43457                  24894131.853
 -22978865.07149 -17905613.44947  20512883.165    20512885.357
  -1930497.94848  -1504282.41744  23911570.690    23911576.853
  -7765898.91548  -6051351.82444  24130368.106    24130369.522
  -4829736.48148  -3763448.81245  24170082.362    24170088.511
 02  1  4  2 46 30.0000000  0  8G20G13G 1G 2G22G 3G27G25
 -16382419.86449 -12765525.38546  22225702.161    22225704.104
 -17258446.39149 -13448138.91446  21758134.380    21758134.044
 -25537990.01349 -19899731.10847  20320814.224    20320815.554
    -98908.08948                  24875311.743
 -22931703.55949 -17868864.27947  20521857.765    20521860.150
  -2016711.81248  -1571461.99544  23895164.359    23895172.550
  -7844091.25448  -6112281.00444  24115486.834    24115488.637
  -4747271.02748  -3699190.39145  24185775.870    24185781.207
 02  1  4  2 47  0.0000000  0  8G20G13G 1G 2G22G 3G27G25
 -16292034.42149 -12695095.28046  22242901.735    22242903.224
 -17332602.82349 -13505923.19946  21744022.439    21744022.505
 -25556960.63249 -19914513.46847  20317204.308    20317205.618
   -197731.48648                  24856506.544
 -22883981.86049 -17831678.59647  20530939.009    20530941.237
  -2102771.21648  -1638521.26044  23878787.895    23878797.327
  -7922206.23848  -6173149.85445  24100622.931    24100625.899
  -4664768.60148  -3634903.14945  24201475.743    24201480.992
 02  1  4  2 47 30.0000000  0  8G20G13G 1G 2G22G 3G27G25
 -16201307.86149 -12624399.37745  22260166.397    22260168.829
 -17406515.73449 -13563517.72346  21729957.262    21729957.059
 -25575534.11949 -19928986.37047  20313669.846    20313671.348
   -296459.46547                  24837718.014
 -22835692.83849 -17794050.84847  20540128.404    20540130.438
  -2188663.81948  -1705450.54044  23862443.453    23862450.496
  -8000234.28848  -6233951.04144  24085774.831    24085776.636
  -4582220.25648  -3570580.12245  24217184.310    24217189.363
 02  1  4  2 48  0.0000000  0  8G20G13G 1G 2G22G 3G27G25
 -16110242.20249 -12553439.23845  22277495.851    22277497.854
 -17480182.60749 -13620920.53246  21715939.390    21715938.605
 -25593708.32449 -19943148.14447  20310211.494    20310212.940
   -395089.73948                  24818950.635
 -22786837.88149 -17755982.10947  20549425.400    20549427.548
  -2274386.01248  -1772247.05444  23846131.131    23846137.503
  -8078174.50248  -6294683.74844  24070943.297    24070946.015
  -4499625.76948  -3506221.13045  24232902.595    24232908.717
 02  1  4  2 48 30.0000000  0  8G20G13G 1G 2G22G 3G27G25
 -16018838.80449 -12482215.92145  22294889.669    22294891.661
 -17553599.93949 -13678128.89746  21701968.328    21701968.268
 -25611480.35649 -19956996.52747  20306829.505    20306831.030
   -493619.10447                  24800200.168
 -22737417.67949 -17717472.92247  20558829.717    20558831.715
  -2359933.33348  -1838907.31244  23829852.068    23829857.370
  -8156024.94648  -6355346.50844  24056129.107    24056132.941
  -4416984.03748  -3441825.38845  24248627.959    24248634.269
 02  1  4  2 49  0.0000000  0  8G20G13G 1G 2G22G 3G27G25
 -15927112.87349 -12410741.28845  22312344.853    22312347.069
 -17626777.67749 -13735150.55646  21688043.135    21688042.876
 -25628861.15649 -19970540.06247  20303522.012    20303523.625
   -592057.76748                  24781468.339
 -22687446.41049 -17678534.33447  20568339.121    20568341.227
  -2445314.57348  -1905438.18944  23813604.552    23813610.535
  -8233797.71748  -6415948.73944  24041329.885    24041332.792
  -4334307.62348  -3377402.57145  24264361.718    24264366.784
 02  1  4  2 49 30.0000000  0  8G20G13G 1G 2G22G 3G27G25
 -15835065.49349 -12339016.17845  22329860.348    22329863.082
 -17699712.43549 -13791982.88646  21674164.125    21674163.933
 -25645847.51349 -19983776.24847  20300289.575    20300291.212
   -690402.36347                  24762753.337
 -22636924.57949 -17639166.73747  20577952.891    20577954.966
  -2530524.79548  -1971835.82344  23797390.088    23797394.699
  -8311490.74348  -6476488.83744  24026545.486    24026547.395
  -4251595.20348  -3312951.70745  24280101.969    24280109.335
 02  1  4  2 50  0.0000000  0  8G20G13G 1G 2G22G 3G27G25
 -15742708.70249 -12267049.97045  22347435.670    22347436.988
 -17772411.12449 -13848631.26446  21660329.715    21660329.836
 -25662447.24249 -19996711.16047  20297130.854    20297132.532
   -788660.16847                  24744056.532
 -22585863.37149 -17599378.84947  20587669.691    20587672.008
  -2615570.02448  -2038104.85344  23781206.436    23781213.730
  -8389112.88148  -6536973.67645  24011773.945    24011777.068
  -4168856.15548  -3248480.11345  24295845.543    24295854.479
 02  1  4  2 50 30.0000000  0  8G20G13G 1G 2G22G 3G27G25
 -15650030.71948 -12194833.47445  22365071.339    22365074.217
 -17844857.34349 -13905082.92646  21646543.850    21646544.065
 -25678644.63149 -20009332.55847  20294048.553    20294050.202
   -886815.19147                  24725377.981
 -22534250.45449 -17559161.05647  20597491.468    20597493.797
  -2700432.63048  -2104231.66044  23765057.718    23765066.158
  -8466649.48848  -6597391.86744  23997020.376    23997020.537
  -4086076.62048  -3183977.00345  24311599.789    24311604.756
 02  1  4  2 51  0.0000000  0  8G20G13G 1G 2G22G 3G27G25
 -15557037.85948 -12122371.62745  22382767.772    22382770.569
 -17917052.31849 -13961338.80046  21632805.489    21632805.773
 -25694441.61249 -20021641.94947  20291042.683    20291044.313
   -984869.06247                  24706718.550
 -22482091.51049 -17518517.79147  20607417.210    20607419.305
  -2785112.77848  -2170216.28044  23748944.362    23748951.059
  -8544103.68248  -6657745.84245  23982280.320    23982282.893
  -4003260.32848  -3119445.20845  24327359.444    24327364.861
 02  1  4  2 51 30.0000000  0  8G20G13G 1G 2G22G 3G27G25
 -15463733.08248 -12049666.74445  22400523.251    22400525.030
 -17988994.31649 -14017397.55346  21619115.906    21619115.603
 -25709836.90349 -20033638.33147  20288113.089    20288114.881
  -1082820.12247                  24688078.808
 -22429388.59649 -17477450.65547  20617445.752    20617447.894
  -2869607.28548  -2236056.23244  23732864.916    23732873.603
  -8621475.20548  -6718035.37445  23967558.997    23967559.972
  -3920407.55748  -3054885.02645  24343125.085    24343130.888
 02  1  4  2 52  0.0000000  0  8G20G13G 1G 2G22G 3G27G25
 -15370115.01448 -11976717.72545  22418338.006    22418340.406
 -18060676.95049 -14073254.20746  21605474.648    21605474.671
 -25724825.08549 -20045317.48747  20285260.975    20285262.772
  -1180662.31948                  24669460.425
 -22376140.02349 -17435958.33547  20627578.529    20627580.842
  -2953909.24248  -2301746.14544  23716823.151    23716829.206
  -8698759.62748  -6778257.05645  23952850.670    23952854.457
  -3837514.86248  -2990293.71945  24358900.449    24358907.033
 02  1  4  2 52 30.0000000  0  8G20G13G 1G 2G22G 3G27G25
 -15276187.85848 -11903527.85545  22436211.971    22436214.760
 -18132099.39649 -14128908.11846  21591883.892    21591883.665
 -25739405.96049 -20056679.26747  20282486.490    20282488.094
  -1278395.00148                  24650862.619
 -22322348.95149 -17394043.28647  20637815.097    20637817.325
  -3038016.31248  -2367284.26344  23700818.913    23700820.947
  -8775957.89448  -6838411.60044  23938160.970    23938162.189
  -3754583.58448  -2925672.33945  24374681.126    24374688.511
 02  1  4  2 53  0.0000000  0  8G20G13G 1G 2G22G 3G27G25
 -15181953.17748 -11830098.37245  22454144.469    22454147.333
 -18203258.59349 -14184356.90046  21578342.406    21578342.045
 -25753577.16949 -20067721.82547  20279789.911    20279791.680
  -1376015.13848                  24632285.920
 -22268016.43049 -17351706.33247  20648154.143    20648156.388
  -3121924.24948  -2432667.15445  23684850.705    23684858.474
  -8853068.48948  -6898497.87645  23923487.943    23923489.198
  -3671612.97348  -2861020.36745  24390470.228    24390480.405
 02  1  4  2 53 30.0000000  0  8G20G13G 1G 2G22G 3G27G25
 -15087414.89648 -11756432.30045  22472134.846    22472136.569
 -18274153.08749 -14239599.41546  21564851.642    21564851.548
 -25767338.09149 -20078444.68347  20277171.307    20277172.972
  -1473521.90748                  24613731.373
 -22213145.49249 -17308949.83147  20658595.889    20658598.239
  -3205630.67148  -2497893.02945  23668922.389    23668928.389
  -8930091.86048  -6958516.10645  23908828.884    23908830.744
  -3588603.96948  -2796338.45045  24406266.918    24406273.284
 02  1  4  2 54  0.0000000  0  8G20G13G 1G 2G22G 3G27G25
 -14992580.12348 -11682535.21045  22490181.333    22490182.727
 -18344785.13349 -14294637.42446  21551411.423    21551411.385
 -25780691.76949 -20088850.19847  20274630.221    20274631.874
  -1570917.96548                  24595197.213
 -22157742.77049 -17265778.95547  20669138.643    20669140.920
  -3289136.44648  -2562962.52045  23653031.821    23653038.118
  -9007032.16148  -7018469.64845  23894190.245    23894191.253
  -3505561.69348  -2731630.62445  24422069.408    24422078.344
 02  1  4  2 54 30.0000000  0  8G13G20G 1G 2G22G 3G27G25
 -18415160.07249 -14349475.09146  21538019.000    21538019.004
 -14897458.99048 -11608414.98645  22508281.932    22508284.257
 -25793644.22649 -20098943.08047  20272165.473    20272167.163
  -1668209.07148                  24576683.265
 -22101817.91449 -17222201.22547  20679780.992    20679783.285
  -3372445.94748  -2627879.04445  23637179.355    23637185.313
  -9083896.56648  -7078364.05944  23879561.734    23879562.747
  -3422493.58848  -2666902.66244  24437876.696    24437887.369
 02  1  4  2 55  0.0000000  0  8G13G20G 1G 2G22G 3G27G25
 -18485264.61349 -14404102.05446  21524679.180    21524679.041
 -14802042.95348 -11534064.95145  22526439.250    22526442.360
 -25806182.90149 -20108713.54247  20269779.478    20269781.150
  -1765381.85048                  24558192.615
 -22045361.71349 -17178209.46347  20690523.941    20690526.636
  -3455544.60348  -2692631.26045  23621364.937    23621371.868
  -9160673.30748  -7138190.12145  23864952.836    23864953.999
  -3339388.81648  -2602146.14144  24453692.212    24453700.900
 02  1  4  2 55 30.0000000  0  7G13G20G 1G 2G22G27G25
 -18555101.55749 -14458520.50846  21511389.450    21511389.087
 -14706340.05948 -11459491.40645  22544650.828    22544653.320
 -25818311.65949 -20118164.59047  20267471.563    20267473.168
  -1862439.78648                  24539722.460
 -21988381.72049 -17133809.55447  20701367.169    20701369.556
  -9237367.09448  -7197951.59744  23850357.661    23850359.927
  -3256252.45348  -2537364.99044  24469512.358    24469520.549
 02  1  4  2 56  0.0000000  0  7G13G20G 1G 2G22G27G25
 -18624674.28149 -14512733.07446  21498149.516    21498149.571
 -14610358.60448 -11384700.79345  22562915.876    22562918.294
 -25830034.32749 -20127299.19747  20265240.826    20265242.459
  -1959386.44748                  24521274.458
 -21930885.36449 -17089007.28147  20712308.586    20712310.991
  -9313983.19848  -7257652.47845  23835777.687    23835780.798
  -3173090.27248                  24485338.012
 02  1  4  2 56 30.0000000  0  7G13G20G 1G 2G22G27G25
 -18693984.00649 -14566740.70946  21484961.143    21484960.981
 -14514104.55048 -11309697.78545  22581232.793    22581235.749
 -25841352.80949 -20136118.84947  20263087.073    20263088.815
  -2056223.34648                  24502847.230
 -21872878.10049 -17043806.90147  20723347.055    20723349.501
  -9390524.30248  -7317294.96244  23821213.722    23821216.112
  -3089905.83948  -2407745.17744  24501168.153    24501174.165
 02  1  4  2 57  0.0000000  0  7G13G20G 1G 2G22G27G25
 -18763018.76649 -14620534.08946  21471824.522    21471824.199
 -14417570.99148 -11234476.96445  22599602.177    22599605.795
 -25852255.94649 -20144614.85747  20261012.112    20261013.755
  -2152938.78248                  24484441.955
 -21814352.53349 -16998202.65247  20734483.899    20734486.582
  -9466980.29248  -7376871.06845  23806663.266    23806667.269
  -3006689.41548  -2342901.61644  24517003.860    24517013.292
 02  1  4  2 57 30.0000000  0  8G13G20G 1G 2G22G31G27G25
 -18831765.60449 -14674103.10646  21458741.909    21458741.853
 -14320750.05348 -11159032.23345  22618027.030    22618030.117
 -25862731.77349 -20152777.89847  20259018.687    20259020.413
  -2249520.25848                  24466063.542
 -21755300.09949 -16952187.85347  20745721.570    20745724.174
         -.93958                  25188714.327
  -9543340.12148  -7436372.32044  23792134.001    23792133.666
  -2923430.91048  -2278025.29644  24532847.590    24532855.781
 02  1  4  2 58  0.0000000  0  8G13G20G 1G 2G22G31G27G25
 -18900238.45949 -14727458.64046  21445712.266    21445712.430
 -14223660.96548 -11083378.54045  22636502.639    22636505.811
 -25872795.25549 -20160619.62447  20257103.629    20257105.384
  -2345982.21948                  24447706.606
 -21695739.41949 -16905777.02647  20757055.428    20757058.108
   -103939.50148                  25168934.829
  -9619619.61548  -7495810.92345  23777616.862    23777620.213
  -2840146.64848  -2213129.00544  24548696.186    24548706.115
 02  1  4  2 58 30.0000000  0  8G13G20G 1G 2G22G31G27G25
 -18968422.02949 -14780588.75146  21432737.163    21432737.146
 -14126293.18648 -11007507.69145  22655031.455    22655033.980
 -25882431.84149 -20168128.71447  20255270.129    20255271.701
  -2442309.67848                  24429376.820
 -21635659.46549 -16858961.56647  20768488.453    20768491.090
   -207982.76548   -162063.71444  25149136.528    25149147.946
  -9695805.30948  -7555176.42445  23763120.589    23763122.440
  -2756823.61148                  24564553.072
 02  1  4  2 59  0.0000000  0  7G13G20G 1G 2G22G27G25
 -19036310.64649 -14833489.02946  21419818.601    21419818.646
 -14028645.93848 -10931419.08845  22673612.935    22673615.173
 -25891636.50049 -20175301.23347  20253518.488    20253520.206
  -2538497.39348                  24411072.927
 -21575058.84749 -16811740.40047  20780020.492    20780023.110
  -9771893.07248  -7614465.66144  23748640.476    23748643.690
  -2673458.33948  -2083242.84544  24580416.660    24580424.046
 02  1  4  2 59 30.0000000  0  7G13G20G 1G 2G22G27G25
 -19103911.04549 -14886164.71846  21406954.773    21406954.479
 -13930730.99348 -10855121.90145  22692245.757    22692248.039
 -25900416.97449 -20182143.21847  20251847.693    20251849.414
  -2634552.53948                  24392793.699
 -21513948.98649 -16764122.42047  20791649.323    20791652.109
  -9847891.59948  -7673685.34645  23734178.460    23734180.600
  -2590059.89748  -2018257.54844  24596286.657    24596294.848
 02  1  4  3  0  0.0000000  0  7G13G 1G20G 2G22G27G25
 -19171231.34649 -14938622.15146  21394144.179    21394144.379
 -25908782.33449 -20188661.73747  20250255.955    20250257.711
 -13832561.61248 -10778626.44045  22710926.956    22710929.172
  -2730483.70348                  24374539.241
 -21452342.38549 -16716117.37247  20803372.597    20803375.415
  -9923810.75548  -7732843.20445  23719732.312    23719735.310
  -2506639.18948                  24612162.597
 02  1  4  3  0 30.0000000  0  8G13G 1G20G 2G22G31G27G25
 -19238264.96549 -14990856.18846  21381388.078    21381388.137
 -25916726.88849 -20194852.35547  20248744.063    20248745.708
 -13734136.27848 -10701931.53245  22729656.238    22729660.752
  -2826284.51448                  24356308.700
 -21390236.99049 -16667723.65447  20815190.797    20815193.730
         -.27858                  25069744.753
  -9999645.88648  -7791935.56345  23705300.891    23705304.256
  -2423191.94948  -1888231.52044  24628041.938    24628052.611
 02  1  4  3  1  0.0000000  0  8G13G 1G20G 2G22G31G27G25
 -19305018.40049 -15042871.90046  21368685.061    21368685.427
 -25924258.14249 -20200720.92447  20247311.005    20247312.786
 -13635466.58648 -10625046.23945  22748433.454    22748436.283
  -2921962.10548                  24338102.545
 -21327643.98049 -16618949.97747  20827101.934    20827104.579
   -104572.72448    -81485.30244  25049845.420    25049852.406
 -10075405.30548  -7850968.92945  23690884.025    23690887.107
  -2339727.06548  -1823194.39144  24643924.935    24643934.616
 02  1  4  3  1 30.0000000  0  8G13G 1G20G 2G22G31G27G25
 -19371468.09849 -15094650.92446  21356040.355    21356040.445
 -25931353.10149 -20206249.52847  20245960.766    20245962.599
 -13536533.61248 -10547955.78245  22767258.832    22767261.158
  -3017492.96848                  24319922.263
 -21264543.98349 -16569781.24347  20839109.526    20839112.488
   -209231.05448   -163037.33344  25029929.583    25029938.022
 -10151067.13148  -7909926.25745  23676487.057    23676489.376
  -2256222.90548  -1758126.75044  24659816.203    24659827.621
 02  1  4  3  2  0.0000000  0  8G13G 1G20G 2G22G31G27G25
 -19437626.86549 -15146203.25446  21343450.661    21343451.029
 -25938025.55649 -20211448.90847  20244691.018    20244692.873
 -13437355.35748 -10470674.21945  22786132.189    22786135.504
  -3112890.77048                  24301770.084
 -21200954.45149 -16520231.05647  20851210.283    20851213.165
   -313987.62048                  25009995.710
 -10226646.03948  -7968818.96345  23662103.972    23662106.453
  -2172695.29148  -1693040.75344  24675710.692    24675720.124
 02  1  4  3  2 30.0000000  0  8G13G 1G20G 2G22G31G27G25
 -19503491.41949 -15197526.32546  21330917.414    21330917.426
 -25944273.19849 -20216317.25647  20243502.101    20243503.746
 -13337933.75048 -10393202.99744  22805052.080    22805055.633
  -3208152.26248                  24283641.666
 -21136876.70149 -16470300.44047  20863404.078    20863406.991
   -418838.53448                  24990042.509
 -10302140.43748  -8027645.82045  23647738.815    23647740.206
  -2089142.94648  -1627935.46744  24691610.545    24691619.232
 02  1  4  3  3  0.0000000  0  8G13G 1G20G 2G22G31G27G25
 -19569058.73349 -15248617.78646  21318440.418    21318440.645
 -25950094.00749 -20220853.00347  20242394.587    20242396.481
 -13238270.83448 -10315543.72244  22824017.253    22824022.440
  -3303275.19648                  24265540.502
 -21072312.36349 -16419990.66447  20875690.395    20875693.448
   -523779.81348   -408140.80444  24970073.608    24970083.040
 -10377549.31748  -8086406.05145  23633388.841    23633391.730
  -2005565.59348  -1562810.72944  24707515.867    24707524.306
 02  1  4  3  3 30.0000000  0  7G13G 1G20G22G31G27G25
 -19634318.70049 -15299469.75646  21306021.360    21306021.670
 -25955478.71049 -20225048.93247  20241369.882    20241371.766
 -13138361.34948 -10237692.36844  22843029.691    22843032.709
 -21007255.68949 -16369297.25247  20888070.434    20888073.457
   -628800.38548                  24950088.712
 -10452864.23148  -8145093.08745  23619056.393    23619059.228
  -1921955.26048  -1497660.30644  24723427.193    24723433.756
 02  1  4  3  4  0.0000000  0  8G13G 1G20G 2G22G31G27G25
 -19699278.31049 -15350087.67846  21293660.389    21293660.883
 -25960435.23949 -20228911.22447  20240426.727    20240428.564
 -13038217.45448 -10159658.34244  22862085.169    22862089.660
         -.75458                  24229421.525
 -20941718.31949 -16318229.27047  20900541.499    20900544.529
   -733906.59448   -571876.44444  24930088.057    24930094.224
 -10528093.99448  -8203713.71445  23604741.215    23604742.934
  -1838321.22548  -1432491.45444  24739341.635    24739348.299
 02  1  4  3  4 30.0000000  0  7G13G 1G20G22G31G27G25
 -19763928.44749 -15400464.45746  21281358.315    21281358.349
 -25964955.58849 -20232433.62647  20239566.515    20239568.584
 -12937834.91248 -10081438.35744  22881188.752    22881191.882
 -20875695.69149 -16266783.16347  20913105.293    20913108.400
   -839088.22048   -653836.37644  24910073.017    24910083.938
 -10603231.16448  -8262262.22645  23590443.158    23590444.802
  -1754656.91248                  24755263.138
 02  1  4  3  5  0.0000000  0  7G13G 1G20G22G31G27G25
 -19828263.00849 -15450595.33446  21269115.226    21269115.444
 -25969034.77449 -20235612.26347  20238790.145    20238792.304
 -12837212.93648 -10003031.78644  22900335.845    22900338.661
 -20809186.37849 -16214957.81647  20925761.867    20925765.026
   -944338.69348                  24890044.944
 -10678271.53648  -8320735.30845  23576163.454    23576166.552
  -1670958.88148  -1302080.17944  24771190.753    24771197.484
 02  1  4  3  5 30.0000000  0  7G13G 1G20G22G31G27G25
 -19892294.42449 -15500489.99646  21256930.389    21256930.782
 -25972686.05049 -20238457.47247  20238095.575    20238097.510
 -12736368.79148  -9924452.13044  22919526.614    22919529.148
 -20742207.38449 -16162766.48647  20938507.624    20938510.736
  -1049669.55148   -817925.88544  24870000.523    24870010.204
 -10753229.34948  -8379144.05045  23561900.122    23561902.706
  -1587241.25448                  24787121.597
 02  1  4  3  6  0.0000000  0  7G13G20G 1G22G31G27G25
 -19956027.25849 -15550151.99646  21244803.168    21244803.290
 -12635312.17348  -9845706.87744  22938756.445    22938761.984
 -25975915.07849 -20240973.66047  20237481.092    20237483.259
 -20674768.00249 -16110216.40947  20951341.071    20951344.185
  -1155084.72548                  24849940.459
 -10828111.05648  -8437493.47945  23547649.590    23547652.254
  -1503511.28048  -1171602.59344  24803055.825    24803066.002
 02  1  4  3  6 30.0000000  0  7G13G 1G20G22G31G27G25
 -20019437.49049 -15599562.61046  21232736.210    21232736.491
 -25978698.78849 -20243142.84447  20236951.288    20236953.520
 -12534024.19248  -9766781.40644  22958031.717    22958037.573
 -20606848.57349 -16057292.27147  20964265.870    20964268.731
  -1260559.19448                  24829869.361
 -10902894.28548  -8495766.16945  23533419.530    23533421.918
  -1419747.38948                  24818996.652
 02  1  4  3  7  0.0000000  0  7G13G 1G20G22G31G27G25
 -20082515.32449 -15648714.21347  21220732.850    21220733.026
 -25981028.50249 -20244958.26547  20236508.154    20236510.353
 -12432500.02448  -9687671.81444  22977351.538    22977355.537
 -20538444.15849 -16003990.21947  20977282.488    20977285.601
  -1366082.38148  -1064480.80844  24809788.324    24809795.942
 -10977571.26748  -8553956.07345  23519208.958    23519209.308
  -1335942.08848  -1041030.07744  24834943.644    24834950.713
 02  1  4  3  7 30.0000000  0  7G13G 1G20G22G31G27G25
 -20145288.85549 -15697628.70047  21208787.571    21208787.953
 -25982933.31749 -20246442.58947  20236145.700    20236147.829
 -12330772.83448  -9608404.04944  22996709.148    22996712.217
 -20469587.29649 -15950335.61447  20990385.664    20990388.863
  -1471681.51848                  24789693.513
 -11052171.76348  -8612086.38145  23505012.748    23505014.979
  -1252125.57948   -975719.12444  24850893.996    24850902.932
 02  1  4  3  8  0.0000000  0  8G13G22G 1G20G 2G31G27G25
 -20207753.17649 -15746302.24347  21196901.342    21196901.628
 -20400277.80649 -15896328.31147  21003575.079    21003578.135
 -25984409.37449 -20247592.82147  20235865.061    20235867.351
 -12228842.72148  -9528978.19744  23016106.592    23016110.767
          .21357                  24086080.607
  -1577350.84048                  24769585.408
 -11126692.67048  -8670154.66645  23490833.047    23490835.900
  -1168295.68648   -910397.61744  24866847.093    24866857.022
 02  1  4  3  8 30.0000000  0  8G13G22G 1G20G 2G31G27G25
 -20269889.48449 -15794720.19347  21185077.125    21185077.768
 -20330501.69449 -15841957.40546  21016852.836    21016855.963
 -25985438.98949 -20248395.16647  20235669.194    20235671.463
 -12126696.16948  -9449383.63844  23035544.326    23035551.649
    -93466.75547                  24068293.089
  -1683071.06848                  24749466.773
 -11201117.10448  -8728147.78745  23476669.191    23476672.926
  -1084436.19048                  24882805.279
 02  1  4  3  9  0.0000000  0  8G13G22G 1G20G 2G31G27G25
 -20331697.74149 -15842882.51647  21173315.575    21173316.079
 -20260263.65149 -15787226.56346  21030218.967    21030222.092
 -25986023.04249 -20248850.31847  20235557.911    20235560.114
 -12024338.04748  -9369624.23844  23055022.479    23055027.974
   -186769.95048                  24050539.613
  -1788841.05748  -1393901.53744  24729338.892    24729347.332
 -11275446.66048  -8786066.96145  23462525.411    23462527.321
  -1000548.97648                  24898768.308
 02  1  4  3  9 30.0000000  0  8G13G22G 1G20G 2G31G27G25
 -20393182.82349 -15890793.01347  21161615.469    21161615.977
 -20189573.03549 -15732143.06246  21043671.183    21043673.974
 -25986167.60249 -20248963.00747  20235530.329    20235532.828
 -11921778.42748  -9289707.86344  23074539.325    23074542.754
   -279914.86048                  24032813.933
  -1894665.31948                  24709200.589
 -11349688.02648  -8843917.43245  23448398.020    23448399.522
   -916641.66848   -714304.15844  24914736.374    24914748.040
 02  1  4  3 10  0.0000000  0  8G13G22G 1G20G 2G31G27G25
 -20454334.94949 -15938444.06847  21149978.677    21149979.263
 -20118424.76449 -15676702.95346  21057210.243    21057213.383
 -25985863.96249 -20248726.46747  20235588.380    20235590.735
 -11819012.47148  -9209630.67344  23094094.948    23094099.987
   -372892.18548   -290565.19244  24015121.819    24015128.889
  -2000532.91348                  24689055.057
 -11423833.36348  -8901693.07145  23434287.482    23434289.081
   -832706.49548                  24930709.118
 02  1  4  3 10 30.0000000  0  8G13G22G 1G20G 2G31G27G25
 -20515161.08849 -15985841.10947  21138403.400    21138403.710
 -20046830.45749 -15620915.28646  21070833.876    21070837.310
 -25985120.27849 -20248147.04647  20235729.819    20235732.309
 -11716052.37048  -9129402.25544  23113688.142    23113689.190
   -465709.42148                  23997458.370
  -2106450.09048  -1641388.08644  24668899.790    24668908.477
 -11497891.56248  -8959400.80545  23420195.707    23420198.483
   -748752.73348                  24946685.375
 02  1  4  3 11  0.0000000  0  8G13G22G 1G20G 2G31G27G25
 -20575651.98349 -16032976.92447  21126892.469    21126892.920
 -19974785.91249 -15564776.78746  21084544.212    21084547.325
 -25983928.53949 -20247218.47847  20235956.546    20235958.891
 -11612893.94648  -9049019.22244  23133317.838    23133325.106
   -558358.07348   -435084.02744  23979827.933    23979833.093
  -2212406.85948  -1723951.58944  24648736.718    24648746.647
 -11571855.18848  -9017034.85245  23406120.603    23406123.552
   -664773.52048   -518044.83044  24962666.343    24962674.010
 02  1  4  3 11 30.0000000  0  8G13G22G 1G20G 2G31G27G25
 -20635808.26549 -16079852.00047  21115445.411    21115445.806
 -19902296.30649 -15508291.48946  21098338.332    21098341.589
 -25982290.35849 -20245942.02847  20236268.209    20236270.526
 -11509543.10248  -8968486.32044  23152984.856    23152988.716
   -650839.32148                  23962229.179
  -2318402.99248  -1806545.84544  24628566.518    24628574.404
 -11645726.77048  -9074597.18745  23392063.504    23392065.764
   -580772.18948                  24978651.730
 02  1  4  3 12  0.0000000  0  8G13G22G 1G20G 2G31G27G25
 -20695620.48649 -16126458.98047  21104063.205    21104063.644
 -19829356.39149 -15451455.30446  21112217.931    21112221.266
 -25980197.03649 -20244310.92747  20236666.683    20236669.064
 -11405994.75748  -8887799.46444  23172690.044    23172692.493
   -743143.65048   -579072.69744  23944664.113    23944668.971
  -2424427.68048  -1889162.39044  24608390.967    24608401.143
 -11719498.09348  -9132081.39545  23378025.138    23378027.917
   -496741.15648                  24994642.751
 02  1  4  3 12 30.0000000  0  8G13G22G 1G20G 2G31G27G25
 -20755101.70549 -16172808.03747  21092744.596    21092745.047
 -19755984.27049 -15394282.34046  21126180.524    21126183.721
 -25977663.26049 -20242336.60447  20237148.900    20237151.354
 -11302267.49048  -8806973.24044  23192428.538    23192435.146
   -835285.16648   -650871.18944  23927130.573    23927136.734
  -2530493.34348                  24588206.163
 -11793184.30648  -9189499.27445  23364003.005    23364006.475
   -412695.92948                  25010636.330
 02  1  4  3 13  0.0000000  0  8G13G22G 1G20G 2G31G27G25
 -20814231.38949 -16218883.17247  21081492.339    21081492.888
 -19682164.38949 -15336760.46846  21140227.999    21140231.521
 -25974669.64849 -20240003.98047  20237718.509    20237721.176
 -11198345.90248  -8725995.59944  23212205.068    23212212.027
   -927243.91648   -722527.30344  23909630.738    23909636.607
  -2636578.68148  -2054474.70544  24568019.432    24568026.401
 -11866766.83148  -9246836.38945  23350000.774    23350004.070
   -328618.40648                  25026636.139
 02  1  4  3 13 30.0000000  0  8G13G22G 1G20G 2G31G27G25
 -20873021.21949 -16264693.48047  21070305.096    21070305.536
 -19607912.77249 -15278902.18446  21154357.717    21154361.110
 -25971228.91649 -20237322.96147  20238373.298    20238375.670
 -11094246.55548  -8644879.41744  23232014.234    23232017.381
  -1019031.90748   -794050.34644  23892164.087    23892166.983
  -2742694.37748                  24547824.539
 -11940258.88248  -9304102.97345  23336015.956    23336017.213
   -244522.45948                  25042639.227
 02  1  4  3 14  0.0000000  0  8G13G22G 1G20G 2G31G27G25
 -20931481.93149 -16310247.33547  21059180.601    21059181.035
 -19533245.07149 -15220719.67846  21168566.925    21168570.298
 -25967352.87849 -20234302.73747  20239111.240    20239113.643
 -10989985.36048  -8563637.17244  23251855.418    23251861.787
  -1110660.76048                  23874728.470
  -2848850.11548  -2219880.81744  24527624.538    24527633.722
 -12013673.02348  -9361308.84345  23322045.147    23322048.293
   -160421.24148                  25058643.931
 02  1  4  3 14 30.0000000  0  8G13G22G 1G20G 2G31G27G25
 -20989601.48949 -16355535.35647  21048120.625    21048121.150
 -19458154.12949 -15162207.37646  21182856.273    21182859.723
 -25963031.07649 -20230935.16447  20239933.863    20239936.324
 -10885555.39248  -8482263.34444  23271727.653    23271731.929
  -1202119.14048                  23857323.346
  -2955033.10548                  24507418.492
 -12086999.18148  -9418446.14445  23308092.474    23308095.692
    -76305.45748                  25074650.566
 02  1  4  3 15  0.0000000  0  8G13G22G 1G20G 2G31G27G25
 -21047365.81549 -16400546.56947  21037128.541    21037129.007
 -19382630.44949 -15103357.87646  21197228.002    21197231.281
 -25958250.40449 -20227210.02147  20240843.468    20240846.122
 -10780947.55748  -8400751.05044  23291633.338    23291640.724
  -1293393.17248  -1007838.18844  23839955.388    23839961.190
  -3061228.12648  -2385369.95844  24487210.066    24487218.257
 -12160224.92448  -9475505.19945  23294157.526    23294160.879
      7836.97848                  25090663.266
 02  1  4  3 15 30.0000000  0  8G13G22G 1G20G 2G31G27G25
 -21104778.88949 -16445284.07647  21026203.307    21026203.810
 -19306682.69749 -15044177.92546  21211680.097    21211683.807
 -25953016.15449 -20223131.44347  20241839.380    20241841.905
 -10676170.99348                  23311571.646
  -1384487.47148                  23822620.273
  -3167438.15848                  24466999.570
 -12233356.01348  -9532490.50245  23280241.410    23280243.423
     92000.02748                  25106679.065
 02  1  4  3 16  0.0000000  0  8G13G22G 1G20G 2G31G27G25
 -21161840.00249 -16489747.33247  21015345.440    21015346.008
 -19230314.80249 -14984670.59946  21226212.825    21226216.217
 -25947328.64549 -20218699.67647  20242921.862    20242924.498
 -10571229.89648                  23331542.082
  -1475401.99748  -1149663.22744  23805319.564    23805323.897
  -3273661.57248  -2550902.18144  24446785.504    24446797.170
 -12306393.42449  -9589402.80345  23266344.205    23266345.796
    176181.89548                  25122698.754
 02  1  4  3 16 30.0000000  0  8G13G22G 1G20G 2G31G27G25
 -21218551.37849 -16533938.07447  21004553.171    21004553.804
 -19153533.92449 -14924841.47046  21240823.514    21240827.119
 -25941191.35549 -20213917.42947  20244090.063    20244092.700
 -10466131.52648  -8155440.49144  23351541.114    23351544.985
  -1566139.53748                  23788053.452
  -3379899.92248  -2633685.16044  24426568.868    24426577.059
 -12379341.30548  -9646245.33345  23252461.051    23252463.874
    260377.95948                  25138720.828
 02  1  4  3 17  0.0000000  0  8G13G22G 1G20G 2G31G27G25
 -21274910.59949 -16577854.39847  20993828.467    20993829.078
 -19076342.16249 -14864692.16946  21255512.964    21255517.033
 -25934603.06849 -20208783.75547  20245343.734    20245346.349
 -10360878.55948  -8073425.45444  23371570.736    23371573.891
  -1656698.19748  -1290932.89444  23770819.801    23770821.591
  -3486149.50148  -2716476.84144  24406350.490    24406358.366
 -12452198.94248  -9703017.53245  23238596.589    23238599.375
    344588.48348                  25154746.162
 02  1  4  3 17 30.0000000  0  8G22G 1G20G 2G13G31G27G25
 -18998736.54449 -14804220.37846  21270280.948    21270284.504
 -25927557.42949 -20203293.70347  20246684.431    20246687.151
 -10255468.28648  -7991287.85444  23391629.369    23391633.874
  -1747070.89448  -1361353.13544  23753622.767    23753628.216
 -21330909.72549 -16621490.13147  20983172.725    20983173.271
  -3592401.64448  -2799270.54644  24386130.539    24386139.475
 -12524960.24949  -9759714.68445  23224751.566    23224753.705
    428819.27648                  25170775.241
 02  1  4  3 18  0.0000000  0  8G22G 1G20G 2G13G31G27G25
 -18920721.14649 -14743429.28546  21285127.003    21285130.499
 -25920054.85649 -20197447.59647  20248112.058    20248114.539
 -10149904.80648                  23411718.236
  -1837257.55848  -1431628.50444  23736461.447    23736465.559
 -21386548.16049 -16664844.80547  20972584.752    20972585.325
  -3698654.56148  -2882064.87144  24365911.872    24365921.056
 -12597626.19948  -9816337.54445  23210922.550    23210925.477
    513068.31548                  25186807.951
 02  1  4  3 18 30.0000000  0  8G22G 1G20G 2G13G31G27G25
 -18842295.66249 -14682318.63746  21300050.867    21300054.540
 -25912091.61049 -20191242.51847  20249627.583    20249630.089
 -10044188.38548                  23431834.519
  -1927253.60248  -1501755.27844  23719334.585    23719338.246
 -21441820.82949 -16707914.47247  20962066.420    20962067.057
  -3804902.44648  -2964855.25444  24345693.287    24345702.719
 -12670193.54549  -9872883.55845  23197114.025    23197116.658
    597338.14848                  25202844.149
 02  1  4  3 19  0.0000000  0  8G22G 1G20G 2G13G31G27G25
 -18763474.86249 -14620899.96246  21315050.134    21315053.703
 -25903679.00149 -20184687.29347  20251228.547    20251231.311
  -9938334.01448  -7744170.95944  23451979.447    23451982.690
  -2017069.59548  -1571741.73544  23702243.958    23702247.664
 -21496737.53349 -16750706.76547  20951616.435    20951616.935
  -3911154.02248  -3047648.59644  24325474.169    24325481.720
 -12742673.96249  -9929361.84545  23183322.313    23183324.519
    681617.24948                  25218882.452
 02  1  4  3 19 30.0000000  0  8G22G 1G20G 2G13G31G27G25
 -18684246.47449 -14559163.68446  21330127.080    21330130.363
 -25894801.42049 -20177769.76747  20252917.888    20252920.339
  -9832329.68748                  23472150.093
  -2106689.20548  -1641575.20344  23685189.753    23685197.361
 -21551281.66849 -16793208.74147  20941236.807    20941237.319
  -4017391.42248  -3130430.82944  24305257.738    24305267.667
 -12815052.32848  -9985760.61645  23169547.483    23169550.676
    765919.76148                  25234925.094
 02  1  4  3 20  0.0000000  0  8G22G 1G20G 2G13G31G27G25
 -18604620.96249 -14497117.95746  21345279.203    21345282.428
 -25885465.83649 -20170495.35047  20254694.568    20254696.998
  -9726186.35548  -7578861.59044  23492349.643    23492356.976
  -2196118.82648  -1711260.61244  23668171.389    23668176.571
 -21605458.81449 -16835424.75347  20930927.375    20930928.091
  -4123619.40248  -3213205.76744  24285042.974    24285053.895
 -12887336.27149 -10042085.80245  23155793.559    23155796.843
    850237.60848                  25250969.793
 02  1  4  3 20 30.0000000  0  8G22G 1G20G 2G13G31G27G25
 -18524592.93849 -14434758.59346  21360508.127    21360511.963
 -25875663.18949 -20162856.98947  20256560.023    20256562.453
  -9619898.43248  -7496040.03644  23512575.259    23512579.314
  -2285348.82048  -1780790.46744  23651192.047    23651198.323
 -21659258.85449 -16877346.92247  20920689.549    20920690.355
  -4229826.64148                  24264832.136
 -12959516.96249 -10098330.55145  23142058.177    23142061.049
    934579.01048                  25267020.641
 02  1  4  3 21  0.0000000  0  8G22G 1G20G 2G13G31G27G25
 -18444171.20449 -14372092.44146  21375811.898    21375815.445
 -25865399.00149 -20154858.99447  20258513.232    20258515.718
  -9513475.28648                  23532827.204
  -2374383.97248  -1850168.55645  23634249.142    23634252.262
 -21712685.71449 -16918978.29747  20910522.787    20910523.533
  -4336016.06848  -3378709.45444  24244625.645    24244632.339
 -13031600.36648 -10154499.47845  23128339.998    23128343.068
   1018937.85148                  25283073.866
 02  1  4  3 21 30.0000000  0  8G22G 1G20G 2G13G31G27G25
 -18363358.35349 -14309121.51946  21391190.396    21391194.244
 -25854672.68949 -20146500.89647  20260554.671    20260557.056
  -9406919.82648  -7330083.16644  23553104.334    23553108.625
  -2463223.05948  -1919393.81744  23617343.398    23617347.028
 -21765737.22849 -16960317.19047  20900427.512    20900428.177
  -4442184.55548  -3461438.04744  24224421.958    24224430.398
 -13103586.27549 -10210592.45645  23114643.359    23114646.393
   1103313.45448                  25299130.201
 02  1  4  3 22  0.0000000  0  8G22G 1G20G 2G13G31G27G25
 -18282161.51249 -14245851.39546  21406641.637    21406645.413
 -25843487.81149 -20137785.47847  20262682.999    20262685.411
  -9300239.43948  -7246955.87544  23573404.913    23573408.343
  -2551868.75348  -1988468.39944  23600474.685    23600478.305
 -21818415.98849 -17001365.62947  20890403.260    20890404.154
  -4548333.44848  -3544151.39344  24204222.284    24204231.717
 -13175478.65348 -10266612.54545  23100961.450    23100964.224
   1187701.28548                  25315189.507
 02  1  4  3 22 30.0000000  0  8G22G 1G20G 2G13G31G27G25
 -18200577.81349 -14182279.82546  21422166.647    21422169.957
 -25831838.23649 -20128707.94647  20264899.627    20264902.287
  -9193431.34348  -7163729.02544  23593730.538    23593735.817
  -2640314.15148  -2057386.89145  23583644.456    23583651.806
 -21870714.20449 -17042117.54247  20880451.243    20880451.835
  -4654454.03148  -3626842.61844  24184027.751    24184037.431
 -13247271.68848 -10322555.20745  23087299.498    23087302.718
   1272106.86148                  25331252.060
 02  1  4  3 23  0.0000000  0  8G22G 1G20G 2G13G31G27G25
 -18118612.79249 -14118411.11246  21437764.394    21437767.917
 -25819725.97149 -20119269.88947  20267204.738    20267207.470
  -9086501.39248                  23614078.457
  -2728560.60048  -2126150.38145  23566851.734    23566857.420
 -21922632.56549 -17082573.46447  20870571.531    20870572.418
  -4760545.96748  -3709511.58844  24163839.358    24163846.851
 -13318967.64749 -10378422.24245  23073658.081    23073660.747
   1356527.02548                  25347316.750
 02  1  4  3 23 30.0000000  0  8G22G 1G20G 2G13G31G27G25
 -18036267.68449 -14054246.24046  21453433.996    21453437.497
 -25807148.83549 -20109469.59447  20269598.249    20269600.703
  -8979451.20148                  23634449.811
  -2816605.24148  -2194756.60345  23550097.123    23550101.615
 -21974167.68749 -17122730.75847  20860764.514    20860765.450
  -4866604.47548  -3792154.49244  24143657.141    24143662.933
 -13390564.83448 -10434212.29945  23060031.736    23060035.244
   1440963.48148                  25363385.431
 02  1  4  3 24  0.0000000  0  8G22G 1G20G 2G13G31G27G25
 -17953547.24249 -13989788.90246  21469175.308    21469178.644
 -25794108.45149 -20099308.32347  20272079.701    20272082.120
  -8872285.76748  -6913486.51244  23654843.994    23654849.261
  -2904448.90348  -2263206.23844  23533380.740    23533386.591
 -22025319.70349 -17162589.53247  20851030.890    20851031.821
  -4972628.71948  -3874770.68244  24123481.465    24123490.153
 -13462065.21849 -10489926.92445  23046425.875    23046429.076
   1525413.56548                  25379456.540
 02  1  4  3 24 30.0000000  0  8G22G 1G20G 2G13G31G27G25
 -17870463.03849 -13925048.11646  21484985.534    21484989.991
 -25780612.85149 -20088792.33447  20274648.027    20274650.597
  -8765016.60548  -6829900.40344  23675255.319    23675261.959
  -2992099.02648  -2331505.05544  23516701.768    23516704.948
 -22076095.05549 -17202154.80247  20841368.813    20841369.663
  -5078624.23248  -3957364.50644  24103310.930    24103318.663
 -13533476.96549 -10545572.49346  23032838.513    23032839.990
   1609868.50648                  25395528.025
 02  1  4  3 25  0.0000000  0  8G22G 1G20G 2G13G31G27G25
 -17787006.66549 -13860017.33046  21500867.237    21500870.750
 -25766650.42049 -20077912.58847  20277304.996    20277307.716
  -8657635.76348  -6746227.30844  23695691.190    23695699.381
  -3079542.99448  -2399643.24644  23500062.031    23500067.989
 -22126481.09949 -17241416.70747  20831780.849    20831781.921
  -5184576.76248  -4039924.83344  24083148.350    24083158.527
 -13604788.84748 -10601140.25146  23019266.308    23019270.008
   1694339.08848                  25411602.464
 02  1  4  3 25 30.0000000  0  8G22G 1G20G 2G13G31G27G25
 -17703184.02049 -13794701.13846  21516818.324    21516822.394
 -25752223.77949 -20066671.11347  20280050.383    20280052.984
  -8550149.30748  -6662471.88744  23716143.902    23716153.831
  -3166782.92048  -2467622.40144  23483459.929    23483464.490
 -22176478.83049 -17280376.03447  20822266.438    20822267.284
  -5290486.46448  -4122451.81844  24062995.572    24063006.990
 -13676003.69849 -10656632.38046  23005715.438    23005719.558
   1778821.70248                  25427679.358
 02  1  4  3 26  0.0000000  0  8G22G 1G20G 2G13G31G27G25
 -17618988.75649 -13729094.59846  21532840.040    21532844.166
 -25737323.17449 -20055060.31147  20282885.979    20282888.403
  -8442551.15948  -6578629.47844  23736620.557    23736625.898
  -3253808.04348  -2535434.20645  23466900.329    23466904.550
 -22226077.23149 -17319024.19747  20812828.048    20812828.870
  -5396340.88548  -4204935.74244  24042851.093    24042860.028
 -13747111.90949 -10712041.40945  22992184.938    22992186.332
   1863325.78748   1451890.82845  25443760.522    25443765.048
 02  1  4  3 26 30.0000000  0  7G22G 1G20G 2G13G27G25
 -17534425.15549 -13663201.04746  21548932.099    21548936.234
 -25721949.74149 -20043081.08447  20285811.454    20285813.881
  -8334845.71948                  23757115.128
  -3340618.80548  -2603078.96745  23450381.033    23450384.148
 -22275275.63049 -17357360.67247  20803466.096    20803466.918
 -13818114.88249 -10767368.44445  22978671.870    22978675.049
   1947849.48448   1517751.25045  25459845.549    25459848.810
 02  1  4  3 27  0.0000000  0  7G22G 1G20G 2G13G27G25
 -17449508.36849 -13597032.28446  21565091.489    21565095.921
 -25706115.46049 -20030742.76747  20288824.562    20288827.055
  -8227048.90248  -6410706.15644  23777629.333    23777634.742
  -3427226.43348  -2670565.40245  23433899.304    23433903.568
 -22324084.48849 -17395393.60447  20794178.047    20794178.950
 -13889024.74549 -10822622.93446  22965179.010    22965181.648
   2032379.66348                  25475931.089
 02  1  4  3 27 30.0000000  0  7G22G 1G20G 2G13G27G25
 -17364257.51749 -13530603.21446  21581314.332    21581318.405
 -25689835.86449 -20018057.44947  20291922.556    20291925.048
  -8119179.58048  -6326652.42444  23798155.764    23798160.826
  -3513645.69648  -2737905.06845  23417455.661    23417460.332
 -22372518.28349 -17433134.28647  20784961.641    20784962.770
 -13959857.21649 -10877817.10846  22951700.363    22951702.210
   2116900.28848                  25492015.319
 02  1  4  3 28  0.0000000  0  7G22G 1G20G 2G13G27G25
 -17278647.47949 -13463894.26546  21597605.636    21597609.651
 -25673082.59149 -20005003.02947  20295110.573    20295113.158
  -8011212.62648  -6242522.55644  23818701.382    23818706.314
  -3599847.51548  -2805075.29845  23401050.566    23401054.566
 -22420547.15749 -17470559.43247  20775821.796    20775822.910
 -14030584.36149 -10932929.21146  22938240.817    22938243.265
   2201438.97948                  25508103.496
 02  1  4  3 28 30.0000000  0  7G22G 1G20G 2G13G27G25
 -17192686.80649 -13396912.08446  21613963.294    21613967.777
 -25655861.28549 -19991583.91247  20298387.572    20298390.441
  -7903157.18948  -6158323.81744  23839264.179    23839270.631
  -3685836.67048  -2872079.85145  23384688.756    23384692.455
 -22468175.10349 -17507672.16947  20766758.627    20766759.490
 -14101211.76349 -10987963.59446  22924801.578    22924804.572
   2285989.44048                  25524192.749
 02  1  4  3 29  0.0000000  0  6G22G 1G20G 2G13G27
 -17106354.50149 -13329640.32546  21630391.697    21630396.528
 -25638147.74249 -19977781.23647  20301758.691    20301761.324
  -7794992.41748  -6074039.89544  23859847.207    23859854.242
  -3771587.84348  -2938898.91545  23368369.337    23368376.267
 -22515376.17149 -17544452.27047  20757776.917    20757777.803
 -14171715.10149 -11042901.31646  22911384.851    22911387.974
 02  1  4  3 29 30.0000000  0  7G22G 1G20G 2G13G 8G27
 -17019669.53849 -13262093.77146  21646888.033    21646892.325
 -25619957.64949 -19963607.21947  20305220.346    20305222.866
  -7686737.52448  -5989685.72244  23880448.220    23880456.907
  -3857116.08848  -3005544.26845  23352095.127    23352099.628
 -22562164.85249 -17580911.03647  20748873.304    20748873.919
        -1.12958                  25114793.385
 -14242110.46849 -11097754.89946  22897988.748    22897992.360
 02  1  4  3 30  0.0000000  0  8G22G 1G20G 2G13G 8G27G25
 -16932653.19149 -13194288.98646  21663446.440    21663450.570
 -25601308.95749 -19949075.85147  20308769.149    20308772.003
  -7578413.82848  -5905277.95644  23901061.185    23901070.369
  -3942438.53148  -3072029.27945  23335857.824    23335863.696
 -22608557.63149 -17617061.30047  20740044.977    20740045.552
    -93072.28948                  25097083.555
 -14312415.87449 -11152538.38946  22884610.869    22884613.614
        -1.13758                  25572489.925
 02  1  4  3 30 30.0000000  0  8G22G 1G20G 2G13G 8G27G25
 -16845296.98549 -13126219.37946  21680069.976    21680074.360
 -25582190.10949 -19934178.13147  20312407.152    20312410.092
  -7470013.13448  -5820810.19744  23921689.409    23921697.139
  -4027542.79348  -3138344.27045  23319664.123    23319668.069
 -22654541.39149 -17652892.85547  20731294.819    20731295.468
   -186119.77948                  25079376.962
 -14382619.89749 -11207242.87546  22871251.266    22871254.232
     84616.30648                  25588591.493
 02  1  4  3 31  0.0000000  0  8G 1G20G 2G13G22G 8G27G25
 -25562592.91649 -19918907.66747  20316136.566    20316139.541
  -7361530.76248  -5736278.76144  23942333.721    23942338.160
  -4112419.99948  -3204482.35845  23303511.755    23303517.432
 -22700106.41949 -17688398.12447  20722624.204    20722624.840
 -16757595.84149 -13057880.98646  21696758.958    21696763.779
   -279135.15548                  25061676.789
 -14452714.44849 -11261862.04146  22857912.455    22857915.916
    169252.74048                  25604697.989
 02  1  4  3 31 30.0000000  0  7G22G20G 1G 2G13G27G25
 -16669558.07649 -12989280.30446  21713512.221    21713516.944
  -7252974.89848  -5651690.07644  23962990.848    23962999.039
 -25542522.44549 -19903268.41347  20319955.876    20319958.759
  -4197074.39848  -3270446.78445  23287402.454    23287405.935
 -22745256.59749 -17723580.13247  20714032.271    20714033.028
 -14522704.66549 -11316399.92746  22844594.228    22844596.880
    253902.74948                  25620806.827
 02  1  4  3 32  0.0000000  0  7G22G 1G20G 2G13G27G25
 -16581191.07449 -12920423.06446  21730327.940    21730332.561
 -25521982.87349 -19887263.62747  20323864.384    20323867.306
  -7144353.28148  -5567050.24144  23983661.644    23983666.407
  -4281509.22548  -3336240.16345  23271335.360    23271341.028
 -22789994.05849 -17758440.54547  20705519.044    20705519.790
 -14592594.90649 -11370859.90946  22831293.855    22831297.322
    338561.50148                  25636916.342
 02  1  4  3 32 30.0000000  0  6G22G 1G20G 2G13G27
 -16492487.07449 -12851303.23146  21747207.860    21747212.809
 -25500963.39749 -19870884.89347  20327864.293    20327867.323
  -7035658.36848  -5482353.20744  24004345.363    24004350.506
  -4365712.88848  -3401853.41045  23255311.701    23255317.615
 -22834306.75549 -17792969.97747  20697086.681    20697087.652
 -14662374.41749 -11425233.59446  22818015.411    22818018.521
 02  1  4  3 33  0.0000000  0  7G22G 1G20G 2G13G 8G27
 -16403461.41849 -12781932.76446  21764148.728    21764153.884
 -25479476.46949 -19854141.91547  20331953.156    20331956.120
  -6926905.63548  -5397611.13644  24025041.116    24025047.634
  -4449696.79848  -3467295.38445  23239330.240    23239336.319
 -22878205.52649 -17827176.85947  20688733.112    20688734.088
         -.56058                  24990926.553
 -14732055.28349 -11479530.43346  22804756.633    22804758.841
 02  1  4  3 33 30.0000000  0  8G22G 1G20G 2G13G 8G27G31
 -16314115.17749 -12712312.48446  21781151.414    21781155.857
 -25457519.87549 -19837032.96247  20336131.512    20336134.442
  -6818096.08348  -5312824.80144  24045746.859    24045754.253
  -4533457.90748  -3532563.76845  23223390.993    23223395.502
 -22921686.48749 -17861058.17947  20680458.645    20680459.737
    -92887.97948                  24973251.339
 -14801635.41249 -11533748.76246  22791515.144    22791518.202
         -.49858          .31954  23742195.883    23742205.316
 02  1  4  3 34  0.0000000  0  8G22G 1G20G 2G13G 8G27G31
 -16224455.44449 -12642447.93446  21798212.739    21798218.523
 -25435097.66449 -19819561.18747  20340398.288    20340401.365
  -6709237.20348  -5228000.02544  24066462.617    24066468.212
  -4616999.65248  -3597661.21445  23207493.406    23207498.321
 -22964752.24449 -17894615.97047  20672263.431    20672264.640
   -185755.81948                  24955579.211
 -14871118.90549 -11587891.79046  22778293.173    22778296.390
   -104665.05648    -81556.43845  23722279.168    23722289.096
 02  1  4  3 34 30.0000000  0  8G 1G20G 2G13G22G 8G27G31
 -25412196.45749 -19801716.17647  20344756.157    20344759.268
  -6600318.81548  -5143128.89844  24087188.605    24087196.298
  -4700307.60348  -3662576.50345  23191640.195    23191645.727
 -23007387.40249 -17927838.22547  20664150.715    20664152.075
 -16134471.54949 -12572330.79046  21815336.725    21815341.626
   -278590.59748                  24937912.529
 -14940492.17649 -11641948.93746  22765092.137    22765095.177
   -209222.18648   -163029.49744  23702382.740    23702392.668
 02  1  4  3 35  0.0000000  0  8G 1G20G 2G13G22G 8G27G31
 -25388821.17349 -19783501.75347  20349204.318    20349207.485
  -6491348.83848  -5058217.60044  24107925.958    24107932.486
  -4783385.52648  -3727312.54345  23175831.218    23175836.981
 -23049595.69149 -17960727.85647  20656118.800    20656119.839
 -16044171.59049 -12501967.36146  21832520.335    21832525.168
   -371396.96948                  24920252.774
 -15009759.93249 -11695923.86146  22751909.987    22751914.613
   -313673.92448   -244420.40945  23682506.127    23682517.296
 02  1  4  3 35 30.0000000  0  8G 1G20G 2G13G22G 8G27G31
 -25364975.88949 -19764921.09047  20353741.931    20353745.121
  -6382334.69548  -4973271.85444  24128670.385    24128677.613
  -4866236.82448  -3791871.97745  23160065.171    23160070.502
 -23091379.54349 -17993286.76147  20648167.740    20648168.868
 -15953562.61749 -12431363.13346  21849762.433    21849767.634
   -464178.78848                  24902597.405
 -15078926.17649 -11749819.67746  22738749.118    22738751.788
   -418021.39248   -325730.10245  23662649.809    23662658.497
 02  1  4  3 36  0.0000000  0  8G 1G20G 2G13G22G 8G27G31
 -25340669.08849 -19745980.80547  20358367.368    20358370.560
  -6273287.98948  -4888300.73044  24149421.609    24149427.882
  -4948869.00448  -3856260.67645  23144340.712    23144346.346
 -23132745.76249 -18025520.23947  20640295.652    20640296.806
 -15862656.09349 -12360527.05746  21867061.607    21867066.651
   -556944.78448                  24884944.104
 -15147999.28549 -11803642.93846  22725605.138    22725608.318
   -522270.23048   -406962.93245  23642811.620    23642820.307
 02  1  4  3 36 30.0000000  0  8G 1G20G 2G13G22G 8G27G31
 -25315882.51949 -19726666.67847  20363084.349    20363087.531
  -6164193.65848  -4803292.51044  24170181.903    24170190.590
  -5031262.89648  -3920463.68045  23128661.473    23128668.165
 -23173674.46449 -18057412.79447  20632507.125    20632508.462
 -15771437.06249 -12289447.47046  21884420.162    21884425.573
   -649676.34048                  24867298.037
 -15216961.15449 -11857379.51146  22712481.259    22712485.068
   -626399.33948   -488102.47045  23622996.495    23623004.934
 02  1  4  3 37  0.0000000  0  8G 1G20G 2G13G22G 8G27G31
 -25290618.06049 -19706980.17147  20367892.073    20367895.228
  -6055056.66048  -4718251.06244  24190950.406    24190958.597
  -5113419.65548  -3984481.92245  23113027.814    23113032.368
 -23214165.98349 -18088964.68647  20624801.960    20624803.097
 -15679910.05949 -12218127.91146  21901837.267    21901842.364
   -742375.07848                  24849658.514
 -15285813.47449 -11911030.72546  22699379.086    22699382.866
   -730407.06048   -569147.42945  23603204.575    23603214.256
 02  1  4  3 37 30.0000000  0  8G 1G20G 2G13G22G 8G27G31
 -25264870.12049 -19686916.93047  20372791.895    20372795.071
  -5945874.41348  -4633174.31444  24211726.718    24211734.437
  -5195332.73148  -4048310.28145  23097440.418    23097444.675
 -23254213.17749 -18120170.35447  20617181.494    20617182.709
 -15588072.63449 -12146566.46246  21919313.409    21919319.072
   -835035.46448                  24832025.394
 -15354550.37649 -11964591.99646  22686299.567    22686303.103
   -834285.06948   -650091.29545  23583437.484    23583447.412
 02  1  4  3 38  0.0000000  0  8G 1G20G 2G13G22G 8G27G31
 -25238658.09549 -19666492.05947  20377779.904    20377783.117
  -5836669.59848  -4548080.02844  24232508.527    24232514.300
  -5277020.28048  -4111962.90645  23081895.481    23081901.365
 -23293833.72849 -18151043.57147  20609642.240    20609643.339
 -15495947.00349 -12074780.44146  21936844.524    21936850.459
   -927676.38248                  24814397.581
 -15423191.10949 -12018078.33146  22673237.256    22673240.746
   -938049.62948   -730946.77245  23563691.552    23563699.743
 02  1  4  3 38 30.0000000  0  8G 1G20G 2G13G22G 8G27G31
 -25211980.52649 -19645704.42547  20382856.609    20382859.812
  -5727443.65048  -4462969.23944  24253293.842    24253301.508
  -5358479.97948  -4175437.99145  23066394.854    23066398.849
 -23333024.60849 -18181581.97847  20602184.251    20602185.239
 -15403534.35349 -12002770.77746  21954430.328    21954435.652
  -1020296.02548                  24796771.955
 -15491733.95749 -12071488.41246  22660194.029    22660197.246
  -1041696.12748   -811710.26645  23543967.809    23543975.107
 02  1  4  3 39  0.0000000  0  8G 1G20G 2G13G22G 8G27G31
 -25184813.70349 -19624535.55147  20388026.407    20388029.608
  -5618176.04648                  24274086.252
  -5439687.20848  -4238716.34245  23050940.780    23050946.244
 -23371760.39949 -18211765.77147  20594812.929    20594814.121
 -15310814.08849 -11930521.41246  21972074.471    21972079.744
  -1112870.72648                  24779155.603
 -15560155.02649 -12124803.57746  22647174.315    22647177.945
  -1145197.83648   -892360.92845  23524272.588    23524281.027
 02  1  4  3 39 30.0000000  0  8G 1G20G 2G13G22G 8G27G31
 -25157166.98949 -19602992.74347  20393287.846    20393291.025
  -5508879.07248  -4292659.91444  24294886.007    24294891.756
  -5520650.45048  -4301804.57545  23035534.643    23035539.269
 -23410048.49749 -18241600.71547  20587527.232    20587528.287
 -15217798.30849 -11858041.77546  21989774.889    21989779.857
  -1205409.32748                  24761546.538
 -15628463.43849 -12178030.97746  22634174.927    22634178.487
  -1248561.06948   -972903.68745  23504602.655    23504611.094
 02  1  4  3 40  0.0000000  0  8G 1G20G 2G13G22G 8G27G31
 -25129043.53449 -19581078.45047  20398639.393    20398642.562
  -5399559.02448                  24315688.745
  -5601371.87748  -4364704.38045  23020173.370    23020179.458
 -23447890.77749 -18271088.26347  20580326.223    20580327.227
 -15124493.19349 -11785336.68646  22007530.496    22007535.605
  -1297914.78448                  24743942.811
 -15696662.14949 -12231172.89546  22621197.740    22621201.652
  -1351785.88848  -1053338.62545  23484960.454    23484968.645
 02  1  4  3 40 30.0000000  0  8G 1G20G 2G13G22G 8G27G31
 -25100443.33049 -19558792.66547  20404081.571    20404084.794
  -5290218.81148  -4122275.99944  24336496.125    24336503.282
  -5681850.70548  -4427415.15045  23004859.497    23004864.289
 -23485285.63149 -18300227.16847  20573210.322    20573211.254
 -15030901.58549 -11712408.37446  22025340.492    22025346.906
  -1390387.25148                  24726346.964
 -15764751.01149 -12284229.21146  22608241.591    22608244.976
  -1454869.15248  -1133663.24145  23465343.534    23465352.470
 02  1  4  3 41  0.0000000  0  8G 1G20G 2G13G22G 8G27G31
 -25071369.92049 -19536138.14547  20409614.154    20409617.370
  -5180865.01048  -4037065.63344  24357305.154    24357314.090
  -5762089.42648  -4489938.83045  22989589.433    22989594.874
 -23522234.79849 -18329018.78147  20566179.400    20566180.510
 -14937029.77449 -11639261.71846  22043204.160    22043209.365
  -1482829.58948                  24708755.349
 -15832733.20549 -12337202.41246  22595304.467    22595308.145
  -1557811.29948  -1213877.91145  23445754.807    23445764.488
 02  1  4  3 41 30.0000000  0  8G 1G20G 2G13G22G 8G27G31
 -25041832.09449 -19513121.74347  20415235.249    20415238.445
  -5071508.97948  -3951853.49944  24378115.458    24378122.159
  -5842095.84948  -4552281.51345  22974365.133    22974371.055
 -23558745.43149 -18357468.68447  20559231.219    20559232.357
 -14842889.29449 -11565905.70746  22061118.625    22061124.072
  -1575250.34548                  24691168.593
 -15900617.23149 -12390099.12546  22582386.493    22582389.686
  -1660617.64448  -1293986.75845  23426191.791    23426199.611
 02  1  4  3 42  0.0000000  0  8G 1G20G 2G13G22G 8G27G31
 -25011812.74949 -19489730.12747  20420948.060    20420951.240
  -4962136.91648                  24398928.158
  -5921851.73248  -4614428.95545  22959188.493    22959193.572
 -23594799.13249 -18385562.53147  20552370.420    20552371.479
 -14748465.77849 -11492329.16546  22079086.641    22079092.913
  -1667631.64748                  24673588.897
 -15968385.54149 -12442905.66046  22569491.016    22569494.225
  -1763267.97648  -1373974.03445  23406657.412    23406666.844
 02  1  4  3 42 30.0000000  0  8G 1G20G 2G13G22G 8G27G31
 -24981321.84049 -19465971.05747  20426750.052    20426753.264
  -4852761.40548                  24419742.407
  -6001365.78348  -4676387.95245  22944056.689    22944062.754
 -23630403.28249 -18413306.08047  20545595.518    20545596.649
 -14653771.71349 -11418541.78946  22097106.865    22097112.640
  -1759983.27548                  24656015.165
 -16036047.53849 -12495629.35146  22556615.071    22556618.400
  -1865768.85248  -1453844.84645  23387152.745    23387160.035
 02  1  4  3 43  0.0000000  0  8G 1G20G 2G13G22G 8G27G31
 -24950353.17349 -19441839.70947  20432643.040    20432646.329
  -4743379.03748                  24440557.103
  -6080630.95048  -4738153.01345  22928973.496    22928977.977
 -23665550.22349 -18440693.36647  20538907.255    20538908.466
 -14558803.74949 -11344540.99346  22115178.686    22115184.567
  -1852298.57548                  24638448.574
 -16103596.77749 -12548265.18246  22543761.119    22543764.630
  -1968110.69648  -1533591.73045  23367676.828    23367687.749
 02  1  4  3 43 30.0000000  0  8G 1G20G 2G13G22G 8G27G31
 -24918906.96049 -19417336.24247  20438627.254    20438630.486
  -4633993.09248                  24461373.142
  -6159646.55548  -4799723.62445  22913937.216    22913942.627
 -23700238.48149 -18467723.23347  20532306.250    20532307.431
 -14463564.87949 -11270329.12146  22133302.315    22133307.508
  -1944577.38148                  24620887.362
 -16171032.98549 -12600812.94046  22530928.449    22530931.574
  -2070290.54748  -1613212.38845  23348233.406    23348242.341
 02  1  4  3 44  0.0000000  0  8G 1G20G 2G13G22G 8G27G31
 -24886983.98649 -19392461.27147  20444702.338    20444705.538
  -4524606.94848                  24482189.208
  -6238412.31448  -4861099.53145  22898948.666    22898954.293
 -23734467.10349 -18494394.94047  20525792.747    20525794.007
 -14368058.32549 -11195908.65846  22151476.127    22151482.481
  -2036820.06248                  24603334.891
 -16238356.55649 -12653272.92646  22518117.102    22518120.268
  -2172305.90148  -1692704.84545  23328820.075    23328829.507
 02  1  4  3 44 30.0000000  0  8G 1G20G 2G13G22G 8G27G31
 -24854591.59449 -19367220.52347  20450866.528    20450869.718
  -4415230.86848                  24503002.299
  -6316934.37248  -4922285.55545  22884006.472    22884011.353
 -23768241.93149 -18520713.04347  20519365.511    20519366.904
 -14272294.37849 -11121287.62546  22169700.187    22169706.587
  -2129033.68148                  24585787.812
 -16305574.40549 -12705650.53646  22505326.238    22505329.656
  -2274160.95748  -1772072.40645  23309437.623    23309446.311
 02  1  4  3 45  0.0000000  0  8G 1G20G 2G13G22G 8G27G31
 -24821715.41249 -19341602.79547  20457122.319    20457125.624
  -4305853.45348  -3355241.39844  24523816.853    24523824.255
  -6395197.55948  -4983269.85445  22869113.402    22869117.609
 -23801546.92249 -18546665.03947  20513028.019    20513029.399
 -14176261.36649 -11046456.93446  22187974.582    22187981.536
  -2221203.37248                  24568247.311
 -16372671.80749 -12757934.28546  22492558.350    22492561.611
  -2375838.05848  -1851301.27245  23290089.396    23290098.828
 02  1  4  3 45 30.0000000  0  8G 1G20G 2G13G22G 8G27G31
 -24788358.07649 -19315610.14147  20463470.203    20463473.499
  -4196480.08048                  24544630.100
  -6473203.43949  -5044053.64946  22854269.644    22854274.351
 -23834383.00449 -18572251.65447  20506779.463    20506780.887
 -14079964.43349 -10971420.59546  22206299.610    22206305.598
  -2313331.44248                  24550717.323
 -16439650.74549 -12810125.72146  22479811.957    22479815.466
  -2477336.60948  -1930391.00445  23270774.183    23270784.360
 02  1  4  3 46  0.0000000  0  8G 1G20G 2G13G22G 8G27G31
 -24754517.11649 -19289240.63947  20469910.035    20469913.308
  -4087110.95648                  24565442.287
  -6550948.44949  -5104634.18046  22839475.246    22839480.061
 -23866745.89949 -18597469.55647  20500621.173    20500622.520
 -13983403.76449 -10896178.74446  22224674.338    22224681.197
  -2405414.63448                  24533193.360
 -16506508.49549 -12862222.73046  22467089.648    22467092.876
  -2578650.62748  -2009336.93545  23251495.299    23251502.824
 02  1  4  3 46 30.0000000  0  8G 1G20G 2G13G22G 8G27G31
 -24720203.37149 -19262502.74647  20476439.681    20476442.858
  -3977759.50248                  24586252.350
  -6628442.25548  -5165018.95546  22824727.601    22824732.673
 -23898644.55849 -18622325.70547  20494551.217    20494552.325
 -13886592.57649 -10820741.67746  22243097.526    22243103.360
  -2497463.51848                  24515677.920
 -16573255.26849 -12914233.26446  22454388.622    22454391.625
  -2679787.42948  -2088144.77145  23232249.341    23232259.269
 02  1  4  3 47  0.0000000  0  8G 1G20G 2G13G22G 8G27G31
 -24685429.26749 -19235406.13147  20483057.155    20483060.414
  -3868440.92248  -3014401.90144  24607054.636    24607066.303
  -6705696.23249  -5225216.84146  22810027.917    22810032.346
 -23930089.36449 -18646828.20647  20488567.466    20488568.768
 -13789545.85549 -10745121.07846  22261565.109    22261571.787
  -2589489.59448                  24498166.009
 -16639902.93949 -12966166.57646  22441705.734    22441709.093
  -2780755.83948  -2166821.36945  23213036.168    23213043.240
 02  1  4  3 47 30.0000000  0  8G 1G20G 2G13G22G 8G27G31
 -24650179.72649 -19207939.04347  20489765.138    20489768.446
  -3759142.68248  -2929234.75944  24627854.470    24627865.143
  -6782694.13249  -5285215.20146  22795375.019    22795380.229
 -23961063.98849 -18670964.33047  20482673.344    20482674.529
 -13692251.06749 -10669307.18046  22280079.746    22280086.426
  -2681477.72148                  24480660.409
 -16706435.86149 -13018010.47546  22429044.995    22429048.288
  -2881537.66548  -2245352.59145  23193857.278    23193867.703
 02  1  4  3 48  0.0000000  0  8G 1G20G 2G13G22G 8G27G31
 -24614454.39249 -19180101.21147  20496563.214    20496566.682
  -3649867.36448                  24648647.897
  -6859434.64249  -5345013.00246  22780772.393    22780775.613
 -23991566.37749 -18694732.47947  20476869.020    20476870.009
 -13594710.56649 -10593301.82946  22298640.988    22298647.562
  -2773426.47648                  24463164.371
 -16772853.25449 -13069764.34746  22416406.627    22416409.787
  -2982129.28148  -2323735.59145  23174715.648    23174724.336
 02  1  4  3 48 30.0000000  0  8G 1G20G 2G13G22G 8G27G31
 -24578248.84749 -19151889.19147  20503452.791    20503456.286
  -3540613.03248  -2758952.61444  24669439.413    24669446.784
  -6935912.10149  -5404605.81446  22766218.601    22766223.599
 -24021590.13149 -18718127.66547  20471155.542    20471156.662
 -13496922.26749 -10517103.38346  22317250.006    22317256.705
  -2865331.00548                  24445674.835
 -16839149.93549 -13121424.16846  22403790.797    22403794.172
  -3082522.49148  -2401963.98645  23155611.690    23155620.378
 02  1  4  3 49  0.0000000  0  8G 1G20G 2G13G22G 8G27G31
 -24541566.17249 -19123305.38047  20510433.302    20510436.941
  -3431385.33948                  24690224.902
  -7012128.57849  -5463995.28346  22751715.656    22751719.798
 -24051136.53149 -18741150.88547  20465532.947    20465534.111
 -13398891.52849 -10440716.01346  22335904.992    22335911.715
  -2957193.87748  -2304310.15244  24428195.109    24428197.192
 -16905328.31249 -13172991.79746  22391197.246    22391200.508
  -3182717.12348  -2480037.63045  23136544.554    23136555.723
 02  1  4  3 49 30.0000000  0  8G 1G20G 2G13G22G 8G27G31
 -24504407.66649 -19094350.78947  20517504.635    20517508.110
  -3322188.25048                  24711004.389
  -7088084.51749  -5523181.73446  22737261.041    22737266.566
 -24080205.02449 -18763801.71147  20460001.503    20460002.696
 -13300622.50649 -10364142.99246  22354604.996    22354611.890
  -3049015.73948                  24410720.382
 -16971389.28749 -13224467.94546  22378626.366    22378629.924
  -3282710.83448  -2557954.75145  23117517.487    23117524.791
 02  1  4  3 50  0.0000000  0  8G 1G20G 2G13G22G 8G27G31
 -24466787.70949 -19065036.62247  20524663.611    20524667.402
  -3213038.42748  -2503700.75044  24731775.591    24731785.271
  -7163792.88149  -5582175.27746  22722854.708    22722859.356
 -24108808.14449 -18786089.90647  20454558.727    20454560.067
 -13202131.69949 -10287397.13846  22373347.137    22373353.865
  -3140810.34748  -2447388.17844  24393253.994    24393258.440
 -17037346.24749 -13275863.04046  22366075.166    22366078.868
  -3382514.34848  -2635723.64645  23098523.940    23098534.614
 02  1  4  3 50 30.0000000  0  8G 1G20G 2G13G22G 8G27G31
 -24428687.95949 -19035348.58847  20531913.681    20531917.328
  -3103920.06748                  24752540.240
  -7239234.14249  -5640960.69646  22708498.395    22708503.237
 -24136925.81449 -18807999.83147  20449208.385    20449209.726
 -13103403.13548 -10210466.03046  22392134.630    22392143.317
  -3232558.62448  -2518880.46744  24375794.688    24375796.482
 -17103180.35349 -13327162.39446  22353547.539    22353551.010
  -3482105.87948  -2713327.37445  23079572.952    23079580.705
 02  1  4  3 51  0.0000000  0  8G 1G20G 2G13G22G 8G27G31
 -24390117.58449 -19005293.83347  20539253.337    20539257.175
  -2994845.03248  -2333680.43244  24773296.441    24773306.866
  -7314416.43949  -5699544.32246  22694191.440    22694197.301
 -24164565.61549 -18829537.39047  20443948.600    20443950.037
 -13004448.42348 -10133358.69346  22410964.925    22410972.401
  -3324269.12648                  24358341.660
 -17168900.09749 -13378372.65946  22341041.550    22341045.098
  -3581491.13848  -2790770.37745  23060660.273    23060670.450
 02  1  4  3 51 30.0000000  0  8G 1G20G 2G13G22G 8G27G31
 -24351072.23149 -18974868.96447  20546683.221    20546687.273
  -2885811.40148  -2248719.46144  24794045.215    24794053.407
  -7389334.21749  -5757921.83246  22679935.576    22679940.410
 -24191721.24049 -18850697.67047  20438780.833    20438782.297
 -12905265.71748 -10056073.71046  22429839.298    22429847.737
  -3415936.70148  -2661772.67644  24340899.791    24340900.910
 -17234500.44249 -13429489.86646  22328557.407    22328561.903
  -3680662.21648  -2868046.50545  23041789.125    23041798.309
 02  1  4  3 52  0.0000000  0  8G 1G20G 2G13G22G 8G27G31
 -24311559.25949 -18944079.72047  20554202.773    20554206.461
  -2776829.29748                  24814784.164
  -7463993.73549  -5816098.11946  22665728.137    22665733.446
 -24218398.56149 -18871485.24247  20433704.261    20433705.776
 -12805864.67948  -9978618.60846  22448754.594    22448763.033
  -3507568.04948  -2733173.85844  24323461.857    24323468.167
 -17299987.90749 -13480519.11046  22316096.378    22316099.824
  -3779622.88048  -2945158.66645  23022957.008    23022966.192
 02  1  4  3 52 30.0000000  0  8G 1G20G 2G13G22G 8G27G31
 -24271571.74349 -18912920.70347  20561812.377    20561815.963
  -2667893.96148  -2078914.09244  24835513.619    24835522.554
  -7538386.89349  -5874066.85646  22651571.934    22651576.497
 -24244588.41349 -18891892.96947  20428720.736    20428722.260
 -12706240.65548  -9900989.73546  22467712.861    22467720.304
  -3599155.67148  -2804540.92344  24306034.116    24306039.207
 -17365354.94149 -13531454.52546  22303657.604    22303661.037
  -3878362.81948  -3022098.84545  23004167.329    23004175.768
 02  1  4  3 53  0.0000000  0  8G 1G20G 2G13G22G 8G27G31
 -24231116.06549 -18881396.89147  20569510.826    20569514.519
  -2559014.53748  -1994073.20044  24856233.779    24856244.204
  -7612519.00449  -5931832.18446  22637464.674    22637470.189
 -24270295.83449 -18911924.78047  20423829.034    20423830.450
 -12606402.32948  -9823193.88045  22486711.163    22486720.347
  -3690705.19648  -2875878.36844  24288612.446    24288616.661
 -17430607.09849 -13582300.40646  22291239.883    22291243.931
  -3976884.73048  -3098869.13245  22985419.774    22985428.709
 02  1  4  3 53 30.0000000  0  8G 1G20G 2G13G22G 8G27G31
 -24190180.64749 -18849499.25947  20577300.383    20577304.430
  -2450181.38448                  24876942.952
  -7686377.33349  -5989384.16746  22623410.218    22623415.461
 -24295507.26749 -18931570.10747  20419031.460    20419032.953
 -12506340.25948  -9745223.68345  22505752.795    22505760.533
  -3782204.20548  -2947176.37544  24271201.265    24271206.454
 -17495731.88949 -13633047.06246  22278847.686    22278851.476
  -4075173.45548  -3175457.74445  22966715.385    22966726.307
 02  1  4  3 54  0.0000000  0  8G 1G20G 2G13G22G 8G27G31
 -24148758.08249 -18817222.03047  20585182.867    20585186.945
  -2341389.71748                  24897646.102
  -7759952.99449  -6046715.89646  22609408.958    22609414.785
 -24320213.55549 -18950821.81647  20414330.125    20414331.538
 -12406049.57648  -9667075.35345  22524837.449    22524845.185
  -3873644.23148  -3018428.47044  24253800.280    24253810.457
 -17560720.95049 -13683687.94946  22266480.795    22266484.479
  -4173217.65248  -3251855.78545  22948058.615    22948067.551
 02  1  4  3 54 30.0000000  0  8G 1G20G 2G13G22G 8G27G31
 -24106858.39349 -18784573.01347  20593156.516    20593160.213
  -2232652.05048  -1739765.38644  24918338.525    24918346.717
  -7833255.23949  -6103834.56546  22595460.208    22595465.430
 -24344422.78449 -18969686.20847  20409723.248    20409724.750
 -12305542.32048  -9588758.25945  22543964.346    22543971.766
  -3965035.08748  -3089642.26544  24236409.311    24236416.815
 -17625583.86749 -13734230.54746  22254137.431    22254141.244
  -4271023.86248  -3328068.40845  22929446.191    22929456.616
 02  1  4  3 55  0.0000000  0  8G 1G20G 2G13G22G 8G27G31
 -24064485.64849 -18751555.38547  20601219.726    20601223.854
  -2123974.70548                  24939019.103
  -7906286.60949  -6160742.17946  22581562.722    22581567.637
 -24368137.06549 -18988164.92947  20405210.513    20405212.051
 -12204824.76748  -9510277.29245  22563129.391    22563136.891
  -4056379.59948  -3160819.88144  24219027.986    24219031.206
 -17690323.62149 -13784677.16546  22241818.275    22241822.212
  -4368592.51848  -3404095.90345  22910880.161    22910889.345
 02  1  4  3 55 30.0000000  0  8G 1G20G 2G13G22G 8G27G31
 -24021653.19949 -18718179.55347  20609370.519    20609374.675
  -2015373.21848  -1570457.67544  24959685.020    24959694.701
  -7979059.36349  -6217448.25746  22567714.890    22567719.637
 -24391368.25449 -19006267.21347  20400789.716    20400791.210
 -12103912.45448  -9431644.56645  22582333.885    22582340.706
  -4147690.31248  -3231971.23444  24201651.813    24201660.997
 -17754952.81249 -13835037.63646  22229519.770    22229523.521
  -4465933.39948  -3479945.93645  22892356.332    22892365.516
 02  1  4  3 56  0.0000000  0  8G 1G20G 2G13G22G 8G27G31
 -23978352.37149 -18684438.75647  20617610.457    20617614.608
  -1906841.31048                  24980338.689
  -8051563.75449  -6273945.22646  22553917.616    22553922.904
 -24414105.63549 -19023984.71247  20396463.047    20396464.722
 -12002798.86248  -9352854.98245  22601574.046    22601583.230
  -4238957.80248  -3303088.85145  24184284.345    24184288.903
 -17819461.86449 -13885304.49546  22217243.907    22217247.549
  -4563033.92348  -3555608.64145  22873878.450    22873888.626
 02  1  4  3 56 30.0000000  0  8G 1G20G 2G13G22G 8G27G31
 -23934586.41349 -18650335.52447  20625939.214    20625943.129
  -1798384.40248                  25000977.234
  -8123801.66549  -6330234.54546  22540171.131    22540176.202
 -24436350.68149 -19041318.57347  20392229.899    20392231.508
 -11901489.27548  -9273912.68545  22620853.770    22620860.896
  -4330184.15248  -3374174.42645  24166924.481    24166926.930
 -17883852.93949 -13935479.41646  22204990.893    22204994.892
  -4659893.63348  -3631083.70645  22855447.015    22855456.447
 02  1  4  3 57  0.0000000  0  8G 1G20G 2G13G22G 8G27G31
 -23890349.50149 -18615865.31147  20634357.024    20634361.194
  -1689998.82948                  25021602.463
  -8195766.08049  -6386310.74546  22526477.156    22526482.607
 -24458095.61449 -19058262.73347  20388091.945    20388093.585
 -11799979.98448  -9194814.77445  22640170.076    22640177.912
  -4421362.82248  -3445222.80244  24149573.521    24149578.392
 -17948119.21849 -13985557.09046  22192761.305    22192765.340
  -4756503.01348  -3706363.68645  22837062.693    22837072.373
 02  1  4  3 57 30.0000000  0  8G 1G20G 2G13G22G 8G27G31
 -23845646.25349 -18581031.72047  20642863.608    20642867.827
  -1581691.63948                  25042212.500
  -8267460.48349  -6442176.55246  22512833.923    22512839.334
 -24479343.35049 -19074819.46447  20384048.605    20384050.207
 -11698277.78548  -9115566.56945  22659523.808    22659531.622
  -4512497.57248  -3516236.97044  24132232.387    24132235.149
 -18012264.50449 -14035540.48446  22180554.791    22180559.153
  -4852862.88348  -3781449.25145  22818726.374    22818734.813
 02  1  4  3 58  0.0000000  0  8G 1G20G 2G13G22G 8G27G31
 -23800466.56549 -18545826.87147  20651461.316    20651465.336
  -1473454.92048                  25062809.475
  -8338873.41149  -6497823.01946  22499244.655    22499249.767
 -24500082.22149 -19090979.68447  20380102.293    20380104.140
 -11596374.63948  -9036161.75945  22678915.293    22678923.732
  -4603577.20548  -3587208.18944  24114899.499    24114905.213
 -18076277.63349 -14085420.89646  22168373.584    22168377.353
  -4948959.10648  -3856329.35945  22800439.891    22800447.719
 02  1  4  3 58 30.0000000  0  8G 1G20G 2G13G22G 8G27G31
 -23754817.74849 -18510256.47447  20660148.305    20660152.382
  -1365298.01948                  25083391.276
  -8410010.72449  -6553254.71646  22485707.542    22485712.797
 -24520317.22449 -19106747.28147  20376251.691    20376253.695
 -11494279.64148  -8956607.43745  22698343.449    22698352.881
  -4694608.18148  -3658141.46844  24097577.419    24097579.905
 -18140164.91749 -14135203.24846  22156216.310    22156219.957
  -5044795.23948  -3931006.79745  22782202.165    22782211.100
 02  1  4  3 59  0.0000000  0  8G 1G20G 2G13G22G 8G27G31
 -23708703.56649 -18474323.45447  20668923.487    20668927.597
  -1257226.69048                  25103956.240
  -8480875.00649  -6608473.65946  22472222.623    22472228.329
 -24540050.29649 -19122123.76147  20372496.879    20372498.772
 -11391998.80748  -8876908.31645  22717807.499    22717815.352
  -4785593.16148  -3729038.94545  24080263.566    24080269.839
 -18203929.05249 -14184889.62546  22144082.091    22144086.251
  -5140371.33548  -4005481.60045  22764015.133    22764023.573
 02  1  4  3 59 30.0000000  0  8G 1G20G 2G13G22G 8G27G31
 -23662134.91949 -18438036.30547  20677785.116    20677789.372
  -1149254.33548                  25124503.382
  -8551476.16849  -6663487.56946  22458787.416    22458793.553
 -24559290.66949 -19137116.31547  20368835.589    20368837.535
 -11289544.92448  -8797074.37145  22737303.153    22737312.088
  -4876542.31948  -3799908.54844  24062956.075    24062962.968
 -18267580.01249 -14234487.81946  22131970.179    22131973.601
  -5235694.72648  -4079759.49345  22745875.869    22745885.053
 02  1  4  4  0  0.0000000  0  7G 1G 2G13G22G 8G27G31
 -23615099.04049 -18401385.07347  20686736.031    20686740.042
  -8621800.00749  -6718285.37146  22445405.613    22445410.793
 -24578024.13549 -19151713.87847  20365270.491    20365272.560
 -11186907.37348  -8717097.28645  22756835.629    22756843.414
  -4967441.85248  -3870739.44444  24045658.424    24045664.520
 -18331103.95149 -14283987.03446  22119882.435    22119886.466
  -5330748.95048  -4153827.62845  22727787.228    22727796.412
 02  1  4  4  0 30.0000000  0  8G 1G20G 2G13G22G 8G27G31
 -23567577.80149 -18364355.64047  20695779.146    20695783.351
         -.88058                  25165550.393
  -8691827.14149  -6772851.98446  22432079.772    22432085.549
 -24596230.43549 -19165900.66547  20361806.118    20361808.220
 -11084069.89548  -8636964.42045  22776404.195    22776413.627
  -5058272.65048  -3941516.77544  24028374.352    24028378.957
 -18394481.67249 -14333372.31446  22107821.354    22107825.173
  -5425511.80848  -4227668.73045  22709754.380    22709762.211
 02  1  4  4  1  0.0000000  0  8G 1G20G 2G13G22G 8G27G31
 -23519586.04449 -18326959.56947  20704911.746    20704915.783
    107722.44148                  25186048.506
  -8761571.09149  -6827197.93446  22418807.896    22418813.435
 -24613922.35949 -19179686.64747  20358439.607    20358441.609
 -10981049.12148  -8556688.71645  22796009.264    22796017.110
  -5149048.16748  -4012251.06544  24011100.565    24011106.291
 -18457726.83849 -14382654.30046  22095786.368    22095790.483
  -5519994.26248  -4301291.32545  22691774.501    22691783.189
 02  1  4  4  1 30.0000000  0  7G 1G 2G13G22G 8G27G31
 -23471132.15449 -18289203.39447  20714132.158    20714136.447
  -8831039.00549  -6881328.79646  22405588.394    22405594.411
 -24631106.47349 -19193076.92147  20355169.488    20355171.375
 -10877855.44548  -8476278.30745  22815646.298    22815655.482
  -5239775.99648  -4082948.14245  23993835.403    23993841.248
 -18520846.64449 -14431838.60346  22083775.202    22083779.362
  -5614200.65348  -4374698.79945  22673847.719    22673855.468
 02  1  4  4  2  0.0000000  0  8G 1G20G 2G13G22G 8G27G31
 -23422228.62549 -18251096.84947  20723438.189    20723442.576
         -.52158                  25226988.371
  -8900242.08149  -6935253.28646  22392420.009    22392425.118
 -24647793.73849 -19206080.03847  20351994.149    20351996.036
 -10774503.11448  -8395744.28545  22835313.717    22835323.398
  -5330467.28648  -4153616.76045  23976577.754    23976582.222
 -18583852.34849 -14480934.00046  22071786.404    22071789.936
  -5708139.65648  -4447897.91745  22655971.749    22655980.685
 02  1  4  4  2 30.0000000  0  7G 1G 2G13G22G 8G27G31
 -23372856.29749 -18212625.00547  20732833.891    20732838.189
  -8969159.89149  -6988955.49446  22379304.956    22379310.930
 -24663962.99649 -19218679.51447  20348917.177    20348919.377
 -10670974.77248  -8315073.06845  22855014.685    22855023.621
  -5421101.85648                  23959329.964
 -18646723.70249 -14529924.71146  22059821.940    22059825.481
  -5801788.17148  -4520870.68245  22638151.538    22638160.226
 02  1  4  4  3  0.0000000  0  7G 1G 2G13G22G 8G27G31
 -23323025.58049 -18173795.97347  20742316.282    20742320.456
  -9037801.55949  -7042442.52246  22366243.094    22366248.597
 -24679622.52749 -19230881.81047  20345937.137    20345939.189
 -10567282.76348  -8234274.35445  22874746.279    22874756.952
  -5511688.96748  -4294829.23345  23942092.717    23942095.685
 -18709469.97549 -14578817.95346  22047881.021    22047885.040
  -5895152.83048  -4593622.26745  22620384.058    22620391.549
 02  1  4  4  3 30.0000000  0  8G 1G 3G 2G13G22G 8G27G31
 -23272730.73449 -18134605.28747  20751887.101    20751891.314
         -.63759          .64956  22071466.136    22071472.847
  -9106159.85949  -7095708.74146  22353234.993    22353240.815
 -24694764.80749 -19242681.05347  20343055.697    20343057.723
 -10463423.00748  -8153344.91745  22894511.247    22894518.642
  -5602221.73448  -4365374.63844  23924864.485    23924869.754
 -18772084.05449 -14627608.18646  22035966.550    22035970.536
  -5988223.93148  -4666145.10246  22602673.556    22602681.995
 02  1  4  4  4  0.0000000  0  8G 1G 3G 2G13G22G 8G27G31
 -23221957.16349 -18095041.57647  20761549.113    20761553.590
    -27571.10249    -21482.87546  22066219.600    22066225.560
  -9174219.00149  -7148741.86746  22340283.479    22340289.736
 -24709373.92249 -19254064.84247  20340275.686    20340277.648
 -10359382.85148  -8072274.92945  22914308.907    22914319.828
  -5692684.58448  -4435865.28145  23907650.443    23907657.025
 -18834550.27149 -14676283.20746  22024080.787    22024084.018
  -6080983.12448  -4738424.91446  22585021.744    22585029.935
 02  1  4  4  4 30.0000000  0  8G 1G 3G 2G13G22G 8G27G31
 -23170707.79049 -18055107.10847  20771301.654    20771306.002
    -54570.17349    -42521.16946  22061081.586    22061088.137
  -9241980.50949  -7201543.05746  22327389.235    22327394.492
 -24723450.66149 -19265033.79647  20337597.150    20337599.038
 -10255166.95648  -7991068.00945  22934141.522    22934150.210
  -5783079.26448  -4506302.75444  23890447.755    23890455.114
 -18896870.24049 -14724844.27546  22012221.003    22012224.765
  -6173429.29848  -4810460.81846  22567429.763    22567437.631
 02  1  4  4  5  0.0000000  0  8G 1G 3G 2G13G22G 8G27G31
 -23119012.69749 -18014825.32747  20781138.554    20781143.283
    -81025.79249    -63135.99146  22056047.175    22056053.896
  -9309473.04549  -7254134.66946  22314545.690    22314551.457
 -24737023.06249 -19275609.75747  20335014.601    20335016.541
 -10150806.99348  -7909748.81145  22953999.570    22954009.747
  -5873434.50648  -4576709.53244  23873254.545    23873259.959
 -18959072.72949 -14773313.79346  22000383.281    22000387.591
  -6265588.80348  -4882273.35846  22549892.374    22549900.128
 02  1  4  4  5 30.0000000  0  8G 1G 3G 2G13G22G 8G27G31
 -23066864.71949 -17974190.64447  20791062.399    20791066.972
   -106928.53849    -83320.00346  22051118.109    22051125.361
  -9376688.21449  -7306510.14946  22301754.519    22301760.541
 -24750082.31349 -19285785.85847  20332529.868    20332531.596
 -10046297.54848  -7828313.15245  22973888.611    22973897.051
  -5963741.97248  -4647079.08145  23856069.733    23856077.634
 -19021149.23649 -14821685.14946  21988571.741    21988575.366
  -6357450.06248  -4953853.48945  22532411.379    22532421.060
 02  1  4  4  6  0.0000000  0  8G 1G 3G 2G13G22G 8G27G31
 -23014261.13449 -17933200.94147  20801072.564    20801077.391
   -132273.82649   -103069.63646  22046295.172    22046302.287
  -9443621.82249  -7358666.23246  22289018.356    22289023.702
 -24762623.81549 -19295558.51447  20330143.138    20330144.803
  -9941637.62848  -7746760.24545  22993803.915    22993813.844
  -6053997.64248  -4717408.21044  23838894.499    23838900.625
 -19083095.83749 -14869955.28246  21976783.943    21976787.674
  -6449006.37348  -5025196.02146  22514989.510    22514997.701
 02  1  4  4  6 30.0000000  0  8G 1G 3G 2G13G22G 8G27G31
 -22961196.41649 -17891851.91247  20811170.486    20811175.391
   -157054.15249   -122379.03046  22041579.610    22041586.904
  -9510267.22749  -7410597.75746  22276335.581    22276341.899
 -24774640.39049 -19304922.14347  20327856.501    20327858.291
  -9836823.37248  -7665087.12145  23013750.208    23013757.844
  -6144194.84848  -4787691.84144  23821731.746    23821738.093
 -19144905.78849 -14918118.92746  21965021.181    21965025.219
  -6540248.29148  -5096293.57746  22497626.399    22497635.583
 02  1  4  4  7  0.0000000  0  8G 1G 3G 2G13G22G 8G27G31
 -22907676.05849 -17850147.84247  20821354.953    20821359.875
   -181272.68949   -141250.67246  22036971.089    22036978.249
  -9576628.25349  -7462307.67746  22263707.918    22263713.325
 -24786135.25849 -19313879.25447  20325669.118    20325670.926
  -9731861.76148  -7583299.12145  23033723.840    23033734.017
  -6234337.70848  -4857933.09444  23804575.616    23804585.793
 -19206582.93049 -14966179.08946  21953284.173    21953288.227
  -6631177.23248  -5167147.25846  22480323.086    22480331.774
 02  1  4  4  7 30.0000000  0  8G 1G 3G 2G13G22G 8G27G31
 -22853687.06249 -17808078.59847  20831628.763    20831633.872
   -204914.64549   -159673.02046  22032472.133    22032479.317
  -9642690.52049  -7513784.80046  22251136.108    22251142.009
 -24797093.73149 -19322418.39447  20323583.817    20323585.783
  -9626741.48348  -7501387.53145  23053727.617    23053737.049
  -6324411.89248  -4928120.83445  23787437.247    23787442.522
 -19268113.03249 -15014124.68646  21941575.698    21941579.421
  -6721776.29648  -5237743.88546  22463082.890    22463090.555
 02  1  4  4  8  0.0000000  0  8G 1G 3G 2G13G22G 8G27G31
 -22799238.62349 -17765651.34747  20841990.263    20841995.082
   -227987.25749   -177651.72346  22028081.936    22028089.188
  -9708462.21649  -7565035.51846  22238621.260    22238626.679
 -24807523.66249 -19330545.68247  20321599.123    20321601.189
  -9521473.55448  -7419360.85645  23073760.417    23073768.608
  -6414425.45348  -4998261.16644  23770307.622    23770312.675
 -19329504.03549 -15061961.89046  21929893.929    21929897.745
  -6812050.91848  -5308087.71946  22445903.722    22445911.913
 02  1  4  4  8 30.0000000  0  8G 1G 3G 2G13G22G 8G27G31
 -22744346.20549 -17722878.14047  20852435.784    20852440.856
   -250504.08949   -195197.34846  22023797.104    22023803.686
  -9773957.41549  -7616070.78146  22226156.905    22226162.348
 -24817438.32649 -19338271.46147  20319712.442    20319714.396
  -9416074.82948  -7337232.31245  23093816.332    23093827.254
  -6504392.61848  -5068365.71145  23753187.591    23753196.279
 -19390769.95549 -15109701.62746  21918235.087    21918238.943
  -6902012.45749  -5378187.60146  22428785.131    22428793.322
 02  1  4  4  9  0.0000000  0  8G 1G 3G 2G13G22G 8G27G31
 -22689001.63749 -17679752.60747  20862967.789    20862972.465
   -272454.63649   -212301.70446  22019619.781    22019626.948
  -9839166.39849  -7666883.02146  22213749.184    22213754.164
 -24826827.39749 -19345587.68647  20317925.705    20317927.527
  -9310538.67248  -7254996.66145  23113900.821    23113907.719
  -6594303.62648  -5138426.33444  23736077.571    23736083.401
 -19451901.02749 -15157336.28146  21906601.698    21906606.008
  -6991648.45248  -5448033.81346  22411727.490    22411736.426
 02  1  4  4  9 30.0000000  0  8G 1G 3G 2G13G22G 8G27G31
 -22633199.17149 -17636270.26947  20873586.557    20873591.485
   -293830.90349   -228958.56346  22015551.964    22015558.543
  -9904081.85849  -7717466.54946  22201395.325    22201401.348
 -24835683.37549 -19352488.50847  20316240.531    20316242.362
  -9204860.39548  -7172650.28245  23134009.489    23134020.162
  -6684151.23848  -5208437.49044  23718979.977    23718986.192
 -19512889.89349 -15204860.12646  21894996.402    21895000.469
  -7080949.03949  -5517618.68446  22394735.170    22394742.496
 02  1  4  4 10  0.0000000  0  8G 1G 3G 2G13G22G 8G27G31
 -22576936.85949 -17592429.61547  20884293.026    20884298.114
   -314629.19749   -245165.04246  22011594.443    22011601.064
  -9968700.24149  -7767818.58946  22189099.424    22189104.917
 -24844002.58349 -19358971.07547  20314657.665    20314659.736
  -9099039.89548  -7090193.09645  23154148.106    23154156.793
  -6773932.06648  -5278396.65245  23701896.004    23701903.611
 -19573733.10349 -15252270.47046  21883418.877    21883422.672
  -7169908.16149  -5586937.45846  22377806.169    22377813.228
 02  1  4  4 10 30.0000000  0  8G 1G 3G 2G13G22G 8G27G31
 -22520217.35549 -17548232.71247  20895086.678    20895091.647
   -334850.36249   -260921.81046  22007746.477    22007753.348
 -10033022.92249  -7817940.21746  22176859.099    22176864.825
 -24851786.22749 -19365036.31747  20313176.000    20313178.163
  -8993081.11148  -7007628.12745  23174310.726    23174321.151
  -6863647.49448  -5348304.81845  23684823.311    23684831.150
 -19634431.77249 -15299568.18746  21871867.756    21871872.160
  -7258524.61548  -5655989.21746  22360942.429    22360951.117
 02  1  4  4 11  0.0000000  0  8G 1G 3G 2G13G22G 8G27G31
 -22463045.80949 -17503683.56847  20905966.409    20905971.210
   -354497.51449   -276231.28846  22004007.794    22004015.089
 -10097053.97349  -7867834.59646  22164674.573    22164680.268
 -24859037.18649 -19370686.47247  20311796.522    20311798.675
  -8886990.80348  -6924960.70245  23194499.624    23194511.042
  -6953301.41148  -5418165.07745  23667763.950    23667767.968
 -19694989.72349 -15346756.24746  21860343.106    21860348.029
  -7346799.40949  -5724774.75046  22344145.439    22344151.985
 02  1  4  4 11 30.0000000  0  8G 1G 3G 2G13G22G 8G27G31
 -22405423.53849 -17458783.21747  20916931.072    20916936.406
   -373569.94749   -291092.92546  22000378.069    22000384.788
 -10160792.93549  -7917501.37346  22152545.507    22152551.036
 -24865754.84949 -19375921.07847  20310518.196    20310520.421
  -8780771.70948  -6842192.90045  23214713.040    23214723.713
  -7042893.57848  -5487977.19345  23650713.811    23650722.499
 -19755406.74049 -15393834.48246  21848846.908    21848851.549
  -7434729.59449  -5793291.76546  22327411.913    22327420.600
 02  1  4  4 12  0.0000000  0  8G 1G 3G 2G13G22G 8G27G31
 -22347352.60249 -17413533.25947  20927981.856    20927986.799
   -392067.74749   -305506.79846  21996857.981    21996865.311
 -10224240.53049  -7966941.11346  22140472.064    22140477.939
 -24871939.66349 -19380740.47847  20309341.067    20309343.226
  -8674427.24548  -6759327.46445  23234949.499    23234961.165
  -7132424.57648  -5557741.65645  23633677.304    23633684.589
 -19815683.32349 -15440803.28746  21837376.637    21837380.967
  -7522313.31849  -5861538.78446  22310745.082    22310754.266
 02  1  4  4 12 30.0000000  0  8G 1G 3G 2G13G22G 8G27G31
 -22288832.46449 -17367933.25947  20939118.475    20939123.222
   -409988.44949   -319470.97546  21993447.522    21993454.757
 -10287394.78849  -8016152.28546  22128453.793    22128459.742
 -24877589.38449 -19385142.91847  20308266.445    20308268.462
  -8567958.33448  -6676365.02545  23255210.697    23255219.881
  -7221892.44248  -5627456.91245  23616652.403    23616658.615
 -19875817.33449 -15487660.99346  21825933.602    21825938.117
  -7609545.82549  -5929512.11446  22294146.277    22294153.287
 02  1  4  4 13  0.0000000  0  8G 1G 3G 2G13G22G 8G27G31
 -22229869.49949 -17321988.21747  20950337.964    20950343.600
   -427336.43749   -332988.88346  21990146.253    21990153.508
 -10350260.59649  -8065138.67746  22116491.016    22116496.917
 -24882708.31849 -19389131.75247  20307292.441    20307294.676
  -8461372.49548  -6593311.46545  23275493.084    23275504.502
  -7311302.15248  -5697126.88645  23599638.388    23599647.323
 -19935813.41049 -15534411.20546  21814516.847    21814521.274
  -7696429.29649  -5997213.49146  22277612.337    22277620.777
 02  1  4  4 13 30.0000000  0  8G 1G 3G 2G13G22G 8G27G31
 -22170468.13249 -17275701.55847  20961642.431    20961647.487
   -444114.19049   -346062.44746  21986953.650    21986960.952
 -10412840.87449  -8113902.58746  22104582.497    22104588.415
 -24887299.21649 -19392709.13347  20306418.709    20306421.004
  -8354675.38548  -6510171.23745  23295797.628    23295808.301
  -7400656.12848  -5766753.38745  23582635.275    23582642.015
 -19995674.36149 -15581056.13146  21803125.700    21803129.906
  -7782963.97949  -6064643.05146  22261144.806    22261152.475
 02  1  4  4 14  0.0000000  0  8G 1G 3G 2G13G22G 8G27G31
 -22110614.24349 -17229062.27747  20973032.572    20973037.486
   -460305.72649   -358679.21846  21983872.674    21983880.066
 -10475120.24149  -8162432.00046  22092730.849    22092736.837
 -24891346.15049 -19395862.64647  20305648.588    20305650.877
  -8247854.29648  -6426934.37545  23316124.525    23316135.943
  -7489939.15348  -5836324.67345  23565644.586    23565650.587
 -20055384.49949 -15627583.53046  21791763.233    21791767.351
  -7869131.62449  -6131786.60246  22244748.710    22244755.516
 02  1  4  4 14 30.0000000  0  8G 1G 3G 2G13G22G 8G27G31
 -22050318.45549 -17182078.66147  20984506.109    20984511.352
   -475919.68549   -370845.92946  21980901.502    21980908.167
 -10537107.80449  -8210734.04046  22080935.420    22080941.336
 -24894857.86749 -19398599.10647  20304980.377    20304982.768
  -8140921.08948                  23336473.713
  -7579160.12148  -5905847.57645  23548666.385    23548672.058
 -20114952.66749 -15674000.30646  21780427.869    21780432.244
  -7954938.56849  -6198649.08446  22228418.775    22228427.214
 02  1  4  4 15  0.0000000  0  8G 1G 3G 2G13G22G 8G27G31
 -21989574.89549 -17134746.13747  20996065.131    20996070.531
   -490948.38849   -382556.60446  21978041.846    21978049.199
 -10598796.11249  -8258802.89246  22069196.137    22069201.991
 -24897826.51249 -19400912.39147  20304415.485    20304417.792
  -8033871.12248  -6260194.97845  23356845.173    23356856.095
  -7668311.55148  -5975316.26345  23531701.999    23531709.082
 -20174371.21649 -15720300.49246  21769121.036    21769124.937
  -8040374.86349  -6265222.72846  22212161.168    22212168.158
 02  1  4  4 15 30.0000000  0  8G 1G 3G 2G13G22G 8G27G31
 -21928386.77549 -17087067.20547  21007709.376    21007714.441
   -505393.12749   -393812.24246  21975292.934    21975299.754
 -10660186.91749  -8306639.90746  22057514.608    22057520.159
 -24900253.97249 -19402803.97347  20303953.856    20303956.110
  -7926708.78248  -6176692.25345  23377237.313    23377247.489
  -7757395.14148  -6044732.12245  23514749.610    23514754.671
 -20233641.72049 -15766485.31346  21757842.260    21757846.387
  -8125439.52649  -6331506.79246  22195974.376    22195982.238
 02  1  4  4 16  0.0000000  0  8G 1G 3G 2G13G22G 8G27G31
 -21866749.53349 -17039038.30347  21019438.755    21019443.870
   -519247.49349   -404607.85146  21972656.598    21972663.464
 -10721274.17249  -8354240.38146  22045889.123    22045895.329
 -24902133.50549 -19404268.59547  20303596.142    20303598.585
  -7819430.71848  -6093099.31345  23397652.724    23397661.412
  -7846404.54548  -6114090.17645  23497812.437    23497819.737
 -20292757.81349 -15812549.81646  21746592.492    21746596.854
  -8210123.84849  -6397494.46646  22179858.677    22179867.116
 02  1  4  4 16 30.0000000  0  8G 1G 3G 2G13G22G 8G27G31
 -21804681.85349 -16990673.99047  21031249.321    21031254.958
   -532528.27149   -414956.50846  21970129.575    21970136.465
 -10782075.04149  -8401617.69646  22034320.144    22034325.152
 -24903482.18849 -19405319.56847  20303339.225    20303341.788
  -7712056.74748  -6009431.68145  23418084.231    23418093.911
  -7935356.95448  -6183403.82245  23480883.934    23480893.614
 -20351736.64249 -15858507.36246  21735369.344    21735373.715
  -8294442.52549  -6463197.20646  22163814.249    22163821.812
 02  1  4  4 17  0.0000000  0  8G 1G 3G 2G13G22G 8G27G31
 -21742179.03149 -16941970.61447  21043143.862    21043148.993
   -545228.94349   -424853.14346  21967713.023    21967719.937
 -10842583.25249  -8448766.96146  22022805.373    22022810.840
 -24904293.39549 -19405951.72747  20303184.717    20303187.291
  -7604583.41948  -5925686.57545  23438537.416    23438546.352
  -8024246.12348  -6252668.16345  23463970.160    23463975.563
 -20410571.64849 -15904352.83746  21724173.738    21724177.808
  -8378386.47349  -6528607.96546  22147839.420    22147847.158
 02  1  4  4 17 30.0000000  0  8G 1G 3G 2G13G22G 8G27G31
 -21679236.35549 -16892924.49047  21055121.135    21055126.782
   -557343.00349   -434292.67246  21965407.475    21965414.927
 -10902792.52049  -8495683.26946  22011348.103    22011353.803
 -24904560.32449 -19406159.77347  20303133.984    20303136.481
  -7497006.95848                  23459007.704
  -8113065.30648  -6321877.98245  23447067.901    23447075.141
 -20469256.25449 -15950081.12346  21713006.487    21713010.703
  -8461946.81249  -6593719.79146  22131938.563    22131946.754
 02  1  4  4 18  0.0000000  0  8G 1G 3G 2G13G22G 8G27G31
 -21615848.56949 -16843531.52847  21067183.372    21067188.780
   -568863.18149   -443269.44146  21963215.162    21963222.492
 -10962696.12449  -8542361.39246  21999948.658    21999953.868
 -24904276.19449 -19405938.42047  20303188.445    20303190.965
  -7389323.21548  -5757952.12445  23479500.569    23479512.235
  -8201807.74548  -6391027.97645  23430180.417    23430186.984
 -20527783.24349 -15995686.58946  21701868.778    21701872.872
  -8545113.83749  -6658525.14146  22116112.814    22116120.184
 02  1  4  4 18 30.0000000  0  8G 1G 3G 2G13G22G 8G27G31
 -21552021.49349 -16793796.26147  21079329.785    21079335.114
   -579793.50349   -451786.58046  21961135.078    21961141.991
 -11022298.34049  -8588804.66446  21988606.603    21988612.445
 -24903444.99849 -19405290.78447  20303346.504    20303348.798
  -7281538.96548                  23500010.144
  -8290477.35748  -6460121.24645  23413307.899    23413314.356
 -20586156.52949 -16041172.28746  21690760.971    21690765.419
  -8627889.09549  -6723025.22546  22100360.474    22100368.157
 02  1  4  4 19  0.0000000  0  8G 1G 3G 2G13G22G 8G27G31
 -21487760.01649 -16743722.50047  21091558.183    21091563.592
   -590137.32749   -459846.71446  21959167.115    21959174.038
 -11081602.69949  -8635015.83746  21977321.305    21977326.785
 -24902069.98949 -19404219.39847  20303608.384    20303610.936
  -7173660.25848                  23520540.260
  -8379077.57848  -6529160.40845  23396446.463    23396453.678
 -20644379.43149 -16086540.80446  21679682.084    21679685.802
  -8710273.71249  -6787220.91546  22084683.025    22084690.635
 02  1  4  4 19 30.0000000  0  8G 1G 3G 2G13G22G 8G27G31
 -21423065.94649 -16693311.65347  21103869.129    21103874.646
   -599894.29549   -467449.54846  21957310.083    21957316.500
 -11140609.44049  -8680995.10046  21966093.021    21966098.152
 -24900151.19949 -19402724.28147  20303973.696    20303976.178
  -7065690.05948                  23541086.005
  -8467608.49848  -6598145.57645  23379600.821    23379608.417
 -20702451.86049 -16131792.06846  21668631.064    21668635.050
  -8792265.15149  -6851110.23146  22069080.657    22069088.848
 02  1  4  4 20  0.0000000  0  8G 1G 3G 2G13G22G 8G27G31
 -21357934.28349 -16642559.82547  21116263.763    21116269.422
   -609057.92649   -474590.04546  21955566.747    21955573.601
 -11199312.16149  -8726737.46846  21954921.857    21954927.852
 -24897681.81849 -19400800.13847  20304443.704    20304446.084
  -6957624.27248                  23561650.565
  -8556063.33348  -6667071.48045  23362768.236    23362775.713
 -20760367.14949 -16176920.88846  21657609.609    21657613.692
  -8873854.19849  -6914686.01346  22053554.591    22053562.283
 02  1  4  4 20 30.0000000  0  8G 1G 3G 2G13G22G 8G27G31
 -21292368.80049 -16591469.95347  21128740.096    21128745.940
   -617630.00749   -481269.59646  21953935.026    21953941.821
 -11257713.00249  -8772244.60046  21943808.851    21943814.318
 -24894663.75949 -19398448.45147  20305018.053    20305020.424
  -6849467.60548  -5337287.35545  23582232.502    23582243.424
  -8644443.89048  -6735939.50345  23345949.727    23345957.918
 -20818126.94749 -16221928.54546  21646618.249    21646622.394
  -8955040.08149  -6977947.63546  22038104.936    22038112.776
 02  1  4  4 21  0.0000000  0  8G 1G 3G 2G13G22G 8G27G31
 -21226374.67049 -16540046.07647  21141298.844    21141304.509
   -625613.76449   -487490.71246  21952416.400    21952422.982
 -11315815.60749  -8817519.33946  21932752.091    21932758.079
 -24891100.48149 -19395671.91947  20305696.261    20305698.499
  -6741226.28748  -5252943.88245  23602830.720    23602842.387
  -8732753.60748  -6804752.30145  23329144.033    23329153.217
 -20875734.43749 -16266817.52446  21635656.374    21635660.519
  -9035823.83749  -7040895.92446  22022732.934    22022740.279
 02  1  4  4 21 30.0000000  0  8G 1G 3G 2G13G22G 8G27G31
 -21159947.93149 -16488285.10247  21153939.334    21153945.012
   -633003.45549   -493248.91446  21951009.939    21951016.397
 -11373614.40549  -8862557.34946  21921753.291    21921759.757
 -24886986.16849 -19392466.00947  20306479.182    20306481.461
  -6632896.96548                  23623444.744
  -8820986.63348  -6873505.35745  23312354.522    23312364.699
 -20933183.60749 -16311583.14347  21624724.022    21624728.073
  -9116197.14549  -7103524.38746  22007437.900    22007444.910
 02  1  4  4 22  0.0000000  0  8G 1G 3G 2G13G22G 8G27G31
 -21093090.37349 -16436188.42647  21166661.983    21166667.699
   -639799.36549   -498544.43246  21949717.191    21949723.445
 -11431109.59549  -8907358.78846  21910812.243    21910818.086
 -24882321.02149 -19388830.87747  20307366.936    20307369.160
  -6524482.48548  -5084053.37645  23644076.343    23644087.513
  -8909142.96248  -6942198.64345  23295580.917    23295584.999
 -20990474.42149 -16356225.36447  21613821.688    21613826.011
  -9196157.70549  -7165831.23946  21992222.272    21992229.588
 02  1  4  4 22 30.0000000  0  8G 1G 3G 2G13G22G 8G27G31
 -21025805.33349 -16383758.64447  21179466.310    21179472.100
   -646003.00249   -503378.43746  21948536.335    21948543.014
 -11488302.87749  -8951924.94846  21899928.424    21899933.760
 -24877106.61749 -19384767.76047  20308359.141    20308361.636
  -6415987.23548  -4999512.00545  23664721.940    23664732.365
  -8997223.97548  -7010833.28945  23278817.575    23278821.956
 -21047608.14949 -16400745.19747  21602949.648    21602954.162
  -9275704.68649  -7227815.83346  21977084.776    21977092.087
 02  1  4  4 23  0.0000000  0  8G 1G 3G 2G13G22G 8G27G31
 -20958111.15649 -16331010.05447  21192347.677    21192353.590
   -651630.86949   -507763.78646  21947465.367    21947472.180
 -11545211.07249  -8996268.98746  21889099.316    21889105.260
 -24871359.40249 -19380289.47047  20309452.987    20309455.280
  -6307430.08648                  23685380.486
  -9085246.21248  -7079422.07345  23262068.179    23262075.152
 -21104601.05549 -16445155.27447  21592104.465    21592108.672
  -9354851.93049  -7289488.93846  21962023.242    21962031.023
 02  1  4  4 23 30.0000000  0  8G 1G 3G 2G13G22G 8G27G31
 -20889985.93649 -16277925.59447  21205312.093    21205317.732
   -656659.21249   -511681.97746  21946508.598    21946514.777
 -11601810.71349  -9040372.59846  21878329.301    21878334.695
 -24865055.80849 -19375377.63747  20310652.398    20310654.941
  -6198790.10048  -4830268.24945  23706054.152    23706065.321
  -9173185.84248  -7147946.55945  23245334.915    23245341.850
 -21161429.18249 -16489436.96047  21581290.313    21581294.739
  -9433573.27249  -7350830.18646  21947043.248    21947050.587
 02  1  4  4 24  0.0000000  0  8G 1G 3G 2G13G22G 8G27G31
 -20821436.24849 -16224510.37547  21218356.425    21218362.060
   -661093.00749   -515136.88346  21945664.835    21945671.516
 -11658106.53649  -9084239.47246  21867616.132    21867622.149
 -24858200.79549 -19370036.13047  20311956.837    20311959.250
  -6090074.43348  -4745555.11245  23726742.229    23726752.654
  -9261047.49348  -7216410.22345  23228614.142    23228623.078
 -21218096.98949 -16533593.71947  21570506.830    21570511.075
  -9511871.11649  -7411841.43946  21932143.385    21932151.176
 02  1  4  4 24 30.0000000  0  8G 1G 3G 2G13G22G 8G27G31
 -20752458.39749 -16170761.52547  21231482.670    21231488.823
   -664926.95749   -518124.38646  21944935.497    21944942.147
 -11714093.48049  -9127865.66546  21856962.279    21856968.162
 -24850788.62749 -19364260.47447  20313367.258    20313369.753
  -5981280.38048                  23747445.109
  -9348825.46648  -7284808.73645  23211911.854    23211917.308
 -21274598.75449 -16577621.09547  21559755.020    21559759.523
  -9589737.28749  -7472516.32646  21917325.915    21917333.503
 02  1  4  4 25  0.0000000  0  8G 1G 3G 2G13G22G 8G27G31
 -20683067.29649 -16116690.66647  21244687.618    21244693.316
   -668174.39449   -520654.86546  21944317.110    21944323.794
 -11769784.92649  -9171261.60146  21846365.101    21846370.508
 -24842832.73749 -19358061.13947  20314881.083    20314883.703
  -5872423.56648  -4575957.84544  23768160.638    23768170.815
  -9436532.74248  -7353152.12345  23195220.707    23195228.516
 -21330947.32249 -16621529.09747  21549032.412    21549036.894
  -9667182.68349  -7532863.34346  21902589.318    21902596.077
 02  1  4  4 25 30.0000000  0  8G 1G 3G 2G13G22G 8G27G31
 -20613256.80649 -16062293.00547  21257972.061    21257978.121
   -670827.29649   -522722.06746  21943812.346    21943818.722
 -11825173.01649  -9214421.16646  21835824.119    21835829.825
 -24834324.91749 -19351431.73147  20316500.378    20316502.808
  -5763498.53948                  23788888.345
  -9524161.25348  -7421434.13045  23178545.794    23178553.586
 -21387134.47249 -16665311.31047  21538339.879    21538344.357
  -9744196.82649  -7592874.31746  21887933.315    21887940.871
 02  1  4  4 26  0.0000000  0  8G 1G 3G 2G13G22G 8G27G31
 -20543023.90849 -16007566.20447  21271336.678    21271343.087
   -672881.23949   -524322.55346  21943421.407    21943427.959
 -11880253.20849  -9257340.80646  21825343.145    21825348.726
 -24825260.96349 -19344368.97347  20318225.332    20318227.847
  -5654503.03448                  23809630.203
  -9611706.09848  -7489650.95045  23161887.439    23161893.337
 -21443154.99349 -16708963.68347  21527679.755    21527684.331
  -9820772.33849  -7652543.48146  21873361.612    21873368.967
 02  1  4  4 26 30.0000000  0  8G 1G 3G 2G13G22G 8G27G31
 -20472370.74349 -15952511.91847  21284782.125    21284787.606
   -674336.45549   -525456.50846  21943144.532    21943151.548
 -11935025.95849  -9300020.88946  21814920.442    21814925.846
 -24815641.24449 -19336873.15747  20320056.097    20320058.465
  -5545439.66448                  23830383.809
  -9699167.18148  -7557802.49245  23145243.485    23145250.596
 -21499008.90549 -16752486.23347  21517051.492    21517055.668
  -9896906.69749  -7711868.90346  21858873.865    21858881.089
 02  1  4  4 27  0.0000000  0  8G 1G 3G 2G13G22G 8G27G31
 -20401303.17449 -15897134.72246  21298304.918    21298311.701
   -675197.41149   -526127.41646  21942980.932    21942987.673
 -11989495.98049  -9342465.08246  21804554.675    21804560.795
 -24805469.76649 -19328947.39547  20321991.637    20321994.225
  -5436315.42148                  23851150.752
  -9786548.57648  -7625891.92345  23128615.180    23128622.595
 -21554700.16549 -16795882.03747  21506453.794    21506458.359
  -9972601.98049  -7770852.17646  21844468.932    21844476.389
 02  1  4  4 27 30.0000000  0  8G 1G 3G 2G13G22G 8G27G31
 -20329823.77949 -15841436.62847  21311908.333    21311914.200
   -675464.78549   -526335.78146  21942929.914    21942936.720
 -12043664.06049  -9384674.00446  21794246.979    21794252.765
 -24794747.76049 -19320592.65747  20324032.081    20324034.764
  -5327133.18148                  23871926.581
  -9873850.77648  -7693919.65845  23112002.745    23112011.184
 -21610229.00949 -16839151.28747  21495886.409    21495891.070
 -10047856.52449  -7829492.01546  21830149.058    21830155.927
 02  1  4  4 28  0.0000000  0  8G 1G 3G 2G13G22G 8G27G31
 -20257927.73649 -15785413.87146  21325589.343    21325595.362
   -675132.19049   -526076.65346  21942992.804    21942999.627
 -12097523.36149  -9426642.31646  21783998.446    21784003.685
 -24783468.07549 -19311803.36447  20326178.557    20326181.053
  -5217888.80148                  23892716.291
  -9961066.63948  -7761880.10345  23095406.531    23095413.951
 -21665588.23449 -16882288.36347  21485352.001    21485356.508
 -10122661.09749  -7887781.21946  21815913.796    21815921.075
 02  1  4  4 28 30.0000000  0  7G 1G 2G13G22G 8G27G31
 -20185615.31449 -15729066.65646  21339350.110    21339356.056
 -12151072.51949  -9468368.96746  21773807.797    21773813.809
 -24771629.23449 -19302578.36247  20328431.579    20328433.961
  -5108582.98448                  23913516.138
 -10048194.54348  -7829772.01145  23078826.516    23078833.154
 -21720775.95849 -16925291.80147  21474850.541    21474854.920
 -10197011.46749  -7945716.49646  21801765.466    21801772.307
 02  1  4  4 29  0.0000000  0  7G 1G 2G13G22G 8G27G31
 -20112882.48049 -15672391.84546  21353190.529    21353196.903
 -12204306.01149  -9509849.63746  21763678.108    21763683.192
 -24759226.24949 -19292913.76447  20330791.855    20330794.427
  -4999212.38448                  23934329.771
 -10135228.35548  -7897590.59245  23062264.362    23062271.963
 -21775785.99349 -16968156.79047  21464382.615    21464386.797
 -10270899.35349  -8003291.38946  21787705.333    21787712.100
 02  1  4  4 29 30.0000000  0  7G 1G 2G13G22G 8G27G31
 -20039751.44449 -15615406.75046  21367107.602    21367113.650
 -12257244.48649  -9551100.43146  21753604.705    21753609.948
 -24746279.92249 -19282825.78147  20333255.394    20333258.136
  -4889799.79848                  23955149.806
 -10222188.10148  -7965351.44045  23045715.964    23045724.155
 -21830638.34349 -17010898.91247  21453944.482    21453948.615
 -10344342.81249  -8060519.96946  21773728.421    21773735.784
 02  1  4  4 30  0.0000000  0  7G 1G 2G13G22G 8G27G31
 -19966208.50149 -15558100.68846  21381101.852    21381108.420
 -12309872.59649  -9592109.37346  21743589.218    21743595.209
 -24732774.11349 -19272301.84047  20335825.534    20335828.129
  -4780331.98048  -3724981.50044  23975981.885    23975993.303
 -10309057.99148  -8033042.28145  23029185.696    23029192.338
 -21885316.91249 -17053505.62847  21443539.568    21443543.896
 -10417323.68649  -8117388.10246  21759841.829    21759848.555
 02  1  4  4 30 30.0000000  0  7G 1G 2G13G22G 8G27G31
 -19892261.69149 -15500479.93546  21395173.476    21395179.998
 -12362196.87849  -9632881.56446  21733632.544    21733638.412
 -24718715.13349 -19261346.85847  20338500.914    20338503.491
  -4670817.44048                  23996821.020
 -10395843.75048  -8100667.56345  23012671.097    23012677.637
 -21939827.33849 -17095981.32147  21433166.282    21433170.647
 -10489845.78449  -8173898.74246  21746040.361    21746047.852
 02  1  4  4 31  0.0000000  0  7G 1G 2G13G22G 8G27G31
 -19817903.55749 -15442538.66146  21409323.498    21409330.292
 -12414208.15549  -9673409.85546  21723735.515    21723740.930
 -24704094.19949 -19249953.98847  20341283.284    20341285.991
  -4561249.25248  -3554268.60744  24017672.607    24017684.025
 -10482535.98048  -8168219.96445  22996173.570    22996182.009
 -21994159.82249 -17138318.35947  21422827.295    21422831.612
 -10561897.39249  -8230042.76646  21732329.169    21732336.671
 02  1  4  4 31 30.0000000  0  7G 1G 2G13G22G 8G27G31
 -19743155.10349 -15384293.24446  21423547.865    21423554.711
 -12465925.61449  -9713709.19346  21713893.561    21713899.495
 -24688930.76349 -19238138.38947  20344168.696    20344171.355
  -4451648.69448                  24038528.636
 -10569153.35348  -8235714.01145  22979690.898    22979697.977
 -22048333.14949 -17180531.37447  21412518.470    21412522.896
 -10633495.14749  -8285833.14746  21718705.251    21718711.669
 02  1  4  4 32  0.0000000  0  7G 1G 2G13G22G 8G27G31
 -19668008.02449 -15325737.21146  21437848.125    21437854.590
 -12517339.27249  -9753771.79946  21704109.820    21704115.653
 -24673214.73549 -19225892.19847  20347159.290    20347162.178
  -4342008.03348                  24059392.236
 -10655685.29148  -8303141.49045  22963224.551    22963231.681
 -22102336.76049 -17222612.15047  21402242.145    21402246.417
 -10704626.52249  -8341260.11746  21705169.133    21705175.928
 02  1  4  4 32 30.0000000  0  7G 1G 2G13G22G 8G27G31
 -19592467.92049 -15266874.92046  21452222.949    21452229.724
 -12568453.14449  -9793600.79546  21694383.505    21694389.133
 -24656950.46749 -19213218.80547  20350254.424    20350257.155
  -4232333.40248                  24080264.859
 -10742135.46248  -8370505.25345  22946773.516    22946780.537
 -22156173.89949 -17264563.20447  21391997.287    21392001.805
 -10775292.95149  -8396324.79146  21691721.248    21691728.317
 02  1  4  4 33  0.0000000  0  7G 1G 2G13G22G 8G27G31
 -19516526.15649 -15207699.64346  21466674.145    21466680.742
 -12619256.78349  -9833188.04046  21684715.510    21684721.487
 -24640127.37949 -19200109.96947  20353456.172    20353458.940
  -4122616.48148                  24101141.886
 -10828492.77448  -8437796.65745  22930339.814    22930349.247
 -22209833.24449 -17306375.71147  21381786.187    21381790.763
 -10845481.41049  -8451017.03546  21678365.508    21678372.261
 02  1  4  4 33 30.0000000  0  7G 1G 2G13G22G 8G27G31
 -19440183.82049 -15148212.22946  21481202.052    21481208.539
 -12669749.88649  -9872533.30946  21675107.169    21675113.109
 -24622744.97649 -19186565.29947  20356763.829    20356766.671
  -4012858.27848                  24122029.494
 -10914755.93248  -8505014.69545  22913924.593    22913932.784
 -22263313.41949 -17348048.60247  21371609.258    21371613.780
 -10915188.46749  -8505334.16846  21665100.393    21665107.690
 02  1  4  4 34  0.0000000  0  8G 1G28G 2G13G22G 8G27G31
 -19363454.88949 -15088423.58046  21495803.247    21495809.620
         -.69358                  25238323.596
 -12719944.50149  -9911645.99746  21665555.290    21665561.454
 -24604815.66049 -19172594.46447  20360175.325    20360178.309
  -3903073.57648  -3041407.05344  24142921.011    24142928.437
 -11000936.63748  -8572168.47745  22897525.559    22897532.676
 -22316626.02449 -17389590.92047  21361464.027    21361468.623
 -10984423.87949  -8559283.78746  21651925.222    21651932.109
 02  1  4  4 34 30.0000000  0  7G 1G 2G13G22G 8G27G31
 -19286326.30749 -15028323.50846  21510480.113    21510486.697
 -12769826.03049  -9950514.70546  21656063.437    21656069.195
 -24586324.83149 -19158186.08747  20363694.014    20363697.075
  -3793249.23848                  24163819.317
 -11087019.55848  -8639246.07045  22881144.216    22881151.550
 -22369755.63649 -17430990.64447  21351353.907    21351358.585
 -11053170.22549  -8612852.32046  21638843.365    21638850.166
 02  1  4  4 35  0.0000000  0  7G 1G 2G13G22G 8G27G31
 -19208792.57549 -14967907.73746  21525234.518    21525240.846
 -12819387.01849  -9989133.63046  21646631.760    21646637.583
 -24567265.28149 -19143334.54547  20367321.240    20367324.251
  -3683380.25448                  24184728.596
 -11172996.98848  -8706241.46145  22864783.314    22864790.598
 -22422694.23849 -17472241.53047  21341280.168    21341284.666
 -11121417.60749  -8666032.05346  21625856.217    21625862.878
 02  1  4  4 35 30.0000000  0  7G 1G 2G13G22G 8G27G31
 -19130879.30249 -14907196.22346  21540060.726    21540067.999
 -12868651.60349 -10027521.60046  21637257.030    21637263.003
 -24547661.11949 -19128058.63247  20371051.670    20371054.693
  -3573492.41848                  24205637.688
 -11258891.91848  -8773172.58845  22848438.839    22848445.222
 -22475464.96549 -17513361.60347  21331238.051    21331242.738
 -11189187.35349  -8718839.60146  21612959.854    21612967.066
 02  1  4  4 36  0.0000000  0  7G 1G 2G13G22G 8G27G31
 -19052568.73349 -14846175.11746  21554963.179    21554969.950
 -12917600.29549 -10065663.41446  21627942.899    21627948.832
 -24527492.93849 -19112343.22347  20374889.481    20374892.560
  -3463568.15248                  24226557.703
 -11344684.54048  -8840023.99545  22832111.940    22832119.341
 -22528047.70949 -17554335.19447  21321231.846    21321236.371
 -11256457.68649  -8771258.00246  21600158.833    21600165.916
