     2.10           OBSERVATION DATA    G (GPS)             RINEX VERSION / TYPE
teqc  2004Apr5                          20041208 15:58:19UTCPGM / RUN BY / DATE
OBSERVATION MODE: Permanent                                 COMMENT
CHUM Chumysh (CHUM)                                         MARKER NAME
25601M001                                                   MARKER NUMBER
T136                ROGUE SNR-8000       3.20               REC # / TYPE / VERS
113                 AOAD/M_T        NONE                    ANT # / TYPE
        0.0900        0.0000        0.0000                  ANTENNA: DELTA H/E/N
  1228950.8680  4508079.8965  4327868.4941                  APPROX POSITION XYZ
  74.75109759  42.99850106  716.3303  LonLatAlt  S/W        COMMENT
Linux 2.0.36|Pentium II|gcc -static|Linux|486/DX+           COMMENT
BIT 2 OF LLI FLAGS DATA COLLECTED UNDER A/S CONDITION       COMMENT
Konovalov           IVTAN                                   OBSERVER / AGENCY
     1     1                                                WAVELENGTH FACT L1/2
     5    L1    L2    C1    P2    P1                        # / TYPES OF OBSERV
    30.0000                                                 INTERVAL
    P1 =    P1  TurboRogue; =    Y1  Benchmark              COMMENT
    L1 = L1(P1) TurboRogue; = L1(Y1) Benchmark              COMMENT
    P2 =    P2  TurboRogue; =    Y2  Benchmark              COMMENT
    L2 = L2(P2) TurboRogue; = L2(Y2) Benchmark              COMMENT
 SNR is mapped to RINEX snr flag value [1,4-9]              COMMENT
    SNR:  >=316 >=100 >=31.6 >=10 >=3.2    >0 bad=0         COMMENT
L1 & L2:      9     8     7     6     5     4     1         COMMENT
  2002     1     8     0     0    0.0000000     GPS         TIME OF FIRST OBS
  2002     1     8    23    59   30.0000000     GPS         TIME OF LAST OBS
                                                            END OF HEADER
 02  1  8  0  0  0.0000000  0  8G20G29G22G11G 1G14G30G25
 -20523793.76449 -15992562.42346  21465168.137    21465167.563
 -10749933.04949  -8376569.53646  21751744.221    21751743.965
 -10256941.59148  -7992421.96045  22913627.494    22913628.487
 -11149026.11948  -8687554.06544  23229722.180    23229720.797
  -7751572.08648  -6040182.49045  23618034.654    23618036.942
  -2723630.99648  -2122309.76145  23128691.265    23128690.637
   1938082.48948   1510192.66544  23832154.937    23832157.562
 -23566901.41149 -18363810.38847  20594137.927    20594137.611
 02  1  8  0  0 30.0000000  0  8G20G29G22G11G 1G14G30G25
 -20590080.19449 -16044214.18346  21452553.962    21452553.329
 -10692791.13749  -8332043.38346  21762618.151    21762618.518
 -10366068.57748  -8077455.97845  22892861.136    22892861.474
 -11078480.52948  -8632583.50044  23243146.104    23243144.630
  -7831084.47148  -6102140.15045  23602903.689    23602905.923
  -2646534.03848  -2062234.22745  23143363.236    23143362.760
   2000167.05848   1558570.20244  23843969.275    23843970.059
 -23541829.48849 -18344273.82547  20598908.941    20598908.613
 02  1  8  0  1  0.0000000  0  8G20G29G22G11G 1G14G30G25
 -20655955.03649 -16095545.22446  21440018.059    21440017.490
 -10635447.15449  -8287359.77446  21773530.262    21773530.632
 -10475009.65848  -8162345.13845  22872130.982    22872131.187
 -11007626.69648  -8577372.70944  23256628.787    23256629.204
  -7910514.99348  -6164034.01745  23587789.505    23587790.871
  -2569304.76448  -2002055.58245  23158059.141    23158058.374
   2062747.87448   1607334.48644  23855877.905    23855879.740
 -23516348.47649 -18324418.49147  20603758.005    20603757.566
 02  1  8  0  1 30.0000000  0  8G20G29G22G11G 1G14G30G25
 -20721414.85649 -16146552.86846  21427561.492    21427561.182
 -10577900.31549  -8242518.09446  21784481.163    21784481.099
 -10583760.64948  -8247086.15945  22851436.032    22851436.446
 -10936466.87548  -8521923.55144  23270170.789    23270170.403
  -7989862.53148  -6225863.24045  23572690.817    23572692.344
  -2491942.89848  -1941773.63645  23172780.047    23172779.634
   2125823.88848   1656484.60244  23867880.690    23867880.415
 -23490458.67049 -18304244.61847  20608684.501    20608683.947
 02  1  8  0  2  0.0000000  0  8G20G29G22G11G 1G14G30G25
 -20786468.22849 -16197243.80446  21415182.326    21415182.070
 -10520161.80449  -8197527.06246  21795468.492    21795468.811
 -10692329.09548  -8331684.95545  22830776.070    22830775.953
 -10865014.24948  -8466246.22144  23283767.752    23283768.101
  -8069137.57848  -6287635.98445  23557602.696    23557604.147
  -2414459.49848  -1881397.00545  23187525.545    23187524.926
   2189382.29848   1706010.63844  23879976.034    23879978.108
 -23464172.46149 -18283761.86047  20613686.615    20613686.160
 02  1  8  0  2 30.0000000  0  8G20G29G22G11G 1G14G30G25
 -20851116.51549 -16247619.08646  21402880.065    21402879.718
 -10462235.31349  -8152389.54846  21806491.555    21806491.731
 -10800715.28648  -8416141.72545  22810151.002    22810152.461
 -10793275.71148  -8410346.08144  23297418.446    23297417.926
  -8148343.34348  -6349354.69345  23542532.187    23542532.611
  -2336858.60248  -1820928.77945  23202292.399    23202291.933
   2253417.25548   1755908.01344  23892161.128    23892162.749
 -23437494.95849 -18262974.19847  20618763.247    20618762.776
 02  1  8  0  3  0.0000000  0  8G20G29G22G11G 1G14G30G25
 -20915370.27849 -16297686.95046  21390653.029    21390652.687
 -10404133.90849  -8107115.73246  21817548.104    21817547.711
 -10908929.08448  -8500464.16645  22789558.374    22789558.676
 -10721266.68348  -8354235.18544  23311122.302    23311119.368
  -8227492.30148  -6411029.19245  23527471.073    23527473.815
  -2259153.44448  -1760379.33445  23217078.826    23217078.299
   2317913.81848   1806165.02644  23904434.153    23904435.541
 -23410440.19649 -18241892.56847  20623911.725    20623911.331
 02  1  8  0  3 30.0000000  0  8G20G29G22G11G 1G14G30G25
 -20979205.95749 -16347429.03346  21378505.452    21378505.022
 -10345836.60149  -8061689.26946  21828641.604    21828641.348
 -11016945.82348  -8584633.04045  22769003.339    22769003.837
 -10648968.80248  -8297899.19444  23324880.140    23324877.620
  -8306562.92448  -6472642.61845  23512423.579    23512424.097
  -2181323.03848  -1699732.29045  23231890.158    23231890.269
   2382891.18548   1856796.75944  23916799.116    23916800.662
 -23382988.38249 -18220501.54747  20629135.558    20629135.139
 02  1  8  0  4  0.0000000  0  8G20G29G22G11G 1G14G30G25
 -21042627.20749 -16396848.18646  21366436.704    21366436.314
 -10287349.75749  -8016115.12346  21839771.215    21839771.562
 -11124768.27748  -8668650.53645  22748485.434    22748486.338
 -10576391.27248  -8241345.27744  23338690.925    23338692.279
  -8385560.90248  -6534199.44945  23497391.789    23497392.814
  -2103374.12148  -1638992.89145  23246723.023    23246723.130
   2448341.03148   1907796.64544  23929253.691    23929254.207
 -23355147.14349 -18198807.07947  20634433.346    20634432.846
 02  1  8  0  4 30.0000000  0  8G20G29G22G11G 1G14G30G25
 -21105622.09749 -16445935.10946  21354449.686    21354449.470
 -10228663.74249  -7970385.77946  21850939.074    21850939.204
 -11232383.52248  -8752506.57745  22728006.975    22728008.401
 -10503527.04148  -8184567.97044  23352557.332    23352557.353
  -8464476.16248  -6595691.82745  23482373.848    23482375.410
  -2025297.29548  -1578153.82945  23261580.852    23261579.583
   2514271.16348   1959170.73844  23941799.898    23941800.216
 -23326908.25949 -18176802.75947  20639807.304    20639806.803
 02  1  8  0  5  0.0000000  0  8G20G29G22G11G 1G14G30G25
 -21168187.63949 -16494687.47546  21342543.706    21342543.308
 -10169778.40149  -7924501.10346  21862144.211    21862144.310
 -11339787.79048  -8836198.22545  22707568.981    22707569.525
 -10430378.58648  -8127569.17544  23366476.527    23366477.325
  -8543307.81348  -6657119.04745  23467373.048    23467375.326
  -1947092.39948  -1517214.97845  23276462.562    23276461.533
   2580679.77848   2010917.69044  23954437.223    23954438.731
 -23298272.63449 -18154489.28947  20645256.551    20645256.093
 02  1  8  0  5 30.0000000  0  8G20G29G22G11G 1G14G30G25
 -21230327.91749 -16543108.47046  21330718.175    21330718.142
 -10110699.91349  -7878465.92846  21873386.647    21873386.332
 -11446984.01048  -8919727.74545  22687169.737    22687170.177
 -10356955.11048  -8070356.15344  23380448.365    23380449.400
  -8622061.45648  -6718485.48145  23452387.179    23452387.969
  -1868766.14848  -1456181.57245  23291367.147    23291366.433
   2647558.54748   2063031.01644  23967163.093    23967163.671
 -23269248.08249 -18131872.76047  20650779.744    20650779.175
 02  1  8  0  6  0.0000000  0  8G20G29G22G11G 1G14G30G25
 -21292042.29249 -16591197.59346  21318974.811    21318974.439
 -10051430.15149  -7832281.70846  21884665.505    21884665.196
 -11553970.54348  -9003093.86945  22666811.374    22666813.661
 -10283261.16648  -8012932.28944  23394471.919    23394472.570
  -8700738.58248  -6779792.29645  23437414.678    23437417.189
  -1790320.21448  -1395054.88645  23306295.494    23306295.554
   2714903.58648   2115507.65344  23979978.311    23979979.818
 -23239837.41049 -18108955.36047  20656376.591    20656376.075
 02  1  8  0  6 30.0000000  0  8G20G29G22G11G 1G14G30G25
 -21353327.29149 -16638952.13146  21307312.809    21307312.409
  -9991968.27249  -7785947.79046  21895980.760    21895980.492
 -11660743.01948  -9086293.19945  22646493.027    22646493.074
 -10209298.18948  -7955298.83344  23408547.090    23408547.637
  -8779337.62748  -6841038.27145  23422458.080    23422459.483
  -1711754.03648  -1333834.51045  23321246.318    23321245.758
   2782713.93848   2168346.87444  23992883.521    23992882.551
 -23210041.20549 -18085737.54147  20662046.568    20662046.053
 02  1  8  0  7  0.0000000  0  8G20G29G22G11G 1G14G30G25
 -21414192.13349 -16686379.28046  21295729.981    21295729.574
  -9932325.90249  -7739473.23446  21907330.259    21907330.172
 -11767309.48748  -9169331.99845  22626213.214    22626215.023
 -10135080.63848  -7897467.01344  23422669.795    23422667.376
  -8857869.64548  -6902232.02445  23407514.266    23407514.241
  -1633079.38448  -1272529.61045  23336216.811    23336216.527
   2850976.02348   2221538.10344  24005872.456    24005874.771
 -23179871.96049 -18062229.04447  20667787.425    20667786.967
 02  1  8  0  7 30.0000000  0  8G20G29G22G11G 1G14G30G25
 -21474620.40749 -16733466.24746  21284231.219    21284230.699
  -9872489.16549  -7692847.21046  21918716.687    21918716.599
 -11873652.59048  -9252196.75445  22605977.733    22605978.832
 -10060597.35448  -7839428.10244  23436842.980    23436843.013
  -8936320.12148  -6963362.23745  23392585.607    23392587.179
  -1554282.62148  -1211129.56445  23351212.067    23351211.352
   2919701.63448   2275090.50644  24018950.540    24018949.547
 -23149317.24349 -18038420.17947  20673601.931    20673601.466
 02  1  8  0  8  0.0000000  0  8G20G29G22G11G 1G14G30G25
 -21534611.69749 -16780212.70547  21272815.514    21272815.212
  -9812459.93849  -7646071.20146  21930139.796    21930139.508
 -11979770.72748  -9334886.22245  22585783.631    22585784.899
  -9985853.05948  -7781185.82944  23451066.630    23451064.855
  -9014690.32448  -7024429.88645  23377672.284    23377673.839
  -1475365.83248  -1149635.97745  23366229.532    23366227.778
   2988886.71448   2329000.96644  24032116.215    24032114.727
 -23118380.34149 -18014313.50647  20679488.989    20679488.468
 02  1  8  0  8 30.0000000  0  8G20G29G22G11G 1G14G30G25
 -21594174.91549 -16826625.60047  21261481.033    21261480.590
  -9752249.92649  -7599154.32546  21941597.603    21941597.716
 -12085672.14648  -9417406.78945  22565631.647    22565632.240
  -9910862.09648  -7722751.34944  23465337.278    23465338.987
  -9092991.32248  -7085443.64145  23362771.748    23362773.558
  -1396340.78448  -1088058.05245  23381267.160    23381266.748
   3058517.72448   2383258.87644  24045365.427    24045366.583
 -23087074.31049 -17989919.19847  20685446.193    20685445.721
 02  1  8  0  9  0.0000000  0  8G20G29G22G11G 1G14G30G25
 -21653305.37849 -16872701.27847  21250228.617    21250228.039
  -9691856.65749  -7552094.65046  21953090.194    21953090.569
 -12191350.87148  -9499753.84745  22545522.190    22545521.830
  -9835624.82348  -7664124.90744  23479654.269    23479653.073
  -9171219.99748  -7146401.00745  23347884.794    23347885.286
  -1317205.28748  -1026394.04945  23396326.034    23396325.610
   3128595.02348   2437864.55344  24058702.668    24058701.232
 -23055397.95749 -17965236.32747  20691473.924    20691473.659
 02  1  8  0  9 30.0000000  0  8G20G29G22G11G 1G14G30G25
 -21711995.00449 -16918433.45547  21239060.285    21239059.900
  -9631274.59449  -7504887.85546  21964618.161    21964618.664
 -12296797.97048  -9581920.41445  22525456.017    22525456.673
  -9760138.22948  -7605304.23144  23494019.058    23494021.371
  -9249370.16548  -7207297.20845  23333013.887    23333014.966
  -1237954.05248   -964639.87445  23411407.331    23411406.447
   3199122.11148   2492820.73244  24072122.355    24072123.995
 -23023346.43449 -17940261.11847  20697573.176    20697572.882
 02  1  8  0 10  0.0000000  0  8G20G29G22G11G 1G14G30G25
 -21770241.07049 -16963819.99547  21227976.529    21227976.123
  -9570503.31549  -7457533.61946  21976182.647    21976182.754
 -12402009.54348  -9663903.44145  22505434.798    22505436.437
  -9684404.95948  -7546291.35144  23508430.748    23508429.838
  -9327441.12148  -7268131.70245  23318157.473    23318156.481
  -1158586.90248   -902795.35945  23426510.323    23426510.367
   3270097.15448   2548125.93144  24085629.303    24085628.885
 -22990921.38549 -17914994.84747  20703743.398    20703743.054
 02  1  8  0 10 30.0000000  0  8G20G29G22G11G 1G14G30G25
 -21828040.91149 -17008858.82747  21216977.702    21216977.271
  -9509542.70349  -7410031.85746  21987783.264    21987782.935
 -12506981.76348  -9745699.97845  22485459.088    22485459.993
  -9608427.14548  -7487087.83244  23522887.801    23522886.207
  -9405431.83248  -7328903.65045  23303315.897    23303317.133
  -1079103.63348   -840860.37745  23441635.538    23441636.003
   3341518.36548   2603778.83444  24099219.843    24099218.606
 -22958123.75649 -17889438.25547  20709984.561    20709984.330
 02  1  8  0 11  0.0000000  0  8G20G29G22G11G 1G14G30G25
 -21885394.72049 -17053550.10147  21206063.523    21206063.185
  -9448395.34249  -7362384.57446  21999418.825    21999419.228
 -12611713.95048  -9827309.47945  22465528.760    22465530.873
  -9532210.33848                  23537392.212
  -9483344.13648  -7389614.50045  23288489.937    23288492.120
   -999506.98448   -778837.04345  23456781.776    23456781.728
   3413381.12048   2659775.74144  24112894.698    24112896.543
 -22924957.11149 -17863594.11947  20716296.131    20716295.815
 02  1  8  0 11 30.0000000  0  8G20G29G22G11G 1G14G30G25
 -21942291.98049 -17097885.62447  21195236.370    21195236.055
  -9387052.90049  -7314585.28746  22011092.065    22011092.200
 -12716194.42148  -9908722.82245  22445647.166    22445648.530
  -9455749.24948                  23551941.678
  -9561169.25948  -7450257.43745  23273680.343    23273681.361
   -919789.12448   -716719.25045  23471952.735    23471951.917
   3485691.25148   2716121.28244  24126654.993    24126654.305
 -22891414.93149 -17837457.35547  20722678.883    20722678.671
 02  1  8  0 12  0.0000000  0  8G20G29G22G11G 1G14G30G25
 -21998724.41849 -17141858.94747  21184497.749    21184497.463
  -9325509.47949  -7266629.38246  22022803.545    22022803.501
 -12820413.73349  -9989932.67145  22425815.086    22425815.923
  -9379040.45248  -7308345.00944  23566539.778    23566538.562
  -9638900.70948  -7510827.37545  23258888.590    23258889.530
   -839944.14748   -654502.40845  23487145.624    23487144.546
   3558452.69048   2772818.54744  24140500.097    24140503.500
 -22857492.67449 -17811024.42547  20729133.533    20729133.237
 02  1  8  0 12 30.0000000  0  8G20G29G22G11G 1G14G30G25
 -22054704.81149 -17185480.02847  21173844.747    21173844.447
  -9263780.63549  -7218528.99346  22034549.761    22034550.109
 -12924383.74848 -10070948.25245  22406029.872    22406031.081
  -9302102.34948                  23581178.848
  -9716553.22548  -7571335.80445  23244111.233    23244112.273
   -759987.72648   -592198.72145  23502361.564    23502361.630
   3631647.74348   2829853.61144  24154429.481    24154429.926
 -22823206.90249 -17784308.23847  20735658.143    20735657.872
 02  1  8  0 13  0.0000000  0  8G20G29G22G11G 1G14G30G25
 -22110225.73149 -17228743.07847  21163279.546    21163279.109
  -9201861.02149  -7170279.95646  22046333.064    22046333.475
 -13028095.90149 -10151762.92145  22386294.498    22386295.096
  -9224932.14948                  23595864.960
  -9794121.22448  -7631778.36845  23229350.680    23229353.005
   -679914.85248   -529804.32845  23517598.765    23517598.228
   3705279.63948   2887229.13544  24168440.756    24168440.246
 -22788553.82549 -17757305.83947  20742252.677    20742252.256
 02  1  8  0 13 30.0000000  0  8G20G29G22G11G 1G14G30G25
 -22165287.37849 -17271648.25347  21152801.670    21152801.284
  -9139753.48549  -7121884.48246  22058151.951    22058152.133
 -13131549.28749 -10232375.93545  22366607.708    22366608.420
  -9147535.50248                  23610591.688
  -9871606.42748  -7692156.41345  23214606.151    23214606.570
   -599728.41948   -467321.41745  23532857.685    23532857.227
   3779343.56148   2944941.26944  24182535.064    24182538.119
 -22753537.44649 -17730020.34647  20748915.908    20748915.716
 02  1  8  0 14  0.0000000  0  8G20G29G22G11G 1G14G30G25
 -22219890.99149 -17314196.51947  21142410.979    21142410.545
  -9077461.16549  -7073345.03146  22070005.547    22070005.459
 -13234743.70349 -10312787.16645  22346970.561    22346971.014
  -9069918.32048                  23625362.040
  -9949011.68348  -7752472.17845  23199876.561    23199876.352
   -519431.88048   -404752.71645  23548137.911    23548137.690
   3853833.89348   3002985.67344  24196709.471    24196713.338
 -22718162.51249 -17702455.45847  20755647.573    20755647.260
 02  1  8  0 14 30.0000000  0  8G20G29G22G11G 1G14G30G25
 -22274029.21349 -17356382.14147  21132108.945    21132108.578
  -9014979.45749  -7024658.00146  22081895.321    22081895.641
 -13337670.99049 -10392990.24745  22327383.784    22327384.899
  -8992078.73848  -7006816.51344  23640176.168    23640178.047
 -10026331.45848  -7812721.32245  23185162.500    23185164.118
   -439020.56848   -342094.57145  23563439.589    23563439.187
   3928753.36048   3061364.44144  24210965.917    24210971.268
 -22682425.58849 -17674608.50047  20762448.397    20762448.071
 02  1  8  0 15  0.0000000  0  8G20G29G22G11G 1G14G30G25
 -22327698.44249 -17398202.31847  21121895.877    21121895.441
  -8952306.76849  -6975822.14546  22093821.783    22093822.348
 -13440326.24149 -10472981.35045  22307849.445    22307850.597
  -8914018.09448                  23655029.821
 -10103563.83148  -7872902.36245  23170466.497    23170467.948
   -358493.32348   -279346.11945  23578763.707    23578763.417
   4004100.85248   3120076.77344  24225305.949    24225304.738
 -22646326.68249 -17646479.47647  20769317.686    20769317.462
 02  1  8  0 15 30.0000000  0  8G20G29G22G11G 1G14G30G25
 -22380900.70549 -17439658.62147  21111772.162    21111771.855
  -8889448.04149  -6926841.33546  22105783.203    22105783.473
 -13542710.68749 -10552761.42845  22288366.359    22288366.948
  -8835743.66348                  23669925.580
 -10180712.53548  -7933018.21345  23155784.972    23155785.435
   -277854.92448   -216511.02545  23594108.005    23594107.928
   4079869.92148   3179117.61044  24239723.573    24239726.827
 -22609871.30649 -17618072.68147  20776254.767    20776254.677
 02  1  8  0 16  0.0000000  0  8G20G29G22G11G 1G14G30G25
 -22433630.06249 -17480746.43147  21101737.981    21101737.685
  -8826399.08249  -6877712.28746  22117781.279    22117780.939
 -13644816.92049 -10632324.72545  22268935.834    22268937.154
  -8757254.65948                  23684860.293
 -10257773.28948  -7993065.53545  23141120.453    23141122.614
   -197101.62148   -153586.41345  23609474.962    23609474.413
   4156061.86448   3238487.93944  24254223.243    24254222.933
 -22573057.22249 -17589386.37647  20783260.529    20783260.194
 02  1  8  0 16 30.0000000  0  8G20G29G22G11G 1G14G30G25
 -22485889.07849 -17521467.73947  21091793.117    21091792.768
  -8763164.83949  -6828438.86446  22129814.204    22129814.194
 -13746646.33949 -10711672.31545  22249558.694    22249559.708
  -8678558.40248                  23699837.210
 -10334750.25548  -8053047.56345  23126472.947    23126472.843
   -116238.43448    -90576.16045  23624863.438    23624861.332
   4232669.75948   3298182.40844  24268800.476    24268800.261
 -22535890.71449 -17560425.45547  20790332.954    20790332.658
 02  1  8  0 17  0.0000000  0  8G20G29G22G11G 1G14G30G25
 -22537666.72949 -17561813.96047  21081940.220    21081939.831
  -8699736.71249  -6779014.35946  22141884.085    22141884.034
 -13848186.91349 -10790794.84545  22230236.159    22230237.243
  -8599649.07048                  23714853.222
 -10411634.12448  -8112957.06345  23111841.675    23111842.505
    -35256.83348    -27473.64645  23640273.126    23640273.549
   4309700.02848   3358206.01244  24283459.215    24283462.430
 -22498364.57549 -17531184.30247  20797473.963    20797473.816
 02  1  8  0 17 30.0000000  0  8G20G29G22G11G 1G14G30G25
 -22588982.63749 -17601800.38047  21072175.167    21072174.771
  -8636136.53149  -6729455.79446  22153986.892    22153986.548
 -13949457.07449 -10869706.66745  22210964.859    22210966.161
  -8520551.30748                  23729905.251
 -10488446.05148  -8172810.51145  23097225.303    23097227.197
     45821.03148     35703.86745  23655701.886    23655700.397
   4387128.31148   3418539.71044  24298193.833    24298193.458
 -22460501.93149 -17501680.93647  20804679.188    20804678.924
 02  1  8  0 18  0.0000000  0  8G20G29G22G11G 1G14G30G25
 -22639821.51949 -17641415.09047  21062500.944    21062500.443
  -8572351.43649  -6679753.14546  22166125.105    22166125.522
 -14050440.40349 -10948394.95745  22191748.653    22191749.993
  -8441255.09948                  23744993.870
 -10565172.27849  -8232597.16545  23082625.209    23082626.422
    127007.70448     98966.19945  23671151.798    23671148.884
   4464965.61948   3479192.15244  24313004.685    24313005.307
 -22422290.87849 -17471906.08447  20811950.026    20811949.799
 02  1  8  0 18 30.0000000  0  8G20G29G22G11G 1G14G30G25
 -22690170.99449 -17680648.44547  21052919.470    21052919.357
  -8508371.16949  -6629898.41046  22178299.931    22178300.061
 -14151123.03849 -11026848.96046  22172589.364    22172590.568
  -8361753.01948                  23760123.564
 -10641802.08348  -8292308.68745  23068041.863    23068043.295
    208313.45648    162321.30545  23686622.946    23686623.141
   4543219.66048   3540169.34344  24327896.984    24327896.021
 -22383723.04749 -17441853.22247  20819289.323    20819289.171
 02  1  8  0 19  0.0000000  0  8G20G29G22G11G 1G14G30G25
 -22740034.27249 -17719502.94547  21043431.051    21043430.698
  -8444201.46249  -6579896.05646  22190510.939    22190510.425
 -14251507.14649 -11105070.33946  22153487.170    22153488.938
  -8282053.42248  -6453550.19544  23775290.594    23775289.156
 -10718340.13648  -8351948.71645  23053477.612    23053477.686
    289732.52848    225764.69345  23702116.276    23702116.994
   4621882.68848   3601465.19444  24342865.646    24342868.018
 -22344805.20549 -17411527.62747  20826694.843    20826694.877
 02  1  8  0 19 30.0000000  0  8G20G29G22G11G 1G14G30G25
 -22789418.54349 -17757984.19347  21034033.567    21034033.256
  -8379851.30449  -6529753.09146  22202756.792    22202756.876
 -14351598.53849 -11183063.62946  22134440.328    22134441.499
  -8202168.14348                  23790490.541
 -10794795.20949  -8411524.10045  23038928.867    23038929.430
    371255.53448    289289.09145  23717630.650    23717629.706
   4700943.12248   3663070.73344  24357909.691    24357912.985
 -22305548.14249 -17380937.70247  20834165.694    20834165.420
 02  1  8  0 20  0.0000000  0  8G20G29G22G11G 1G14G30G25
 -22838320.67049 -17796089.74747  21024727.422    21024727.246
  -8315320.15349  -6479469.09346  22215036.520    22215036.092
 -14451393.11749 -11260825.63546  22115449.642    22115450.230
  -8122099.31248                  23805729.069
 -10871165.88648  -8471033.69645  23024395.700    23024397.200
    452882.82148    352894.73845  23733163.584    23733163.211
   4780399.41148   3724984.72544  24373030.282    24373030.586
 -22265952.53749 -17350083.98247  20841700.172    20841699.999
 02  1  8  0 20 30.0000000  0  8G20G29G22G11G 1G14G30G25
 -22886730.29249 -17833811.52947  21015515.620    21015515.390
  -8250599.68449  -6429037.58446  22227351.825    22227352.305
 -14550879.16249 -11338347.21546  22096518.152    22096520.086
  -8041841.47548                  23821000.237
 -10947443.21749  -8530470.57345  23009882.069    23009881.634
    534622.57448    416588.02045  23748717.751    23748718.093
   4860257.47748   3787211.76844  24388227.128    24388229.601
 -22226011.40649 -17318961.01747  20849300.597    20849300.380
 02  1  8  0 21  0.0000000  0  8G20G29G22G11G 1G14G30G25
 -22934648.70249 -17871150.54747  21006397.314    21006397.045
  -8185693.47649  -6378461.34446  22239703.887    22239703.631
 -14650056.99249 -11415628.63646  22077645.164    22077645.962
  -7961401.03348                  23836308.468
 -11023629.92548  -8589836.85645  22995382.815    22995383.750
    616471.21448    480366.16045  23764293.774    23764292.778
   4940511.29748   3849747.18144  24403499.708    24403497.784
 -22185729.79949 -17287572.75047  20856966.005    20856965.699
 02  1  8  0 21 30.0000000  0  8G20G29G22G11G 1G14G30G25
 -22982059.21649 -17908093.80247  20997375.368    20997375.047
  -8120587.20149  -6327729.19746  22252093.056    22252093.485
 -14748908.35149 -11492655.66346  22058834.601    22058835.250
  -7880766.33848                  23851651.481
 -11099710.86249  -8649120.67545  22980905.534    22980906.713
    698443.00648    544240.26345  23779891.534    23779891.737
   5021173.14148   3912600.59444  24418847.617    24418849.985
 -22145094.35249 -17255908.76147  20864698.735    20864698.443
 02  1  8  0 22  0.0000000  0  8G20G29G22G11G 1G14G30G25
 -23028981.54749 -17944656.65947  20988446.172    20988446.026
  -8055302.75049  -6276858.20746  22264516.157    22264515.711
 -14847451.91049 -11569442.85846  22040082.477    22040083.331
  -7799961.93548                  23867028.695
 -11175707.26549  -8708338.65045  22966444.637    22966444.387
    780515.68948    608192.96445  23795510.156    23795510.939
   5102218.84248   3975753.07344  24434270.455    24434269.137
 -22104128.88049 -17223987.61447  20872494.251    20872493.956
 02  1  8  0 22 30.0000000  0  8G20G29G22G11G 1G14G30G25
 -23075401.07549 -17980827.72147  20979612.925    20979612.524
  -7989827.27849  -6225838.37546  22276975.628    22276975.547
 -14945671.56249 -11645977.63446  22021392.229    22021392.981
  -7718978.08147                  23882437.503
 -11251605.77448  -8767480.34645  22951999.701    22952001.227
    862701.75248    672234.01945  23811149.952    23811150.030
   5183658.64248   4039212.64144  24449768.449    24449767.381
 -22062821.60049 -17191800.12147  20880354.943    20880354.504
 02  1  8  0 23  0.0000000  0  8G20G29G22G11G 1G14G30G25
 -23121323.82149 -18016611.68047  20970874.137    20970873.859
  -7924169.52749  -6174676.52246  22289470.238    22289470.148
 -15043572.21749 -11722263.85146  22002761.730    22002763.460
  -7637825.78947                  23897882.156
 -11327414.19449  -8826551.80745  22937575.395    22937575.982
    944992.86148    736356.91845  23826808.841    23826809.135
   5265481.70048   4102970.88944  24465338.280    24465339.757
 -22021182.49849 -17159354.06747  20888278.655    20888278.345
 02  1  8  0 23 30.0000000  0  8G20G29G22G11G 1G14G30G25
 -23166744.43849 -18052004.36547  20962230.756    20962230.477
  -7858326.13449  -6123369.99546  22301999.486    22301999.367
 -15141147.28049 -11798296.36346  21984193.953    21984195.051
  -7556504.65647                  23913356.273
 -11403128.38948  -8885549.86945  22923166.768    22923167.529
   1027391.96548    800563.97545  23842489.042    23842490.694
   5347688.92348                  24480982.125
 -21979210.18649 -17126648.37147  20896265.787    20896265.362
 02  1  8  0 24  0.0000000  0  7G29G22G 1G20G14G30G25
  -7792304.40249  -6071924.51546  22314563.013    22314563.171
 -15238400.72949 -11874078.26246  21965687.258    21965688.124
 -11478755.17648  -8944479.79945  22908775.221    22908776.501
 -23211668.37549 -18087010.03047  20953682.171    20953681.810
   1109891.19548    864849.06945  23858188.501    23858187.497
   5430270.49648   4231377.75244  24496696.939    24496696.948
 -21936913.41149 -17093689.84947  20904314.536    20904314.074
 02  1  8  0 24 30.0000000  0  7G20G29G22G 1G14G30G25
 -23256075.15249 -18121612.71647  20945231.668    20945231.237
  -7726086.05249  -6020325.81446  22327164.281    22327164.777
 -15335310.59049 -11949592.43946  21947245.357    21947246.763
 -11554275.20349  -9003326.56945  22894405.876    22894405.573
   1192509.01348    929226.56245  23873909.580    23873910.141
   5513242.38948   4296031.12544  24512485.999    24512486.830
 -21894274.78049 -17060464.94047  20912428.311    20912427.958
 02  1  8  0 25  0.0000000  0  8G20G29G22G11G 1G14G30G25
 -23299985.08149 -18155828.24447  20936875.880    20936875.704
  -7659693.75749  -5968591.57546  22339797.426    22339798.052
 -15431896.41949 -12024854.11746  21928866.482    21928866.765
         -.38357                  23959965.805
 -11629710.39048  -9062107.20045  22880048.759    22880051.865
   1275222.60748    993678.65945  23889649.401    23889649.961
   5596579.68148   4360969.27844  24528344.599    24528344.537
 -21851318.16249 -17026992.25447  20920602.711    20920602.263
 02  1  8  0 25 30.0000000  0  8G20G29G22G11G 1G14G30G25
 -23343380.81249 -18189643.09847  20928618.057    20928617.780
  -7593112.21749  -5916709.87946  22352468.143    22352468.687
 -15528139.19549 -12099848.47646  21910551.204    21910552.437
     81963.24747                  23975562.734
 -11705044.85248  -9120809.35545  22865714.298    22865714.433
   1358046.96148   1058217.08045  23905410.697    23905409.263
   5680295.27048   4426202.15644  24544274.403    24544276.703
 -21808030.26149 -16993261.42447  20928840.202    20928839.917
 02  1  8  0 26  0.0000000  0  8G20G29G22G11G 1G14G30G25
 -23386274.23649 -18223066.54347  20920455.564    20920455.618
  -7526355.26749  -5864691.49246  22365172.363    22365172.252
 -15624049.59449 -12174583.84646  21892301.004    21892301.941
    164071.37547                  23991187.792
 -11780291.46349  -9179443.06145  22851396.233    22851395.869
   1440968.27148   1122831.06445  23921190.220    23921188.027
   5764372.93248   4491717.24544  24560274.387    24560272.112
 -21764425.92349 -16959284.02047  20937137.995    20937137.630
 02  1  8  0 26 30.0000000  0  8G20G29G22G11G 1G14G30G25
 -23428657.53049 -18256092.48747  20912390.575    20912390.171
  -7459417.27849  -5812532.04246  22377908.817    22377909.291
 -15719618.54749 -12249053.15846  21874114.130    21874115.973
    246327.04347                  24006841.064
 -11855443.93948  -9238003.39945  22837093.012    22837094.562
   1523991.92948   1187524.78945  23936988.507    23936989.887
   5848815.87548   4557516.92744  24576343.300    24576341.928
 -21720501.16449 -16925056.93847  20945496.347    20945496.024
 02  1  8  0 27  0.0000000  0  8G20G29G22G11G 1G14G30G25
 -23470528.74749 -18288719.40947  20904422.645    20904422.334
  -7392298.32549  -5760231.57946  22390681.589    22390682.015
 -15814842.61549 -12323253.71646  21855994.201    21855995.729
    328727.34248                  24022521.288
 -11930501.36949  -9296489.68446  22822811.680    22822812.369
   1607117.73048   1252298.08845  23952807.874    23952808.318
   5933621.68448   4623599.32744  24592480.752    24592481.250
 -21676257.42049 -16890581.29747  20953915.457    20953915.201
 02  1  8  0 27 30.0000000  0  8G20G29G22G11G 1G14G30G25
 -23511882.94249 -18320943.45547  20896553.174    20896552.789
  -7324995.29249  -5707787.68346  22403489.377    22403489.667
 -15909715.26049 -12397180.44446  21837939.955    21837940.850
    411272.45648                  24038229.149
 -12005460.37649  -9354899.28445  22808547.428    22808547.714
   1690348.28548   1317153.05245  23968646.128    23968645.371
   6018790.86748   4689964.90544  24608689.041    24608688.716
 -21631693.24749 -16855855.97247  20962395.864    20962395.686
 02  1  8  0 28  0.0000000  0  8G20G29G22G11G 1G14G30G25
 -23552714.11349 -18352759.95347  20888783.155    20888782.802
  -7257504.67549  -5655197.60546  22416331.918    22416333.135
 -16004229.31349 -12470827.74446  21819954.927    21819955.737
    493963.51148                  24053964.677
 -12080316.25448  -9413228.51346  22794301.318    22794302.535
   1773687.53248   1382092.66545  23984504.132    23984502.896
   6104324.85248   4756614.79244  24624964.738    24624966.884
 -21586806.06849 -16820878.95447  20970937.606    20970937.383
 02  1  8  0 28 30.0000000  0  8G20G29G22G11G 1G14G30G25
 -23593026.12249 -18384171.90447  20881111.848    20881111.508
  -7189832.26349  -5602465.86746  22429209.614    22429209.584
 -16098387.50949 -12544197.75646  21802037.137    21802038.702
    576791.95348                  24069727.725
 -12155074.11349  -9471481.37345  22780077.157    22780077.421
   1857129.34748   1447112.23245  24000383.127    24000382.684
   6190215.38948   4823542.40644  24641309.312    24641308.800
 -21541603.19849 -16785655.94247  20979539.409    20979539.068
 02  1  8  0 29  0.0000000  0  8G20G29G22G11G 1G14G30G25
 -23632811.82149 -18415173.74547  20873541.184    20873540.827
  -7121972.63749  -5549588.26646  22442122.887    22442124.133
 -16192180.93249 -12617283.52646  21784188.809    21784189.691
    659760.13148                  24085515.692
 -12229727.79348  -9529653.04746  22765869.596    22765871.407
   1940678.79648   1512215.65945  24016282.289    24016283.080
   6276465.28848   4890750.19044  24657722.350    24657721.733
 -21496080.49249 -16750183.70947  20988201.907    20988201.624
 02  1  8  0 29 30.0000000  0  8G20G29G22G11G 1G14G30G25
 -23672073.48249 -18445767.24647  20866070.007    20866069.569
  -7053930.07549  -5496568.10646  22455071.253    22455070.816
 -16285610.44949 -12690085.74146  21766410.001    21766410.600
    742861.00448                  24101327.811
 -12304280.77548  -9587746.25646  22751681.745    22751682.545
   2024331.48248   1577399.50744  24032200.589    24032200.331
   6363067.86648   4958232.65344  24674201.941    24674203.333
 -21450244.09849 -16714467.04447  20996924.397    20996924.013
 02  1  8  0 30  0.0000000  0  8G20G29G22G11G 1G14G30G25
 -23710808.05249 -18475950.02647  20858698.916    20858698.666
  -6985703.87649  -5443404.84745  22468054.026    22468053.602
 -16378671.87949 -12762601.12446  21748700.459    21748701.545
    826092.78248                  24117167.428
 -12378731.17249  -9645759.52846  22737517.076    22737517.233
   2108088.09148   1642664.37444  24048138.401    24048138.573
   6450021.49848   5025988.73444  24690748.974    24690751.279
 -21404094.30249 -16678506.17047  21005706.414    21005706.066
 02  1  8  0 30 30.0000000  0  8G20G29G22G11G 1G14G30G25
 -23749021.71149 -18505726.90147  20851426.934    20851426.850
  -6917301.94549  -5390104.65945  22481070.413    22481070.771
 -16471370.02749 -12834833.43646  21731061.262    21731061.980
    909444.58148    708657.20244  24133029.830    24133029.088
 -12453086.35348  -9703698.60446  22723365.231    22723367.093
   2191940.37348   1708003.80045  24064095.874    24064095.607
   6537315.70348   5094010.14344  24707359.976    24707363.128
 -21357640.77849 -16642308.62347  21014546.217    21014545.805
 02  1  8  0 31  0.0000000  0  8G20G29G22G11G 1G14G30G25
 -23786694.78949 -18535082.54547  20844258.095    20844257.653
  -6848706.72149  -5336653.85445  22494124.121    22494124.071
 -16563683.78149 -12906766.21946  21713493.942    21713495.391
    992931.61648                  24148914.841
 -12527327.86849  -9761549.10946  22709238.479    22709239.787
   2275905.94648   1773431.44444  24080073.822    24080074.160
   6624965.98648   5162309.08144  24724040.097    24724037.633
 -21310866.73449 -16605861.32147  21023447.317    21023446.855
 02  1  8  0 31 30.0000000  0  8G20G29G22G11G 1G14G30G25
 -23823829.12449 -18564018.39247  20837191.707    20837191.343
  -6779921.74149  -5283055.19945  22507213.261    22507213.418
 -16655613.42749 -12978399.69746  21696000.885    21696001.722
   1076547.11248                  24164827.914
 -12601458.45449  -9819313.18146  22695132.897    22695133.200
   2359980.93248   1838944.38545  24096072.255    24096071.666
   6712966.02948                  24740785.004
 -21263777.42049 -16569168.35347  21032408.132    21032407.635
 02  1  8  0 32  0.0000000  0  8G20G29G22G11G 1G14G30G25
 -23860428.04649 -18592537.03047  20830227.079    20830226.692
  -6710952.58949  -5229313.01245  22520337.346    22520337.672
 -16747161.00349 -13049735.45646  21678579.587    21678580.259
   1160282.91748                  24180760.936
 -12675482.82749  -9876994.49146  22681044.854    22681046.225
   2444159.97548   1904538.40345  24112091.713    24112090.544
   6801307.97348   5299718.41244  24757596.132    24757596.869
 -21216379.52349 -16532234.93147  21041427.573    21041427.153
 02  1  8  0 32 30.0000000  0  8G20G29G22G11G 1G14G30G25
 -23896499.64249 -18620644.76947  20823362.791    20823362.356
  -6641809.08849  -5175434.99645  22533495.517    22533494.994
 -16838333.02449 -13120778.58046  21661230.365    21661231.036
   1244126.58248                  24196717.582
 -12749410.05349  -9934600.09646  22666978.260    22666978.594
   2528432.73748   1970205.44744  24128128.263    24128125.174
   6889979.55448   5368813.17644  24774470.204    24774468.463
 -21168684.36749 -16495069.87947  21050503.709    21050503.160
 02  1  8  0 33  0.0000000  0  7G20G29G22G 1G14G30G25
 -23932040.64049 -18648339.05247  20816599.469    20816599.220
  -6572489.96549  -5121420.10145  22546686.450    22546686.007
 -16929124.91349 -13191525.48346  21643952.798    21643953.816
 -12823237.97649  -9992128.33746  22652928.860    22652929.953
   2612800.44748   2035946.49244  24144182.505    24144181.207
   6978979.41448                  24791405.366
 -21120692.53349 -16457673.65047  21059636.096    21059635.624
 02  1  8  0 33 30.0000000  0  8G20G29G22G 4G 1G14G30G25
 -23967043.42149 -18675613.94547  20809938.823    20809938.414
  -6502989.31449  -5067263.77245  22559911.384    22559911.637
 -17019527.47949 -13261969.03946  21626750.351    21626750.962
         -.30858                  25326142.959
 -12896959.75749 -10049573.86146  22638899.662    22638900.774
   2697268.76048   2101765.90644  24160256.937    24160256.493
   7068311.28348                  24808405.236
 -21072399.15949 -16420042.45347  21068826.019    21068825.443
 02  1  8  0 34  0.0000000  0  8G20G29G22G 4G 1G14G30G25
 -24001507.48449 -18702469.05847  20803380.605    20803380.176
  -6433308.48049  -5012967.04045  22573171.814    22573171.614
 -17109538.34749 -13332107.37446  21609621.035    21609622.157
    -53303.62548                  25315999.603
 -12970575.72549 -10106936.93246  22624891.677    22624892.102
   2781836.35448   2167662.67144  24176348.767    24176348.245
   7157971.08748   5577637.72644  24825468.104    24825467.718
 -21023806.94149 -16382178.39247  21078072.798    21078072.219
 02  1  8  0 34 30.0000000  0  8G20G29G22G 4G 1G14G30G25
 -24035434.03649 -18728905.33347  20796924.591    20796924.346
  -6363450.74349  -4958532.46445  22586464.916    22586465.176
 -17199158.00949 -13401940.85846  21592567.561    21592568.391
   -106156.03648                  25305942.680
 -13044088.47349 -10164219.58046  22610902.235    22610902.308
   2866499.79048   2233634.13744  24192460.140    24192461.576
   7247953.29048   5647753.73944  24842589.894    24842592.787
 -20974920.73349 -16344085.24947  21087375.556    21087374.974
 02  1  8  0 35  0.0000000  0  8G20G29G22G 4G 1G14G30G25
 -24068822.12249 -18754922.02147  20790570.873    20790570.743
  -6293416.90549  -4903960.65845  22599792.014    22599792.612
 -17288383.38049 -13471467.11346  21575587.976    21575588.994
   -158556.47048                  25295971.766
 -13117497.88249 -10221421.69346  22596932.071    22596932.921
   2951258.11048   2299679.52644  24208589.287    24208589.890
   7338254.67748   5718118.37444  24859774.379    24859776.739
 -20925742.59149 -16305764.62747  21096733.810    21096733.381
 02  1  8  0 35 30.0000000  0  8G20G29G22G 4G 1G14G30G25
 -24101660.14349 -18780510.08947  20784322.216    20784321.863
  -6223197.25549  -4849244.07345  22613154.788    22613155.382
 -17377201.63849 -13540676.14146  21558686.922    21558687.913
   -210493.48648                  25286087.532
 -13190793.25449 -10278534.95446  22582985.639    22582985.802
   3036120.97148   2365806.39344  24224737.827    24224738.036
   7428882.38348   5788737.46344  24877019.806    24877020.565
 -20876264.14349 -16267209.99847  21106149.383    21106148.902
 02  1  8  0 36  0.0000000  0  8G20G29G22G 4G 1G14G30G25
 -24133935.72749 -18805659.89447  20778180.649    20778180.356
  -6152781.09648  -4794374.36845  22626553.981    22626553.852
 -17465598.92149 -13609557.12946  21541865.201    21541866.177
   -261954.73748                  25276295.053
 -13263963.10649 -10335550.40146  22569061.201    22569061.822
   3121098.77648   2432022.80944  24240909.029    24240907.776
   7519844.62748   5859617.15544  24894328.816    24894329.465
 -20826476.40149 -16228414.35947  21115623.599    21115623.127
 02  1  8  0 36 30.0000000  0  8G20G29G22G 4G 1G14G30G25
 -24165669.01549 -18830387.13247  20772142.100    20772141.775
  -6082190.49349  -4739368.70645  22639987.415    22639987.311
 -17553593.94149 -13678124.66446  21525120.166    21525121.187
   -312960.25348                  25266589.862
 -13337028.42549 -10392484.39446  22555157.459    22555158.629
   3206169.35148   2498311.54544  24257096.919    24257095.802
   7611116.93748                  24911698.157
 -20776402.57049 -16189395.79747  21125152.059    21125151.734
 02  1  8  0 37  0.0000000  0  8G20G29G22G 4G 1G14G30G25
 -24196865.04349 -18854695.72547  20766205.464    20766204.947
  -6011432.05748  -4684232.31345  22653452.213    22653452.930
 -17641189.86149 -13746381.21846  21508451.496    21508452.361
   -363514.72148                  25256969.631
 -13409994.87749 -10449341.35646  22541272.790    22541273.017
   3291325.92448   2564667.27844  24273301.736    24273302.312
   7702690.29548                  24929123.987
 -20726050.67149 -16150160.55447  21134734.073    21134733.600
 02  1  8  0 37 30.0000000  0  8G20G29G22G 4G 1G14G30G25
 -24227506.82749 -18878572.43847  20760374.338    20760373.993
  -5940490.74748  -4628953.37445  22666951.736    22666952.799
 -17728368.54249 -13814312.64546  21491861.575    21491862.589
   -413601.53348                  25247437.499
 -13482846.67649 -10506108.97446  22527408.967    22527409.757
   3376583.41548   2631101.62244  24289526.270    24289523.093
   7794577.23748                  24946609.753
 -20675407.16649 -16110698.08547  21144371.225    21144370.840
 02  1  8  0 38  0.0000000  0  8G20G29G22G 4G 1G14G30G25
 -24257596.85049 -18902019.21047  20754648.409    20754647.935
  -5869370.70748  -4573535.18045  22680485.758    22680485.488
 -17815130.74349 -13881919.54846  21475351.637    21475352.697
   -463222.94548                  25237995.121
 -13555586.88349 -10562789.63346  22513567.450    22513568.697
   3461937.41848   2697611.17644  24305768.410    24305768.841
   7886771.18548   6145533.86044  24964153.874    24964153.016
 -20624477.56649 -16071012.69047  21154062.521    21154062.168
 02  1  8  0 38 30.0000000  0  8G20G29G22G 4G 1G14G30G25
 -24287130.76949 -18925032.65447  20749028.261    20749027.931
  -5798069.43748  -4517975.76245  22694053.796    22694053.670
 -17901470.75549 -13949197.46146  21458921.428    21458922.497
   -512374.88648                  25228642.209
 -13628212.24049 -10619380.80546  22499747.533    22499747.500
   3547390.31848   2764197.80544  24322029.521    24322027.784
   7979272.15748   6217612.53244  24981755.958    24981759.155
 -20573260.72049 -16031103.46247  21163808.857    21163808.591
 02  1  8  0 39  0.0000000  0  8G20G29G22G 4G 1G14G30G25
 -24316116.36649 -18947618.83747  20743512.749    20743512.310
  -5726596.26848  -4462282.41045  22707654.680    22707654.943
 -17987394.71449 -14016151.19246  21442571.117    21442571.743
   -561064.66448                  25219376.684
 -13700731.13349 -10675889.00246  22485946.552    22485947.789
   3632932.82248   2830854.24344  24338307.634    24338303.908
   8072068.25248   6289921.27644  24999414.085    24999415.130
 -20521767.13949 -15990978.59547  21173607.767    21173607.445
 02  1  8  0 39 30.0000000  0  8G20G29G22G 4G 1G14G30G25
 -24344542.84549 -18969769.33847  20738103.333    20738102.785
  -5654942.24248  -4406448.13645  22721289.845    22721290.662
 -18072889.89149 -14082770.79546  21426301.548    21426302.782
   -609281.61548                  25210199.918
 -13773133.47049 -10732306.39846  22472169.711    22472170.244
   3718573.71648   2897587.36644  24354604.936    24354602.898
   8165166.20248                  25017130.196
 -20469989.10749 -15950632.07947  21183460.426    21183460.194
 02  1  8  0 40  0.0000000  0  8G20G29G22G 4G 1G14G30G25
 -24372415.87449 -18991488.58447  20732799.063    20732798.745
  -5583114.62248  -4350478.58645  22734958.005    22734958.448
 -18157960.77349 -14149059.78246  21410113.107    21410113.737
   -657031.43748                  25201114.605
 -13845425.62149 -10788637.92446  22458412.891    22458413.246
   3804305.61348   2964391.39144  24370918.810    24370920.858
   8258556.05048   6435236.39844  25034901.929    25034901.616
 -20417935.67249 -15910070.96147  21193365.892    21193365.645
 02  1  8  0 40 30.0000000  0  8G20G29G22G 4G 1G14G30G25
 -24399724.70349 -19012768.19447  20727602.495    20727602.096
  -5511104.42048  -4294366.76445  22748661.029    22748662.227
 -18242595.12249 -14215008.61446  21394007.919    21394008.566
   -704303.23348                  25192119.433
 -13917597.74649 -10844875.93346  22444678.421    22444678.858
   3890137.11848   3031273.03044  24387251.746    24387253.336
   8352244.27048   6508240.20844  25052730.245    25052728.241
 -20365599.03049 -15869289.16747  21203325.429    21203325.285
 02  1  8  0 41  0.0000000  0  8G20G29G22G 4G 1G14G30G25
 -24426472.73849 -19033610.81947  20722512.487    20722512.154
  -5438916.57348  -4238116.50645  22762398.345    22762397.564
 -18326794.59449 -14280618.57946  21377985.195    21377985.766
   -751100.58948                  25183213.629
 -13989653.63449 -10901023.34946  22430966.936    22430967.483
   3976063.45848   3098228.52844  24403603.933    24403602.500
   8446223.75548   6581471.00344  25070613.774    25070614.552
 -20312985.09749 -15828291.29647  21213337.460    21213337.312
 02  1  8  0 41 30.0000000  0  8G20G29G22G 4G 1G14G30G25
 -24452651.29349 -19054009.69747  20717530.639    20717530.307
  -5366544.17248  -4181722.45545  22776170.060    22776170.818
 -18410549.11449 -14345881.83046  21362047.105    21362047.817
   -797414.57948                  25174400.528
 -14061585.50149 -10957074.14446  22417279.311    22417279.434
   4062091.35948   3165263.19544  24419973.981    24419973.471
   8540498.86848   6654932.11344  25088553.784    25088550.559
 -20260088.95349 -15787073.52647  21223403.372    21223403.292
 02  1  8  0 42  0.0000000  0  8G20G29G22G 4G 1G14G30G25
 -24478268.72349 -19073971.33347  20712655.650    20712655.651
  -5293997.15148  -4125192.34545  22789975.470    22789975.771
 -18493865.05349 -14410803.32646  21346192.713    21346193.852
   -843253.44748                  25165677.690
 -14133402.13549 -11013035.14146  22403611.908    22403612.431
   4148210.75648   3232369.15444  24436361.860    24436360.942
   8635057.30248                  25106547.679
 -20206921.26849 -15745644.15747  21233521.022    21233520.821
 02  1  8  0 42 30.0000000  0  8G20G29G22G 4G 1G14G30G25
 -24503319.52649 -19093491.43947  20707888.772    20707888.754
  -5221271.49948  -4068523.02245  22803814.988    22803815.464
 -18576735.25949 -14475377.49746  21330422.995    21330423.960
   -888611.69448   -692424.29344  25157046.230    25157045.154
 -14205098.62049 -11068902.51046  22389969.273    22389969.579
   4234425.59848   3299549.46344  24452768.219    24452769.892
   8729900.35547                  25124595.693
 -20153479.69149 -15704001.37047  21243690.348    21243690.409
 02  1  8  0 43  0.0000000  0  7G29G20G22G 4G 1G14G25
  -5148367.75948  -4011714.95145  22817687.778    22817688.084
 -24527802.72549 -19112569.25847  20703229.787    20703229.709
 -18659157.35049 -14539602.48546  21314738.492    21314739.167
   -933488.09548                  25148505.927
 -14276674.52949 -11124675.93446  22376348.764    22376349.489
   4320734.90748   3366803.42644  24469192.774    24469191.979
 -20099766.41249 -15662146.86547  21253911.994    21253911.631
 02  1  8  0 43 30.0000000  0  7G20G29G22G 4G 1G14G25
 -24551705.68349 -19131194.94247  20698681.306    20698681.209
  -5075274.95548  -3954759.54845  22831596.500    22831598.041
 -18741117.06849 -14603467.19146  21299141.946    21299143.038
   -977870.26048                  25140060.303
 -14348117.84749 -11180346.03246  22362752.805    22362753.407
   4407149.72148   3434139.58844  24485635.981    24485634.934
 -20045771.72149 -15620073.07747  21264186.715    21264186.414
 02  1  8  0 44  0.0000000  0  7G29G20G22G 4G 1G14G25
  -5002005.70848  -3897666.66445  22845540.080    22845541.497
 -24575039.44649 -19149377.09847  20694241.174    20694241.093
 -18822623.40049 -14666978.59946  21283632.204    21283633.102
  -1021768.88248                  25131707.523
 -14419440.16649 -11235921.84946  22349181.207    22349181.817
   4493657.32148   3501548.02344  24502099.271    24502100.443
 -19991509.11049 -15577790.52247  21274512.451    21274512.396
 02  1  8  0 44 30.0000000  0  7G20G29G22G 4G 1G14G25
 -24597812.88349 -19167122.63547  20689907.507    20689907.372
  -4928570.48448  -3840444.44045  22859514.437    22859513.874
 -18903684.03649 -14730142.71846  21268206.616    21268207.545
  -1065193.25048                  25123442.908
 -14490650.93949 -11291410.74946  22335630.041    22335630.515
   4580247.12348   3569020.54644  24518576.281    24518575.567
 -19936990.37649 -15535308.39047  21284887.041    21284886.807
 02  1  8  0 45  0.0000000  0  7G20G29G22G 4G 1G14G25
 -24620016.65249 -19184424.27647  20685682.113    20685682.056
  -4854961.36648  -3783086.71745  22873520.755    22873521.090
 -18984288.08849 -14792951.05746  21252868.367    21252869.197
  -1108133.85248                  25115272.081
 -14561741.27049 -11346805.79346  22322101.589    22322102.580
   4666926.66148   3636562.97144  24535069.877    24535069.970
 -19882209.16249 -15492621.72747  21295311.614    21295311.195
 02  1  8  0 45 30.0000000  0  7G20G29G22G 4G 1G14G25
 -24641649.27249 -19201280.86547  20681565.637    20681565.468
  -4781178.37248  -3725593.51245  22887561.980    22887563.793
 -19064431.80949 -14855400.69346  21237617.443    21237618.199
  -1150588.79148                  25107192.962
 -14632709.90749 -11402106.01446  22308597.747    22308598.140
   4753696.08848   3704175.38844  24551582.407    24551587.861
 -19827166.87649 -15449731.63047  21305785.678    21305785.599
 02  1  8  0 46  0.0000000  0  7G20G29G22G 4G 1G14G25
 -24662703.11149 -19217686.45747  20677559.452    20677559.219
  -4707215.30848  -3667959.98445  22901636.474    22901636.785
 -19144106.45449 -14917484.81946  21222455.658    21222456.577
  -1192550.63748                  25099208.557
 -14703549.74049 -11457305.87746  22295116.847    22295117.620
   4840561.44448   3771862.64644  24568112.257    24568116.395
 -19771858.67849 -15406634.33247  21316310.608    21316310.305
 02  1  8  0 46 30.0000000  0  7G20G29G22G 4G 1G14G25
 -24683173.22949 -19233637.20147  20673664.342    20673664.216
  -4633068.53448  -3610183.31445  22915746.544    22915747.240
 -19223304.98349 -14979197.94346  21207384.898    21207385.655
  -1234014.22948                  25091317.191
 -14774256.00549 -11512401.64946  22281661.654    22281662.035
   4927525.91248                  24584660.954
 -19716282.23849 -15363328.01647  21326886.605    21326886.412
 02  1  8  0 47  0.0000000  0  7G29G20G22G 4G 1G14G25
  -4558736.12148  -3552261.97245  22929891.447    22929892.081
 -24703055.82849 -19249130.13747  20669880.400    20669880.397
 -19302022.07149 -15040535.92546  21192405.342    21192406.262
  -1274976.02048                  25083522.580
 -14844825.72149 -11567391.02646  22268233.479    22268233.808
   5014591.69348   3907470.47544  24601229.638    24601230.121
 -19660436.71649 -15319812.02647  21337513.495    21337513.335
 02  1  8  0 47 30.0000000  0  7G29G20G22G 4G 1G14G25
  -4484240.78648  -3494213.71545  22944066.890    22944067.254
 -24722372.52749 -19264182.11247  20666204.254    20666204.173
 -19380277.65149 -15101514.28046  21177514.174    21177515.053
  -1315457.20248                  25075819.185
 -14915280.69549 -11622290.98346  22254825.966    22254826.595
   5101735.82948   3975374.86144  24617811.845    24617811.057
 -19604345.91649 -15276104.90947  21348187.453    21348187.070
 02  1  8  0 48  0.0000000  0  7G20G29G22G 4G 1G14G25
 -24741123.46449 -19278793.23647  20662636.264    20662635.928
  -4409584.16548  -3436039.74645  22958273.960    22958274.401
 -19458070.45549 -15162132.03346  21162709.955    21162711.001
  -1355458.22548                  25068207.687
 -14985621.43149 -11677101.93146  22241440.220    22241440.690
   5188956.51048   4043338.95444  24634410.024    24634410.780
 -19548013.15749 -15232209.25147  21358907.030    21358906.950
 02  1  8  0 48 30.0000000  0  7G29G20G22G 4G 1G14G25
  -4334757.11248  -3377732.98945  22972513.169    22972513.616
 -24759297.92549 -19292955.15247  20659178.030    20659177.816
 -19535388.14949 -15222379.57346  21147997.510    21147998.273
  -1394968.15148                  25060689.263
 -15055837.45349 -11731815.70646  22228079.392    22228079.733
   5276263.17848   4111370.01244  24651024.691    24651024.626
 -19491430.55749 -15188118.91347  21369674.064    21369674.357
 02  1  8  0 49  0.0000000  0  7G20G29G22G 4G 1G14G25
 -24776889.86349 -19306663.16147  20655830.131    20655829.871
  -4259754.62448  -3319289.53245  22986785.482    22986786.597
 -19612222.45249 -15282250.44246  21133375.804    21133377.052
  -1433980.54948                  25053265.909
 -15125922.79149 -11786427.64546  22214741.723    22214742.834
   5363660.28548   4179471.60244  24667655.354    24667655.765
 -19434594.28449 -15143830.90947  21380490.022    21380489.843
 02  1  8  0 49 30.0000000  0  7G20G29G22G 4G 1G14G25
 -24793904.31849 -19319921.17947  20652592.111    20652592.013
  -4184583.13548  -3260714.36445  23001090.633    23001090.721
 -19688577.10549 -15341747.56046  21118846.651    21118847.519
  -1472500.90848                  25045934.548
 -15195882.82849 -11840941.93946  22201428.732    22201429.119
   5451141.32648   4247638.57544  24684302.655    24684304.515
 -19377512.23049 -15099351.39047  21391352.243    21391352.065
 02  1  8  0 50  0.0000000  0  7G20G29G22G 4G 1G14G25
 -24810325.11149 -19332716.60447  20649467.349    20649467.233
  -4109227.87648  -3201996.02745  23015430.474    23015431.066
 -19764434.13749 -15400856.92246  21104411.161    21104411.862
  -1510512.37548                  25038701.825
 -15265701.51049 -11895346.10346  22188143.028    22188143.044
   5538720.97348   4315882.31644  24700968.223    24700969.731
 -19320170.79649 -15054669.75747  21402263.748    21402263.935
 02  1  8  0 50 30.0000000  0  7G20G29G22G 4G 1G14G25
 -24826155.65749 -19345052.09847  20646455.205    20646455.036
  -4033693.57148  -3143138.16345  23029803.300    23029803.902
 -19839794.94549 -15459579.61546  21090070.266    21090071.178
  -1548018.80348  -1206247.94444  25031565.040    25031565.218
 -15335382.57949 -11949643.03146  22174882.645    22174883.640
   5626394.25748   4384199.07244  24717651.811    24717653.808
 -19262575.84349 -15009790.57647  21413223.932    21413223.518
 02  1  8  0 51  0.0000000  0  7G29G20G22G 4G 1G14G25
  -3957992.29148  -3084150.19445  23044209.456    23044209.218
 -24841406.57649 -19356935.93447  20643553.036    20643552.706
 -19914668.77249 -15517922.84146  21075822.929    21075823.402
  -1585030.40648                  25024521.356
 -15404936.68949 -12003841.01946  22161647.157    22161647.579
   5714149.21048   4452579.41444  24734351.400    24734353.402
 -19204740.83549 -14964724.33647  21424229.650    21424229.342
 02  1  8  0 51 30.0000000  0  8G29G20G22G 4G 1G14G13G25
  -3882117.05648  -3025026.65645  23058648.350    23058649.101
 -24856069.97949 -19368361.96347  20640762.923    20640762.692
 -19989045.75049 -15575878.91946  21061669.121    21061669.623
  -1621539.36048                  25017574.567
 -15474356.06349 -12057934.03146  22148437.931    22148437.599
   5801992.31348   4521028.49644  24751067.230    24751066.250
         -.05358                  25021178.377
 -19146659.95649 -14919466.51047  21435281.924    21435281.694
 02  1  8  0 52  0.0000000  0  8G29G20G22G 4G 1G14G13G25
  -3806075.23448  -2965773.32145  23073118.263    23073119.875
 -24870151.65349 -19379334.69847  20638083.143    20638082.952
 -20062930.09149 -15633451.11646  21047609.349    21047610.107
  -1657551.34048                  25010721.826
 -15543646.83349 -12111926.82946  22135251.029    22135251.373
   5889916.60148   4589540.80544  24767799.205    24767795.492
    -91881.49048                  25003693.239
 -19088341.87649 -14874023.85247  21446379.674    21446379.215
 02  1  8  0 52 30.0000000  0  8G29G20G22G 4G 1G14G13G25
  -3729858.77348  -2906383.91645  23087621.782    23087622.343
 -24883642.50049 -19389847.04847  20635516.165    20635515.916
 -20136310.73249 -15690630.81946  21033645.236    21033645.835
  -1693057.17848  -1319264.86044  25003965.419    25003964.907
 -15612799.65849 -12165812.13046  22122092.229    22122092.876
   5977929.66548   4658122.32744  24784547.329    24784547.769
   -183770.29148                  24986206.579
 -19029779.83949 -14828391.09647  21457523.701    21457523.371
 02  1  8  0 53  0.0000000  0  8G29G20G22G 4G 1G14G13G25
  -3653460.42048  -2846852.76645  23102159.593    23102160.578
 -24896534.21549 -19399892.53847  20633062.801    20633062.556
 -20209177.44549 -15747410.06446  21019779.581    21019779.822
  -1728048.31948                  24997307.007
 -15681806.16549 -12219583.42746  22108961.574    22108961.973
   6066038.69848   4726778.59144  24801313.944    24801315.949
   -275658.56348                  24968722.089
 -18970967.98049 -14782563.67747  21468715.120    21468714.699
 02  1  8  0 53 30.0000000  0  8G29G22G20G 4G 1G14G13G25
  -3576894.01548  -2787190.68445  23116729.768    23116730.452
 -20281541.07349 -15803797.29146  21006008.495    21006009.689
 -24908839.00949 -19409480.69347  20630721.027    20630720.702
  -1762537.33548  -1373405.29344  24990742.845    24990743.643
 -15750678.94149 -12273250.51446  22095854.369    22095854.962
   6154229.89548   4795498.90544  24818096.616    24818097.857
   -367558.67248                  24951234.321
 -18911921.17749 -14736553.18647  21479951.375    21479950.999
 02  1  8  0 54  0.0000000  0  8G29G 1G25G20G22G 4G14G13
  -3500158.12948  -2727396.52745  23131332.094    23131331.763
 -15819415.67849 -12326811.59446  22082773.882    22082774.873
 -18852639.39749 -14690359.59447  21491232.169    21491231.952
 -24920554.48249 -19418609.63547  20628491.420    20628491.224
 -20353397.18149 -15859789.04846  20992334.926    20992336.057
  -1796521.41548                  24984275.884
   6242504.42548   4864284.13044  24834895.183    24834895.282
   -459468.87348                  24933743.342
 02  1  8  0 54 30.0000000  0  8G29G 1G25G20G22G 4G14G13
  -3423247.42348  -2667466.15845  23145968.020    23145968.735
 -15888009.53149 -12380261.33846  22069722.250    22069722.752
 -18793118.58649 -14643979.74447  21502558.608    21502558.335
 -24931674.10549 -19427274.27747  20626375.617    20626375.467
 -20424737.59149 -15915378.96346  20978759.624    20978760.241
  -1829993.93948                  24977906.477
   6330867.67148   4933138.50244  24851709.688    24851708.826
   -551382.69648                  24916252.498
 02  1  8  0 55  0.0000000  0  8G29G 1G25G20G22G 4G14G13
  -3346168.75648  -2607404.89045  23160635.482    23160635.981
 -15956466.10849 -12433604.11346  22056694.885    22056695.522
 -18733366.70149 -14597419.84147  21513929.041    21513928.781
 -24942203.66649 -19435479.13047  20624372.164    20624372.154
 -20495565.72949 -15970569.70546  20965281.214    20965282.210
  -1862960.64948                  24971632.754
   6419312.65448   5002056.51744  24868540.549    24868540.993
   -643306.48548                  24898759.783
 02  1  8  0 55 30.0000000  0  8G29G 1G25G20G22G 4G14G13
  -3268913.46548  -2547206.00545  23175336.649    23175336.543
 -16024775.75549 -12486832.40146  22043694.981    22043696.045
 -18673376.14949 -14550673.95547  21525344.896    21525344.731
 -24952133.50749 -19443216.66947  20622482.215    20622482.206
 -20565870.87649 -16025352.92146  20951902.892    20951903.589
  -1895411.54548  -1476943.61544  24965458.804    24965462.004
   6507847.71148   5071044.79644  24885388.538    24885392.258
   -735230.82148                  24881268.267
 02  1  8  0 56  0.0000000  0  8G29G 1G25G20G22G 4G14G13
  -3191492.44448  -2486877.96945  23190069.639    23190070.188
 -16092947.99849 -12539953.60946  22030723.519    22030723.812
 -18613158.99149 -14503751.50247  21536803.756    21536803.834
 -24961473.28749 -19450494.42347  20620704.846    20620704.507
 -20635660.44149 -16079734.38546  20938622.074    20938622.829
  -1927356.63648                  24959379.096
   6596462.01348   5140094.74144  24902251.271    24902249.663
   -827165.19248                  24863773.335
 02  1  8  0 56 30.0000000  0  8G29G 1G25G20G22G 4G14G13
  -3113902.66148  -2426418.44745  23204833.650    23204834.298
 -16160978.36149 -12592964.27646  22017777.756    22017778.631
 -18552713.51649 -14456651.13347  21548305.999    21548306.111
 -24970218.84249 -19457309.14747  20619040.868    20619040.843
 -20704928.90049 -16133709.79046  20925441.003    20925442.099
  -1958791.28348                  24953396.918
   6685158.53048   5209208.75344  24919129.675    24919131.817
   -919105.53748                  24846276.945
 02  1  8  0 57  0.0000000  0  8G29G 1G25G20G22G 4G14G13
  -3036143.94748  -2365827.27545  23219631.336    23219632.414
 -16228865.53049 -12645863.34946  22004858.189    22004859.152
 -18492040.84549 -14409373.73247  21559851.804    21559851.641
 -24978369.03949 -19463659.95247  20617490.024    20617489.978
 -20773672.98649 -16187276.59646  20912359.187    20912359.856
  -1989714.50948  -1550426.43444  24947513.088    24947515.169
   6773937.35248   5278386.95844  24936024.016    24936027.185
  -1011050.82948   -787830.90744  24828781.778    24828781.232
 02  1  8  0 57 30.0000000  0  8G29G 1G25G20G22G 4G14G13
  -2958211.70448  -2305100.90445  23234461.168    23234462.725
 -16296603.68949 -12698646.31746  21991968.871    21991969.111
 -18431137.40049 -14361916.50647  21571441.387    21571441.228
 -24985918.32149 -19469542.51247  20616053.571    20616053.498
 -20841885.33749 -16240429.06646  20899379.057    20899379.543
  -2020120.42548  -1574119.37644  24941727.239    24941730.756
   6862802.92548                  24952934.211
  -1102995.95348                  24811282.498
 02  1  8  0 58  0.0000000  0  8G29G 1G25G20G22G 4G14G13
  -2880115.65948  -2244246.88145  23249322.106    23249324.303
 -16364201.37649 -12751319.87146  21979105.887    21979105.535
 -18370014.26849 -14314288.10047  21583072.505    21583072.792
 -24992875.22049 -19474963.47847  20614729.761    20614729.470
 -20909572.49149 -16293172.27746  20886498.086    20886499.142
  -2050017.57748  -1597415.91044  24936037.665    24936035.832
   6951745.24748                  24969859.409
  -1194949.20848                  24793787.051
 02  1  8  0 58 30.0000000  0  8G29G 1G25G20G22G 4G14G13
  -2801849.16948  -2183260.06845  23264216.584    23264217.098
 -16431650.68049 -12803877.73946  21966269.709    21966270.370
 -18308665.81949 -14266484.11447  21594746.958    21594746.810
 -24999232.03849 -19479916.84447  20613520.043    20613520.010
 -20976725.38549 -16345499.20146  20873719.796    20873720.602
  -2079398.16648                  24930446.828
   7040771.07348   5486308.87644  24986800.859    24986802.514
  -1286903.12348                  24776286.709
 02  1  8  0 59  0.0000000  0  8G29G 1G25G20G22G 4G14G13
  -2723412.25548  -2122140.44745  23279142.331    23279143.620
 -16498950.44049 -12856319.09046  21953462.983    21953463.957
 -18247093.41749 -14218505.62747  21606463.976    21606463.923
 -25004987.93949 -19484401.96547  20612424.519    20612424.726
 -21043341.03349 -16397407.48546  20861042.975    20861043.945
  -2108261.17648                  24924953.595
   7129880.18548   5555744.43344  25003758.048    25003758.158
  -1378856.60848                  24758788.668
 02  1  8  0 59 30.0000000  0  8G29G 1G25G20G22G 4G14G13
  -2644811.30548  -2060892.98745  23294099.085    23294099.308
 -16566105.88849 -12908647.99746  21940684.052    21940684.789
 -18185304.59649 -14170358.49547  21618222.084    21618221.739
 -25010148.60049 -19488423.26447  20611442.242    20611442.297
 -21109423.18849 -16448900.06146  20848467.795    20848468.479
  -2136612.13648                  24919559.125
   7219065.95148                  25020728.912
  -1470815.01648                  24741290.943
 02  1  8  1  0  0.0000000  0  8G29G 1G25G20G22G 4G14G13
  -2566042.56848  -1999514.80845  23309088.666    23309090.809
 -16633111.48049 -12960860.13546  21927933.352    21927933.217
 -18123296.33649 -14122040.37347  21630021.654    21630021.500
 -25014708.94849 -19491976.78747  20610574.488    20610574.273
 -21174964.97649 -16499971.56846  20835996.188    20835997.075
  -2164445.99148                  24914263.065
   7308332.35448   5694797.67944  25037716.199    25037715.677
  -1562774.08948                  24723789.833
 02  1  8  1  0 30.0000000  0  8G29G 1G25G20G22G 4G14G13
  -2487106.10148  -1938005.94144  23324110.357    23324111.247
 -16699966.22949 -13012954.73646  21915210.987    21915211.313
 -18061070.07549 -14073552.38947  21641862.933    21641862.742
 -25018668.30349 -19495062.00347  20609821.246    20609821.165
 -21239963.95049 -16550620.10747  20823626.709    20823627.800
  -2191761.85848  -1707866.02644  24909065.766    24909066.707
   7397679.05748                  25054718.539
  -1654732.86448                  24706292.751
 02  1  8  1  1  0.0000000  0  8G29G 1G20G22G 4G14G13G25
  -2407996.43248  -1876362.08044  23339163.316    23339163.109
 -16766663.31549 -13064926.47946  21902518.679    21902519.368
 -25022020.35249 -19497673.99647  20609183.295    20609183.190
 -21304411.86149 -16600839.24347  20811362.755    20811363.851
  -2218553.08348  -1728742.26844  24903967.314    24903965.277
   7487111.45148                  25071737.179
  -1746684.55848                  24688793.605
 -17998621.55249 -14024891.20447  21653746.591    21653746.340
 02  1  8  1  1 30.0000000  0  8G29G 1G20G22G 4G14G13G25
  -2328725.77948  -1814592.80444  23354248.997    23354248.599
 -16833213.49949 -13116783.75146  21889855.439    21889855.862
 -25024776.49449 -19499821.64247  20608658.717    20608658.824
 -21368318.05049 -16650636.25747  20799202.225    20799202.775
  -2244831.21148                  24898964.664
   7576617.26748                  25088768.886
  -1838640.36848  -1432705.37544  24671295.398    24671295.798
 -17935964.07449 -13976067.20446  21665669.868    21665669.530
 02  1  8  1  2  0.0000000  0  8G29G 1G20G22G 4G14G13G25
  -2249292.42248  -1752696.72745  23369364.926    23369366.503
 -16899613.75549 -13168524.20046  21877219.080    21877220.078
 -25026934.03649 -19501502.85047  20608248.334    20608248.227
 -21431678.16449 -16700007.76247  20787144.836    20787145.457
  -2270593.34148                  24894062.960
   7666198.27048   5973653.66544  25105816.602    25105818.277
  -1930597.54748  -1504360.32544  24653796.095    24653797.598
 -17873097.06149 -13927079.92746  21677632.991    21677632.711
 02  1  8  1  2 30.0000000  0  8G29G 1G20G22G 4G14G13G25
  -2169697.85248  -1690675.04344  23384510.458    23384512.139
 -16965864.44549 -13220148.10546  21864612.281    21864612.880
 -25028493.77749 -19502718.23647  20607951.375    20607951.604
 -21494491.21649 -16748952.98347  20775191.858    20775192.418
  -2295840.06948                  24889260.864
   7755852.44248                  25122877.075
  -2022556.72848                  24636297.281
 -17810023.60249 -13877931.78346  21689635.553    21689635.285
 02  1  8  1  3  0.0000000  0  8G29G20G22G 4G 1G14G13G25
  -2089935.72148  -1628522.80344  23399689.374    23399689.812
 -25029448.04549 -19503461.82947  20607769.682    20607769.708
 -21556747.78249 -16797464.58447  20763345.170    20763345.711
  -2320563.95548  -1808231.24644  24884556.431    24884550.979
 -17031957.56249 -13271649.22246  21852035.117    21852035.745
   7845586.39248                  25139952.275
  -2114510.22148  -1647668.82044  24618799.409    24618801.351
 -17746737.69249 -13828618.09346  21701678.260    21701677.879
 02  1  8  1  3 30.0000000  0  8G29G20G22G 4G 1G14G13G25
  -2010005.37048  -1566239.43844  23414899.061    23414901.941
 -25029795.84249 -19503732.84447  20607703.296    20607703.307
 -21618444.62849 -16845540.03747  20751604.449    20751605.221
  -2344763.52048  -1827088.04944  24879951.405    24879952.117
 -17097891.22849 -13323026.09346  21839488.707    21839489.306
   7935400.49948                  25157044.562
  -2206456.43548                  24601301.044
 -17683239.80949 -13779139.23146  21713761.788    21713761.654
 02  1  8  1  4  0.0000000  0  8G29G20G22G 4G 1G14G13G25
  -1929900.74548  -1503820.33145  23430143.181    23430142.934
 -25029530.22349 -19503525.87347  20607754.031    20607754.058
 -21679573.04449 -16893172.55447  20739971.706    20739972.403
  -2368431.71848                  24875445.052
 -17163657.91849 -13374272.85246  21826972.864    21826973.487
   8025301.08848                  25174152.115
  -2298388.33548  -1790950.34844  24583808.543    24583808.356
 -17619525.20249 -13729491.49046  21725886.036    21725885.644
 02  1  8  1  4 30.0000000  0  8G29G20G22G 4G 1G14G13G25
  -1849634.23948  -1441275.07344  23445417.419    23445419.204
 -25028662.84149 -19502849.99847  20607919.338    20607919.106
 -21740142.76649 -16940369.72147  20728446.323    20728446.816
  -2391580.09148                  24871038.812
 -17229268.77049 -13425398.17646  21814488.453    21814489.029
   8115275.52048                  25191273.067
  -2390317.11448                  24566313.808
 -17555607.09149 -13679685.17946  21738049.091    21738049.140
 02  1  8  1  5  0.0000000  0  8G29G20G22G 4G 1G14G13G25
  -1769200.85048  -1378599.72344  23460723.756    23460724.298
 -25027188.23649 -19501700.96047  20608200.085    20608200.029
 -21800146.30249 -16987125.71247  20717027.719    20717028.248
  -2414202.84848                  24866734.756
 -17294717.47349 -13476397.16146  21802034.112    21802034.419
   8205328.49548                  25208409.892
  -2482236.79348  -1934208.85844  24548823.006    24548823.614
 -17491482.21849 -13629717.75146  21750251.940    21750251.632
 02  1  8  1  5 30.0000000  0  8G29G20G22G 4G 1G14G13G25
  -1688606.57348  -1315799.08344  23476059.371    23476061.300
 -25025111.29049 -19500082.56747  20608595.245    20608595.173
 -21859586.95149 -17033443.08947  20705716.542    20705717.201
  -2436305.06848                  24862530.249
 -17360008.40349 -13527273.20146  21789609.074    21789609.729
   8295454.15948                  25225560.254
  -2574151.98048                  24531331.595
 -17427157.36549 -13579594.49546  21762492.574    21762492.499
 02  1  8  1  6  0.0000000  0  8G29G20G22G 4G 1G14G13G25
  -1607848.93548  -1252871.09944  23491427.669    23491427.719
 -25022429.13349 -19497992.58247  20609105.515    20609105.512
 -21918459.64449 -17079317.90247  20694513.604    20694514.003
  -2457883.38748  -1915233.36244  24858425.996    24858422.835
 -17425137.63849 -13578023.24346  21777215.660    21777216.109
   8385657.99548                  25242736.405
  -2666059.30148                  24513842.125
 -17362630.96649 -13529314.19546  21774771.288    21774771.269
 02  1  8  1  6 30.0000000  0  8G29G20G22G 4G 1G14G13G25
  -1526931.28848  -1189818.45644  23506825.768    23506824.444
 -25019144.34949 -19495433.01547  20609730.393    20609730.345
 -21976765.13049 -17124750.73847  20683418.622    20683419.176
  -2478940.32048  -1931641.34244  24854418.206    24854415.624
 -17490107.26649 -13628648.91746  21764852.258    21764852.649
   8475242.62947                  25259899.730
  -2757960.95648  -2149058.69644  24496354.794    24496355.184
 -17297907.36549 -13478880.22646  21787087.946    21787087.540
 02  1  8  1  7  0.0000000  0  7G29G20G22G 4G 1G13G25
  -1445861.35448  -1126647.14844  23522252.247    23522253.880
 -25015263.82749 -19492409.24047  20610469.055    20610469.024
 -22034508.62849 -17169745.65547  20672430.159    20672431.082
  -2499482.81748                  24850506.630
 -17554923.36149 -13679154.96146  21752518.393    21752518.778
  -2849863.35348                  24478865.014
 -17232995.46049 -13428299.52846  21799440.283    21799440.178
 02  1  8  1  7 30.0000000  0  7G29G 4G 1G20G22G13G25
  -1364618.47348  -1063341.08544  23537713.096    23537714.503
  -2519489.62848                  24846697.975
 -17619563.86649 -13729524.18046  21740217.462    21740217.717
 -25010766.41949 -19488904.77147  20611325.131    20611325.019
 -22091666.94949 -17214284.59547  20661552.982    20661553.656
  -2941745.38548  -2292267.24144  24461381.057    24461378.202
 -17167875.51849 -13377556.72546  21811832.069    21811832.094
 02  1  8  1  8  0.0000000  0  7G 1G29G20G22G 4G13G25
 -17684056.21549 -13779777.95046  21727945.134    21727945.786
  -1283231.35748   -999922.60144  23553200.280    23553203.149
 -25005680.20149 -19484941.48947  20612293.046    20612293.036
 -22148266.37649 -17258388.03247  20650782.729    20650783.255
  -2538988.62548                  24842989.054
  -3033634.09048  -2363868.77344  24443895.862    24443893.927
 -17102577.16549 -13326674.90346  21824258.312    21824258.106
 02  1  8  1  8 30.0000000  0  7G 1G20G29G22G 4G13G25
 -17748372.37549 -13829894.42746  21715706.400    21715706.920
 -24999978.32749 -19480498.47947  20613377.988    20613377.681
  -1201673.74448   -936371.31244  23568720.864    23568721.164
 -22204277.80749 -17302033.29147  20640123.909    20640124.766
  -2557952.47048  -1993209.22244  24839381.633    24839378.414
  -3125502.12448                  24426412.663
 -17037075.30049 -13275634.50146  21836722.625    21836722.524
 02  1  8  1  9  0.0000000  0  8G 1G20G29G22G 4G14G13G25
 -17812526.65649 -13879884.77046  21703498.160    21703498.538
 -24993676.12549 -19475587.67847  20614577.171    20614576.884
  -1119961.46948   -872699.46944  23584269.560    23584274.407
 -22259714.74549 -17345230.89047  20629574.771    20629575.513
  -2576396.48048                  24835872.865
         -.75158                  25345995.932
  -3217363.89848  -2507034.75044  24408932.634    24408933.164
 -16971386.88849 -13224448.73446  21849222.328    21849222.078
 02  1  8  1  9 30.0000000  0  8G 1G20G29G22G 4G14G13G25
 -17876509.64749 -13929741.63846  21691322.268    21691322.742
 -24986764.79249 -19470202.23047  20615892.387    20615892.094
  -1038086.27548   -808900.68244  23599850.392    23599852.194
 -22314566.60349 -17387972.58547  20619136.970    20619137.596
  -2594311.81648                  24832463.479
     90696.76948     70673.11644  25363256.255    25363258.950
  -3309210.14848  -2578603.23944  24391455.057    24391454.478
 -16905504.58949 -13173111.88446  21861759.846    21861759.453
 02  1  8  1 10  0.0000000  0  8G 1G20G29G22G 4G14G13G25
 -17940305.09249 -13979452.37246  21679182.706    21679183.033
 -24979229.02749 -19464330.21647  20617326.372    20617326.148
   -956033.41648   -744963.48544  23615464.853    23615466.373
 -22368816.43349 -17430245.16947  20608812.826    20608813.812
  -2611682.84648                  24829156.453
    181482.90248                  25380531.510
  -3401024.97948                  24373982.924
 -16839414.60449 -13121613.20746  21874336.330    21874336.300
 02  1  8  1 10 30.0000000  0  8G 1G20G29G22G 4G14G13G25
 -18003927.81549 -14029028.51146  21667075.671    21667076.120
 -24971084.57449 -19457983.89547  20618876.163    20618876.284
   -873818.99748   -680900.38144  23631109.120    23631111.324
 -22422477.68949 -17472059.12347  20598601.921    20598602.334
  -2628525.29648                  24825950.188
    272341.55548                  25397821.618
  -3492823.36448  -2721678.40144  24356514.210    24356509.632
 -16773134.03949 -13069966.02546  21886949.162    21886948.920
 02  1  8  1 11  0.0000000  0  8G 1G20G29G22G 4G14G13G25
 -18067383.11749 -14078474.19046  21655000.084    21655000.515
 -24962337.80549 -19451168.23847  20620541.035    20620540.885
   -791450.13448   -616716.90644  23646784.085    23646784.558
 -22475555.00649 -17513418.06147  20588501.729    20588502.139
  -2644845.27248                  24822844.601
    363265.77548                  25415124.830
  -3584610.82848  -2793201.01444  24339047.138    24339044.867
 -16706670.67649 -13018176.40246  21899596.842    21899596.704
 02  1  8  1 11 30.0000000  0  8G 1G20G29G22G 4G14G13G25
 -18130660.50549 -14127781.23646  21642959.561    21642959.886
 -24952979.48149 -19443876.04547  20622321.611    20622321.330
   -708917.75648   -552406.07144  23662488.601    23662489.129
 -22528036.65549 -17554312.84347  20578514.823    20578515.286
  -2660633.28248                  24819840.979
    454264.32248                  25432440.919
  -3676377.57048  -2864707.50644  24321584.892    24321586.361
 -16640016.68749 -12966238.24146  21912280.311    21912280.543
 02  1  8  1 12  0.0000000  0  8G 1G20G29G22G 4G14G13G25
 -18193768.04949 -14176955.94046  21630950.621    21630950.689
 -24943018.61349 -19436114.33547  20624216.921    20624216.732
   -626231.46848   -487975.27044  23678224.252    23678227.387
 -22579930.20849 -17594749.36547  20568639.754    20568640.200
  -2675898.40348  -2085115.05644  24816937.655    24816939.640
    545327.52348                  25449769.582
  -3768131.75748  -2936204.22144  24304124.690    24304127.127
 -16573182.77549 -12914159.87446  21924998.752    21924998.466
 02  1  8  1 12 30.0000000  0  8G 1G25G20G29G22G 4G14G13
 -18256710.25949 -14226001.81046  21618972.060    21618972.536
 -16506175.88549 -12861946.72646  21937749.284    21937749.710
 -24932461.03249 -19427887.65447  20626226.266    20626226.111
   -543397.58648   -423429.49344  23693986.068    23693989.270
 -22631239.34749 -17634730.50347  20558876.192    20558876.698
  -2690646.09248  -2096606.75944  24814131.219    24814130.288
    636449.25448                  25467111.002
  -3859878.24048  -3007694.96744  24286666.094    24286664.513
 02  1  8  1 13  0.0000000  0  8G 1G25G20G29G22G 4G14G13
 -18319483.09249 -14274915.69746  21607026.948    21607027.434
 -16438994.36049 -12809597.49746  21950533.538    21950533.472
 -24921303.75849 -19419193.68647  20628349.523    20628349.431
   -460413.32348   -358766.51744  23709777.908    23709782.250
 -22681959.17549 -17674252.43947  20549224.914    20549225.059
  -2704873.08948  -2107692.71344  24811424.104    24811422.573
    727632.00048                  25484461.564
  -3951613.37848  -3079176.84844  24269208.834    24269210.483
 02  1  8  1 13 30.0000000  0  8G 1G25G20G29G22G 4G14G13
 -18382072.64549 -14323686.76746  21595117.387    21595117.447
 -16371627.12649 -12757103.56446  21963353.188    21963353.292
 -24909534.28849 -19410022.67847  20630588.956    20630588.667
   -377266.48648   -293976.86844  23725600.066    23725599.792
 -22732075.23449 -17713303.90747  20539687.832    20539687.942
  -2718566.60548                  24808818.002
    818887.99248                  25501827.218
  -4043323.50648  -3150639.20244  24251757.417    24251755.408
 02  1  8  1 14  0.0000000  0  8G 1G25G20G29G22G 4G14G13
 -18444474.96449 -14372311.94846  21583242.103    21583242.278
 -16304072.66849 -12704463.74046  21976208.430    21976208.246
 -24897149.65049 -19400372.32047  20632945.731    20632945.618
   -293954.76348   -229058.72444  23741453.982    23741455.664
 -22781582.68949 -17751881.13447  20530266.413    20530266.830
  -2731723.82948  -2128615.38544  24806313.364    24806311.423
    910219.46448                  25519207.686
  -4135005.04848  -3222079.33144  24234310.356    24234311.769
 02  1  8  1 14 30.0000000  0  7G 1G25G20G29G22G 4G13
 -18506690.18249 -14420791.33046  21571402.738    21571403.004
 -16236333.20749 -12651679.75846  21989098.945    21989099.089
 -24884151.11649 -19390243.60147  20635419.409    20635419.100
   -210479.67848   -164013.30744  23757339.438    23757340.362
 -22830480.95149 -17789983.66747  20520961.728    20520961.974
  -2744345.87148                  24803910.835
  -4226658.03748  -3293497.21144  24216870.070    24216867.413
 02  1  8  1 15  0.0000000  0  7G 1G25G20G29G22G 4G13
 -18568716.62749 -14469123.61446  21559599.958    21559600.327
 -16168409.68949 -12598752.35546  22002024.604    22002024.141
 -24870538.68349 -19379636.51747  20638009.783    20638009.667
   -126841.42648    -98840.76744  23773254.942    23773258.156
 -22878767.83949 -17827609.80447  20511772.649    20511773.181
  -2756432.22648                  24801610.847
  -4318281.62248  -3364892.11544  24199434.160    24199435.287
 02  1  8  1 15 30.0000000  0  7G 1G25G20G29G22G 4G13
 -18630567.78149 -14517319.31246  21547829.888    21547830.094
 -16100318.13949 -12545694.02046  22014981.740    22014981.426
 -24856326.77149 -19368562.31147  20640714.127    20640713.805
    -43054.74148    -33552.51744  23789198.646    23789200.457
 -22926456.19849 -17864769.55747  20502698.179    20502698.614
  -2767997.37448                  24799410.875
  -4409889.30548  -3436274.70344  24182001.923    24182002.665
 02  1  8  1 16  0.0000000  0  7G 1G25G20G29G22G 4G13
 -18692225.38449 -14565364.19046  21536097.177    21536097.139
 -16032043.11849 -12492492.72346  22027974.151    22027973.904
 -24841498.63649 -19357007.92847  20643535.713    20643535.603
     40896.83148     31864.18444  23805175.373    23805177.496
 -22973526.92049 -17901448.03147  20493740.782    20493741.371
  -2779024.17848  -2165472.74744  24797312.660    24797310.607
  -4501463.08348  -3507630.82344  24164575.988    24164577.022
 02  1  8  1 16 30.0000000  0  7G 1G25G20G29G22G 4G13
 -18753706.86649 -14613271.83246  21524396.929    21524397.271
 -15963604.00249 -12439163.55446  22040997.797    22040997.308
 -24826073.17649 -19344988.09647  20646470.973    20646470.793
    124994.36448     97394.59044  23821177.394    23821181.479
 -23019997.11649 -17937658.56747  20484897.596    20484898.079
  -2789531.32648                  24795313.998
  -4593020.60148  -3578974.31144  24147153.239    24147151.793
 02  1  8  1 17  0.0000000  0  7G 1G25G20G29G22G 4G13
 -18815003.03249 -14661035.07146  21512733.009    21512733.186
 -15894994.17649 -12385701.37046  22054053.604    22054053.402
 -24810042.40949 -19332496.59747  20649521.872    20649521.551
    209245.30048    163044.60744  23837210.512    23837210.892
 -23065856.75549 -17973393.34147  20476170.950    20476171.525
  -2799510.84148  -2181436.35844  24793414.865    24793414.454
  -4684553.28548  -3650298.42544  24129735.942    24129732.908
 02  1  8  1 17 30.0000000  0  7G 1G25G20G29G22G 4G13
 -18876132.19049 -14708668.17146  21501100.655    21501100.879
 -15826234.57949 -12332122.47546  22067138.284    22067138.023
 -24793426.14649 -19319548.87047  20652684.143    20652683.778
    293629.62548    228798.49444  23853268.862    23853270.757
 -23111124.08049 -18008666.57147  20467556.823    20467557.309
  -2808982.12448                  24791612.805
  -4776079.47248  -3721617.54644  24112317.091    24112315.708
 02  1  8  1 18  0.0000000  0  7G 1G25G20G29G22G 4G13
 -18937069.79449 -14756152.01146  21489504.575    21489504.870
 -15757303.49649 -12278409.96146  22080255.495    22080255.482
 -24776201.33049 -19306126.94447  20655961.783    20655961.638
    378170.23148    294674.18744  23869355.881    23869357.761
 -23155774.03549 -18043458.73647  20459059.904    20459060.383
  -2817921.89848                  24789911.258
  -4867574.98848  -3792912.65544  24094907.861    24094905.111
 02  1  8  1 18 30.0000000  0  7G 1G25G20G29G22G 4G13
 -18997821.90749 -14803491.30946  21477943.435    21477943.888
 -15688209.12149 -12224570.20746  22093403.752    22093403.371
 -24758375.60849 -19292236.78147  20659353.669    20659353.544
    462859.45148    360665.66444  23885472.452    23885473.262
 -23199811.86449 -18077773.92247  20450680.183    20450680.729
  -2826337.56148                  24788308.877
  -4959045.98048  -3864188.71344  24077500.893    24077498.474
 02  1  8  1 19  0.0000000  0  7G 1G25G20G29G22G 4G13
 -19058381.89149 -14850680.90346  21466419.422    21466419.764
 -15618947.16049 -12170599.86546  22106583.711    22106583.342
 -24739943.68949 -19277874.25947  20662860.767    20662860.681
    547702.41848    426776.91544  23901617.968    23901618.389
 -23243230.35449 -18111606.50247  20442417.952    20442418.608
  -2834223.88848  -2208485.47544  24786807.387    24786806.900
  -5050486.22048  -3935440.80344  24060100.063    24060099.528
 02  1  8  1 19 30.0000000  0  7G 1G25G20G29G22G 4G13
 -19118752.03049 -14897722.56446  21454931.635    21454931.905
 -15549522.56949 -12116502.80546  22119794.714    22119794.607
 -24720909.46949 -19263042.40647  20666483.023    20666482.848
    632694.95548    493004.75744  23917791.563    23917794.530
 -23286031.91649 -18144958.36147  20434272.957    20434273.445
  -2841584.35148                  24785405.565
  -5141898.28048  -4006670.94644  24042705.431    24042702.356
 02  1  8  1 20  0.0000000  0  7G 1G25G20G29G22G 4G13
 -19178919.45349 -14944606.26346  21443481.952    21443482.477
 -15479925.09749 -12062271.02446  22133039.014    22133038.395
 -24701261.88049 -19247732.60347  20670222.138    20670222.052
    717848.27748    559357.85644  23933995.002    23933998.374
 -23328203.08949 -18177819.00647  20426248.128    20426248.718
  -2848407.69848                  24784108.017
  -5233269.74348  -4077869.44544  24025316.867    24025316.441
 02  1  8  1 20 30.0000000  0  7G 1G25G20G29G22G 4G13
 -19238892.23949 -14991338.29646  21432069.434    21432069.850
 -15410165.12549 -12007912.62346  22146313.713    22146313.405
 -24681010.60149 -19231952.40147  20674075.778    20674075.782
    803152.54048    625828.58344  23950228.008    23950227.758
 -23369752.12949 -18210194.87547  20418341.382    20418341.933
  -2854703.34348                  24782909.509
  -5324608.78148  -4149042.68244  24007936.253    24007935.640
 02  1  8  1 21  0.0000000  0  7G 1G25G20G29G22G 4G13
 -19298660.91849 -15037911.28346  21420696.160    21420696.314
 -15340235.84549 -11953422.29646  22159620.735    22159620.917
 -24660147.62249 -19215695.54147  20678045.817    20678045.922
    888615.54848    692422.98244  23966491.678    23966489.933
 -23410668.76149 -18242077.95747  20410555.215    20410555.552
  -2860462.97348                  24781814.919
  -5415905.96248  -4220183.34144  23990562.580    23990559.618
 02  1  8  1 21 30.0000000  0  7G 1G25G20G29G22G 4G13
 -19358236.59249 -15084333.88346  21409358.551    21409359.280
 -15270150.74049 -11898810.54846  22172957.655    22172957.598
 -24638685.69449 -19198971.97347  20682129.919    20682129.644
    974224.55548    759131.17144  23982782.276    23982782.746
 -23450963.73949 -18273476.63347  20402887.543    20402888.105
  -2865699.33148                  24780817.961
  -5507173.10848  -4291300.58144  23973195.564    23973193.670
 02  1  8  1 22  0.0000000  0  7G 1G25G20G29G22G 4G13
 -19417619.77949 -15130606.49046  21398058.823    21398059.114
 -15199912.85149 -11844079.75146  22186323.555    22186323.247
 -24616627.16149 -19181783.51447  20686327.568    20686327.425
   1059977.37948    825951.44244  23999100.607    23999101.901
 -23490637.24349 -18304391.04647  20395337.643    20395338.165
  -2870414.22648                  24779921.389
  -5598410.91448  -4362394.90544  23955833.575    23955833.192
 02  1  8  1 22 30.0000000  0  7G 1G25G20G29G22G 4G13
 -19476802.58549 -15176722.95546  21386796.632    21386796.802
 -15129516.79349 -11789225.69946  22199719.665    22199719.227
 -24593965.70249 -19164125.24647  20690639.767    20690639.746
   1145880.03348    892888.42144  24015447.529    24015449.239
 -23529681.40849 -18334815.06247  20387907.826    20387908.273
  -2874601.50948                  24779125.420
  -5689611.51548  -4433460.28144  23938477.821    23938477.906
 02  1  8  1 23  0.0000000  0  7G 1G25G20G29G22G 4G13
 -19535774.76349 -15222675.29647  21375574.240    21375574.602
 -15058954.46949 -11734242.09046  22213146.917    22213146.995
 -24570692.88749 -19145990.59647  20695068.406    20695068.370
   1231941.20248    959948.93844  24031824.773    24031826.694
 -23568085.77549 -18364740.53647  20380600.183    20380600.682
  -2878252.09748  -2242793.13044  24778430.148    24778428.744
  -5780764.83648  -4504488.80244  23921132.811    23921131.924
 02  1  8  1 23 30.0000000  0  7G 1G25G20G29G22G 4G13
 -19594546.17249 -15268471.19647  21364390.938    21364391.134
 -14988238.51849 -11679138.77946  22226603.945    22226603.559
 -24546820.46849 -19127388.72547  20699611.275    20699611.202
   1318149.13048   1027123.78044  24048229.884    24048230.184
 -23605860.00849 -18394175.00047  20373411.759    20373412.321
  -2881377.70148                  24777836.200
  -5871881.07448  -4575488.42344  23903792.615    23903791.236
 02  1  8  1 24  0.0000000  0  7G 1G25G20G29G22G 4G13
 -19653119.30249 -15314112.58947  21353244.692    21353245.034
 -14917373.73549 -11623919.48646  22240088.855    22240088.597
 -24522352.60049 -19108322.86947  20704267.280    20704267.315
   1404499.68848   1094409.78544  24064660.905    24064663.942
 -23643006.60849 -18423120.39847  20366342.802    20366343.379
  -2883982.43548                  24777339.138
  -5962963.27248  -4646461.53344  23886461.814    23886461.294
 02  1  8  1 24 30.0000000  0  7G 1G25G20G29G22G 4G13
 -19711490.57149 -15359596.69047  21342136.869    21342137.290
 -14846359.03449 -11568583.38046  22253602.722    22253602.332
 -24497287.62749 -19088791.73347  20709037.117    20709037.043
   1490994.64548   1161808.33144  24081121.423    24081121.719
 -23679521.77749 -18451573.77047  20359394.205    20359394.781
  -2886064.11748  -2248880.41844  24776944.006    24776946.196
  -6054007.64948  -4717405.17644  23869135.291    23869135.408
 02  1  8  1 25  0.0000000  0  7G 1G25G20G29G22G 4G13
 -19769657.02849 -15404921.19747  21331068.329    21331068.665
 -14775193.98149 -11513130.11946  22267145.162    22267145.046
 -24471624.52349 -19068794.52147  20713920.785    20713920.666
   1577635.15948   1229320.23644  24097607.714    24097609.450
 -23715402.58249 -18479532.83447  20352566.014    20352566.455
  -2887621.59448  -2250093.97944  24776646.979    24776649.477
  -6145011.64748  -4788317.32744  23851818.359    23851817.343
 02  1  8  1 25 30.0000000  0  7G 1G25G20G29G22G 4G13
 -19827617.87349 -15450085.48647  21320038.321    21320038.620
 -14703880.53849 -11457561.22746  22280715.532    22280715.166
 -24445364.35349 -19048332.06347  20718918.044    20718918.091
   1664420.21448   1296944.81144  24114122.747    24114126.287
 -23750648.20949 -18506996.95447  20345859.388    20345859.789
  -2888655.69048                  24776450.223
  -6235974.85848  -4859197.72044  23834508.801    23834508.261
 02  1  8  1 26  0.0000000  0  7G 1G25G20G29G22G 4G13
 -19885373.44449 -15495089.82147  21309047.968    21309048.285
 -14632421.07349 -11401878.55646  22294313.814    22294313.416
 -24418509.55849 -19027406.26347  20724028.374    20724028.353
   1751347.71748   1364680.37744  24130664.458    24130667.402
 -23785259.16649 -18533966.52447  20339273.301    20339273.716
  -2889168.44548                  24776350.536
  -6326897.86348  -4930046.76244  23817206.385    23817205.079
 02  1  8  1 26 30.0000000  0  7G 1G25G20G29G22G 4G13
 -19942908.00549 -15539921.94147  21298099.865    21298100.363
 -14560802.69049 -11346072.05146  22307942.449    22307942.024
 -24391046.33649 -19006006.36347  20729254.218    20729254.081
   1838431.42348   1432537.63044  24147235.945    24147239.886
 -23819219.71749 -18560429.28447  20332810.757    20332811.250
  -2889146.07448                  24776354.891
  -6417765.34848  -5000852.58844  23799915.232    23799914.675
 02  1  8  1 27  0.0000000  0  7G 1G25G20G29G22G 4G13
 -20000233.56749 -15584591.20347  21287191.256    21287191.608
 -14489040.04449 -11290153.13846  22321598.444    22321598.328
 -24362988.85149 -18984143.40147  20734593.625    20734593.695
   1925657.44748   1500505.78144  24163835.837    24163837.965
 -23852541.93549 -18586394.64447  20326469.810    20326470.137
  -2888602.15748                  24776459.695
  -6508589.27348  -5071624.44244  23782631.348    23782633.415
 02  1  8  1 27 30.0000000  0  7G 1G25G20G29G22G 4G13
 -20057343.46449 -15629092.41747  21276323.304    21276323.799
 -14417128.55649 -11234118.24446  22335282.833    22335282.538
 -24334332.38349 -18961813.70247  20740046.662    20740046.597
   2013030.84748   1568588.77844  24180461.904    24180464.489
 -23885219.27249 -18611857.50047  20320251.291    20320251.682
  -2887531.81648                  24776662.205
  -6599363.26848  -5142357.38845  23765358.577    23765356.039
 02  1  8  1 28  0.0000000  0  7G 1G25G20G29G22G 4G13
 -20114240.25749 -15673427.57347  21265496.342    21265496.721
 -14345073.41949 -11177971.41546  22348993.973    22348993.869
 -24305081.40449 -18939020.74447  20745613.043    20745613.101
   2100547.21448   1636783.17444  24197115.804    24197120.840
 -23917254.39449 -18636819.93147  20314155.225    20314155.672
  -2885939.50348                  24776965.548
  -6690090.05848  -5213053.54144  23748093.035    23748093.824
 02  1  8  1 28 30.0000000  0  7G 1G25G20G29G22G 4G13
 -20170923.11549 -15717596.03047  21254709.919    21254710.247
 -14272876.06249 -11121713.76946  22362733.034    22362733.154
 -24275237.21449 -18915765.54647  20751292.049    20751292.004
   2188205.43048   1705088.09444  24213797.096    24213798.251
 -23948646.73449 -18661281.49347  20308181.460    20308181.856
  -2883826.06948                  24777366.710
  -6780769.25948  -5283712.64144  23730837.768    23730837.521
 02  1  8  1 29  0.0000000  0  7G 1G25G20G29G22G 4G13
 -20227393.59649 -15761599.00047  21243963.678    21243964.020
 -14200541.03049 -11065348.84446  22376498.421    22376498.569
 -24244803.52049 -18892050.99647  20757083.214    20757082.955
   2276002.14148   1773500.94144  24230504.042    24230505.357
 -23979398.03649 -18685243.54447  20302329.669    20302330.098
  -2881194.94648                  24777868.168
  -6871402.63848  -5354336.05144  23713591.101    23713589.728
 02  1  8  1 29 30.0000000  0  7G 1G20G29G22G 4G13G25
 -20283651.45949 -15805436.29047  21233258.602    21233258.972
 -24213782.19049 -18867878.54647  20762986.521    20762986.370
   2363935.70648   1842020.41244  24247237.499    24247240.378
 -24009508.21849 -18708706.02247  20296600.023    20296600.528
  -2878047.82748  -2242633.90844  24778467.925    24778468.075
  -6961989.86948  -5424923.58644  23696352.177    23696349.058
 -14128070.13349 -11008878.05546  22390288.460    22390288.818
 02  1  8  1 30  0.0000000  0  7G 1G25G20G29G22G 4G13
 -20339692.80149 -15849104.86447  21222593.926    21222594.328
 -14055461.85749 -10952300.21446  22404105.653    22404105.792
 -24182171.60149 -18843246.93547  20769001.918    20769002.065
   2452008.11148   1910648.05944  24263997.738    24263996.577
 -24038973.72849 -18731666.15547  20290992.737    20290993.125
  -2874382.71948                  24779165.543
  -7052527.54448  -5495472.21344  23679123.914    23679124.095
 02  1  8  1 30 30.0000000  0  7G 1G25G20G29G22G 4G13
 -20395519.76049 -15892606.38447  21211970.500    21211970.817
 -13982721.09449 -10895619.14146  22417948.037    22417948.064
 -24149976.00949 -18818159.47847  20775128.181    20775128.111
   2540215.46948                  24280782.794
 -24067797.01749 -18754125.86047  20285507.851    20285508.237
  -2870203.69148                  24779961.211
  -7143017.79848  -5565984.10944  23661903.057    23661902.277
 02  1  8  1 31  0.0000000  0  7G 1G25G20G29G22G 4G13
 -20451127.09449 -15935936.77347  21201389.031    21201389.447
 -13909845.14549 -10838832.72946  22431815.174    22431815.654
 -24117192.54049 -18792613.93747  20781366.714    20781366.810
   2628560.82548                  24297594.632
 -24095973.17549 -18776081.30547  20280146.222    20280146.564
  -2865507.69848                  24780855.356
  -7233455.93548  -5636455.37844  23644695.100    23644694.038
 02  1  8  1 31 30.0000000  0  7G 1G25G20G29G22G 4G13
 -20506507.68749 -15979090.47747  21190850.344    21190850.698
 -13836829.19949 -10781937.22446  22445710.285    22445709.954
 -24083816.31849 -18766606.50847  20787718.573    20787718.322
   2717049.79548                  24314432.646
 -24123495.41349 -18797527.20447  20274908.881    20274909.266
  -2860289.21748  -2228796.04644  24781848.845    24781846.978
  -7323834.82948  -5706880.47544  23627494.668    23627494.935
 02  1  8  1 32  0.0000000  0  7G 1G25G20G29G22G 4G13
 -20561656.94549 -16022063.91947  21180355.491    21180355.866
 -13763670.96849 -10724930.85246  22459631.807    22459632.293
 -24049844.91249 -18740135.29947  20794182.818    20794182.795
   2805684.79048                  24331300.842
 -24150359.56149 -18818460.30647  20269796.697    20269797.018
  -2854545.82248                  24782941.796
  -7414150.12348  -5777255.97044  23610309.430    23610307.461
 02  1  8  1 32 30.0000000  0  7G 1G29G20G22G 4G13G25
 -20616586.82849 -16064866.42347  21169902.725    21169903.034
   2894452.02948   2255408.57044  24348192.502    24348194.525
 -24015292.71049 -18713211.52247  20800757.571    20800757.585
 -24176578.06349 -18838890.30947  20264807.536    20264807.916
  -2848291.70748  -2219447.28044  24784131.790    24784132.043
  -7504413.89448  -5847591.38744  23593132.556    23593130.568
 -13690384.89349 -10667824.86446  22473577.543    22473578.078
 02  1  8  1 33  0.0000000  0  6G 1G29G20G22G 4G13
 -20671286.63749 -16107489.64747  21159493.766    21159494.207
   2983360.13348                  24365110.304
 -23980151.62849 -18685828.87847  20807445.113    20807445.057
 -24202140.88949 -18858809.39547  20259943.230    20259943.499
  -2841518.19848  -2214169.29044  24785421.146    24785418.646
  -7594616.12848  -5917878.83844  23575967.081    23575967.511
 02  1  8  1 33 30.0000000  0  7G 1G29G20G22G 4G13G25
 -20725757.50549 -16149934.47947  21149128.141    21149128.509
   3072405.91048                  24382056.639
 -23944425.11949 -18657990.05647  20814243.974    20814244.092
 -24227049.71449 -18878218.86947  20255203.089    20255203.460
  -2834228.55348  -2208489.03544  24786807.968    24786805.511
  -7684757.74248  -5988119.04444  23558814.768    23558813.169
 -13543408.88449 -10553298.19146  22501546.068    22501546.477
 02  1  8  1 34  0.0000000  0  7G 1G29G20G22G 4G13G25
 -20779997.93149 -16192199.73647  21138806.798    21138807.160
   3161589.03848                  24399026.963
 -23908113.89049 -18629695.61347  20821153.425    20821153.595
 -24251303.34649 -18897117.80847  20250587.629    20250588.018
  -2826423.36148  -2202407.04844  24788294.003    24788294.813
  -7774837.87848  -6058311.31944  23541671.572    23541670.695
 -13469723.60749 -10495881.13446  22515568.038    22515568.401
 02  1  8  1 34 30.0000000  0  7G 1G29G20G22G 4G13G25
 -20834015.12849 -16234291.05547  21128527.385    21128527.701
   3250900.43148                  24416022.750
 -23871227.57849 -18600953.04647  20828172.348    20828172.551
 -24274909.69649 -18915512.36747  20246095.645    20246096.018
  -2818112.01848                  24789875.733
  -7864863.47648  -6128461.12244  23524541.667    23524538.723
 -13395916.49249 -10438369.14546  22529613.140    22529612.878
 02  1  8  1 35  0.0000000  0  7G 1G29G20G22G 4G13G25
 -20887801.66849 -16276202.64847  21118292.340    21118292.717
   3340345.74648                  24433043.686
 -23833761.24749 -18571758.52347  20835302.181    20835302.174
 -24297861.71349 -18933397.05647  20241728.130    20241728.498
  -2809289.05348  -2189055.67644  24791554.961    24791548.284
  -7954827.27148  -6198562.77944  23507421.282    23507421.092
 -13321982.77249 -10380758.49946  22543682.093    22543681.932
 02  1  8  1 35 30.0000000  0  7G 1G29G20G22G 4G13G25
 -20941355.92749 -16317933.23647  21108101.298    21108101.363
   3429924.32248                  24450089.358
 -23795715.64449 -18542112.61447  20842541.950    20842541.993
 -24320158.65749 -18950771.30047  20237485.128    20237485.455
  -2799955.14648  -2181782.48644  24793331.334    24793330.950
  -8044727.91548  -6268615.20844  23490314.017    23490314.488
 -13247923.21449 -10323049.80246  22557775.243    22557775.574
 02  1  8  1 36  0.0000000  0  7G 1G13G20G29G22G 4G25
 -20994667.20249 -16359474.48847  21097956.541    21097956.851
  -8134554.31548  -6338609.76844  23473221.134    23473220.192
 -23757082.72049 -18512009.05547  20849893.322    20849893.408
   3519645.16148                  24467163.451
 -24341790.38549 -18967627.19547  20233368.789    20233369.119
  -2790101.95848  -2174104.65144  24795206.081    24795206.803
 -13173729.31949 -10265236.43246  22571893.890    22571893.622
 02  1  8  1 36 30.0000000  0  7G 1G13G20G29G22G 4G25
 -21047748.70849 -16400836.69747  21087855.443    21087855.841
  -8224321.18048  -6408557.96345  23456138.442    23456137.632
 -23717878.22849 -18481460.11947  20857354.218    20857354.343
   3609492.78848                  24484261.149
 -24362770.74849 -18983975.53247  20229376.541    20229376.882
  -2779744.73748  -2166034.09144  24797177.017    24797175.635
 -13099417.08649 -10207330.84546  22586035.279    22586034.983
 02  1  8  1 37  0.0000000  0  7G 1G13G20G29G22G 4G25
 -21100601.17949 -16442020.44147  21077798.040    21077798.443
  -8314028.82948  -6478460.02045  23439068.554    23439066.965
 -23678105.43849 -18450468.35447  20864922.842    20864922.835
   3699464.58748                  24501381.858
 -24383101.32049 -18999817.54147  20225507.631    20225508.026
  -2768886.68748  -2157573.26344  24799243.318    24799240.056
 -13024989.85049 -10149335.63946  22600198.294    22600198.128
 02  1  8  1 37 30.0000000  0  7G 1G13G20G29G22G 4G25
 -21153215.33649 -16483018.48547  21067785.592    21067785.998
  -8403667.99548  -6548308.69345  23422009.598    23422009.542
 -23637757.73649 -18419028.60347  20872600.083    20872600.134
   3789567.82448                  24518528.890
 -24402773.59749 -19015146.59447  20221763.941    20221764.354
  -2757520.72748  -2148716.68544  24801406.836    24801404.719
 -12950440.54049 -10091245.32546  22614384.521    22614385.131
 02  1  8  1 38  0.0000000  0  7G 1G20G29G22G 4G13G25
 -21205591.15549 -16523830.81147  21057818.673    21057819.136
 -23596837.81449 -18387142.96847  20880387.356    20880387.156
   3879800.28548                  24535699.575
 -24421788.44649 -19029963.36347  20218145.717    20218146.116
  -2745649.37148  -2139466.27744  24803665.663    24803666.235
  -8493238.96948  -6618104.24845  23404965.755    23404964.009
 -12875771.43949 -10033061.66746  22628594.037    22628594.371
 02  1  8  1 38 30.0000000  0  7G 1G13G20G29G22G 4G25
 -21257748.39149 -16564472.81347  21047894.077    21047894.382
  -8582761.49148  -6687862.04545  23387929.588    23387928.412
 -23555368.18349 -18354828.98747  20888278.993    20888278.740
   3970140.47048                  24552890.735
 -24440166.42149 -19044283.86747  20214648.388    20214648.709
  -2733294.78248  -2129839.31744  24806015.859    24806016.318
 -12801004.95549  -9974802.11746  22642821.817    22642821.744
 02  1  8  1 39  0.0000000  0  8G 1G13G20G29G22G 4G 6G25
 -21309672.82849 -16604933.41347  21038012.962    21038013.242
  -8672221.47648  -6757571.08845  23370906.134    23370904.940
 -23513337.05649 -18322077.48047  20896276.905    20896277.087
   4060600.51248                  24570106.248
 -24457894.14549 -19058097.68047  20211274.935    20211275.468
  -2720444.71848  -2119826.28744  24808460.856    24808461.040
         -.31758                  25515231.813
 -12726129.05749  -9916457.31546  22657070.196    22657070.162
 02  1  8  1 39 30.0000000  0  8G 1G13G20G29G22G 4G 6G25
 -21361329.94849 -16645185.71447  21028182.657    21028183.056
  -8761584.81348  -6827204.86445  23353901.097    23353899.742
 -23470712.68449 -18288863.70047  20904388.236    20904388.416
   4151212.78148                  24587347.793
 -24474938.04249 -19071378.64747  20208031.655    20208032.046
  -2707067.27948  -2109402.27844  24811006.851    24811006.418
      5804.29748                  25516336.480
 -12651112.23849  -9858002.70846  22671345.723    22671345.536
 02  1  8  1 40  0.0000000  0  7G 1G20G29G22G 4G13G25
 -21412707.91749 -16685220.49447  21018405.721    21018406.162
 -23427485.96449 -18255180.56147  20912614.211    20912614.076
   4241987.29748                  24604622.887
 -24491287.07549 -19084118.16047  20204920.704    20204921.131
  -2693153.15248  -2098560.16844  24813654.161    24813653.315
  -8850839.79348  -6896754.15645  23336915.508    23336915.892
 -12575944.61249  -9799430.59046  22685648.940    22685649.740
 02  1  8  1 40 30.0000000  0  7G 1G20G29G22G 4G13G25
 -21463830.85749 -16725056.55647  21008677.318    21008677.700
 -23383683.78849 -18221049.01447  20920949.194    20920949.517
   4332897.52948                  24621921.981
 -24506966.44649 -19096335.85947  20201936.826    20201937.192
  -2678728.92148  -2087320.49544  24816399.446    24816397.734
  -8940010.47148  -6966237.78245  23319947.867    23319946.786
 -12500652.63949  -9740761.58746  22699976.745    22699976.296
 02  1  8  1 41  0.0000000  0  7G 1G13G20G29G22G 4G25
 -21514729.70149 -16764717.99447  20998991.866    20998992.177
  -9029128.15048  -7035680.10344  23302988.227    23302986.660
 -23339339.85549 -18186495.32147  20929387.519    20929387.743
   4423910.58248                  24639241.437
 -24522008.14049 -19108056.66647  20199074.632    20199074.998
  -2663827.87248  -2075709.24744  24819234.499    24819234.753
 -12425269.91249  -9682021.85346  22714321.874    22714322.240
 02  1  8  1 41 30.0000000  0  7G13G20G29G22G 4G 1G25
  -9118167.09548  -7105061.10445  23286045.657    23286045.589
 -23294431.26649 -18151501.63447  20937933.624    20937933.482
   4515050.34148                  24656586.187
 -24536387.34949 -19119261.25547  20196338.434    20196338.768
  -2648426.70448  -2063708.34644  24822164.375    24822162.478
 -21565378.51249 -16804184.60347  20989353.646    20989354.085
 -12349772.97749  -9623193.14146  22728688.008    22728688.812
 02  1  8  1 42  0.0000000  0  7G13G20G29G22G 4G 1G25
  -9207113.87748  -7174370.26945  23269118.794    23269118.373
 -23248947.24249 -18116059.56247  20946588.847    20946589.100
   4606328.23948                  24673954.507
 -24550091.61349 -19129939.91247  20193730.504    20193730.865
  -2632514.45448  -2051309.18244  24825192.631    24825192.982
 -21615763.73649 -16843445.81947  20979765.827    20979766.193
 -12274151.03849  -9564267.02746  22743078.499    22743078.769
 02  1  8  1 42 30.0000000  0  7G13G20G29G22G 4G 1G25
  -9295982.33748  -7243618.40045  23252208.444    23252206.460
 -23202904.37649 -18080182.02347  20955350.180    20955350.466
   4697728.19848                  24691348.726
 -24563135.76249 -19140104.19347  20191248.138    20191248.479
  -2616107.58448  -2038524.65244  24828314.097    24828314.769
 -21665899.28049 -16882512.48047  20970225.303    20970225.663
 -12198419.92649  -9505255.83046  22757489.876    22757490.167
 02  1  8  1 43  0.0000000  0  8G13G20G29G22G 4G 1G27G25
  -9384776.00648  -7312808.25345  23235311.827    23235310.369
 -23156309.02349 -18043873.97947  20964217.476    20964217.331
   4789244.98748                  24708762.510
 -24575524.17349 -19149757.51047  20188890.749    20188891.070
  -2599211.88348  -2025359.16144  24831528.879    24831530.258
 -21715788.45449 -16921387.16447  20960731.579    20960731.958
        -1.21958         -.51654  25574405.859    25574404.292
 -12122585.55849  -9446164.19246  22771920.761    22771921.937
 02  1  8  1 43 30.0000000  0  8G13G20G29G22G 4G 1G27G25
  -9473489.76548  -7381935.84745  23218429.323    23218429.693
 -23109158.87249 -18007133.62347  20973189.925    20973189.788
   4880881.79048                  24726201.576
 -24587252.97949 -19158896.85247  20186658.975    20186659.425
  -2581824.55148                  24834837.007
 -21765426.03649 -16960065.80647  20951286.018    20951286.408
    -84705.62248    -66003.95444  25558286.207    25558285.667
 -12046645.27649  -9386990.01546  22786371.873    22786371.739
 02  1  8  1 44  0.0000000  0  8G20G13G29G22G 4G 1G27G25
 -23061451.33649 -17969958.94347  20982268.168    20982268.438
  -9562118.27948  -7450997.02445  23201564.370    23201562.624
   4972641.65148                  24743663.448
 -24598317.89149 -19167518.87147  20184553.441    20184553.752
  -2563943.10948  -1997876.96944  24838239.003    24838240.440
 -21814806.73649 -16998544.27947  20941889.151    20941889.653
   -169352.70148   -131962.63444  25542178.826    25542181.766
 -11970595.68349  -9327730.65946  22800843.709    22800844.010
 02  1  8  1 44 30.0000000  0  8G20G13G29G22G 4G 1G27G25
 -23013179.57649 -17932344.60947  20991454.260    20991454.097
  -9650652.01148  -7519984.34545  23184716.773    23184715.351
   5064532.32948                  24761149.117
 -24608710.53449 -19175617.04447  20182575.627    20182576.075
  -2545560.18848  -1983552.61044  24841737.259    24841741.854
 -21863920.80349 -17036814.98547  20932542.730    20932543.250
   -253933.65048   -197869.83444  25526083.062    25526086.137
 -11894429.51149  -9268380.46846  22815337.248    22815337.091
 02  1  8  1 45  0.0000000  0  8G20G13G29G22G 4G 1G27G25
 -22964356.43149 -17894300.62247  21000745.202    21000745.216
  -9739100.66948  -7588905.35645  23167885.458    23167884.259
   5156541.92448                  24778658.488
 -24618441.58849 -19183199.69647  20180723.794    20180724.282
  -2526688.41848  -1968847.41944  24845328.904    24845331.709
 -21912777.90449 -17074885.45747  20923245.793    20923246.278
   -338459.19748   -263733.85744  25509998.656    25510000.776
 -11818159.03849  -9208949.01046  22829851.695    22829851.989
 02  1  8  1 45 30.0000000  0  8G20G13G29G22G 4G 1G27G25
 -22914977.56249 -17855823.60647  21010140.898    21010141.212
  -9827457.09748  -7657754.53145  23151072.174    23151071.424
   5248675.78747                  24796190.662
 -24627505.21349 -19190262.27347  20178999.160    20178999.623
  -2507322.87048  -1953757.35544  24849013.341    24849017.690
 -21961370.52049 -17112749.84047  20913999.007    20913999.454
   -422922.92848   -329549.68344  25493926.890    25493927.906
 -11741778.99749  -9149432.17946  22844386.012    22844386.194
 02  1  8  1 46  0.0000000  0  8G20G13G29G22G 4G 1G27G25
 -22865062.24049 -17816928.57547  21019639.873    21019639.841
  -9915737.66748  -7726544.54345  23134272.447    23134269.346
   5340915.48047                  24813743.893
 -24635918.86449 -19196818.37947  20177398.165    20177398.544
  -2487482.73648                  24852788.912
 -22009714.95449 -17150420.83547  20904799.401    20904799.888
   -507342.27648   -395330.95544  25477860.923    25477861.605
 -11665308.23449  -9089844.63646  22858937.670    22858938.215
 02  1  8  1 46 30.0000000  0  8G20G13G29G22G 4G 1G27G25
 -22814598.57549 -17777606.26147  21029242.976    21029243.105
 -10003927.31149  -7795263.73645  23117491.419    23117489.076
   5433273.47047                  24831319.119
 -24643669.26449 -19202857.66547  20175923.205    20175923.638
  -2467156.06248  -1922458.54944  24856658.298    24856661.400
 -22057796.39949 -17187886.90347  20895649.727    20895650.317
   -591703.53448   -461067.01344  25461808.357    25461808.673
 -11588734.39949  -9030176.79246  22873509.820    22873510.326
 02  1  8  1 47  0.0000000  0  8G20G13G29G22G 4G 1G27G25
 -22763587.27149 -17737857.22046  21038949.559    21038949.682
 -10092024.11348  -7863910.61145  23100725.745    23100725.435
   5525750.45647                  24848917.376
 -24650754.97449 -19208379.01347  20174575.012    20174575.457
  -2446342.69548  -1906240.37044  24860619.802    24860621.707
 -22105612.11249 -17225145.91047  20886550.649    20886551.120
   -676005.16248   -526756.55344  25445766.050    25445767.796
 -11512057.28449  -8970428.47446  22888100.653    22888102.046
 02  1  8  1 47 30.0000000  0  7G20G13G22G 4G 1G27G25
 -22712034.84649 -17697686.52647  21048760.246    21048760.421
 -10180031.29749  -7932487.60245  23083980.331    23083978.768
 -24657181.04749 -19213386.35547  20173352.185    20173352.619
  -2425048.84348  -1889647.76044  24864671.206    24864672.634
 -22153165.51649 -17262200.51547  20877501.494    20877502.022
   -760251.77548   -592403.19444  25429733.826    25429735.760
 -11435282.64749  -8910604.16846  22902710.455    22902710.439
 02  1  8  1 48  0.0000000  0  7G20G13G22G 4G 1G27G25
 -22659933.21249 -17657087.88046  21058675.181    21058675.354
 -10267937.76948  -8000986.15745  23067250.524    23067249.630
 -24662937.77949 -19217872.13647  20172256.436    20172256.894
  -2403266.33348  -1872674.37744  24868817.086    24868819.427
 -22200445.68249 -17299042.21147  20868504.267    20868504.843
   -844433.07648   -657998.99544  25413715.243    25413716.817
 -11358401.82049  -8850697.11346  22917340.715    22917341.848
 02  1  8  1 48 30.0000000  0  8G20G13G 6G22G 4G 1G27G25
 -22607298.09649 -17616073.53346  21068690.599    21068690.923
 -10355756.24149  -8069416.11645  23050539.708    23050539.080
          .01858                  25552020.984
 -24668039.10549 -19221847.21347  20171285.840    20171286.259
  -2381010.63348  -1855332.27644  24873052.327    24873053.382
 -22247465.15949 -17335680.77047  20859556.738    20859557.397
   -928563.08548   -723554.76944  25397705.339    25397707.617
 -11281429.96249  -8790719.12046  22931987.922    22931989.069
 02  1  8  1 49  0.0000000  0  8G20G13G 6G22G 4G 1G27G25
 -22554126.63649 -17574641.25646  21078809.343    21078809.356
 -10443480.54349  -8137772.71345  23033847.485    23033845.678
     14993.56648                  25554874.309
 -24672480.41149 -19225307.98747  20170440.589    20170441.123
  -2358278.38148  -1837618.86944  24877378.604    24877379.146
 -22294217.78049 -17372111.39347  20850660.241    20850660.748
  -1012636.46248   -789066.47744  25381707.608    25381706.580
 -11204362.68749  -8730666.79746  22946653.193    22946653.798
 02  1  8  1 49 30.0000000  0  8G20G13G 6G22G 4G 1G27G25
 -22500414.76449 -17532787.87546  21089030.277    21089030.454
 -10531104.02649  -8206050.74245  23017171.911    23017170.749
     30471.87648                  25557819.501
 -24676256.25849 -19228250.22447  20169722.270    20169722.678
  -2335065.58048  -1819531.01544  24881795.062    24881794.068
 -22340696.48649 -17408328.57347  20841815.681    20841816.106
  -1096647.32548   -854529.43544  25365720.074    25365719.871
 -11127195.96449  -8670536.96945  22961337.869    22961338.352
 02  1  8  1 50  0.0000000  0  7G20G13G22G 4G 1G27G25
 -22446154.65949 -17490507.30446  21099355.171    21099355.569
 -10618615.25549  -8274241.30945  23000520.088    23000517.504
 -24679357.19949 -19230666.55947  20169132.137    20169132.652
  -2311363.81548  -1801062.07044  24886305.468    24886304.456
 -22386890.23849 -17444323.71347  20833024.935    20833025.393
  -1180585.70248   -919935.91744  25349747.128    25349749.158
 -11049920.55749  -8610322.45445  22976043.010    22976043.616
 02  1  8  1 50 30.0000000  0  8G20G13G 3G22G 4G 1G27G25
 -22391371.05149 -17447818.81046  21109780.650    21109780.657
 -10706035.70749  -8342361.13545  22983883.508    22983880.592
         -.41358                  25240437.363
 -24681806.11549 -19232574.82547  20168665.931    20168666.415
  -2287197.23848  -1782231.00444  24890903.991    24890904.975
 -22432820.32349 -17480113.40247  20824285.094    20824285.522
  -1264474.11548   -985303.50544  25333784.299    25333784.504
 -10972560.33848  -8550041.86045  22990763.808    22990765.431
 02  1  8  1 51  0.0000000  0  8G20G 3G22G 4G 1G27G13G25
 -22336053.45349 -17404714.21846  21120307.363    21120307.072
    -89296.29748                  25223445.372
 -24683591.05549 -19233965.70547  20168326.496    20168326.936
  -2262555.33748  -1763029.48844  24895592.899    24895596.036
 -22478472.98149 -17515686.91047  20815597.560    20815598.043
  -1348299.79648  -1050622.17844  25317831.801    25317832.779
 -10793351.77449  -8410399.63445  22967268.532    22967267.705
 -10895104.28748  -8489686.59645  23005503.766    23005504.887
 02  1  8  1 51 30.0000000  0  8G20G13G 3G22G 4G 1G27G25
 -22280198.32849 -17361190.77446  21130935.913    21130936.076
 -10880556.59749  -8478351.44045  22950673.754    22950673.151
   -178657.96248                  25206440.717
 -24684706.81249 -19234835.14347  20168114.275    20168114.825
  -2237434.06048  -1743454.50644  24900372.353    24900374.293
 -22523841.41749 -17551038.94947  20806964.399    20806964.821
  -1432057.36748  -1115887.73644  25301893.746    25301897.178
 -10817547.52448  -8429252.83845  23020262.145    23020263.104
 02  1  8  1 52  0.0000000  0  8G20G13G25G 3G22G 4G 1G27
 -22223797.64649 -17317242.22446  21141668.747    21141668.945
 -10967638.96949  -8546207.82045  22934102.488    22934100.933
 -10739880.99348  -8368733.55945  23035041.143    23035041.803
   -268072.81748                  25189425.855
 -24685143.68649 -19235175.58747  20168030.942    20168031.477
  -2211825.24448  -1723499.61044  24905246.601    24905243.708
 -22568914.25749 -17586160.65447  20798387.388    20798387.849
  -1515736.23848  -1181092.00644  25285970.143    25285969.675
 02  1  8  1 52 30.0000000  0  7G20G22G 4G 1G27G13G25
 -22166869.88249 -17272882.96546  21152501.878    21152502.134
 -24684918.51249 -19235000.14647  20168073.659    20168074.255
  -2185746.83648                  24910208.537
 -22613706.65349 -17621063.83347  20789863.636    20789864.150
  -1599352.99848  -1246247.91244  25270058.459    25270060.069
 -11054614.01549  -8613980.58745  22917551.556    22917549.962
 -10662122.62848  -8308142.72745  23049839.068    23049839.101
 02  1  8  1 53  0.0000000  0  7G20G13G25G22G 4G 1G27
 -22109434.20449 -17228127.92246  21163431.353    21163431.811
 -11141497.80749  -8681682.24445  22901017.703    22901017.324
 -10584290.36148  -8247494.29945  23064650.057    23064650.508
 -24684048.98849 -19234322.61747  20168239.201    20168239.740
  -2159217.62148  -1682506.71244  24915256.635    24915258.959
 -22658234.45449 -17655760.83147  20781390.475    20781390.883
  -1682924.20848  -1311368.31444  25254155.063    25254156.087
 02  1  8  1 53 30.0000000  0  8G20G13G 3G22G 4G 1G27G25
 -22051485.97249 -17182973.48646  21174458.238    21174458.506
 -11228282.14549  -8749306.39745  22884504.299    22884503.130
         -.27158                  25138296.315
 -24682529.09649 -19233138.30347  20168528.316    20168528.915
  -2132233.13948  -1661479.82944  24920392.741    24920392.909
 -22702489.92449 -17690245.62347  20772968.904    20772969.244
  -1766443.50048  -1376448.18844  25238262.249    25238264.462
 -10506378.97348  -8186784.23445  23079475.604    23079477.269
 02  1  8  1 54  0.0000000  0  7G20G13G25G22G 4G 1G27
 -21993010.67449 -17137408.35446  21185586.167    21185586.304
 -11314949.02649  -8816839.03045  22868011.018    22868009.060
 -10428372.24948  -8125999.86945  23094320.529    23094321.544
 -24680342.58949 -19231434.55247  20168944.656    20168945.268
  -2104778.16248  -1640086.35444  24925618.129    24925619.717
 -22746455.04549 -17724504.17247  20764602.242    20764602.720
  -1849893.89348  -1441474.49744  25222381.578    25222384.864
 02  1  8  1 54 30.0000000  0  7G20G13G25G22G 4G 1G27
 -21933998.36949 -17091424.77546  21196815.721    21196815.874
 -11401485.21849  -8884269.82745  22851544.767    22851541.988
 -10350259.46448  -8065132.87445  23109184.962    23109186.125
 -24677477.85249 -19229202.31047  20169489.759    20169490.384
  -2076842.37548  -1618318.23544  24930933.669    24930933.135
 -22790116.25849 -17758525.90847  20756293.804    20756294.282
  -1933263.04348  -1506437.39544  25206517.129    25206520.304
 02  1  8  1 55  0.0000000  0  7G20G13G22G 4G 1G27G25
 -21874476.34449 -17045044.01246  21208142.453    21208142.750
 -11487914.41049  -8951617.24945  22835097.432    22835096.932
 -24673960.66449 -19226461.66747  20170159.207    20170160.037
  -2048452.67048  -1596196.40644  24936335.376    24936334.268
 -22833497.39349 -17792329.40247  20748038.760    20748039.289
  -2016575.81648  -1571356.37744  25190663.577    25190662.928
 -10272066.63248  -8004203.49245  23124064.028    23124064.537
 02  1  8  1 55 30.0000000  0  7G20G22G 4G 1G27G13G25
 -21814437.14849 -16998260.25846  21219567.170    21219567.593
 -24669782.15149 -19223205.70547  20170953.885    20170954.693
  -2019601.58748                  24941825.653
 -22876587.69649 -17825906.27147  20739838.862    20739839.350
  -2099822.64948  -1636224.02644  25174821.968    25174824.676
 -11574226.00349  -9018873.04445  22818672.564    22818671.274
 -10193785.30848  -7943205.17145  23138961.032    23138961.775
 02  1  8  1 56  0.0000000  0  7G20G13G22G 4G 1G27G25
 -21753896.71449 -16951085.93046  21231088.166    21231088.889
 -11660432.41249  -9086046.85745  22802268.329    22802266.626
 -24664956.50549 -19219445.48447  20171872.588    20171873.672
  -1990304.57448  -1550886.23144  24947401.185    24947397.401
 -22919399.48049 -17859266.11747  20731692.197    20731692.667
  -2183017.14248  -1701050.84144  25158991.033    25158990.529
 -10115430.42848  -7882149.51745  23153871.460    23153871.883
 02  1  8  1 56 30.0000000  0  7G20G13G25G22G 4G 1G27
 -21692850.77549 -16903517.70346  21242704.701    21242705.034
 -11746525.78249  -9153132.61045  22785885.414    22785883.696
 -10036996.24048  -7821032.08845  23168797.444    23168798.151
 -24659478.08249 -19215176.60647  20172914.692    20172915.654
  -1960557.02148  -1527706.33844  24953061.918    24953064.177
 -22961925.01749 -17892402.91547  20723600.107    20723600.562
  -2266152.71348  -1765831.78445  25143171.114    25143172.770
 02  1  8  1 57  0.0000000  0  7G20G13G25G22G 4G 1G27
 -21631288.26249 -16855546.95146  21254419.558    21254420.142
 -11832491.18349  -9220118.63545  22769526.444    22769526.035
  -9958470.54448  -7759843.34745  23183740.379    23183740.963
 -24653334.23249 -19210389.21347  20174083.872    20174084.668
  -1930347.37148  -1504166.33344  24958810.157    24958812.492
 -23004149.61349 -17925305.21047  20715565.239    20715565.691
  -2349215.88448  -1830556.31144  25127363.805    25127365.402
 02  1  8  1 57 30.0000000  0  8G20G13G25G 3G22G 4G 1G27
 -21569206.94549 -16807171.93846  21266233.532    21266233.768
 -11918323.13349  -9287000.66945  22753193.426    22753191.073
  -9879849.85148  -7698580.57345  23198701.078    23198701.966
         -.72558                  25001495.738
 -24646521.38349 -19205080.52147  20175380.571    20175381.409
  -1899673.19548                  24964645.955
 -23046067.70749 -17957968.67147  20707588.251    20707588.716
  -2432202.04448  -1895220.80744  25111572.771    25111573.999
 02  1  8  1 58  0.0000000  0  8G20G13G25G 3G22G 4G 1G27
 -21506616.37149 -16758400.10046  21278143.844    21278144.363
 -12004027.57349  -9353783.36645  22736884.199    22736882.363
  -9801142.63048  -7637250.38745  23213678.828    23213678.886
    -90044.95948                  24984359.740
 -24639047.46149 -19199256.70947  20176802.826    20176803.639
  -1868543.64148  -1456007.65344  24970570.590    24970568.822
 -23087685.32749 -17990398.00247  20699668.421    20699668.873
  -2515118.37148  -1959830.89844  25095793.949    25095794.960
 02  1  8  1 58 30.0000000  0  8G20G13G25G 3G22G 4G 1G27
 -21443509.54049 -16709225.99146  21290152.881    21290153.197
 -12089594.10049  -9420458.57445  22720601.477    22720601.058
  -9722340.88048  -7575846.54345  23228674.994    23228675.552
   -180110.24248                  24967222.005
 -24630904.30649 -19192911.41447  20178352.455    20178353.391
  -1836951.64448  -1431390.50944  24976583.126    24976583.930
 -23128991.94349 -18022584.99247  20691808.053    20691808.429
  -2597955.70248  -2024379.43644  25080030.774    25080032.498
 02  1  8  1 59  0.0000000  0  8G20G13G25G 3G22G 4G 1G27
 -21379915.51649 -16659672.24646  21302254.558    21302255.192
 -12175047.74749  -9487045.83145  22704340.259    22704338.743
  -9643471.66248  -7514390.13145  23243682.509    23243683.814
   -270220.14948                  24950075.523
 -24622119.09949 -19186065.82047  20180023.526    20180024.448
  -1804925.45948                  24982677.498
 -23170012.76949 -18054549.28947  20684002.170    20684002.740
  -2680740.39148  -2088886.96244  25064276.910    25064278.350
 02  1  8  1 59 30.0000000  0  8G20G13G25G 3G22G 4G 1G27
 -21315812.72549 -16609722.06246  21314452.598    21314453.382
 -12260363.41749  -9553525.57445  22688105.897    22688104.283
  -9564512.21048  -7452863.39845  23258708.411    23258709.625
   -360348.46848                  24932924.484
 -24612668.95549 -19178702.09347  20181822.222    20181823.228
  -1772443.45048  -1381124.38444  24988859.074    24988859.612
 -23210722.72049 -18086271.34647  20676255.464    20676255.917
  -2763448.43948  -2153334.76844  25048538.290    25048538.737
 02  1  8  2  0  0.0000000  0  8G20G13G25G 3G22G 4G 1G27
 -21251216.93349 -16559387.71746  21326744.907    21326745.685
 -12345553.35849  -9619907.35345  22671893.101    22671892.569
  -9485477.58948  -7391278.09745  23273748.443    23273749.248
   -450506.00548                  24915767.972
 -24602568.34749 -19170831.51347  20183744.341    20183745.249
  -1739521.21648  -1355470.77144  24995124.171    24995121.090
 -23251134.14549 -18117760.78647  20668565.497    20668565.885
  -2846093.34748  -2217733.36344  25032811.596    25032813.242
 02  1  8  2  0 30.0000000  0  8G20G13G25G 3G22G 4G 1G27
 -21186132.19349 -16508672.38846  21339130.459    21339130.832
 -12430617.64749  -9686191.21145  22655707.799    22655706.514
  -9406369.90948  -7329635.89145  23288801.721    23288804.181
   -540691.73448                  24898605.519
 -24591819.81949 -19162456.05947  20185790.251    20185791.313
  -1706162.28448  -1329476.79544  25001471.687    25001468.544
 -23291247.26549 -18149017.78447  20660932.319    20660932.680
  -2928676.59948  -2282083.91544  25017095.900    25017096.988
 02  1  8  2  1  0.0000000  0  8G20G13G25G 3G22G 4G 1G27
 -21120552.94649 -16457571.71846  21351609.706    21351610.347
 -12515547.03449  -9752369.96445  22639545.083    22639544.034
  -9327182.29848  -7267931.37645  23303871.542    23303871.274
   -630894.88448                  24881441.154
 -24580416.24349 -19153570.17647  20187960.371    20187961.156
  -1672360.85148  -1303138.00344  25007904.141    25007907.482
 -23331052.80849 -18180035.10347  20653357.680    20653358.011
  -3011190.18748  -2346380.21344  25001395.041    25001396.816
 02  1  8  2  1 30.0000000  0  8G20G13G25G 3G22G 4G 1G27
 -21054484.94049 -16406090.19746  21364182.057    21364182.554
 -12600343.79349  -9818445.35846  22623409.049    22623408.678
  -9247919.23448  -7206168.06245  23318954.680    23318956.385
   -721116.13848                  24864272.076
 -24568362.25649 -19144177.48347  20190253.926    20190254.858
  -1638122.20748  -1276458.57244  25014418.640    25014420.671
 -23370552.84449 -18210814.37347  20645841.018    20645841.401
  -3093637.43848  -2410624.77544  24985705.059    24985707.947
 02  1  8  2  2  0.0000000  0  8G20G13G25G 3G22G 4G 1G27
 -20987945.06149 -16354240.98646  21376844.461    21376845.006
 -12685020.70749  -9884427.37445  22607296.202    22607294.504
  -9168595.97748  -7144357.87745  23334048.871    23334050.179
   -811367.70548                  24847098.026
 -24555672.99149 -19134289.76547  20192668.795    20192669.489
  -1603462.94948                  25021013.794
 -23409760.57449 -18241365.87347  20638380.110    20638380.437
  -3176032.61548  -2474828.76744  24970026.056    24970028.520
 02  1  8  2  2 30.0000000  0  8G20G13G25G 3G22G 4G 1G27
 -20920916.95649 -16302011.33646  21389599.163    21389599.832
 -12769557.73849  -9950300.39445  22591208.121    22591207.332
  -9089194.99748  -7082487.12845  23349159.231    23349160.248
   -901627.89848                  24829921.476
 -24542330.97949 -19123893.41247  20195207.838    20195208.781
  -1568366.39448  -1222103.43844  25027692.657    25027693.769
 -23448655.81949 -18271673.88047  20630978.651    20630978.904
  -3258356.97048  -2538977.60244  24954359.776    24954361.085
 02  1  8  2  3  0.0000000  0  8G20G13G25G 3G22G 4G 1G27
 -20853399.67249 -16249400.51446  21402447.345    21402448.055
 -12853949.87149 -10016060.50646  22575150.015    22575148.571
  -9009713.29648  -7020553.44945  23364283.431    23364283.981
   -991890.52948                  24812745.424
 -24528333.56849 -19112986.36347  20197871.321    20197872.374
  -1532831.26648                  25034455.411
 -23487233.92349 -18301734.76347  20623637.366    20623637.713
  -3340606.87548  -2603068.43144  24938708.506    24938709.148
 02  1  8  2  3 30.0000000  0  8G20G13G25G 3G22G 4G 1G27
 -20785401.72349 -16196415.14646  21415387.143    21415387.759
 -12938202.04949 -10081711.55046  22559116.460    22559114.260
  -8930158.18148  -6958562.59045  23379422.058    23379424.993
  -1082158.97048                  24795567.043
 -24513688.05549 -19101574.29547  20200658.284    20200659.261
  -1496865.71548  -1166388.64344  25041299.867    25041301.159
 -23525499.91249 -18331552.44047  20616355.454    20616355.813
  -3422788.49848  -2667106.02744  24923069.621    24923072.562
 02  1  8  2  4  0.0000000  0  8G20G13G25G 3G22G 4G 1G27
 -20716924.21549 -16143056.09346  21428417.794    21428418.757
 -13022311.51949 -10147251.40846  22543111.353    22543110.082
  -8850529.32248  -6896514.28045  23394576.223    23394576.885
  -1172429.18148                  24778389.267
 -24498394.35449 -19089657.14947  20203568.468    20203569.507
  -1460470.35048                  25048226.019
 -23563451.03049 -18361124.76347  20609133.893    20609134.277
  -3504900.29648  -2731089.19844  24907444.585    24907444.554
 02  1  8  2  4 30.0000000  0  8G20G13G25G 3G22G 4G 1G27
 -20647972.81649 -16089327.77846  21441538.681    21441539.209
 -13106280.10549 -10212681.48246  22527133.166    22527132.566
  -8770831.36048  -6834412.09645  23409741.144    23409743.183
  -1262701.66948                  24761211.624
 -24482456.86949 -19077238.35147  20206601.182    20206602.077
  -1423650.93248  -1109338.16844  25055231.775    25055231.454
 -23601089.25349 -18390453.27147  20601971.489    20601971.851
  -3586945.63148  -2795020.60244  24891831.607    24891832.129
 02  1  8  2  5  0.0000000  0  8G20G13G25G 3G22G 4G 1G27
 -20578544.19349 -16035227.59146  21454750.768    21454751.348
 -13190100.15049 -10277995.79046  22511181.789    22511181.093
  -8691058.78848  -6772251.80345  23424922.028    23424924.484
  -1352967.71148                  24744034.104
 -24465870.74849 -19064314.12547  20209757.538    20209758.256
  -1386403.44348                  25062318.680
 -23638407.08549 -18419532.12347  20594870.209    20594870.632
  -3668918.31348  -2858895.40444  24876233.204    24876233.246
 02  1  8  2  5 30.0000000  0  8G20G13G25G 3G22G 4G 1G27
 -20508638.58949 -15980755.73646  21468053.452    21468053.900
 -13273768.08649 -10343191.60546  22495261.282    22495259.310
  -8611210.35448  -6710032.38245  23440116.941    23440119.662
  -1443222.50548  -1124586.50744  24726860.004    24726863.384
 -24448634.80749 -19050883.54347  20213037.627    20213038.597
  -1348727.79848  -1050956.50544  25069487.475    25069489.231
 -23675401.15749 -18448358.69747  20587830.525    20587831.003
  -3750815.88748  -2922711.62444  24860647.770    24860650.111
 02  1  8  2  6  0.0000000  0  8G20G13G25G 3G22G 4G 1G27
 -20438242.97449 -15925902.05846  21481449.575    21481449.981
 -13357266.88549 -10408255.62246  22479371.119    22479370.617
  -8531271.31748  -6647742.39345  23455327.922    23455330.541
  -1533447.87748                  24709689.559
 -24430734.76049 -19036935.48047  20216443.975    20216444.980
  -1310610.72748                  25076742.305
 -23712054.64049 -18476919.87947  20580855.645    20580856.196
  -3832622.88948  -2986457.34544  24845081.233    24845080.841
 02  1  8  2  6 30.0000000  0  8G20G13G25G 3G22G 4G 1G27
 -20367379.70849 -15870683.98046  21494934.459    21494934.735
 -13440615.30949 -10473202.44846  22463511.425    22463510.408
  -8451262.42848  -6585397.95845  23470554.427    23470556.508
  -1623660.90448                  24692522.841
 -24412191.80149 -19022486.44747  20219972.724    20219973.400
  -1272074.46448                  25084075.993
 -23748386.19449 -18505230.20747  20573941.683    20573942.299
  -3914359.12948  -3050147.88744  24829526.254    24829529.586
 02  1  8  2  7  0.0000000  0  8G20G13G25G 3G22G 4G 1G27
 -20296067.78149 -15815116.29246  21508504.609    21508505.162
 -13523827.87349 -10538043.42746  22447676.559    22447673.944
  -8371201.23548  -6523012.77545  23485788.616    23485790.292
  -1713875.18448                  24675355.657
 -24393023.34549 -19007550.01547  20223620.136    20223621.086
  -1233137.30548                  25091486.079
 -23784410.74049 -18533301.31047  20567086.474    20567087.104
  -3996040.67348  -3113795.79744  24813984.621    24813984.959
 02  1  8  2  7 30.0000000  0  8G20G13G25G 3G22G 4G 1G27
 -20224308.22049 -15759199.79846  21522159.937    21522160.305
 -13606901.89849 -10602776.44046  22431866.927    22431865.582
  -8291086.89448  -6460586.18845  23501034.314    23501036.961
  -1804086.33348                  24658189.497
 -24373229.28149 -18992126.09647  20227386.924    20227387.888
  -1193800.03248                  25098971.829
 -23820125.41749 -18561130.95647  20560290.199    20560290.928
  -4077665.87148  -3177399.83644  24798450.106    24798450.984
 02  1  8  2  8  0.0000000  0  8G20G13G 3G22G 4G 1G27G25
 -20152081.32249 -15702919.14246  21535904.446    21535904.764
 -13689813.68749 -10667383.03746  22416090.522    22416088.883
  -1894269.67048                  24641027.993
 -24352788.88249 -18976198.54347  20231276.791    20231277.610
  -1154042.90848                  25106535.784
 -23855506.88449 -18588700.95647  20553557.237    20553557.828
  -4159212.71248  -3240942.77344  24782933.247    24782933.225
  -8210898.25748  -6398101.68845  23516294.641    23516296.757
 02  1  8  2  8 30.0000000  0  8G20G13G 3G22G 4G 1G27G25
 -20079401.11549 -15646285.26846  21549734.962    21549735.453
 -13772573.14949 -10731870.95046  22400341.043    22400339.797
  -1984433.76748  -1546309.22744  24623870.717    24623871.964
 -24331714.77849 -18959777.19547  20235286.927    20235287.833
  -1113879.48448                  25114178.403
 -23890565.33349 -18616019.25747  20546885.894    20546886.640
  -4240692.51748  -3304433.55844  24767427.314    24767430.808
  -8130647.81948  -6335569.04745  23531564.731    23531567.728
 02  1  8  2  9  0.0000000  0  8G20G13G 3G22G 4G 1G27G25
 -20006262.84149 -15589294.44846  21563652.619    21563653.054
 -13855170.95249 -10796232.88746  22384624.319    22384622.445
  -2074568.23548                  24606718.126
 -24310000.89849 -18942857.32047  20239418.999    20239419.932
  -1073304.50148                  25121899.225
 -23925291.79849 -18643078.86947  20540277.905    20540278.529
  -4322097.60848  -3367866.01444  24751936.073    24751937.596
  -8050328.48448  -6272982.73345  23546850.241    23546851.893
 02  1  8  2  9 30.0000000  0  8G20G13G 3G22G 4G 1G27G25
 -19932665.86749 -15531946.20846  21577658.028    21577658.611
 -13937602.63249 -10860465.38946  22368937.906    22368936.914
  -2164667.00048                  24589573.662
 -24287645.37949 -18925437.46947  20243673.022    20243673.926
  -1032317.10548                  25129699.565
 -23959681.70749 -18669876.23347  20533733.678    20533734.252
  -4403424.74948  -3431237.84144  24736460.665    24736460.428
  -7969938.16448  -6210341.11945  23562147.653    23562148.513
 02  1  8  2 10  0.0000000  0  8G20G 3G22G 4G 1G27G13G25
 -19858611.36449 -15474241.46146  21591749.795    21591750.396
  -2254726.16348                  24572435.977
 -24264648.23949 -18907517.65747  20248049.170    20248050.225
   -990918.22248                  25137578.021
 -23993732.54149 -18696409.38447  20527254.068    20527254.659
  -4484672.56448  -3494547.79844  24720999.483    24721003.471
 -14019865.46449 -10924566.31046  22353282.775    22353281.598
  -7889476.24248  -6147643.66645  23577458.616    23577461.829
 02  1  8  2 10 30.0000000  0  8G20G 3G22G 4G 1G27G13G25
 -19784110.40049 -15416188.81446  21605926.706    21605927.080
  -2344751.39648                  24555303.539
 -24241019.30849 -18889105.54347  20252545.733    20252546.610
   -949118.44348                  25145532.229
 -24027451.31549 -18722683.78647  20520837.792    20520838.335
  -4565849.18648  -3557802.29344  24705552.942    24705554.927
 -14101966.10949 -10988540.86646  22337660.958    22337659.170
  -7808951.83948  -6084897.58445  23592782.672    23592786.594
 02  1  8  2 11  0.0000000  0  8G20G 3G22G 4G 1G27G13G25
 -19709164.20749 -15357789.23946  21620189.042    21620189.774
  -2434738.27848                  24538180.303
 -24216758.44549 -18870201.01447  20257162.542    20257163.639
   -906918.72848                  25153563.229
 -24060835.31449 -18748697.32747  20514484.904    20514485.476
  -4646953.28148  -3621000.27044  24690117.144    24690118.047
 -14183901.60749 -11052386.73546  22322067.686    22322067.297
  -7728364.80348  -6022102.66445  23608118.180    23608120.768
 02  1  8  2 11 30.0000000  0  8G20G 3G22G 4G 1G27G13G25
 -19633776.52549 -15299045.64846  21634534.579    21634535.306
  -2524684.66248                  24521063.845
 -24191868.30349 -18850806.14147  20261898.751    20261899.850
   -864322.25448                  25161668.737
 -24093884.25749 -18774449.78547  20508195.729    20508196.430
  -4727985.64248  -3684142.36944  24674699.880    24674701.074
 -14265671.43049 -11116103.49046  22306508.032    22306507.128
  -7647716.69348  -5959260.17745  23623464.639    23623467.665
 02  1  8  2 12  0.0000000  0  7G20G 3G22G 1G27G13G25
 -19557949.90849 -15239960.03146  21648964.163    21648965.069
  -2614587.92648                  24503955.712
 -24166350.30549 -18830922.02947  20266754.773    20266755.801
 -24126596.87349 -18799940.17247  20501970.775    20501971.390
  -4808946.24148  -3747228.55144  24659292.944    24659297.006
 -14347274.03349 -11179689.96446  22290980.529    22290978.900
  -7567008.43548  -5896370.82645  23638823.670    23638825.668
 02  1  8  2 12 30.0000000  0  7G20G 3G22G 1G27G13G25
 -19481683.34949 -15180531.60446  21663477.192    21663478.000
  -2704441.91348                  24486857.270
 -24140202.40349 -18810547.08547  20271730.600    20271731.658
 -24158968.33849 -18825164.72747  20495810.647    20495811.233
  -4889831.32048                  24643899.688
 -14428704.34949 -11243142.19246  22275483.083    22275482.552
  -7486237.15448  -5833432.34245  23654193.968    23654196.339
 02  1  8  2 13  0.0000000  0  7G20G 3G22G 1G27G13G25
 -19404990.16349 -15120770.74346  21678071.578    21678072.542
  -2794254.22848                  24469766.643
 -24113436.68249 -18789690.72247  20276824.079    20276825.312
 -24191007.84549 -18850130.61547  20489713.609    20489714.187
  -4970651.31748                  24628520.062
 -14509971.51849 -11306467.27546  22260019.792    22260018.542
  -7405414.20448  -5770453.64045  23669574.054    23669577.215
 02  1  8  2 13 30.0000000  0  7G20G 3G22G 1G27G13G25
 -19327860.21349 -15060669.55346  21692748.929    21692749.614
  -2884008.92548                  24452686.141
 -24086041.71849 -18768344.04347  20282037.356    20282038.324
 -24222700.97349 -18874826.59747  20483682.520    20483683.290
  -5051393.12848                  24613155.981
 -14591060.48249 -11369653.51046  22244588.654    22244587.563
  -7324527.52548  -5707425.25445  23684966.485    23684968.578
 02  1  8  2 14  0.0000000  0  7G20G 3G22G 1G27G13G25
 -19250295.26149 -15000229.39546  21707508.896    21707509.484
  -2973702.33948  -2317168.09344  24435618.901    24435625.735
 -24058018.27549 -18746507.64247  20287370.144    20287371.135
 -24254045.54449 -18899250.97547  20477718.242    20477718.940
  -5132055.86848                  24597806.525
 -14671969.18149 -11432699.27946  22229191.941    22229191.103
  -7243576.68348  -5644346.88445  23700371.863    23700373.930
 02  1  8  2 14 30.0000000  0  7G20G 3G22G 1G27G13G25
 -19172305.88749 -14939458.52546  21722350.249    21722350.612
  -3063339.38048                  24418561.102
 -24029375.75249 -18724188.84047  20292820.479    20292821.486
 -24285048.04749 -18923408.80747  20471818.758    20471819.374
  -5212647.42147  -4061797.29445  24582468.580    24582468.134
 -14752703.79549 -11495609.39346  22213829.112    22213827.957
  -7162570.93948  -5581225.75245  23715786.085    23715787.848
 02  1  8  2 15  0.0000000  0  7G20G 3G22G 1G27G13G25
 -19093895.87949 -14878359.88346  21737270.910    21737271.504
  -3152918.16348                  24401514.228
 -24000116.67049 -18701389.60747  20298388.054    20298389.009
 -24315708.26549 -18947299.92347  20465984.211    20465984.849
  -5293168.54348  -4124536.21146  24567148.748    24567148.143
 -14833263.58649 -11558383.28146  22198498.670    22198498.091
  -7081511.99348  -5518063.13745  23731211.852    23731213.965
 02  1  8  2 15 30.0000000  0  7G20G 3G22G 1G27G13G25
 -19015066.45549 -14816934.42546  21752271.799    21752272.288
  -3242434.69548                  24384480.710
 -23970241.49049 -18678110.29747  20304073.180    20304074.198
 -24346023.48549 -18970922.21347  20460215.636    20460216.236
  -5373617.72348  -4187230.94145  24551838.233    24551837.944
 -14913645.70749 -11621018.74146  22183203.019    22183202.383
  -7000398.95748  -5454858.38945  23746646.954    23746649.130
 02  1  8  2 16  0.0000000  0  7G20G 3G22G 1G27G13G25
 -18935806.48249 -14755173.47546  21767354.704    21767355.049
  -3331872.22248                  24367460.743
 -23939737.73249 -18654341.18847  20309877.954    20309879.042
 -24375978.36649 -18994263.71847  20454515.334    20454516.060
  -5453981.09248                  24536546.494
 -14993834.49649 -11683503.53846  22167943.267    22167942.108
  -6919218.79448  -5391601.33645  23762095.126    23762099.466
 02  1  8  2 16 30.0000000  0  7G20G 3G22G 1G27G13G25
 -18856118.12749 -14693078.72446  21782518.697    21782518.987
  -3421227.21148                  24350457.211
 -23908606.67149 -18630083.27147  20315801.976    20315803.132
 -24405571.33749 -19017323.21547  20448883.694    20448884.411
  -5534257.98048  -4312406.74144  24521269.968    24521272.582
 -15073827.91549 -11745836.09946  22152720.717    22152720.263
  -6837971.38548  -5328291.88545  23777556.193    23777558.339
 02  1  8  2 17  0.0000000  0  7G20G 3G22G 1G27G13G25
 -18776022.49249 -14630666.61346  21797760.372    21797760.891
  -3510514.75448                  24333467.060
 -23876868.22249 -18605352.06747  20321841.762    20321842.786
 -24434819.37949 -19040113.93647  20443318.023    20443318.945
  -5614466.56548  -4374906.90844  24506006.232    24506011.448
 -15153642.62449 -11808029.40746  22137532.998    22137531.707
  -6756675.80148  -5264944.88344  23793026.541    23793028.600
 02  1  8  2 17 30.0000000  0  7G20G 3G22G 1G27G13G25
 -18695525.87349 -14567942.04646  21813078.525    21813079.653
  -3599735.64048  -2804986.36744  24316488.253    24316488.893
 -23844527.63249 -18580151.66447  20327996.283    20327997.191
 -24463724.55149 -19062637.48547  20437817.697    20437818.466
  -5694610.17248  -4437356.40444  24490756.186    24490755.745
 -15233280.43849 -11870084.87646  22122377.900    22122376.668
  -6675336.43848  -5201563.78144  23808504.049    23808507.635
 02  1  8  2 18  0.0000000  0  7G20G 3G22G 1G27G13G25
 -18614623.13549 -14504901.01846  21828473.900    21828474.656
  -3688878.96248                  24299525.168
 -23811578.70649 -18554477.23047  20334266.439    20334267.277
 -24492277.63849 -19084886.68647  20432384.441    20432385.244
  -5774680.85348  -4499749.13044  24475519.774    24475522.883
 -15312731.60749 -11931994.91346  22107259.608    22107258.024
  -6593946.23048  -5138143.01844  23823993.289    23823996.372
 02  1  8  2 18 30.0000000  0  7G20G 3G22G 1G27G13G25
 -18533330.21549 -14441555.96846  21843943.354    21843944.285
  -3777954.91348  -2943858.45244  24282574.667    24282576.249
 -23778036.32249 -18528340.36647  20340649.104    20340650.051
 -24520490.38449 -19106870.68247  20427016.042    20427016.635
  -5854691.56248  -4562095.12544  24460293.702    24460293.378
 -15392007.65149 -11993768.48446  22092173.802    22092172.841
  -6512519.27148  -5074693.89144  23839488.413    23839490.709
 02  1  8  2 19  0.0000000  0  7G20G 3G22G 1G27G13G25
 -18451623.18949 -14377888.23146  21859491.604    21859492.548
  -3866934.13248                  24265641.635
 -23743875.91349 -18501721.92147  20347149.705    20347150.599
 -24548334.98349 -19128567.81347  20421717.512    20421718.138
  -5934615.66448  -4624373.60544  24445084.432    24445087.553
 -15471080.22349 -12055383.51446  22077126.268    22077125.694
  -6431029.32848  -5011195.30744  23854994.601    23854997.456
 02  1  8  2 19 30.0000000  0  7G20G13G 3G22G 1G27G25
 -18369513.69549 -14313906.88746  21875116.614    21875117.164
 -15549956.49549 -12116845.58346  22062117.277    22062116.265
  -3955822.40848  -3082456.43444  24248727.171    24248733.957
 -23709107.55549 -18474629.75147  20353766.247    20353767.322
 -24575818.74649 -19149983.77047  20416487.372    20416488.154
  -6014461.72448  -4686591.32544  24429890.824    24429891.810
  -6349485.85848  -4947655.11845  23870513.322    23870516.606
 02  1  8  2 20  0.0000000  0  7G20G13G 3G22G 1G27G25
 -18286984.58449 -14249598.57146  21890821.598    21890822.392
 -15628614.93749 -12178137.90846  22047148.499    22047147.819
  -4044596.91048                  24231834.016
 -23673713.29749 -18447049.87047  20360501.528    20360502.512
 -24602920.40249 -19171101.98947  20411330.114    20411330.649
  -6094209.65548  -4748732.56044  24414714.608    24414715.687
  -6267869.51248  -4884058.22145  23886044.190    23886048.234
 02  1  8  2 20 30.0000000  0  7G20G 3G22G 1G27G13G25
 -18204058.88449 -14184981.22646  21906601.938    21906603.138
  -4133274.77348  -3220730.89144  24214958.883    24214964.198
 -23637715.37449 -18418999.60147  20367351.646    20367352.846
 -24629658.92949 -19191937.24447  20406241.806    20406242.535
  -6173879.66648  -4810813.09844  24399554.477    24399554.882
 -15707073.96649 -12239274.84846  22032218.440    22032217.674
  -6186201.39848  -4820420.95045  23901584.385    23901587.882
 02  1  8  2 21  0.0000000  0  7G20G 3G22G 1G27G13G25
 -18120730.45149 -14120050.05846  21922458.975    21922459.555
  -4221844.15148  -3289745.96544  24198104.545    24198111.995
 -23601106.65849 -18390473.38947  20374318.018    20374319.088
 -24656024.06449 -19212481.55047  20401224.561    20401225.417
  -6253462.54848  -4872825.71744  24384410.283    24384410.997
 -15785323.11849 -12300248.25446  22017328.660    22017327.572
  -6104472.99748  -4756736.70545  23917138.405    23917140.189
 02  1  8  2 21 30.0000000  0  7G20G 3G22G 1G27G13G25
 -18037019.23649 -14054820.62446  21938388.751    21938389.630
  -4310319.25448  -3358687.52544  24181268.484    24181272.585
 -23563905.95249 -18361485.88747  20381397.168    20381398.284
 -24682031.62649 -19232747.22747  20396275.460    20396276.288
  -6332975.32248  -4934783.72944  24369279.729    24369280.933
 -15863377.33149 -12361069.75946  22002474.815    22002474.109
  -6022702.24948  -4693019.45545  23932698.414    23932702.410
 02  1  8  2 22  0.0000000  0  7G20G 3G22G 1G27G13G25
 -17952931.23849 -13989297.59946  21954390.372    21954390.842
  -4398700.26848                  24164450.352
 -23526118.28749 -18332041.01647  20388588.025    20388589.051
 -24707683.44049 -19252735.69847  20391394.163    20391394.954
  -6412421.03748  -4996689.49744  24354160.842    24354163.140
 -15941238.19749 -12421740.60446  21987658.723    21987657.966
  -5940893.21648  -4629272.39045  23948265.838    23948270.467
 02  1  8  2 22 30.0000000  0  7G20G 3G22G 1G27G13G25
 -17868458.79949 -13923475.00646  21970465.160    21970465.994
  -4486973.55148  -3496340.12644  24147651.892    24147657.856
 -23487735.07349 -18302132.08047  20395891.953    20395893.046
 -24732967.61849 -19272437.70247  20386583.027    20386583.962
  -6491789.07148  -5058534.71644  24339058.145    24339058.621
 -16018893.59649 -12482251.34546  21972881.349    21972880.309
  -5859035.57048  -4565487.45045  23963844.147    23963847.487
 02  1  8  2 23  0.0000000  0  7G20G13G 3G22G 1G27G25
 -17783601.01449 -13857352.15146  21986612.680    21986613.607
 -16096337.90949 -12542597.60646  21958144.035    21958143.459
  -4575132.59648  -3565035.40644  24130876.455    24130880.098
 -23448754.60449 -18271757.75247  20403309.510    20403310.735
 -24757879.17549 -19291849.35047  20381842.581    20381843.405
  -6571075.67248  -5120316.51344  24323970.324    24323971.283
  -5777126.69548  -4501662.57545  23979429.943    23979433.793
 02  1  8  2 23 30.0000000  0  8G20G13G 3G22G 2G 1G27G25
 -17698374.14849 -13790941.69946  22002831.252    22002832.181
 -16173582.89249 -12602788.54046  21943445.348    21943444.897
  -4663187.85148  -3633649.88644  24114119.238    24114123.982
 -23409192.17849 -18240929.95147  20410838.227    20410839.377
         -.10457                  24849739.877
 -24782430.17049 -19310980.04147  20377170.660    20377171.372
  -6650294.13248  -5182045.16344  24308895.537    24308898.293
  -5695180.41948  -4437808.59245  23995024.374    23995030.513
 02  1  8  2 24  0.0000000  0  8G20G13G 3G22G 2G 1G27G25
 -17612760.20249 -13724229.62146  22019122.941    22019123.838
 -16250605.71249 -12662806.37146  21928787.911    21928787.549
  -4751115.25848  -3702164.68844  24097387.861    24097392.817
 -23369028.70549 -18209633.80647  20418481.106    20418482.254
    -99227.23447                  24830856.729
 -24806598.40949 -19329812.48047  20372571.802    20372572.634
  -6729423.41948  -5243704.39944  24293837.997    24293837.573
  -5613176.34248  -4373909.55045  24010630.213    24010633.280
 02  1  8  2 24 30.0000000  0  8G20G13G 3G22G 2G 1G27G25
 -17526773.92749 -13657227.42346  22035485.197    22035486.011
 -16327416.52349 -12722658.99346  21914171.908    21914171.386
  -4838923.88748  -3770586.94944  24080677.809    24080682.770
 -23328278.27649 -18177880.29047  20426235.402    20426236.583
   -198368.57347                  24811991.392
 -24830394.61349 -19348355.02347  20368043.583    20368044.167
  -6808475.38148  -5305303.32844  24278794.784    24278795.741
  -5531127.46948  -4309975.62245  24026242.612    24026246.498
 02  1  8  2 25  0.0000000  0  8G20G13G 3G22G 2G 1G27G25
 -17440412.06849 -13589932.56246  22051920.133    22051921.331
 -16404007.43649 -12782340.26846  21899596.638    21899595.486
  -4926604.60548                  24063992.656
 -23286936.58549 -18145666.05447  20434102.531    20434103.779
   -297416.16648                  24793143.431
 -24853811.09149 -19366601.67947  20363587.638    20363588.329
  -6887443.46048  -5366836.92644  24263767.484    24263768.257
  -5449027.80048  -4246002.09245  24041866.449    24041869.621
 02  1  8  2 25 30.0000000  0  8G20G13G 3G22G 2G 1G27G25
 -17353682.90049 -13522351.49446  22068423.754    22068424.940
 -16480382.09049 -12841853.02846  21885063.146    21885062.521
  -5014159.74948  -3907134.27844  24047332.810    24047338.144
 -23245011.06049 -18112996.87947  20442080.686    20442081.991
   -396373.92747                  24774312.000
 -24876852.10949 -19384555.77047  20359202.798    20359203.542
  -6966333.01148  -5428309.30644  24248754.877    24248757.455
  -5366883.42348  -4181993.70845  24057498.379    24057501.523
 02  1  8  2 26  0.0000000  0  8G20G13G 3G22G 2G 1G27G25
 -17266582.94649 -13454481.49146  22084998.651    22084999.626
 -16556532.56249 -12901191.10746  21870572.621    21870571.485
  -5101580.22148  -3975254.09344  24030695.584    24030700.897
 -23202497.57349 -18079869.55747  20450170.904    20450172.475
   -495233.76647                  24755499.524
 -24899510.09749 -19402211.39947  20354891.210    20354892.019
  -7045137.64848  -5489715.54245  24233759.517    24233762.631
  -5284688.94148  -4117946.29645  24073139.395    24073142.821
 02  1  8  2 26 30.0000000  0  8G20G13G 3G22G 2G 1G27G25
 -17179117.17649 -13386326.45046  22101642.928    22101644.311
 -16632458.92349 -12960354.55046  21856123.797    21856122.816
  -5188864.77548  -4043268.01344  24014087.288    24014096.968
 -23159400.06649 -18046287.15447  20458372.214    20458373.626
   -593996.19647                  24736705.948
 -24921785.66249 -19419569.03147  20350652.180    20350652.967
  -7123859.27948  -5551057.09544  24218778.476    24218780.695
  -5202446.63148  -4053861.63145  24088789.716    24088792.850
 02  1  8  2 27  0.0000000  0  8G20G13G 3G22G 2G 1G27G25
 -17091290.64449 -13317890.28846  22118355.395    22118356.986
 -16708161.60549 -13019343.69746  21841718.571    21841717.459
  -5276012.31948  -4111175.14944  23997502.868    23997508.446
 -23115722.51949 -18012252.76947  20466683.761    20466685.350
   -692661.45147                  24717931.030
 -24943679.63149 -19436629.30847  20346485.924    20346486.825
  -7202499.87048  -5612335.50745  24203814.562    24203815.282
  -5120159.25448  -3989741.85145  24104448.936    24104452.847
 02  1  8  2 27 30.0000000  0  8G20G13G 3G22G 2G 1G27G25
 -17003111.18549 -13249179.11446  22135135.725    22135137.368
 -16783643.37649 -13078160.71146  21827354.460    21827353.468
  -5363025.14948                  23980944.799
 -23071472.18349 -17977772.05647  20475104.406    20475106.158
   -791232.97347                  24699172.722
 -24965195.83149 -19453395.23047  20342391.704    20342392.534
  -7281064.29148  -5673554.53944  24188863.633    24188865.767
  -5037832.38948  -3925591.27545  24120114.934    24120119.953
 02  1  8  2 28  0.0000000  0  8G20G13G 3G22G 2G 1G27G25
 -16914590.10349 -13180201.74646  22151980.522    22151981.455
 -16858910.99449 -13136810.85346  21813031.944    21813031.465
  -5449908.66148  -4246678.75944  23964411.285    23964413.085
 -23026659.56649 -17942853.20347  20483632.174    20483633.724
   -889717.50648                  24680432.619
 -24986341.50749 -19469872.43447  20338367.951    20338368.638
  -7359560.91748  -5734720.75844  24173926.077    24173930.780
  -4955475.10048  -3861417.04045  24135787.326    24135792.937
 02  1  8  2 28 30.0000000  0  8G20G13G 3G22G 2G 1G27G25
 -16825714.52249 -13110948.14346  22168893.483    22168894.515
 -16933946.89549 -13195280.43346  21798753.179    21798752.788
  -5536643.94848  -4314264.70544  23947906.135    23947912.797
 -22981270.92749 -17907485.49947  20492269.152    20492270.933
   -988097.46547                  24661709.967
 -25007099.23549 -19486047.33847  20334417.883    20334418.645
  -7437973.46248  -5795821.47444  24159004.989    24159005.540
  -4873071.98848  -3797207.09145  24151468.693    24151472.252
 02  1  8  2 29  0.0000000  0  8G20G13G 3G22G 2G 1G27G25
 -16736489.05349 -13041421.90746  22185872.455    22185872.828
 -17008750.91149 -13253569.32346  21784518.062    21784517.168
  -5623229.73448  -4381734.14344  23931428.662    23931433.904
 -22935309.96649 -17871671.82847  20501015.178    20501016.811
  -1086372.93148                  24643010.474
 -25027469.47649 -19501920.30447  20330541.611    20330542.361
  -7516303.81748  -5856858.12344  24144098.659    24144100.257
  -4790625.52748  -3732963.33345  24167157.361    24167160.486
 02  1  8  2 29 30.0000000  0  8G20G13G 3G22G 2G 1G27G25
 -16646916.39649 -12971625.13546  22202917.514    22202919.432
 -17083320.97349 -13311675.91746  21770328.326    21770327.123
  -5709662.62548  -4449084.46144  23914981.722    23914985.395
 -22888778.76449 -17835413.81447  20509869.835    20509871.739
  -1184541.91347                  24624328.218
 -25047450.88749 -19517490.28347  20326739.227    20326740.288
  -7594551.59948  -5917830.44944  24129209.501    24129213.859
  -4708136.07348  -3668686.11045  24182855.035    24182860.688
 02  1  8  2 30  0.0000000  0  8G20G13G 3G22G 2G 1G27G25
 -16557003.47049 -12901563.21346  22220027.762    22220028.876
 -17157658.95049 -13369601.66346  21756182.460    21756181.365
  -5795943.55148  -4516316.39944  23898562.531    23898567.258
 -22841683.36049 -17798716.16447  20518831.883    20518833.480
  -1282606.84548                  24605668.178
 -25067046.24049 -19532759.43947  20323010.566    20323011.456
  -7672720.56348  -5978741.34144  24114333.329    24114334.358
  -4625608.02848  -3604378.82144  24198559.892    24198565.443
 02  1  8  2 30 30.0000000  0  8G20G13G 3G22G 2G 1G27G25
 -16466753.22649 -12831238.45845  22237201.410    22237202.721
 -17231763.37449 -13427345.42246  21742080.415    21742079.954
  -5882069.58448  -4583427.62344  23882173.323    23882180.153
 -22794025.90249 -17761580.55047  20527900.915    20527902.815
  -1380566.19848                  24587026.966
 -25086254.14549 -19547726.68947  20319355.605    20319356.339
  -7750810.50748  -6039590.68544  24099473.877    24099475.793
  -4543041.96648  -3540041.89544  24214271.724    24214276.138
 02  1  8  2 31  0.0000000  0  8G20G13G 3G22G 2G 1G27G25
 -16376166.12949 -12760651.21345  22254439.912    22254441.325
 -17305629.73349 -13484903.67546  21728024.227    21728023.705
  -5968035.11948  -4650413.75044  23865814.940    23865820.804
 -22745806.11449 -17724006.75547  20537077.079    20537078.844
  -1478415.46248                  24568406.583
 -25105070.64249 -19562388.94647  20315774.861    20315775.793
  -7828818.66948  -6100376.28444  24084629.583    24084632.635
  -4460435.84048  -3475673.74145  24229991.884    24229996.012
 02  1  8  2 31 30.0000000  0  8G20G13G 3G22G 2G 1G27G25
 -16285238.91149 -12689798.93745  22271742.503    22271743.757
 -17379249.93049 -13542270.11046  21714015.162    21714014.273
  -6053831.05148  -4717267.76344  23849488.280    23849494.842
 -22697019.92949 -17685991.61147  20546361.018    20546362.704
  -1576147.25048                  24549809.535
 -25123488.52949 -19576740.59247  20312270.089    20312270.968
  -7906738.85848  -6161093.33244  24069801.591    24069803.677
  -4377784.08448  -3411270.08145  24245719.779    24245723.004
 02  1  8  2 32  0.0000000  0  8G20G13G 3G22G 2G 1G27G25
 -16193984.06449 -12618691.37745  22289108.439    22289109.537
 -17452631.73549 -13599450.79446  21700050.809    21700050.382
  -6139463.71248  -4783994.54844  23833193.753    23833203.930
 -22647679.33349 -17647544.45847  20555750.180    20555751.981
  -1673769.44748                  24531232.553
 -25141515.89049 -19590787.93447  20308839.657    20308840.561
  -7984580.48448  -6221749.16644  24054989.337    24054989.977
  -4295096.91648  -3346838.78844  24261454.626    24261459.739
 02  1  8  2 32 30.0000000  0  8G20G13G 3G22G 2G 1G27G25
 -16102397.20349 -12547325.11945  22306536.792    22306537.599
 -17525765.70849 -13656438.35746  21686134.017    21686133.482
  -6224922.80048  -4850586.10844  23816930.873    23816937.945
 -22597778.84149 -17608661.02147  20565246.046    20565247.716
  -1771272.66848                  24512678.434
 -25159144.14949 -19604524.28747  20305484.981    20305486.267
  -8062335.86948  -6282337.82645  24040193.342    24040196.867
  -4212367.16748  -3282374.30345  24277198.727    24277202.014
 02  1  8  2 33  0.0000000  0  8G20G13G 3G22G 2G 1G27G25
 -16010487.62949 -12475707.39845  22324026.456    22324027.947
 -17598656.49949 -13713236.43246  21672263.284    21672262.752
  -6310211.64648  -4917044.99844  23800701.280    23800705.176
 -22547327.10749 -17569348.04047  20574846.614    20574848.201
  -1868661.80448                  24494145.378
 -25176378.53949 -19617953.73347  20302205.461    20302206.657
  -8140011.35448  -6342864.19244  24025412.137    24025413.365
  -4129602.01048  -3217882.25445  24292947.341    24292952.839
 02  1  8  2 33 30.0000000  0  8G20G13G 3G22G 2G 1G27G25
 -15918261.10949 -12403842.67445  22341576.793    22341578.872
 -17671305.01849 -13769845.72646  21658438.462    21658437.989
  -6395330.06648  -4983371.03844  23784503.664    23784509.073
 -22496329.55449 -17529609.74947  20584551.233    20584553.090
  -1965938.14348                  24475634.870
 -25193220.67349 -19631077.52447  20299000.424    20299001.629
  -8217609.73348  -6403330.50544  24010645.504    24010648.223
  -4046804.72648  -3153365.16345  24308704.130    24308709.190
 02  1  8  2 34  0.0000000  0  8G20G13G 3G22G 2G 1G27G25
 -15825722.03848 -12331734.44045  22359186.200    22359188.454
 -17743710.78049 -13826265.86146  21644660.320    21644659.853
  -6480276.27748  -5049562.97444  23768339.272    23768344.760
 -22444789.52649 -17489448.75147  20594359.162    20594360.741
  -2063101.29748                  24457144.423
 -25209670.52349 -19643895.63947  20295870.217    20295871.285
  -8295132.07748  -6463737.55844  23995893.926    23995894.930
  -3963977.39548  -3088824.66645  24324466.278    24324471.717
 02  1  8  2 34 30.0000000  0  8G20G13G 3G22G 2G 1G27G25
 -15732869.87248 -12259382.24545  22376855.487    22376856.784
 -17815868.31349 -13882492.56746  21630929.194    21630928.748
  -6565043.73148  -5115615.57144  23752209.214    23752215.903
 -22392705.97249 -17448864.22747  20604270.454    20604271.960
  -2160146.26648                  24438679.021
 -25225723.34149 -19656404.37847  20292815.471    20292816.778
  -8372574.78548  -6524082.58944  23981156.629    23981157.215
  -3881116.73748  -3024258.19545  24340233.207    24340239.529
 02  1  8  2 35  0.0000000  0  8G20G13G 3G22G 2G 1G27G25
 -15639698.49148 -12186781.28345  22394585.864    22394586.798
 -17887766.43949 -13938517.14346  21617247.912    21617247.419
  -6649620.29148  -5181519.40344  23736114.376    23736122.302
 -22340071.92749 -17407850.75047  20614286.091    20614287.976
  -2257062.05748                  24420235.319
 -25241368.97949 -19668595.84247  20289838.394    20289839.621
  -8449928.62848  -6584358.34745  23966438.148    23966439.606
  -3798214.13048  -2959659.07545  24356010.076    24356014.012
 02  1  8  2 35 30.0000000  0  8G20G13G 3G22G 2G 1G27G25
 -15546211.99748 -12113934.79745  22412375.609    22412376.661
 -17959404.61449 -13994339.15946  21603615.068    21603614.581
  -6734003.84748  -5247272.87844  23720056.555    23720063.833
 -22286890.79349 -17366410.97447  20624405.877    20624407.698
  -2353848.40648  -1834168.36144  24401818.359    24401824.210
 -25256607.25649 -19680469.87347  20286938.610    20286939.822
  -8527194.49248  -6644565.55945  23951733.280    23951737.297
  -3715271.15248  -2895028.44345  24371793.592    24371800.982
 02  1  8  2 36  0.0000000  0  8G20G13G 3G22G 2G 1G27G25
 -15452404.67948 -12040838.30345  22430226.556    22430228.536
 -18030772.02549 -14049950.19146  21590034.776    21590034.387
  -6818182.78248  -5312866.86644  23704038.939    23704042.421
 -22233156.45149 -17324540.12447  20634631.680    20634633.361
  -2450494.90748                  24383426.486
 -25271428.25949 -19692018.76047  20284118.447    20284119.721
  -8604363.52248  -6704697.30644  23937049.485    23937049.566
  -3632279.73648  -2830360.08345  24387586.371    24387590.610
 02  1  8  2 36 30.0000000  0  8G20G13G 3G22G 2G 1G27G25
 -15358296.43448 -11967507.33745  22448135.308    22448136.160
 -18101883.78349 -14105362.01046  21576502.270    21576501.814
  -6902170.89448  -5378312.16344  23688055.484    23688061.813
 -22178887.76749 -17282252.90447  20644958.644    20644960.331
  -2547016.99048  -1984689.47344  24365059.999    24365061.783
 -25285847.65249 -19703254.70447  20281374.595    20281375.784
  -8681452.40448  -6764766.62944  23922380.249    23922381.335
  -3549256.94248  -2765667.27845  24403385.428    24403390.773
 02  1  8  2 37  0.0000000  0  8G20G13G 3G22G 2G 1G27G25
 -15263884.35048 -11893939.61845  22466101.215    22466101.464
 -18172732.03749 -14160568.50246  21563020.519    21563020.152
  -6985959.17748  -5443601.68344  23672111.348    23672117.062
 -22124081.34049 -17239546.66847  20655388.053    20655389.938
  -2643406.96748                  24346717.133
 -25299858.43349 -19714172.24947  20278708.539    20278709.748
  -8758455.20148  -6824768.86245  23907725.764    23907729.339
  -3466197.99148  -2700946.29044  24419191.249    24419198.156
 02  1  8  2 37 30.0000000  0  8G13G20G 3G22G 2G 1G27G25
 -18243318.23749 -14215570.79446  21549588.654    21549588.057
 -15169174.87048 -11820140.14845  22484124.195    22484126.103
  -7069548.05748  -5508735.87644  23656204.962    23656210.806
 -22068743.13049 -17196426.05647  20665918.495    20665920.355
  -2739666.56748                  24328399.346
 -25313462.72049 -19724773.04547  20276119.721    20276120.952
  -8835375.15748  -6884706.54345  23893090.419    23893090.342
  -3383106.42348  -2636199.91544  24435002.372    24435009.203
 02  1  8  2 38  0.0000000  0  8G13G20G 3G22G 2G 1G27G25
 -18313641.66949 -14270368.33046  21536206.384    21536205.922
 -15074172.26848 -11746112.25745  22502202.412    22502204.928
  -7152935.85248  -5573713.32145  23640337.788    23640343.659
 -22012876.72449 -17152893.86547  20676549.673    20676551.617
  -2835795.59948  -2209711.95544  24310107.642    24310111.723
 -25326660.57449 -19735057.14447  20273608.285    20273609.523
  -8912213.19248  -6944580.39644  23878467.051    23878468.363
  -3299983.95148  -2571429.45544  24450821.425    24450825.877
 02  1  8  2 38 30.0000000  0  8G13G20G 3G22G 2G 1G27G25
 -18383700.47149 -14324959.66346  21522875.247    21522874.325
 -14978879.22248 -11671858.06645  22520336.056    22520338.474
  -7236119.04048  -5638531.33045  23624507.501    23624513.957
 -21956484.14449 -17108951.67147  20687280.623    20687282.537
  -2931792.07148                  24291839.693
 -25339450.76049 -19745023.58047  20271174.418    20271175.661
  -8988969.12548  -7004390.21645  23863862.061    23863862.855
  -3216830.63648  -2506634.94944  24466644.724    24466649.857
 02  1  8  2 39  0.0000000  0  7G13G20G22G 2G 1G27G25
 -18453490.20249 -14379341.32846  21509594.227    21509593.841
 -14883296.82448 -11597378.41745  22538524.429    22538526.071
 -21899565.69249 -17064599.70747  20698112.028    20698113.907
  -3027652.50648                  24273598.575
 -25351829.98349 -19754669.79047  20268818.757    20268819.858
  -9065640.75148  -7064134.47444  23849270.974    23849270.809
  -3133644.99748  -2441815.26845  24482474.759    24482478.855
 02  1  8  2 39 30.0000000  0  7G13G20G22G 2G 1G27G25
 -18522993.52549 -14433499.82546  21496367.817    21496367.891
 -14787412.45548 -11522663.44845  22556771.200    22556774.371
 -21842108.45849 -17019827.91147  20709046.074    20709047.885
  -3123359.70248                  24255385.272
 -25363781.61549 -19763982.80847  20266544.522    20266545.616
  -9142212.42848  -7123800.77644  23834700.196    23834701.371
  -3050412.05848  -2376958.70344  24498313.330    24498319.616
 02  1  8  2 40  0.0000000  0  7G13G20G22G 2G 1G27G25
 -18592232.64049 -14487452.44046  21483192.813    21483192.240
 -14691253.39448 -11447734.43745  22575070.134    22575071.923
 -21784138.86649 -16974656.87947  20720077.313    20720079.376
  -3218936.11448                  24237198.043
 -25375328.52849 -19772980.45847  20264347.308    20264348.463
  -9218707.82448  -7183407.63844  23820144.404    23820147.133
  -2967155.97348  -2312084.09444  24514156.756    24514162.674
 02  1  8  2 40 30.0000000  0  7G13G20G22G 2G 1G27G25
 -18661192.69449 -14541187.61346  21470070.320    21470069.348
 -14594809.77548 -11372583.70645  22593422.754    22593425.354
 -21725646.61149 -16929078.57647  20731207.907    20731209.870
  -3314367.66448                  24219038.265
 -25386456.81449 -19781651.90047  20262229.682    20262230.911
  -9295114.11848  -7242945.08044  23805603.160    23805605.182
  -2883864.78748  -2247182.15244  24530006.977    24530012.956
 02  1  8  2 41  0.0000000  0  7G13G20G22G 2G 1G27G25
 -18729888.18749 -14594716.62646  21456997.520    21456997.070
 -14498100.75448 -11297226.15845  22611825.403    22611826.969
 -21666650.21149 -16883107.44047  20742434.805    20742436.584
  -3409668.79648                  24200902.692
 -25397181.53849 -19790008.88547  20260188.685    20260189.939
  -9371447.40848  -7302425.63044  23791079.032    23791078.698
  -2800555.27548  -2182265.94044  24545860.001    24545869.184
 02  1  8  2 41 30.0000000  0  7G13G20G22G 2G 1G27G25
 -18798302.93649 -14648026.88546  21443978.966    21443978.470
 -14401115.47948 -11221653.37445  22630282.152    22630283.360
 -21607138.23649 -16836734.55547  20753759.440    20753761.562
  -3504823.91747                  24182795.561
 -25407487.36049 -19798039.45447  20258227.550    20258228.874
  -9447693.51148  -7361838.27844  23776568.684    23776570.164
  -2717213.57048  -2117324.63444  24561719.959    24561724.542
 02  1  8  2 42  0.0000000  0  7G13G20G31G22G 1G27G25
 -18866446.21549 -14701125.60846  21431011.530    21431011.157
 -14303868.12348 -11145876.35145  22648787.550    22648788.794
          .11958                  25158373.527
 -21547124.40249 -16789970.61247  20765179.872    20765181.799
 -25417384.43449 -19805751.51947  20256344.363    20256345.576
  -9523863.32948  -7421191.43145  23762074.810    23762076.580
  -2633851.44148  -2052367.42644  24577583.585    24577589.756
 02  1  8  2 42 30.0000000  0  7G13G20G31G22G 1G27G25
 -18934294.60249 -14753994.54046  21418100.626    21418100.316
 -14206340.45048 -11069880.89945  22667346.205    22667349.365
   -104138.34148    -81146.03944  25138556.427    25138566.852
 -21486589.69349 -16742800.79147  20776699.375    20776701.304
 -25426850.21449 -19813127.50947  20254543.139    20254544.381
  -9599935.30148  -7480468.39344  23747598.164    23747598.373
  -2550447.90548  -1987377.95244  24593453.840    24593460.132
 02  1  8  2 43  0.0000000  0  6G13G20G22G 1G27G25
 -19001875.49449 -14806655.03846  21405240.479    21405240.193
 -14108564.81448 -10993692.23945  22685952.819    22685953.904
 -21425565.98049 -16695249.93147  20788311.779    20788313.851
 -25435913.15449 -19820189.59947  20252818.600    20252819.782
  -9675938.66548  -7539691.85445  23733135.870    23733139.405
  -2467032.81948  -1922379.50444  24609328.962    24609334.945
 02  1  8  2 43 30.0000000  0  7G13G20G22G 2G 1G27G25
 -19069161.77149 -14859085.96646  21392436.314    21392435.994
 -14010518.65748 -10917292.77345  22704610.322    22704612.308
 -21364030.54249 -16647300.32647  20800021.471    20800023.587
         -.88357                  24110641.829
 -25444546.82649 -19826917.19447  20251175.641    20251176.732
  -9751847.86648  -7598841.98745  23718690.670    23718692.836
  -2383581.36548  -1857352.68144  24625208.807    24625213.047
 02  1  8  2 44  0.0000000  0  7G13G20G22G 2G 1G27G25
 -19136168.42849 -14911299.00546  21379685.367    21379685.016
 -13912222.44048 -10840698.45745  22723315.623    22723316.458
 -21302002.82249 -16598967.12347  20811824.979    20811827.210
    -94427.22947                  24092670.696
 -25452767.14649 -19833322.69547  20249611.455    20249612.680
  -9827679.87448  -7657931.93945  23704260.130    23704261.811
  -2300111.02948  -1792311.16044  24641092.575    24641097.282
 02  1  8  2 44 30.0000000  0  7G13G20G22G 2G 1G27G25
 -19202861.87149 -14963267.98746  21366993.874    21366993.510
 -13813647.11348 -10763886.69245  22742073.989    22742075.347
 -21239453.55849 -16550227.52447  20823727.739    20823729.957
   -188677.10447                  24074737.521
 -25460540.99249 -19839380.29347  20248132.101    20248133.329
  -9903402.55548  -7716936.69345  23689850.562    23689853.362
  -2216590.04348  -1727230.18044  24656986.834    24656994.235
 02  1  8  2 45  0.0000000  0  8G13G20G31G22G 2G 1G27G25
 -19269271.61349 -15015015.90046  21354356.692    21354356.518
 -13714827.71348 -10686884.69545  22760878.570    22760882.462
         -.79558                  25039164.057
 -21176417.15349 -16501108.33047  20835723.249    20835725.542
   -282780.87847                  24056830.088
 -25467899.03549 -19845113.88847  20246731.996    20246733.229
  -9979047.57748  -7775880.93645  23675456.748    23675459.904
  -2133050.91148  -1662135.11044  24672883.877    24672890.664
 02  1  8  2 45 30.0000000  0  8G13G20G31G22G 2G 1G27G25
 -19335371.27649 -15066522.19146  21341778.330    21341778.305
 -13615742.87448 -10609675.91744  22779733.472    22779733.949
   -104742.40748    -81617.73344  25019232.082    25019237.247
 -21112871.78549 -16451592.54747  20847815.560    20847817.852
   -376712.86247                  24038954.310
 -25474816.16749 -19850503.91447  20245415.653    20245417.033
 -10054590.62248  -7834745.74845  23661080.411    23661083.450
  -2049469.62848  -1597007.15044  24688788.672    24688799.345
 02  1  8  2 46  0.0000000  0  8G13G20G31G22G 2G 1G27G25
 -19401172.50449 -15117795.93846  21329257.149    21329257.040
 -13516409.13548 -10532273.13844  22798636.863    22798641.235
   -209575.12148   -163305.62544  24999282.665    24999292.842
 -21048833.56349 -16401692.71747  20860001.826    20860004.059
   -470484.91348                  24021112.215
 -25481304.76249 -19855560.01947  20244180.783    20244182.036
 -10130044.87448  -7893541.33045  23646722.794    23646723.698
  -1965859.95348  -1531857.05744  24704700.231    24704703.145
 02  1  8  2 46 30.0000000  0  8G13G20G31G22G 2G 1G27G25
 -19466675.98649 -15168837.67446  21316792.230    21316791.965
 -13416832.17048 -10454680.87144  22817585.853    22817589.264
   -314498.80348                  24979315.731
 -20984307.61949 -16351412.84847  20872280.813    20872283.245
   -564097.85448                  24003297.889
 -25487366.22649 -19860283.29547  20243027.381    20243028.899
 -10205412.82048  -7952269.68945  23632380.995    23632383.864
  -1882224.81948  -1466687.11344  24720615.980    24720620.198
 02  1  8  2 47  0.0000000  0  8G13G20G31G22G 2G 1G27G25
 -19531895.86049 -15219658.41546  21304380.861    21304381.061
 -13317031.33348 -10376914.14644  22836577.376    22836579.399
   -419526.92548                  24959330.489
 -20919312.58349 -16300767.45347  20884649.012    20884651.144
   -657566.51348   -512389.57744  23985510.638    23985513.586
 -25493015.70949 -19864685.54247  20241952.388    20241953.902
 -10280710.38448  -8010943.17945  23618051.844    23618054.408
  -1798580.97748                  24736532.489
 02  1  8  2 47 30.0000000  0  8G13G20G31G22G 2G 1G27G25
 -19596817.11849 -15270246.47646  21292027.296    21292027.068
 -13216996.64948 -10298965.14844  22855612.575    22855615.487
   -524643.81348                  24939327.401
 -20853838.27649 -16249748.59847  20897108.246    20897110.699
   -750876.62548   -585098.77644  23967755.262    23967762.018
 -25498239.35649 -19868755.97147  20240958.392    20240960.093
 -10355924.51048  -8069551.66845  23603739.479    23603741.135
  -1714915.98548  -1336317.30444  24752453.849    24752461.424
 02  1  8  2 48  0.0000000  0  8G13G20G31G22G 2G 1G27G25
 -19661431.95549 -15320595.76146  21279731.803    21279731.584
 -13116725.20148 -10220831.75444  22874694.414    22874698.637
   -629840.78048   -490785.45344  24919309.489    24919312.925
 -20787881.27749 -16198353.62347  20909659.479    20909662.025
   -844020.58548                  23950029.338
 -25503030.14349 -19872489.10647  20240046.770    20240048.304
 -10431049.07348  -8128090.37045  23589443.596    23589445.492
  -1631224.39748  -1271103.38944  24768380.473    24768390.650
 02  1  8  2 48 30.0000000  0  8G13G20G31G22G 2G 1G27G25
 -19725729.86749 -15370698.09446  21267495.636    21267495.602
 -13016211.38648 -10142509.47944  22893820.917    22893825.777
   -735106.30848                  24899277.391
 -20721435.59249 -16146577.85047  20922303.942    20922306.416
   -936988.27648                  23932339.428
 -25507378.67649 -19875877.62747  20239219.196    20239220.823
 -10506075.23848  -8186552.38645  23575166.993    23575167.907
  -1547497.88948  -1205862.29844  24784312.732    24784320.416
 02  1  8  2 49  0.0000000  0  8G13G20G31G22G 2G 1G27G25
 -19789720.13049 -15420560.69546  21255318.928    21255318.534
 -12915469.93148 -10064009.74744  22912992.339    22912995.856
   -840449.04848                  24879231.353
 -20654515.33549 -16094432.28347  20935038.455    20935041.158
  -1029789.69348   -802433.74844  23914678.382    23914681.758
 -25511295.38449 -19878929.65947  20238473.891    20238475.451
 -10581014.34648  -8244946.60345  23560906.846    23560908.816
  -1463748.17748                  24800250.056
 02  1  8  2 49 30.0000000  0  8G13G20G31G22G 2G 1G27G25
 -19853390.77549 -15470174.24446  21243203.429    21243203.302
 -12814493.92748  -9985327.29144  22932206.742    22932210.799
   -945856.50348                  24859172.766
 -20587113.14249 -16041911.17447  20947864.925    20947867.354
  -1122413.16748   -874607.91044  23897054.136    23897056.641
 -25514769.14949 -19881636.54447  20237812.999    20237814.560
 -10655856.30448  -8303265.09145  23546664.192    23546666.789
  -1379965.92448  -1075318.63944  24816194.192    24816200.889
 02  1  8  2 50  0.0000000  0  8G13G20G31G22G 2G 1G27G25
 -19916749.05749 -15519544.39546  21231146.192    21231146.261
 -12713295.31048  -9906471.35844  22951465.373    22951464.981
  -1051335.00248   -819221.72744  24839101.125    24839104.830
 -20519240.66649 -15989023.62047  20960780.751    20960783.184
  -1214866.47748                  23879460.706
 -25517808.10049 -19884004.61547  20237234.702    20237236.516
 -10730609.86348  -8361514.69645  23532439.767    23532441.066
  -1296160.39848  -1010015.91544  24832141.815    24832148.056
 02  1  8  2 50 30.0000000  0  8G13G20G31G22G 2G 1G27G25
 -19979790.08449 -15568667.33446  21219149.955    21219149.835
 -12611874.60548  -9827442.43044  22970764.154    22970765.183
  -1156878.88948   -901463.47044  24819016.056    24819021.627
 -20450898.01749 -15935769.69047  20973785.643    20973788.519
  -1307145.52348                  23861899.891
 -25520408.53549 -19886030.98647  20236739.894    20236741.552
 -10805272.20748  -8419693.24645  23518231.944    23518232.416
  -1212329.17648   -944693.25844  24848094.394    24848103.826
 02  1  8  2 51  0.0000000  0  8G22G20G31G 2G 1G27G13G25
 -20382090.27949 -15882153.35747  20986879.408    20986882.136
 -12510237.34748  -9748244.72344  22990106.094    22990107.651
  -1262487.94948                  24798918.517
  -1399251.20548  -1090325.99744  23844374.270    23844379.489
 -25522571.94449 -19887716.81447  20236328.174    20236329.971
 -10879845.59448  -8477802.47945  23504041.047    23504042.473
 -20042514.57949 -15617543.62647  21207214.055    21207213.975
  -1128475.28748   -879352.92944  24864052.167    24864060.358
 02  1  8  2 51 30.0000000  0  8G22G13G20G31G 2G 1G27G25
 -20312821.77249 -15828177.98346  21000060.993    21000063.400
 -20104922.30149 -15666173.08047  21195338.516    21195338.535
 -12408388.35048  -9668882.03244  23009486.961    23009487.359
  -1368161.01248  -1066098.38844  24778810.894    24778819.333
  -1491183.82348  -1161961.82744  23826879.012    23826883.900
 -25524299.20849 -19889062.78947  20235999.731    20236001.471
 -10954331.49248  -8535843.51245  23489867.783    23489869.529
  -1044600.54248                  24880013.056
 02  1  8  2 52  0.0000000  0  8G22G13G20G31G 2G 1G27G25
 -20243092.87949 -15773843.86346  21013329.801    21013332.362
 -20167008.48149 -15714551.98147  21183523.922    21183524.021
 -12306328.56448  -9589355.07844  23028909.011    23028913.188
  -1473892.92548                  24758689.024
  -1582939.51248                  23809418.501
 -25525587.04149 -19890066.34647  20235754.847    20235756.702
 -11028727.48148  -8593814.49445  23475709.524    23475710.604
   -960703.02848                  24895977.922
 02  1  8  2 52 30.0000000  0  8G22G13G20G31G 2G 1G27G25
 -20172902.24049 -15719149.94246  21026686.830    21026689.395
 -20228767.62849 -15762676.05047  21171771.658    21171771.622
 -12204056.89548  -9509663.04544  23048370.573    23048372.971
  -1579677.03148  -1230915.49444  24738560.206    24738569.142
  -1674513.13248  -1304815.99744  23791993.559    23791994.345
 -25526430.72149 -19890723.81547  20235594.174    20235596.048
 -11103029.61448  -8651712.33545  23461571.159    23461573.101
   -876779.67648   -683227.52544  24911949.226    24911953.630
 02  1  8  2 53  0.0000000  0  8G22G13G20G31G 2G 1G27G25
 -20102255.94349 -15664100.96246  21040130.658    21040132.984
 -20290201.02949 -15810546.28847  21160081.523    21160081.543
 -12101579.64048  -9429810.77844  23067871.134    23067870.962
  -1685513.72748  -1313385.40944  24718418.427    24718426.866
  -1765906.27648                  23774600.975
 -25526832.59049 -19891037.01747  20235517.581    20235519.473
 -11177240.80348  -8709539.33045  23447449.167    23447450.225
   -792833.86948   -617815.55844  24927923.499    24927932.931
 02  1  8  2 53 30.0000000  0  8G22G13G20G31G 2G 1G27G25
 -20031154.09149 -15608697.00646  21053660.970    21053663.672
 -20351303.75349 -15858158.85747  21148453.983    21148454.266
 -11998897.39448                  23087411.497
  -1791397.56748  -1395891.98144  24698270.658    24698278.849
  -1857114.95048  -1447103.21544  23757244.481    23757248.180
 -25526789.04549 -19891003.13847  20235526.096    20235528.065
 -11251358.37348  -8767293.35945  23433344.118    23433346.112
   -708863.19048                  24943902.594
 02  1  8  2 54  0.0000000  0  8G22G13G20G31G 2G 1G27G25
 -19959596.19549 -15552937.69046  21067277.556    21067280.582
 -20412071.02049 -15905510.03247  21136890.018    21136890.406
 -11896010.12148  -9269627.09444  23106990.329    23106992.310
  -1897322.62348  -1478430.74044  24678113.086    24678119.779
  -1948134.69648  -1518027.78544  23739924.940    23739927.395
 -25526296.08349 -19890619.06447  20235619.928    20235621.928
 -11325378.96548  -8824971.81545  23419259.509    23419261.424
   -624864.86848                  24959886.786
 02  1  8  2 54 30.0000000  0  8G22G13G20G31G 2G 1G27G25
 -19887595.55649 -15496833.38246  21080979.416    21080981.849
 -20472511.45049 -15952606.52947  21125388.765    21125388.818
 -11792931.70648  -9189306.42144  23126605.332    23126608.058
  -2003296.72248  -1561007.68644  24657947.218    24657954.902
  -2038974.83148  -1588812.35644  23722637.569    23722641.880
 -25525363.59549 -19889892.50747  20235797.298    20235799.358
 -11399313.17948  -8882582.98645  23405189.681    23405190.882
   -540850.07148   -421465.53544  24975874.783    24975880.141
 02  1  8  2 55  0.0000000  0  8G22G13G20G31G 2G 1G27G25
 -19815143.80749 -15440377.55846  21094766.540    21094769.295
 -20532611.48249 -15999437.77947  21113952.264    21113952.415
 -11689653.63948                  23146257.972
  -2109305.71348  -1643611.78744  24637774.189    24637781.086
  -2129622.40148  -1659446.87344  23705389.006    23705392.533
 -25523979.36049 -19888813.93647  20236060.616    20236062.670
 -11473149.37948  -8940117.76345  23391139.525    23391142.202
   -456807.67748                  24991868.083
 02  1  8  2 55 30.0000000  0  8G22G13G20G31G 2G 1G27G25
 -19742251.49349 -15383578.44146  21108636.889    21108639.829
 -20592377.34949 -16046008.64247  21102579.070    21102579.309
 -11586187.10548                  23165947.674
  -2215354.58148  -1726247.02344  24617593.547    24617603.476
  -2220084.00348  -1729936.47044  23688173.842    23688177.077
 -25522150.53749 -19887388.93747  20236408.818    20236411.030
 -11546895.29348  -8997582.19645  23377106.058    23377108.063
   -372746.17848                  25007864.685
 02  1  8  2 56  0.0000000  0  8G22G13G20G31G 2G 1G27G25
 -19668917.78849 -15326435.38046  21122592.200    21122595.205
 -20651803.71349 -16092314.95747  21091270.697    21091270.774
 -11482531.69948  -8947436.81844  23185672.704    23185674.386
  -2321437.25748  -1808908.56844  24597406.498    24597416.178
  -2310354.76448  -1800277.35744  23670996.931    23671002.531
 -25519872.70549 -19885614.05947  20236842.298    20236844.337
 -11620547.45748  -9054973.55645  23363090.362    23363092.155
   -288662.62748                  25023865.741
 02  1  8  2 56 30.0000000  0  8G22G13G20G31G 2G 1G27G25
 -19595158.64949 -15268960.81446  21136628.136    21136631.166
 -20710901.67549 -16138365.37247  21080024.574    21080024.975
 -11378703.63348                  23205431.182
  -2427563.96348  -1891604.43244  24577210.039    24577217.889
  -2400446.45448  -1870478.74244  23653852.629    23653856.333
 -25517158.08549 -19883498.82747  20237358.820    20237360.827
 -11694118.75348  -9112301.95745  23349090.689    23349093.663
   -204570.34548                  25039867.596
 02  1  8  2 57  0.0000000  0  8G22G13G20G31G 2G 1G27G25
 -19520967.90849 -15211149.93246  21150746.214    21150749.257
 -20769660.19349 -16184151.28147  21068843.380    21068843.441
 -11274697.16148  -8785488.11844  23225222.656    23225225.343
  -2533722.73548  -1974325.29444  24557008.477    24557016.668
  -2490348.77248  -1940532.52644  23636744.320    23636747.348
 -25513996.93249 -19881035.64847  20237960.310    20237962.320
 -11767600.07148  -9169560.18245  23335107.645    23335109.677
   -120460.55248                  25055873.604
 02  1  8  2 57 30.0000000  0  8G22G13G20G31G 2G 1G27G25
 -19446345.50749 -15153002.69446  21164946.675    21164949.531
 -20828074.45249 -16229668.94047  21057727.541    21057727.454
 -11170512.62848  -8704305.58944  23245049.118    23245052.229
  -2639908.09948  -2057066.87444  24536801.566    24536812.239
  -2580057.69848  -2010435.61044  23619673.985    23619679.095
 -25510385.90749 -19878221.91947  20238647.736    20238649.876
 -11840988.49548  -9226746.03245  23321142.153    23321143.672
    -36330.95348                  25071882.849
 02  1  8  2 58  0.0000000  0  8G22G13G20G31G 2G 1G27G25
 -19371293.90749 -15094521.01346  21179228.635    21179231.524
 -20886142.25949 -16274916.64047  21046677.511    21046677.745
 -11066152.64948  -8622986.27144  23264908.306    23264912.095
  -2746116.66448  -2139826.62544  24516590.870    24516600.798
  -2669571.37848  -2080186.54544  23602639.404    23602643.504
 -25506323.62149 -19875056.55747  20239421.060    20239423.009
 -11914283.19048  -9283858.85245  23307195.057    23307196.827
     47818.41148                  25087895.995
 02  1  8  2 58 30.0000000  0  8G22G13G20G31G 2G 1G27G25
 -19295817.07149 -15035707.97646  21193591.306    21193594.203
 -20943862.76349 -16319893.70947  21035693.797    21035694.091
 -10961621.70448  -8541533.76444  23284799.276    23284800.502
  -2852346.99348  -2222603.28844  24496375.990    24496386.415
  -2758889.65248  -2149785.26244  23585643.154    23585646.755
 -25501810.82749 -19871540.14747  20240279.798    20240281.709
 -11987485.24348  -9340899.49345  23293264.692    23293267.399
    131985.84948    102819.88944  25103913.056    25103919.106
 02  1  8  2 59  0.0000000  0  8G22G13G20G31G 2G 1G27G25
 -19219911.48649 -14976560.85146  21208035.548    21208038.713
 -21001227.77249 -16364593.76547  21024777.749    21024777.983
 -10856916.32248  -8459945.36144  23304724.257    23304726.943
  -2958589.62248  -2305389.53844  24476158.765    24476165.443
  -2848004.89248  -2219225.72244  23568684.913    23568687.790
 -25496840.24049 -19867667.01347  20241225.581    20241227.605
 -12060588.22548  -9397862.92345  23279354.002    23279355.963
    216177.23648                  25119934.105
 02  1  8  2 59 30.0000000  0  8G22G13G20G31G 2G 1G27G25
 -19143588.96349 -14917088.84746  21222559.444    21222562.609
 -21058244.64549 -16409022.54247  21013928.224    21013928.558
 -10752048.65148  -8378230.45844  23324679.965    23324685.181
  -3064850.47548  -2388190.05144  24455937.951    24455949.120
  -2936924.74648  -2288513.94644  23551764.176    23551770.043
 -25491420.27549 -19863443.71847  20242256.908    20242258.792
 -12133601.01149  -9454756.08945  23265461.231    23265462.694
    300383.45848                  25135957.827
 02  1  8  3  0  0.0000000  0  8G22G13G20G31G 2G 1G27G25
 -19066850.97949 -14857293.10246  21237162.052    21237165.175
 -21114909.71549 -16453177.18247  21003144.621    21003144.991
 -10647020.82248  -8296390.80644  23344666.299    23344669.111
  -3171125.45948  -2471001.54744  24435714.228    24435721.247
  -3025646.60848  -2357647.89444  23534881.368    23534886.056
 -25485548.94749 -19858868.71347  20243374.382    20243376.375
 -12206522.12148  -9511577.82445  23251583.453    23251586.061
    384605.39648                  25151984.919
 02  1  8  3  0 30.0000000  0  8G22G13G20G31G 2G 1G27G25
 -18989695.25349 -14797171.84246  21251844.506    21251847.620
 -21171216.17449 -16497052.38747  20992430.245    20992430.563
 -10541830.60848  -8214424.59344  23364683.121    23364683.920
  -3277406.62448  -2553817.86644  24415489.407    24415497.249
  -3114163.90848  -2426622.42244  23518036.417    23518041.828
 -25479220.38449 -19853937.42147  20244578.894    20244580.875
 -12279346.07848  -9568323.83345  23237725.796    23237728.053
    468847.93348                  25168016.582
 02  1  8  3  1  0.0000000  0  8G22G20G31G 2G 1G27G13G25
 -18912120.88149 -14736724.36946  21266606.631    21266609.842
 -10436477.57048  -8132331.48244  23384731.376    23384734.485
  -3383687.74248  -2636634.17144  24395264.416    24395271.160
  -3202471.93148  -2495433.90744  23501232.502    23501237.090
 -25472430.21849 -19848646.43747  20245870.946    20245872.977
 -12352069.31649  -9624991.37445  23223887.831    23223890.730
 -21227158.31149 -16540643.69947  20981785.231    20981785.532
    553113.94048                  25184052.416
 02  1  8  3  1 30.0000000  0  8G22G20G31G 2G 1G27G13G25
 -18834137.83949 -14675958.45346  21281446.479    21281449.629
 -10330971.81348  -8050119.39444  23404809.137    23404812.259
  -3489972.81348  -2719453.59944  24375039.268    24375045.422
  -3290576.45048  -2564086.80444  23484466.677    23484470.925
 -25465184.71349 -19843000.64247  20247249.730    20247251.781
 -12424698.83048  -9681585.86745  23210065.622    23210069.277
 -21282741.37349 -16583955.21547  20971207.651    20971208.014
    637395.90348                  25200090.683
 02  1  8  3  2  0.0000000  0  8G22G20G31G 2G 1G27G13G25
 -18755749.41649 -14614876.65146  21296363.330    21296366.556
 -10225317.07748                  23424913.617
  -3596259.00048  -2802273.86244  24354813.637    24354821.086
  -3378476.60748  -2632580.44344  23467739.262    23467744.344
 -25457483.96349 -19837000.11047  20248715.143    20248717.292
 -12497234.98749  -9738107.61345  23196263.486    23196266.429
 -21337963.95149 -16626985.83147  20960699.012    20960699.433
    721693.44948                  25216131.875
 02  1  8  3  2 30.0000000  0  8G22G20G31G 2G 1G27G13G25
 -18676952.58949 -14553476.61846  21311357.911    21311361.064
 -10119510.52348  -7885344.77444  23445049.059    23445052.216
  -3702537.78748  -2885088.39544  24334589.643    24334597.441
  -3466165.15748  -2700909.22044  23451053.716    23451058.201
 -25449321.38049 -19830639.70847  20250268.567    20250270.628
 -12569671.60549  -9794551.81845  23182479.650    23182482.245
 -21392817.87149 -16669729.17847  20950260.787    20950261.132
    806012.05748                  25232177.634
 02  1  8  3  3  0.0000000  0  8G22G20G31G 2G 1G27G13G25
 -18597764.76649 -14491771.91346  21326427.209    21326430.143
 -10013569.89648  -7802793.83544  23465208.467    23465213.645
  -3808821.02248  -2967906.37444  24314364.006    24314372.446
  -3553655.57948  -2769083.58745  23434403.791    23434411.049
 -25440711.04849 -19823930.41347  20251907.079    20251908.999
 -12642023.16848  -9850929.73445  23168709.999    23168714.175
 -21447316.02749 -16712195.30647  20939890.014    20939890.379
    890336.21348                  25248224.063
 02  1  8  3  3 30.0000000  0  8G22G20G31G 2G 1G27G13G25
 -18518174.67749 -14429753.75346  21341572.485    21341575.575
  -9907484.16348                  23485396.534
  -3915091.47048  -3050714.45744  24294141.357    24294147.935
  -3640932.36148  -2837091.49345  23417796.723    23417799.749
 -25431638.27049 -19816860.76847  20253633.650    20253635.511
 -12714275.41349  -9907230.23845  23154962.327    23154964.706
 -21501442.81449 -16754372.05847  20929590.146    20929590.547
    974680.07448                  25264274.894
 02  1  8  3  4  0.0000000  0  8G22G20G31G 2G 1G27G13G25
 -18438195.88049 -14367432.71346  21356792.088    21356795.497
  -9801267.18848                  23505608.380
  -4021356.85048  -3133518.55444  24273919.479    24273925.736
  -3728005.16548  -2904940.43845  23401226.417    23401231.377
 -25422113.17049 -19809438.66847  20255446.326    20255448.480
 -12786438.92349  -9963461.62045  23141230.114    23141232.288
 -21555207.09349 -16796266.33947  20919359.082    20919359.425
   1059032.55648                  25280327.153
 02  1  8  3  4 30.0000000  0  8G22G20G31G 2G 1G27G13G25
 -18357828.23449 -14304808.67346  21372085.413    21372088.284
  -9694918.92648                  23525846.500
  -4127611.16648  -3216314.07044  24253701.022    24253706.986
  -3814869.63848  -2972627.04245  23384697.164    23384701.544
 -25412132.08149 -19801661.25047  20257345.739    20257347.786
 -12858510.37548 -10019621.25345  23127514.470    23127518.149
 -21608603.11849 -16837873.66147  20909198.096    20909198.587
   1143396.45748                  25296380.455
 02  1  8  3  5  0.0000000  0  8G22G20G31G 2G 1G27G13G25
 -18277070.64049 -14241880.78046  21387453.473    21387456.579
  -9588438.64248                  23546108.957
  -4233847.47648  -3299095.55744  24233484.520    24233491.758
  -3901520.64448  -3040147.33245  23368207.950    23368212.459
 -25401690.48749 -19793524.99647  20259332.871    20259334.963
 -12930485.56849 -10075705.87945  23113819.559    23113821.733
 -21661625.57749 -16879189.90047  20899108.475    20899109.052
   1227774.98048                  25312438.253
 02  1  8  3  5 30.0000000  0  8G22G20G31G 2G 1G27G13G25
 -18195925.36549 -14178650.80246  21402894.757    21402897.905
  -9481829.16848                  23566395.725
  -4340062.66348  -3381860.57344  24213271.997    24213279.777
  -3987956.46448  -3107499.92145  23351759.837    23351765.007
 -25390787.17549 -19785028.95747  20261407.749    20261409.620
 -13002363.90048 -10131715.02245  23100140.347    23100143.656
 -21714271.98949 -16920213.10847  20889090.208    20889090.677
   1312168.32648                  25328499.009
 02  1  8  3  6  0.0000000  0  8G22G20G31G 2G 1G27G13G25
 -18114383.50149 -14115111.79546  21418411.852    21418414.970
  -9375081.58448  -7305271.77244  23586710.641    23586718.415
  -4446241.54248  -3464597.31744  24193066.693    24193074.067
  -4074164.17148  -3174674.75845  23335354.950    23335358.385
 -25379409.81249 -19776163.53047  20263572.674    20263574.854
 -13074133.52048 -10187639.45845  23086483.047    23086486.296
 -21766528.60149 -16960932.57847  20879146.154    20879146.572
   1396588.20448                  25344562.462
 02  1  8  3  6 30.0000000  0  8G22G20G31G 2G 1G27G13G25
 -18032461.37549 -14051276.48346  21434001.464    21434004.449
  -9268212.44648  -7221997.34344  23607046.383    23607053.899
  -4552394.73048  -3547314.05844  24172867.076    24172873.217
  -4160156.06348  -3241681.44545  23318991.394    23318995.343
 -25367571.28849 -19766938.75747  20265825.448    20265827.550
 -13145807.52149 -10243489.39645  23072845.585    23072847.451
 -21818407.11649 -17001357.42747  20869273.926    20869274.352
   1481020.52348                  25360630.941
 02  1  8  3  7  0.0000000  0  8G22G20G31G 2G 1G27G13G25
 -17950161.84649 -13987147.10246  21449662.284    21449665.341
  -9161225.05648  -7138630.75144  23627406.296    23627410.607
  -4658519.31048  -3630008.50444  24152672.027    24152681.459
  -4245930.77748  -3308518.88745  23302668.961    23302674.196
 -25355271.26349 -19757354.36947  20268166.292    20268168.356
 -13217385.82748 -10299264.74445  23059222.829    23059225.995
 -21869905.58449 -17041486.13747  20859474.026    20859474.521
   1565464.98148                  25376700.900
 02  1  8  3  7 30.0000000  0  8G22G20G31G 2G 1G27G13G25
 -17867480.67649 -13922720.33846  21465396.100    21465399.119
  -9054115.24348  -7055168.83844  23647788.711    23647791.968
  -4764605.26848  -3712672.85544  24132484.399    24132492.590
  -4331480.07948  -3375180.67945  23286389.170    23286393.318
 -25342502.16449 -19747404.47347  20270596.147    20270598.182
 -13288861.13249 -10354959.83345  23045622.074    23045625.275
 -21921015.42349 -17081312.02247  20849748.330    20849748.795
   1649928.62648                  25392774.622
 02  1  8  3  8  0.0000000  0  8G22G20G31G 2G 1G27G13G25
 -17784427.11549 -13858003.39946  21481200.510    21481203.790
  -8946892.56148  -6971618.95944  23668192.440    23668198.343
  -4870655.75548  -3795309.53944  24112303.315    24112309.288
  -4416809.13748  -3441670.85545  23270152.263    23270156.279
 -25329269.82149 -19737093.61047  20273114.264    20273116.338
 -13360239.52149 -10410579.42545  23032040.677    23032042.815
 -21971740.22349 -17120837.87547  20840095.853    20840096.394
   1734404.57048                  25408850.226
 02  1  8  3  8 30.0000000  0  8G22G20G31G 2G 1G27G13G25
 -17701005.63049 -13792999.77146  21497075.518    21497078.720
  -8839561.61748  -6887984.67944  23688617.568    23688621.664
  -4976669.50248                  24092129.766
  -4501918.29748  -3507989.68145  23253956.186    23253959.979
 -25315575.41449 -19726422.69347  20275720.303    20275722.463
 -13431522.62148 -10466124.73845  23018474.188    23018477.673
 -22022080.30349 -17160063.94447  20830516.613    20830517.161
   1818890.80148                  25424928.270
 02  1  8  3  9  0.0000000  0  8G22G20G31G 2G 1G27G13G25
 -17617217.09749 -13727710.13146  21513020.045    21513023.240
  -8732123.58248                  23709062.213
  -5082641.41648  -3960493.05044  24071964.280    24071974.457
  -4586804.65348  -3574134.88245  23237802.290    23237806.267
 -25301416.51849 -19715389.84047  20278414.688    20278416.805
 -13502708.25549 -10521594.10445  23004928.891    23004931.896
 -22072031.71949 -17198987.16147  20821010.858    20821011.555
   1903389.09648   1483125.50644  25441008.746    25441009.175
 02  1  8  3  9 30.0000000  0  8G22G20G31G 2G 1G27G13G25
 -17533054.05449 -13662128.66646  21529035.752    21529039.069
  -8624571.21648  -6720460.18244  23729529.243    23729535.877
  -5188558.03048  -4043025.43044  24051809.034    24051814.375
  -4671456.47548  -3640097.35045  23221694.248    23221699.502
 -25286782.43949 -19703986.71347  20281199.507    20281201.577
 -13573785.77449 -10576979.23445  22991404.008    22991406.267
 -22121582.37449 -17237598.09847  20811581.726    20811582.288
   1987909.30948   1548987.61345  25457092.476    25457095.825
 02  1  8  3 10  0.0000000  0  7G22G20G 2G 1G27G13G25
 -17448526.73049 -13596263.34846  21545120.937    21545124.019
  -8516915.04948                  23750014.904
  -4755879.92748  -3705881.86045  23205629.052    23205633.854
 -25271679.97549 -19692218.61147  20284073.483    20284075.357
 -13644762.26549 -10632285.64445  22977896.143    22977899.208
 -22170737.71649 -17275900.99947  20802227.915    20802228.355
   2072444.35648   1614858.56145  25473180.321    25473183.402
 02  1  8  3 10 30.0000000  0  7G22G20G 2G 1G27G13G25
 -17363635.93549 -13530114.80546  21561275.150    21561278.533
  -8409156.03748  -6552604.70144  23770521.756    23770528.086
  -4840071.99848  -3771486.06845  23189607.338    23189611.427
 -25256106.57249 -19680083.54547  20287036.956    20287038.851
 -13715635.61649 -10687511.66845  22964410.333    22964413.467
 -22219493.88849 -17313892.85947  20792949.942    20792950.485
   2156995.51448                  25489270.030
 02  1  8  3 11  0.0000000  0  7G22G20G 2G 1G27G13G25
 -17278393.53049 -13463692.29246  21577496.486    21577499.703
  -8301306.38548                  23791044.648
  -4924040.64948  -3836916.17445  23173628.644    23173632.464
 -25240071.05549 -19667588.39347  20290088.453    20290090.436
 -13786414.87849 -10742664.36646  22950941.695    22950944.740
 -22267858.29849 -17351579.44647  20783746.662    20783747.128
   2241553.46048                  25505361.592
 02  1  8  3 11 30.0000000  0  7G22G20G 2G 1G27G13G25
 -17192806.62849 -13397001.33546  21593783.362    21593786.597
  -8193373.32948  -6384462.80544  23811583.927    23811589.472
  -5007788.72248  -3902174.43545  23157692.046    23157695.641
 -25223577.19449 -19654736.08847  20293227.085    20293229.099
 -13857103.88749 -10797746.75646  22937489.398    22937492.258
 -22315832.58749 -17388962.04747  20774617.179    20774617.741
   2326113.94248                  25521454.009
 02  1  8  3 12  0.0000000  0  7G22G20G 2G 1G27G13G25
 -17106854.04649 -13330025.43746  21610139.480    21610142.735
  -8085335.67148  -6300277.84444  23832142.524    23832148.915
  -5091291.00148  -3967241.12945  23141801.977    23141806.429
 -25206600.58649 -19641507.62147  20296457.500    20296459.676
 -13927678.27849 -10852739.83446  22924060.290    22924063.418
 -22363391.07249 -17426020.64147  20765567.298    20765567.744
   2410700.66048                  25537550.120
 02  1  8  3 12 30.0000000  0  6G22G20G 2G 1G27G13
 -17020567.45949 -13262789.27546  21626559.138    21626562.436
  -7977225.59648  -6216036.51644  23852716.067    23852717.287
  -5174575.43648  -4032138.11545  23125953.720    23125960.193
 -25189169.75749 -19627925.21347  20299774.553    20299776.626
 -13998166.94249 -10907666.09746  22910646.219    22910647.677
 -22410561.31949 -17462776.71347  20756591.346    20756591.654
 02  1  8  3 13  0.0000000  0  7G22G20G 2G 1G27G13G25
 -16933921.97049 -13195273.45746  21643047.850    21643051.036
  -7869018.44348  -6131719.48744  23873307.105    23873311.911
  -5257613.07348  -4096842.76345  23110152.066    23110156.181
 -25171256.51049 -19613966.89847  20303183.689    20303185.625
 -14068541.79849 -10962503.67546  22897253.928    22897256.815
 -22457313.19549 -17499206.78547  20747694.756    20747695.169
         -.43658                  25569747.736
 02  1  8  3 13 30.0000000  0  7G22G20G 2G 1G27G13G25
 -16846937.74149 -13127493.68746  21659600.135    21659603.336
  -7760734.55548  -6047342.66144  23893913.477    23893922.413
  -5340420.10348  -4161367.73745  23094394.303    23094398.560
 -25152877.79949 -19599645.88247  20306681.105    20306683.181
 -14138819.76449 -11017265.77246  22883881.534    22883884.121
 -22503662.46349 -17535323.14047  20738874.768    20738875.261
     84615.27448                  25585849.456
 02  1  8  3 14  0.0000000  0  7G22G20G 2G 1G27G13G25
 -16759605.65649 -13059442.85946  21676219.147    21676222.435
  -7652364.77048  -5962898.95444  23914534.768    23914541.237
  -5422983.50848  -4225702.84545  23078683.284    23078686.398
 -25134021.21549 -19584952.50047  20310269.401    20310271.573
 -14208988.53549 -11071942.77046  22870528.249    22870531.342
 -22549595.08049 -17571114.82847  20730134.252    20730134.638
    169249.74248                  25601954.845
 02  1  8  3 14 30.0000000  0  7G22G20G 2G 1G27G13G25
 -16671952.28349 -12991141.67746  21692899.096    21692902.935
  -7543936.01948  -5878409.29244  23935169.162    23935176.963
  -5505325.98348  -4289865.81845  23063013.718    23063018.405
 -25114710.38549 -19569905.16247  20313944.010    20313946.280
 -14279071.68949 -11126553.06046  22857191.812    22857195.104
 -22595133.05549 -17606599.00647  20721468.722    20721469.232
    253878.60148                  25618059.800
 02  1  8  3 15  0.0000000  0  7G22G20G 2G 1G27G13G25
 -16583971.38449 -12922585.28846  21709641.387    21709645.373
  -7435442.35548  -5793869.05644  23955814.655    23955820.177
  -5587437.32948  -4353848.68145  23047388.841    23047394.439
 -25094935.90449 -19554496.53747  20317707.165    20317709.225
 -14349059.97249 -11181089.41046  22843873.903    22843876.145
 -22640265.55249 -17641767.22847  20712880.266    20712880.490
    338510.72848                  25634164.259
 02  1  8  3 15 30.0000000  0  7G22G20G 2G 1G27G13G25
 -16495647.41449 -12853761.57546  21726449.011    21726452.709
  -7326868.39548  -5709266.27644  23976476.181    23976481.786
  -5669297.91248  -4417636.14145  23031810.732    23031815.499
 -25074679.08749 -19538712.06647  20321561.861    20321564.131
 -14418934.77449 -11235537.35046  22830576.403    22830579.638
 -22684972.68749 -17676603.99847  20704372.707    20704373.184
    423164.19348                  25650273.571
 02  1  8  3 16  0.0000000  0  7G22G20G 8G 2G 1G27G13
 -16406990.87049 -12784678.72446  21743319.895    21743323.492
  -7218224.60948  -5624609.05744  23997150.135    23997154.720
         -.39958                  25018160.822
  -5750914.11348  -4481233.16545  23016280.540    23016284.573
 -25053946.99849 -19522557.25747  20325506.917    20325509.232
 -14488703.27149 -11289902.45346  22817300.251    22817303.393
 -22729259.86849 -17711113.53347  20695945.180    20695945.734
 02  1  8  3 16 30.0000000  0  8G22G20G 8G 2G 1G27G13G31
 -16318000.33249 -12715335.61246  21760254.112    21760258.389
  -7109510.02148  -5539896.53244  24017838.471    24017842.670
    -92926.65348                  25000477.849
  -5832280.83848  -4544635.81745  23000796.032    23000801.218
 -25032735.57049 -19506028.93847  20329543.392    20329545.676
 -14558361.23549 -11344181.42346  22804045.937    22804048.238
 -22773120.96249 -17745291.05547  20687598.709    20687599.055
         -.49158          .11454  23770877.819    23770887.251
 02  1  8  3 17  0.0000000  0  8G22G20G 8G 2G 1G27G13G31
 -16228692.90749 -12645745.58046  21777249.187    21777252.552
  -7000741.88548  -5455142.55044  24038536.666    24038540.165
   -185833.92648                  24982798.915
  -5913411.43648  -4607854.45945  22985358.402    22985364.220
 -25011058.63449 -19489137.88347  20333668.561    20333670.800
 -14627922.65249 -11398385.17346  22790807.582    22790810.791
 -22816568.52049 -17779146.34147  20679330.755    20679331.376
   -104854.07348    -81703.94444  23750924.724    23750932.165
 02  1  8  3 17 30.0000000  0  8G22G20G 8G 2G 1G27G13G31
 -16139054.57649 -12575897.70146  21794306.748    21794311.005
  -6891906.20848  -5370335.85644  24059247.734    24059254.018
   -278705.01648                  24965125.896
  -5994288.01948  -4670875.16445  22969967.469    22969971.829
 -24988898.97849 -19471870.68947  20337885.466    20337887.749
 -14697370.42549 -11452500.35746  22777592.852    22777595.404
 -22859583.93449 -17812664.89947  20671145.223    20671145.812
   -209601.47248   -163325.25144  23730992.293    23730997.488
 02  1  8  3 18  0.0000000  0  8G20G 8G22G 2G 1G27G13G31
  -6783015.31748  -5285486.11144  24079968.877    24079973.323
   -371548.82148                  24947458.047
 -16049097.15549 -12505801.19446  21811425.314    21811429.472
  -6074918.43848  -4733704.07245  22954624.192    22954627.981
 -24966265.56449 -19454234.33247  20342192.351    20342194.675
 -14766713.27949 -11506533.78546  22764397.270    22764400.111
 -22902174.56549 -17845852.45147  20663040.887    20663041.497
   -314248.48248   -244868.35544  23711078.597    23711087.036
 02  1  8  3 18 30.0000000  0  8G20G 8G22G 2G 1G27G13G31
  -6674073.10448  -5200596.34244  24100700.477    24100706.639
   -464366.08048                  24929795.382
 -15958824.77249 -12435459.25246  21828604.104    21828607.626
  -6155302.96348  -4796341.35645  22939327.013    22939332.358
 -24943159.41349 -19436229.61047  20346589.258    20346591.920
 -14835952.23249 -11560486.25846  22751220.630    22751224.583
 -22944339.84749 -17878708.56447  20655017.202    20655017.832
   -418793.11648   -326331.65244  23691184.464    23691191.959
 02  1  8  3 19  0.0000000  0  8G20G 8G22G 2G 1G27G13G31
  -6565089.32748  -5115674.28744  24121439.416    24121444.865
   -557162.95248                  24912137.828
 -15868246.71549 -12364879.13246  21845840.093    21845844.724
  -6235446.84248  -4858791.13145  22924076.197    22924080.893
 -24919586.94549 -19417861.52547  20351074.857    20351077.431
 -14905093.31349 -11614362.46246  22738064.745    22738067.485
 -22986084.27149 -17911236.73747  20647073.456    20647073.983
   -523238.76148   -407717.83045  23671309.295    23671313.953
 02  1  8  3 19 30.0000000  0  8G20G 8G22G 2G 1G27G13G31
  -6456059.08548  -5030715.95644  24142187.332    24142195.523
   -649931.83448                  24894483.787
 -15777358.11249 -12294057.02946  21863135.918    21863140.308
  -6315341.43548  -4921046.66045  22908872.988    22908877.960
 -24895540.19449 -19399123.86647  20355650.896    20355653.685
 -14974128.64849 -11668156.27246  22724927.629    22724930.482
 -23027398.46549 -17943429.66647  20639211.404    20639212.015
   -627574.64048   -489018.48245  23651455.105    23651459.798
 02  1  8  3 20  0.0000000  0  8G20G 8G22G 2G 1G27G13G31
  -6346982.98448  -4945721.91344  24162944.448    24162953.135
   -742669.45048                  24876836.903
 -15686159.28049 -12222993.19446  21880490.679    21880495.391
  -6394983.29648  -4983105.26745  22893717.289    22893722.680
 -24871016.59049 -19380014.63847  20360317.585    20360320.208
 -15043055.45749 -11721865.50746  22711810.342    22711814.387
 -23068278.22149 -17975284.07447  20631432.196    20631432.839
   -731794.92948   -570229.06845  23631622.358    23631627.957
 02  1  8  3 20 30.0000000  0  8G20G 8G22G 2G 1G27G13G31
  -6237845.55248  -4860680.09244  24183712.428    24183716.570
   -835357.19248                  24859199.148
 -15594634.53549 -12151675.38746  21897907.297    21897911.513
  -6474352.82948  -5044951.65845  22878614.483    22878618.796
 -24845997.32849 -19360519.18047  20365078.921    20365081.435
 -15111854.94149 -11775475.52946  22698718.641    22698722.292
 -23108703.27649 -18006784.16747  20623739.632    20623740.214
   -835878.14748   -651332.85345  23611816.747    23611822.701
 02  1  8  3 21  0.0000000  0  8G20G 8G22G 2G 1G27G13G31
  -6128674.10148  -4775611.78644  24204486.835    24204494.472
   -928019.11148                  24841566.289
 -15502811.09949 -12080124.83946  21915380.774    21915385.452
  -6553473.35848  -5106604.02545  22863558.071    22863562.790
 -24820506.71349 -19340656.43247  20369929.624    20369932.321
 -15180551.18249 -11829005.10446  22685646.621    22685648.732
 -23148696.41149 -18037947.70747  20616129.632    20616130.238
   -939845.28348   -732346.13645  23592031.469    23592041.149
 02  1  8  3 21 30.0000000  0  8G20G 8G22G 2G 1G27G13G31
  -6019477.96348  -4690524.19444  24225266.710    24225274.142
  -1020661.03648                  24823937.789
 -15410698.11049 -12008348.66646  21932909.397    21932914.035
  -6632350.29649  -5168066.57445  22848548.534    22848553.151
 -24794550.92349 -19320431.20947  20374868.955    20374871.581
 -15249150.30949 -11882459.00246  22672592.381    22672595.464
 -23188261.90349 -18068778.01547  20608600.584    20608601.177
  -1043699.57148   -813271.48645  23572269.241    23572275.516
 02  1  8  3 22  0.0000000  0  8G20G 8G22G 2G 1G27G13G31
  -5910245.51048  -4605408.37044  24246053.861    24246061.001
  -1113268.05548                  24806315.093
 -15318283.74549 -11936337.64746  21950495.589    21950499.891
  -6710968.15349  -5229327.25945  22833588.019    22833592.590
 -24768115.22749 -19299832.03647  20379899.512    20379902.200
 -15317637.39449 -11935825.59746  22659559.560    22659562.949
 -23227383.53549 -18099262.46047  20601155.838    20601156.332
  -1147423.25948   -894095.05545  23552530.750    23552539.189
 02  1  8  3 22 30.0000000  0  7G20G22G 2G 1G27G13G31
  -5800982.20548  -4520268.50144  24266845.400    24266855.577
 -15225573.30349 -11864095.91946  21968137.884    21968142.612
  -6789328.51749  -5290387.29446  22818676.447    22818681.306
 -24741202.24749 -19278860.95647  20385020.936    20385023.639
 -15386014.69949 -11989106.64246  22646548.109    22646551.319
 -23266062.20249 -18129401.73647  20593795.461    20593795.959
  -1251015.87948   -974816.47245  23532817.327    23532824.033
 02  1  8  3 23  0.0000000  0  7G20G22G 2G 1G27G13G31
  -5691698.28648  -4435112.52944  24287642.133    24287647.239
 -15132576.93449 -11791631.38646  21985834.568    21985839.189
  -6867437.45649  -5351251.40546  22803812.473    22803816.532
 -24713819.12449 -19257523.53147  20390232.060    20390234.809
 -15454289.13649 -12042307.54746  22633555.290    22633558.729
 -23304303.45949 -18159200.17147  20586518.520    20586519.159
  -1354481.23248  -1055438.70445  23513128.631    23513136.319
 02  1  8  3 23 30.0000000  0  8G20G 8G22G 2G 1G27G13G31
  -5582395.41448  -4349941.82744  24308442.164    24308449.168
          .14458                  24753480.914
 -15039296.03549 -11718945.13646  22003585.451    22003590.365
  -6945292.84249  -5411917.95846  22788997.479    22789001.578
 -24685964.34649 -19235818.58447  20395532.860    20395535.427
 -15522459.17249 -12095427.08946  22620583.583    22620586.943
 -23342104.19749 -18188655.34547  20579325.502    20579325.902
  -1457814.76448  -1135958.20745  23493465.262    23493471.757
 02  1  8  3 24  0.0000000  0  8G20G 8G22G 2G 1G27G13G31
  -5473072.96548  -4264755.84344  24329245.539    24329254.227
    -92490.11148                  24735881.303
 -14945729.70749 -11646036.47446  22021390.696    22021395.302
  -7022890.10049  -5472383.36446  22774230.920    22774235.524
 -24657634.41849 -19213743.38947  20400923.613    20400926.218
 -15590520.82249 -12148462.18446  22607632.635    22607635.561
 -23379459.13049 -18217763.13947  20572217.179    20572217.841
  -1561009.86748  -1216369.82845  23473827.542    23473831.953
 02  1  8  3 24 30.0000000  0  8G20G 8G22G 2G 1G27G13G31
  -5363744.48448                  24350050.810
   -184959.61348                  24718285.627
 -14851891.65449 -11572916.07446  22039247.807    22039252.355
  -7100239.12149  -5532655.32846  22759512.515    22759515.698
 -24628840.08549 -19191306.32347  20406402.937    20406405.649
 -15658484.69849 -12201421.08946  22594698.765    22594702.037
 -23416377.56249 -18246530.80147  20565192.033    20565192.655
  -1664074.11348  -1296679.47145  23454214.803    23454222.652
 02  1  8  3 25  0.0000000  0  8G20G 8G22G 2G 1G27G13G31
  -5254395.89348                  24370858.484
   -277390.84048                  24700696.481
 -14757767.68649 -11499572.87246  22057159.207    22057164.345
  -7177321.91449  -5592719.84946  22744843.409    22744848.697
 -24599564.16049 -19168493.99047  20411974.023    20411976.775
 -15726333.28649 -12254290.15946  22581787.712    22581790.882
 -23452840.54449 -18274943.56747  20558252.857    20558253.416
  -1766987.14948  -1376871.29445  23434631.251    23434639.691
 02  1  8  3 25 30.0000000  0  8G20G 8G22G 2G 1G27G13G31
  -5145038.20548                  24391669.370
   -369791.42648                  24683113.598
 -14663368.41849 -11426015.15546  22075122.474    22075127.918
  -7254145.44949  -5652582.36346  22730224.907    22730228.096
 -24569814.71849 -19145312.68747  20417635.528    20417638.251
 -15794074.31649 -12307075.41546  22568897.371    22568900.509
 -23488854.43449 -18303006.39147  20551399.845    20551400.330
  -1869753.92648  -1456949.12345  23415074.981    23415083.173
 02  1  8  3 26  0.0000000  0  8G20G 8G22G 2G 1G27G13G31
  -5035674.55148                  24412480.505
   -462161.50848                  24665535.384
 -14568696.92949 -11352245.30546  22093138.461    22093143.406
  -7330709.11449  -5712242.36946  22715654.466    22715659.105
 -24539592.01049 -19121762.60447  20423386.766    20423389.515
 -15861707.80649 -12359776.87846  22556026.889    22556029.826
 -23524417.73849 -18330718.10547  20544632.616    20544633.201
  -1972371.59348  -1536910.75945  23395547.662    23395555.046
 02  1  8  3 26 30.0000000  0  8G20G 8G22G 2G 1G27G13G31
  -4926309.62848  -3838708.47144  24433292.912    24433297.284
   -554502.13048                  24647965.019
 -14473757.61249 -11278266.76446  22111204.773    22111210.112
  -7407013.66449  -5771700.47046  22701134.924    22701138.943
 -24508897.86449 -19097845.16747  20429227.463    20429230.324
 -15929234.92049 -12412395.43946  22543176.916    22543180.066
 -23559530.51049 -18358078.75747  20537950.851    20537951.454
  -2074838.44848  -1616754.91745  23376048.436    23376055.745
 02  1  8  3 27  0.0000000  0  8G20G 8G22G 2G 1G27G13G31
  -4816941.73348                  24454105.123
   -646808.38848                  24630398.759
 -14378548.63049 -11204078.08646  22129322.691    22129327.126
  -7483053.62649  -5830952.39646  22686664.510    22686669.576
 -24477727.56549 -19073556.70347  20435158.920    20435161.894
 -15996650.72849 -12464927.29146  22530348.257    22530351.351
 -23594186.45649 -18385083.43947  20531355.983    20531356.786
  -2177146.77448  -1696475.49245  23356579.779    23356585.902
 02  1  8  3 27 30.0000000  0  8G20G 8G22G 2G 1G27G13G31
  -4707572.70448                  24474917.896
   -739079.01448                  24612840.189
 -14283071.78549 -11129680.68346  22147490.727    22147495.674
  -7558827.00849  -5889996.59946  22672245.846    22672249.905
 -24446080.31549 -19048896.58547  20441181.576    20441184.359
 -16063953.90049 -12517371.36546  22517540.830    22517543.823
 -23628383.00149 -18411730.14847  20524848.615    20524849.238
  -2279292.23048  -1776069.18245  23337142.038    23337148.483
 02  1  8  3 28  0.0000000  0  8G20G 8G22G 2G 1G27G13G31
  -4598203.34448                  24495729.496
   -831311.47348   -647776.39844  24595289.991    24595290.715
 -14187327.67449 -11055075.01346  22165710.748    22165715.494
  -7634330.88549  -5948830.79746  22657877.729    22657882.180
 -24413954.12949 -19023863.27347  20447295.123    20447297.782
 -16131142.08749 -12569725.85146  22504755.440    22504758.452
 -23662116.32949 -18438015.90747  20518429.256    20518430.175
  -2381269.73448  -1855532.01245  23317736.078    23317743.639
 02  1  8  3 28 30.0000000  0  8G20G 8G22G 2G 1G27G13G31
  -4488844.57548                  24516541.004
   -923513.56148                  24577743.992
 -14091327.07849 -10980269.48646  22183979.132    22183984.240
  -7709572.25049  -6007460.44146  22643559.411    22643564.083
 -24381357.11549 -18998463.08147  20453498.039    20453500.921
 -16198223.00549 -12621996.74446  22491990.680    22491993.801
 -23695393.11549 -18463945.92147  20512097.161    20512097.960
  -2483083.93748  -1934867.60445  23298361.500    23298367.520
 02  1  8  3 29  0.0000000  0  8G20G 8G22G 2G 1G27G13G31
  -4379483.96648                  24537352.154
  -1015669.74048   -791432.59144  24560207.667    24560209.174
 -13995057.58149 -10905254.42446  22202298.869    22202303.484
  -7784535.02549  -6065873.00246  22629295.300    22629299.295
 -24348274.03349 -18972684.13947  20459793.410    20459796.410
 -16265180.98349 -12674171.83846  22479248.312    22479251.498
 -23728196.36749 -18489506.94947  20505854.833    20505855.528
  -2584716.49348  -2014061.68845  23279021.170    23279027.915
 02  1  8  3 29 30.0000000  0  8G20G 8G22G 2G 1G27G13G31
  -4270128.53348                  24558161.757
  -1107783.32248                  24542679.757
 -13898525.68249 -10830034.89646  22220667.862    22220673.322
  -7859222.25049  -6124070.85046  22615081.698    22615086.434
 -24314708.91949 -18946529.58447  20466180.904    20466183.765
 -16332019.49549 -12726253.83846  22466529.820    22466532.735
 -23760528.39949 -18514700.79147  20499702.451    20499703.213
  -2686167.91948  -2093114.60845  23259715.857    23259720.921
 02  1  8  3 30  0.0000000  0  8G20G 8G22G 2G 1G27G13G31
  -4160789.13048                  24578968.875
  -1199862.24348                  24525156.241
 -13801742.36949 -10754619.47146  22239085.753    22239091.464
  -7933641.43549  -6182059.83046  22600921.002    22600926.932
 -24280670.05249 -18920005.87547  20472658.251    20472661.154
 -16398746.33549 -12778248.82946  22453832.459    22453835.638
 -23792395.81149 -18539532.59247  20493638.281    20493638.975
  -2787443.14548  -2172030.27645  23240443.006    23240450.636
 02  1  8  3 30 30.0000000  0  8G20G 8G22G 2G 1G27G13G31
  -4051466.37548                  24599772.794
  -1291903.98248                  24507643.290
 -13704708.22449 -10679008.58546  22257550.973    22257555.149
  -8007789.49949  -6239837.54846  22586810.229    22586816.147
 -24246155.54949 -18893111.53847  20479226.172    20479229.189
 -16465359.13849 -12830154.96946  22441156.185    22441159.317
 -23823794.61449 -18563999.24347  20487663.335    20487663.956
  -2888536.69548  -2250804.38945  23221206.557    23221212.505
 02  1  8  3 31  0.0000000  0  8G20G 8G22G 2G 1G27G13G31
  -3942159.98948                  24620573.470
  -1383904.85648  -1078369.77144  24490134.698    24490137.747
 -13607422.62049 -10603201.76346  22276063.966    22276069.011
  -8081662.17849  -6297400.68246  22572753.494    22572757.996
 -24211162.40449 -18865844.23347  20485885.481    20485888.192
 -16531854.21949 -12881969.36546  22428502.645    22428505.859
 -23854720.03549 -18588097.02747  20481778.600    20481779.303
  -2989442.48448  -2329432.22145  23202004.029    23202010.031
 02  1  8  3 31 30.0000000  0  8G20G 8G22G 2G 1G27G13G31
  -3832876.19848                  24641369.496
  -1475867.97048                  24472635.347
 -13509891.65349 -10527203.75346  22294623.048    22294627.733
  -8155261.98949  -6354751.20146  22558747.630    22558752.316
 -24175694.07549 -18838206.65447  20492634.755    20492637.787
 -16598234.36949 -12933694.20446  22415871.341    22415874.443
 -23885174.05549 -18611827.48247  20475983.445    20475984.052
  -3090160.31248  -2407913.58345  23182838.384    23182845.378
 02  1  8  3 32  0.0000000  0  8G20G 8G22G 2G 1G27G13G31
  -3723616.15648                  24662161.354
  -1567790.98648  -1221658.03844  24455143.235    24455142.110
 -13412116.20349 -10451015.23146  22313229.338    22313235.313
  -8228586.28049  -6411887.01446  22544794.967    22544798.919
 -24139748.91449 -18810197.51747  20499474.827    20499477.950
 -16664497.45249 -12985327.82446  22403261.836    22403264.744
 -23915152.99449 -18635187.74447  20470278.398    20470279.028
  -3190685.09148  -2486244.56445  23163709.649    23163716.528
 02  1  8  3 32 30.0000000  0  8G20G 8G22G 2G 1G27G13G31
  -3614379.07848  -2816430.67244  24682948.758    24682956.572
  -1659670.23448                  24437658.979
 -13314095.51249 -10374635.62046  22331882.613    22331888.558
  -8301631.03049  -6468805.01646  22530894.722    22530899.281
 -24103323.64649 -18781814.26847  20506406.188    20506409.308
 -16730639.59949 -13036867.20246  22390675.207    22390678.412
 -23944652.23649 -18658174.21447  20464664.929    20464665.645
  -3291010.24348  -2564420.00245  23144617.615    23144624.707
 02  1  8  3 33  0.0000000  0  8G20G 8G22G 2G 1G27G13G31
  -3505176.94648                  24703729.879
  -1751514.39448  -1364819.43144  24420182.990    24420187.063
 -13215841.59449 -10298074.28046  22350579.731    22350584.554
  -8374404.61749  -6525511.71746  22517046.363    22517051.258
 -24066427.86049 -18753064.38347  20513427.315    20513430.434
 -16796669.69749 -13088319.27046  22378110.402    22378113.203
 -23973679.52849 -18680792.93247  20459141.341    20459142.145
  -3391141.75548  -2642444.55745  23125563.914    23125570.681
 02  1  8  3 33 30.0000000  0  8G20G 8G22G 2G 1G27G13G31
  -3396014.12348  -2646277.20744  24724503.627    24724515.293
  -1843324.59148  -1436360.02744  24402710.188    24402720.365
 -13117358.36648 -10221334.24546  22369320.354    22369326.846
  -8446907.69449  -6582007.63246  22503249.618    22503254.182
 -24029063.12949 -18723949.08747  20520537.848    20520540.981
 -16862588.73449 -13139684.79746  22365566.141    22365569.096
 -24002234.27949 -18703043.43247  20453707.811    20453708.495
  -3491077.49648  -2720316.56545  23106546.443    23106552.754
 02  1  8  3 34  0.0000000  0  8G20G 8G22G 2G 1G27G13G31
  -3286891.24448                  24745268.864
  -1935098.30648  -1507872.22344  24385248.340    24385252.611
 -13018646.50048 -10144416.06246  22388104.715    22388110.239
  -8519137.15649  -6638290.33346  22489504.491    22489509.723
 -23991227.54249 -18694466.89047  20527737.807    20527741.004
 -16928394.17049 -13190961.80146  22353044.079    22353047.243
 -24030313.30149 -18724923.23447  20448364.681    20448365.387
  -3590812.15848  -2798031.91045  23087567.070    23087573.655
 02  1  8  3 34 30.0000000  0  8G20G 8G22G 2G 1G27G13G31
  -3177805.94348                  24766027.997
  -2026829.93348  -1579351.57544  24367790.378    24367793.939
 -12919703.46348 -10067317.75946  22406932.558    22406938.174
  -8591087.09649  -6694355.22946  22475813.194    22475817.562
 -23952916.24149 -18664614.00647  20535028.166    20535031.307
 -16994080.58949 -13242146.06646  22340544.117    22340547.399
 -24057909.88349 -18746427.10447  20443113.150    20443113.958
  -3690337.61448  -2875584.22545  23068627.970    23068634.888
 02  1  8  3 35  0.0000000  0  8G20G 8G22G 2G 1G27G13G31
  -3068768.34048                  24786777.770
  -2118526.29548  -1650803.43544  24350342.600    24350344.722
 -12820539.19548  -9990047.06046  22425803.269    22425809.218
  -8662764.01149  -6750207.37746  22462172.914    22462178.319
 -23914136.87549 -18634396.39847  20542407.607    20542410.807
 -17059654.69349 -13293242.81446  22328065.122    22328068.671
 -24085029.68549 -18767559.45947  20437952.221    20437953.224
  -3789657.66748  -2952976.49345  23049728.578    23049736.769
 02  1  8  3 35 30.0000000  0  8G20G 8G22G 2G 1G27G13G31
  -2959772.12848  -2306350.59644  24807518.965    24807528.646
  -2210177.97548  -1722220.54344  24332902.481    24332906.602
 -12721147.35848  -9912599.04346  22444716.815    22444722.816
  -8734158.02049  -6805839.08546  22448587.676    22448592.188
 -23874880.51549 -18603807.10647  20549877.707    20549880.964
 -17125106.97949 -13344244.63146  22315611.075    22315614.390
 -24111661.79549 -18788311.79447  20432884.200    20432885.193
  -3888760.11948  -3030199.18945  23030869.643    23030875.541
 02  1  8  3 36  0.0000000  0  8G20G 8G22G 2G 1G27G13G31
  -2850825.67148  -2221457.80944  24828250.956    24828259.395
  -2301790.49848  -1793607.05544  24315468.330    24315474.196
 -12621536.22848  -9834980.14246  22463672.572    22463678.153
  -8805274.27449  -6861254.35546  22435054.616    22435059.384
 -23835153.37549 -18572850.97147  20557438.144    20557441.302
 -17190442.92449 -13395155.79946  22303177.805    22303181.328
 -24137811.07749 -18808687.90247  20427908.365    20427909.344
  -3987647.48448  -3107254.27645  23012052.187    23012059.072
 02  1  8  3 36 30.0000000  0  8G20G 8G22G 2G 1G27G13G31
  -2741925.55148  -2136601.09344  24848975.228    24848982.257
  -2393356.92548  -1864957.69144  24298045.085    24298049.335
 -12521702.03248  -9757187.44145  22482670.237    22482676.269
  -8876105.41849  -6916447.46346  22421575.868    22421580.334
 -23794949.23649 -18541523.15047  20565088.723    20565091.889
 -17255655.69749 -13445970.98346  22290767.705    22290771.420
 -24163469.46449 -18828681.49247  20423025.990    20423026.864
  -4086309.97448  -3184134.12345  22993277.054    22993284.343
 02  1  8  3 37  0.0000000  0  8G20G 8G22G 2G 1G27G13G31
  -2633089.20048                  24869685.646
  -2484891.46048  -1936283.38644  24280625.465    24280633.904
 -12421662.17748  -9679234.48745  22501707.398    22501714.517
  -8946665.35349  -6971429.24346  22408149.049    22408153.330
 -23754283.23849 -18509835.43747  20572827.234    20572830.439
 -17320759.38049 -13496701.16646  22278379.684    22278382.906
 -24188650.32149 -18848302.98047  20418234.260    20418235.171
  -4184759.13048  -3260847.72445  22974543.155    22974550.299
 02  1  8  3 37 30.0000000  0  8G20G 8G22G 2G 1G27G13G31
  -2524295.43148                  24890389.172
  -2576369.74148  -2007565.36144  24263218.997    24263223.170
 -12321395.29348  -9601104.62345  22520787.470    22520793.520
  -9016929.41849  -7026180.47746  22394777.882    22394782.573
 -23713131.78849 -18477769.45347  20580657.763    20580661.081
 -17385729.63049 -13547327.37446  22266016.342    22266019.508
 -24213327.98849 -18867532.37347  20413538.422    20413539.222
  -4282967.76648  -3337373.87845  22955853.818    22955861.267
 02  1  8  3 38  0.0000000  0  8G20G 8G22G 2G 1G27G13G31
  -2415549.19648  -1882283.47844  24911084.169    24911086.404
  -2667793.73548  -2078804.93144  24245820.518    24245827.943
 -12220906.22348  -9522801.62446  22539910.751    22539916.878
  -9086899.16349  -7080702.36646  22381463.667    22381468.246
 -23671497.65049 -18445327.34747  20588580.724    20588583.945
 -17450568.37349 -13597851.10646  22253677.378    22253680.601
 -24237503.51549 -18886370.48647  20408937.825    20408938.708
  -4380934.50348  -3413711.54745  22937212.216    22937217.560
 02  1  8  3 38 30.0000000  0  8G20G 8G22G 2G 1G27G13G31
  -2306863.94848  -1797594.30744  24931765.960    24931775.889
  -2759173.68848  -2150010.27144  24228431.985    24228436.646
 -12120208.30548  -9444335.89745  22559072.394    22559079.545
  -9156584.77949  -7135002.85446  22368202.388    22368207.211
 -23629391.93449 -18412517.78247  20596593.351    20596596.637
 -17515285.87149 -13648280.35346  22241362.561    22241365.957
 -24261186.16449 -18904824.54047  20404431.142    20404431.995
  -4478666.92548  -3489866.60445  22918613.309    22918621.996
 02  1  8  3 39  0.0000000  0  8G20G 8G22G 2G 1G27G13G31
  -2198244.82848                  24952435.624
  -2850511.71348  -2221182.86744  24211051.524    24211055.489
 -12019306.46048  -9365711.27245  22578274.493    22578280.497
  -9225987.69649  -7189083.04946  22354995.884    22355000.945
 -23586817.37549 -18379342.88447  20604695.008    20604698.332
 -17579883.92349 -13698616.53446  22229069.981    22229073.300
 -24284376.79949 -18922895.20647  20400018.088    20400018.846
  -4576164.35548  -3565838.54745  22900060.979    22900067.578
 02  1  8  3 39 30.0000000  0  8G20G 8G22G 2G 1G27G13G31
  -2089686.15348                  24973094.158
  -2941798.77548  -2292315.75344  24193680.080    24193684.936
 -11918195.04348  -9286923.31445  22597514.630    22597521.773
  -9295098.92349  -7242935.97246  22341844.338    22341848.387
 -23543766.03849 -18345796.47347  20612887.487    20612890.932
 -17644353.71249 -13748852.76346  22216801.313    22216804.528
 -24307066.02049 -18940575.16047  20395700.539    20395701.476
  -4673414.89948  -3641618.11345  22881553.892    22881561.265
 02  1  8  3 40  0.0000000  0  8G20G 8G22G 2G 1G27G13G31
  -1981195.73348  -1543828.47244  24993740.003    24993749.435
  -3033039.54548  -2363412.58644  24176317.963    24176322.985
 -11816881.46448  -9207977.86045  22616794.815    22616801.389
  -9363922.70049  -7296564.89346  22328747.366    22328752.079
 -23500243.24849 -18311882.69647  20621169.757    20621173.028
 -17708699.68249 -13798992.50446  22204556.893    22204560.135
 -24329257.09549 -18957866.95047  20391477.757    20391478.703
  -4770420.47248  -3717206.75945  22863095.447    22863102.518
 02  1  8  3 40 30.0000000  0  8G20G 8G22G 2G 1G27G13G31
  -1872786.09948                  25014369.666
  -3124243.39948  -2434480.67844  24158961.778    24158967.119
 -11715378.41048  -9128884.74845  22636109.845    22636115.888
  -9432468.38349  -7349977.11646  22315703.570    22315708.211
 -23456259.54349 -18277609.76347  20629539.826    20629543.052
 -17772931.33549 -13849043.16946  22192334.065    22192337.491
 -24350958.79749 -18974777.41147  20387347.995    20387349.131
  -4867187.84948  -3792609.80645  22844680.391    22844687.751
 02  1  8  3 41  0.0000000  0  8G20G 8G22G 2G 1G27G13G31
  -1764450.77248                  25034985.713
  -3215400.79448  -2505512.51144  24141615.821    24141622.665
 -11613679.02248  -9049638.67045  22655462.832    22655469.667
  -9500725.94449  -7403164.83646  22302714.653    22302719.688
 -23411805.98349 -18242970.71147  20637998.604    20638002.171
 -17837038.84449 -13898997.10646  22180134.564    22180138.201
 -24372160.47249 -18991298.23847  20383313.336    20383314.297
  -4963704.35548  -3867817.38945  22826313.979    22826320.139
 02  1  8  3 41 30.0000000  0  8G20G 8G22G 2G 1G27G13G31
  -1656188.19648                  25055587.490
  -3306507.25748  -2576504.68144  24124279.106    24124282.309
 -11511781.83548  -8970238.41945  22674853.461    22674858.878
  -9568690.48549  -7456124.22646  22289781.351    22289785.983
 -23366879.05049 -18207962.79947  20646548.158    20646551.652
 -17901017.70149 -13948850.79246  22167959.886    22167963.486
 -24392856.35049 -19007424.93847  20379375.170    20379376.468
  -5059962.70748  -3942823.79245  22807996.885    22808002.998
 02  1  8  3 42  0.0000000  0  8G20G 8G22G 2G 1G27G13G31
  -1548008.49948                  25076173.593
  -3397569.58348  -2647462.46344  24106949.826    24106953.998
 -11409696.75248  -8890691.81545  22694279.443    22694286.657
  -9636368.73449  -7508860.53946  22276902.572    22276907.825
 -23321486.69949 -18172592.22647  20655186.290    20655189.503
 -17964874.89549 -13998609.68246  22155808.331    22155811.884
 -24413052.82249 -19023162.49747  20375531.868    20375533.204
  -5155966.64048  -4017631.96145  22789727.555    22789734.370
 02  1  8  3 42 30.0000000  0  8G20G 8G22G 2G 1G27G13G31
  -1439912.84448                  25096743.879
  -3488585.88748  -2718384.37644  24089631.045    24089635.482
 -11307424.68048  -8810999.47445  22713741.819    22713748.500
  -9703758.71249  -7561372.21746  22264078.896    22264083.917
 -23275627.82149 -18136858.12547  20663913.050    20663916.343
 -18028608.40749 -14048272.19746  22143680.217    22143683.668
 -24432746.97049 -19038508.62747  20371784.482    20371785.645
  -5251711.49648  -4092238.25345  22771508.074    22771515.344
 02  1  8  3 43  0.0000000  0  7G 8G22G 2G 1G27G13G31
  -3579552.91848  -2789267.92844  24072320.001    24072325.187
 -11204965.54548  -8731161.36845  22733238.491    22733246.372
  -9770857.04249  -7613656.63346  22251310.212    22251315.032
 -23229300.16749 -18100758.74747  20672728.761    20672732.157
 -18092214.82149 -14097835.67546  22131576.722    22131579.866
 -24451934.81149 -19053460.24247  20368133.238    20368134.636
  -5347191.20048  -4166637.94245  22753339.459    22753345.234
 02  1  8  3 43 30.0000000  0  7G 8G22G 2G 1G27G13G31
  -3670473.95848  -2860115.59844  24055018.382    24055024.190
 -11102325.64048  -8651182.41945  22752771.395    22752777.946
  -9837666.72449  -7665716.13946  22238597.026    22238601.488
 -23182508.16249 -18064297.53447  20681633.080    20681636.405
 -18155697.53249 -14147302.75646  22119496.668    22119499.860
 -24470618.88749 -19068019.31747  20364577.619    20364578.866
  -5442406.51348  -4240831.61345  22735219.551    22735226.742
 02  1  8  3 44  0.0000000  0  7G 8G22G 2G 1G27G13G31
  -3761348.26948  -2930926.85844  24037725.195    24037731.831
 -10999507.16348  -8571064.32545  22772336.349    22772342.646
  -9904186.93449  -7717550.06746  22225938.476    22225943.743
 -23135252.25649 -18027474.83947  20690625.866    20690629.210
 -18219055.81649 -14196672.88446  22107439.158    22107442.604
 -24488797.69549 -19082184.67447  20361118.411    20361119.669
  -5537353.86548  -4314816.50445  22717152.039    22717158.254
 02  1  8  3 44 30.0000000  0  8G20G 8G22G 2G 1G27G13G31
         -.99558                  25178855.542
  -3852179.58548  -3001704.62944  24020441.806    24020446.550
 -10896516.63448  -8490812.15345  22791935.485    22791942.489
  -9970420.93849  -7769160.99046  22213334.854    22213339.497
 -23087536.87049 -17990294.10847  20699705.819    20699709.242
 -18282293.03749 -14245948.67746  22095405.878    22095409.069
 -24506474.13949 -19095958.58147  20357754.697    20357755.954
  -5632033.94748  -4388593.14045  22699134.750    22699141.280
 02  1  8  3 45  0.0000000  0  7G 8G22G 2G 1G27G13G31
  -3942944.31748  -3072430.53044  24003168.856    24003175.388
 -10793333.60748  -8410409.97445  22811570.644    22811577.901
 -10036345.13449  -7820530.48746  22200789.406    22200794.821
 -23039339.56149 -17952737.85647  20708877.597    20708880.805
 -18345385.62749 -14295111.76946  22083399.915    22083403.114
 -24523623.47249 -19109321.75047  20354491.297    20354492.760
  -5726420.69148  -4462141.19645  22681173.499    22681180.065
 02  1  8  3 45 30.0000000  0  8G 3G 8G22G 2G 1G27G13G31
         -.11359         1.26056  22087678.929    22087683.392
  -4033665.72348  -3143122.64144  23985906.239    23985911.511
 -10689984.28848  -8329878.24345  22831237.383    22831244.134
 -10101982.56949  -7871676.54546  22188299.380    22188303.986
 -22990684.74249 -17914825.09647  20718136.107    20718139.528
 -18408356.70349 -14344180.17346  22071417.565    22071420.617
 -24540268.51649 -19122291.96947  20351323.880    20351325.318
  -5820534.46048  -4535476.55245  22663263.928    22663270.591
 02  1  8  3 46  0.0000000  0  8G 3G 8G22G 2G 1G27G13G31
    -29412.99549    -22917.79646  22082081.484    22082086.681
  -4124334.88248  -3213774.06444  23968651.356    23968657.477
 -10586462.74448  -8249212.30945  22850937.274    22850943.913
 -10167324.31849  -7922592.19046  22175865.147    22175870.139
 -22941564.47149 -17876549.65147  20727483.702    20727486.968
 -18471197.39349 -14393146.96946  22059458.930    22059462.390
 -24556399.76849 -19134861.83347  20348254.283    20348255.654
  -5914363.68048  -4608590.20545  22645409.509    22645416.634
 02  1  8  3 46 30.0000000  0  8G 3G 8G22G 2G 1G27G13G31
    -58257.70349    -45394.13046  22076593.180    22076598.462
  -4214936.74948  -3284373.03245  23951411.610    23951416.829
 -10482756.66948  -8168402.60045  22870671.305    22870678.655
 -10232355.09549  -7973265.51846  22163490.328    22163495.457
 -22891964.79549 -17837900.64347  20736922.279    20736925.781
 -18533892.47749 -14442000.30746  22047527.786    22047531.238
 -24572001.36749 -19147018.98247  20345285.284    20345286.798
  -6007889.97648  -4681467.79745  22627612.020    22627617.353
 02  1  8  3 47  0.0000000  0  8G 3G 8G22G 2G 1G27G13G31
    -86547.68949    -67438.21146  22071209.965    22071215.140
  -4305485.52248  -3354930.16045  23934180.108    23934183.437
 -10378883.30148  -8087462.52445  22890438.860    22890445.537
 -10297089.04349  -8023707.54546  22151171.665    22151176.510
 -22841901.16249 -17798890.10847  20746449.179    20746452.484
 -18596456.22149 -14490751.29646  22035622.994    22035626.180
 -24587086.35449 -19158773.57347  20342414.634    20342416.070
  -6101125.00648  -4754118.45446  22609869.450    22609875.716
 02  1  8  3 47 30.0000000  0  8G 3G 8G22G 2G 1G27G13G31
   -114292.47949    -89057.47346  22065930.005    22065935.237
  -4395991.40948  -3425453.63044  23916958.081    23916964.091
 -10274855.87648  -8006402.39345  22910233.912    22910241.426
 -10361536.34049  -8073926.20746  22138908.074    22138912.791
 -22791385.06649 -17759527.00647  20756061.972    20756065.485
 -18658898.99849 -14539408.03546  22023741.533    22023744.335
 -24601664.79249 -19170133.45147  20339640.554    20339641.798
  -6194076.50148  -4826548.16145  22592182.079    22592187.919
 02  1  8  3 48  0.0000000  0  8G 3G 8G22G 2G 1G27G13G31
   -141485.32349   -110246.64746  22060755.312    22060760.337
  -4486448.77548  -3495940.04045  23899744.430    23899749.174
 -10170671.63648  -7925220.08745  22930060.523    22930066.483
 -10425691.20449  -8123917.00046  22126699.304    22126704.196
 -22740411.83349 -17719807.69447  20765762.054    20765765.631
 -18721214.80149 -14587965.82346  22011882.325    22011885.521
 -24615730.16249 -19181093.53747  20336964.168    20336965.514
  -6286735.77248  -4898750.17746  22574549.011    22574554.660
 02  1  8  3 48 30.0000000  0  8G 3G 8G22G 2G 1G27G13G31
   -168106.89849   -130990.68246  22055688.948    22055694.219
  -4576839.22748  -3566374.23644  23882542.441    23882547.696
 -10066315.13848  -7843903.55745  22949918.086    22949924.234
 -10489535.11349  -8173665.48846  22114550.965    22114555.587
 -22688964.33149 -17679718.82247  20775551.948    20775555.556
 -18783385.07749 -14636410.22446  22000050.887    22000054.381
 -24629263.53749 -19191639.08147  20334389.078    20334390.363
  -6379081.54248  -4970707.89446  22556976.267    22556982.270
 02  1  8  3 49  0.0000000  0  8G 3G 8G22G 2G 1G27G13G31
   -194174.35449   -151302.95346  22050728.612    22050734.100
  -4667180.55548  -3636770.14944  23865352.611    23865357.179
  -9961806.93048  -7762468.81245  22969806.486    22969812.964
 -10553086.02549  -8223185.67446  22102456.489    22102462.020
 -22637061.65049 -17639275.26347  20785428.861    20785432.708
 -18845427.65149 -14684755.11346  21988245.951    21988249.114
 -24642282.03749 -19201783.42347  20331911.974    20331913.308
  -6471129.04248  -5042433.20646  22539460.143    22539467.136
 02  1  8  3 49 30.0000000  0  8G 3G 8G22G 2G 1G27G13G31
   -219683.33249   -171180.04646  22045874.312    22045879.733
  -4757469.48248  -3707125.26244  23848170.091    23848177.065
  -9857146.82348  -7680915.69445  22989722.190    22989729.978
 -10616340.67649  -8272475.00646  22090420.558    22090425.006
 -22584701.55849 -17598475.28247  20795392.829    20795396.731
 -18907339.18549 -14732997.89646  21976464.720    21976467.729
 -24654781.70549 -19211523.47647  20329533.197    20329534.448
  -6562872.11448  -5113921.27946  22522002.105    22522008.816
 02  1  8  3 50  0.0000000  0  8G 3G 8G22G 2G 1G27G13G31
   -244628.41449   -190617.74846  22041127.415    22041132.391
  -4847701.17948  -3777435.76044  23831001.258    23831005.522
  -9752332.77748  -7599242.66445  23009668.061    23009674.755
 -10679293.99249  -8321529.53446  22078440.222    22078445.280
 -22531880.53349 -17557316.13247  20805444.235    20805448.238
 -18969114.73749 -14781134.72446  21964708.320    21964711.523
 -24666757.15149 -19220855.04647  20327254.421    20327255.510
  -6654303.26448  -5185166.31046  22504604.069    22504610.684
 02  1  8  3 50 30.0000000  0  8G 3G 8G22G 2G 1G27G13G31
   -269005.14049   -209612.58646  22036488.768    22036494.177
  -4937871.86948  -3847698.71844  23813841.431    23813848.231
  -9647364.06448  -7517449.07645  23029643.177    23029650.736
 -10741942.05349  -8370346.20246  22066519.170    22066523.671
 -22478596.09749 -17515795.88447  20815584.305    20815588.221
 -19030750.42849 -14829162.56246  21952979.227    21952982.383
 -24678203.94949 -19229774.68047  20325076.226    20325077.362
  -6745416.03948  -5256163.23746  22487264.932    22487272.538
 02  1  8  3 51  0.0000000  0  8G 3G 8G22G 2G 1G27G13G31
   -292823.56849   -228172.39046  22031956.179    22031961.506
  -5027992.38348  -3917922.56045  23796691.507    23796699.698
  -9542254.34848  -7435545.65345  23049644.780    23049652.705
 -10804295.70749  -8418933.47246  22054653.825    22054658.010
 -22424860.36649 -17473923.97647  20825809.443    20825813.556
 -19092257.01749 -14877089.80346  21941275.441    21941278.880
 -24689132.80349 -19238290.72247  20322996.529    20322998.016
  -6836218.49848  -5326918.39446  22469986.214    22469992.459
 02  1  8  3 51 30.0000000  0  8G 3G 8G22G 2G 1G27G13G31
   -316076.31549   -246291.41046  22027531.386    22027536.482
  -5118056.29348  -3988102.29044  23779554.248    23779558.838
  -9437000.13248  -7353529.60645  23069674.984    23069680.433
 -10866348.69049  -8467286.44946  22042845.170    22042850.152
 -22370668.22749 -17431696.42347  20836122.183    20836126.276
 -19153627.91249 -14924911.31446  21929597.326    21929600.553
 -24699536.61149 -19246397.63647  20321016.766    20321018.238
  -6926701.81548  -5397424.81846  22452767.331    22452773.684
 02  1  8  3 52  0.0000000  0  8G 3G 8G22G 2G 1G27G13G31
   -338751.11349   -263960.09646  22023216.222    22023220.822
  -5208052.16348  -4058228.96644  23762427.307    23762434.035
  -9331592.57348  -7271394.08745  23089732.561    23089741.745
 -10928089.35149  -8515396.05846  22031096.732    22031101.396
 -22316009.54149 -17389105.33147  20846523.338    20846527.474
 -19214851.49249 -14972618.03246  21917946.438    21917949.982
 -24709402.90649 -19254085.71347  20319139.241    20319140.658
  -7016851.50748  -5467671.30946  22435612.844    22435618.845
 02  1  8  3 52 30.0000000  0  8G 3G 8G22G 2G 1G27G13G31
   -360845.35449   -281176.40746  22019012.461    22019017.852
  -5297977.75448  -4128301.07444  23745316.406    23745321.041
  -9226032.64148  -7189139.85045  23109821.446    23109826.448
 -10989515.76349  -8563260.80446  22019407.679    22019412.437
 -22260883.44949 -17346150.02647  20857013.572    20857017.888
 -19275925.64649 -15020208.31246  21906323.961    21906327.558
 -24718729.29749 -19261353.08747  20317364.388    20317365.767
  -7106662.56848  -5537653.92346  22418522.113    22418528.956
 02  1  8  3 53  0.0000000  0  8G 3G 8G22G 2G 1G27G13G31
   -382393.80349   -297967.42746  22014911.706    22014916.952
  -5387868.27448  -4198345.67544  23728209.085    23728219.262
  -9120358.43748  -7106796.53545  23129929.436    23129937.141
 -11050663.15549  -8610908.13646  22007771.652    22007776.434
 -22205326.67149 -17302859.12447  20867585.952    20867589.895
 -19336885.47349 -15067709.50746  21894724.276    21894727.658
 -24727550.54149 -19268226.83847  20315685.948    20315687.228
  -7196167.78949  -5607398.21446  22401490.437    22401495.614
 02  1  8  3 53 30.0000000  0  8G 3G 8G22G 2G 1G27G13G31
   -403369.24149   -314311.95646  22010919.962    22010925.058
  -5477697.56848  -4268342.60745  23711116.379    23711125.563
  -9014546.38148  -7024345.86845  23150066.064    23150075.000
 -11111505.19149  -8658317.54446  21996193.426    21996198.196
 -22149314.15349 -17259213.09747  20878244.496    20878248.676
 -19397704.63449 -15115101.06846  21883151.105    21883154.248
 -24735839.98849 -19274686.20147  20314108.619    20314109.887
  -7285337.98649  -5676881.46546  22384521.920    22384527.592
 02  1  8  3 54  0.0000000  0  8G 3G 8G22G 2G 1G27G13G31
   -423766.71949   -330206.13046  22007038.694    22007043.963
  -5567461.05748  -4338288.20744  23694034.592    23694044.520
  -8908594.95048  -6941786.54045  23170227.520    23170232.962
 -11172037.49449  -8705485.55446  21984675.010    21984679.247
 -22092842.78249 -17215209.52847  20888990.917    20888994.971
 -19458378.54249 -15162379.50246  21871604.625    21871608.303
 -24743592.97849 -19280727.55147  20312632.837    20312634.370
  -7374165.98348  -5746098.06746  22367617.390    22367624.175
 02  1  8  3 54 30.0000000  0  8G 3G 8G22G 2G 1G27G13G31
   -443598.75749   -345659.70846  22003264.609    22003269.536
  -5657171.54048  -4408192.53445  23676963.963    23676970.387
  -8802519.83348  -6859130.89445  23190413.250    23190421.690
 -11232273.08249  -8752422.38846  21973212.032    21973216.802
 -22035926.91049 -17170859.59447  20899822.043    20899825.660
 -19518919.85449 -15209554.58046  21860083.397    21860087.385
 -24750821.42149 -19286360.15847  20311257.537    20311259.023
  -7462661.65149  -5815055.69546  22350778.141    22350784.075
 02  1  8  3 55  0.0000000  0  8G 3G 8G22G 2G 1G27G13G31
   -462860.59649   -360668.99046  21999599.434    21999604.611
  -5746825.05248  -4478052.47745  23659903.506    23659908.198
  -8696319.97048  -6776377.98745  23210623.316    23210631.755
 -11292207.96449  -8799124.90546  21961807.159    21961811.458
 -21978563.80349 -17126161.16647  20910737.803    20910741.900
 -19579324.60849 -15256623.26946  21848589.419    21848593.137
 -24757521.33949 -19291580.93147  20309982.640    20309984.114
  -7550818.66049  -5883749.45946  22334002.490    22334007.750
 02  1  8  3 55 30.0000000  0  8G 3G 8G22G 2G 1G27G13G31
   -481549.38549   -375231.73446  21996042.821    21996048.124
  -5836419.60148  -4547866.47645  23642853.530    23642860.644
  -8589995.81248  -6693528.27845  23230855.472    23230863.195
 -11351840.06749  -8845591.49146  21950459.170    21950463.849
 -21920752.86649 -17081113.78347  20921738.545    20921742.840
 -19639590.38549 -15303583.65746  21837121.182    21837124.816
 -24763690.05249 -19296387.77647  20308808.682    20308810.277
  -7638632.23048  -5952175.59346  22317290.945    22317297.629
 02  1  8  3 56  0.0000000  0  8G 3G 8G22G 2G 1G27G13G31
   -499653.82549   -389339.14946  21992597.798    21992603.753
  -5925943.80848  -4617625.64145  23625818.367    23625825.794
  -8483539.39248  -6610575.49745  23251114.187    23251121.989
 -11411158.56549  -8891813.70846  21939171.934    21939176.485
 -21862484.58149 -17035710.02447  20932827.243    20932831.114
 -19699706.08149 -15350427.10446  21825681.655    21825685.389
 -24769316.54149 -19300772.11147  20307738.416    20307740.056
  -7726088.63549  -6020323.44046  22300649.378    22300655.761
 02  1  8  3 56 30.0000000  0  8G 3G 8G22G 2G 1G27G13G31
   -517174.94449   -402992.03946  21989263.447    21989269.083
  -6015399.34848  -4687331.32145  23608795.492    23608802.162
  -8376954.88748  -6527522.88245  23271396.456    23271405.640
 -11470164.76349  -8937792.57546  21927942.668    21927947.978
 -21803761.93549 -16989952.21747  20944001.533    20944005.785
 -19759672.96649 -15397154.59246  21814270.578    21814274.199
 -24774401.13449 -19304734.18647  20306770.852    20306772.574
  -7813186.60649  -6088191.98946  22284075.448    22284080.826
 02  1  8  3 57  0.0000000  0  8G 3G 8G22G 2G 1G27G13G31
   -534110.64649   -416188.76546  21986040.530    21986045.218
  -6104784.42748  -4756982.09945  23591786.822    23591792.212
  -8270243.46448  -6444371.42145  23291703.780    23291711.359
 -11528857.30449  -8983527.03646  21916774.042    21916778.897
 -21744584.88449 -16943840.33147  20955262.382    20955266.782
 -19819489.31849 -15443764.78546  21802887.814    21802891.377
 -24778942.26949 -19308272.79247  20305906.563    20305908.375
  -7899921.88148  -6155777.91246  22267569.414    22267575.377
 02  1  8  3 57 30.0000000  0  8G 3G 8G22G 2G 1G27G13G31
   -550466.04449   -428933.30046  21982928.169    21982933.696
  -6194104.74848  -4826582.38345  23574789.294    23574795.971
  -8163413.47548  -6361127.53245  23312032.110    23312039.982
 -11587242.00549  -9029021.61646  21905663.746    21905668.649
 -21684960.29949 -16897379.71947  20966609.397    20966613.264
 -19879160.63449 -15490261.96046  21791532.829    21791536.340
 -24782945.48849 -19311392.23847  20305144.824    20305146.461
  -7986297.53649  -6223083.61746  22251133.408    22251139.390
 02  1  8  3 58  0.0000000  0  8G 3G 8G22G 2G 1G27G13G31
   -566242.35049   -441226.61246  21979926.506    21979931.830
  -6283361.97148  -4896133.51345  23557803.603    23557809.568
  -8056469.53448  -6277794.87245  23332383.412    23332392.596
 -11645320.65149  -9074277.71746  21894612.007    21894616.808
 -21624891.62249 -16850573.05847  20978039.759    20978044.063
 -19938688.53549 -15536647.38246  21780205.066    21780208.571
 -24786411.87249 -19314093.37447  20304485.301    20304486.943
  -8072312.64549  -6290108.39046  22234765.147    22234770.999
 02  1  8  3 58 30.0000000  0  8G 3G 8G22G 2G 1G27G13G31
   -581446.42549   -453074.01346  21977033.522    21977039.212
  -6372563.00548  -4965640.87945  23540829.619    23540836.167
  -7949421.29248  -6194380.95245  23352754.496    23352762.935
 -11703100.42749  -9119300.92946  21883616.682    21883621.639
 -21564387.36949 -16803426.99247  20989553.355    20989557.814
 -19998079.79149 -15582926.33046  21768903.519    21768907.050
 -24789348.13949 -19316381.43247  20303926.605    20303928.103
  -8157971.48948  -6356855.54646  22218463.847    22218470.186
 02  1  8  3 59  0.0000000  0  8G 3G 8G22G 2G 1G27G13G31
   -596064.74349   -464464.98946  21974251.924    21974257.035
  -6461694.91848  -5035094.36845  23523868.501    23523874.554
  -7842258.51348  -6110877.78645  23373146.425    23373154.616
 -11760568.40449  -9164081.17746  21872681.066    21872685.842
 -21503435.97549 -16755932.50447  21001151.965    21001156.259
 -20057321.24849 -15629088.55646  21757630.197    21757633.518
 -24791741.46149 -19318246.41247  20303471.428    20303473.132
  -8243258.19349  -6423312.73446  22202235.935    22202241.817
 02  1  8  3 59 30.0000000  0  8G 3G 8G22G 2G 1G27G13G31
   -610105.03049   -475405.54846  21971579.853    21971584.929
  -6550765.38448  -5104499.98545  23506919.083    23506927.274
  -7734991.92848  -6027293.68045  23393559.821    23393569.005
 -11817732.57549  -9208624.70046  21861803.200    21861807.773
 -21442046.89849 -16708096.96547  21012834.558    21012838.684
 -20116420.54949 -15675140.01046  21746383.808    21746387.382
 -24793599.11549 -19319693.99047  20303117.794    20303119.417
  -8328178.37749  -6489484.31046  22186075.098    22186081.336
 02  1  8  4  0  0.0000000  0  8G 3G 8G22G 2G 1G27G13G31
   -623558.94249   -485889.19446  21969020.005    21969024.861
  -6639766.28448  -5173851.39345  23489982.767    23489987.882
  -7627616.15148  -5943624.55245  23413991.449    23413999.889
 -11874585.05649  -9252925.33846  21850984.235    21850989.169
 -21380213.58349 -16659915.26947  21024600.826    21024605.287
 -20175369.42249 -15721074.24446  21735166.391    21735169.950
 -24794912.56749 -19320717.51147  20302867.659    20302869.524
  -8412721.28549  -6555361.91246  22169987.577    22169993.433
 02  1  8  4  0 30.0000000  0  8G 3G 8G22G 2G 1G27G13G31
   -636427.59149   -495916.79046  21966571.295    21966576.532
  -6728699.01448  -5243149.67545  23473058.605    23473067.044
  -7520135.39948  -5859873.60045  23434446.136    23434453.386
 -11931127.52349  -9296984.40946  21840225.178    21840229.787
 -21317939.26649 -16611389.93547  21036451.083    21036455.614
 -20234169.26449 -15766892.35246  21723977.430    21723980.791
 -24795683.65949 -19321318.41447  20302720.899    20302722.765
  -8496885.63249  -6620944.53446  22153971.692    22153977.166
 02  1  8  4  1  0.0000000  0  8G 3G 8G22G 2G 1G27G13G31
   -648706.92749   -505485.18446  21964234.444    21964239.801
  -6817559.78248  -5312391.87145  23456150.773    23456157.472
  -7412548.73248  -5776040.12645  23454918.228    23454927.908
 -11987356.41249  -9340799.13146  21829524.266    21829529.660
 -21255221.70449 -16562519.21747  21048386.272    21048390.593
 -20292816.02649 -15812591.16946  21712817.305    21712820.861
 -24795908.23349 -19321493.45647  20302678.246    20302679.954
  -8580665.22849  -6686227.34046  22138028.223    22138034.734
 02  1  8  4  1 30.0000000  0  8G 3G 8G22G 2G 1G27G13G31
   -660397.70449   -514594.95346  21962010.103    21962015.639
  -6906349.82748  -5381578.94945  23439252.451    23439261.635
  -7304859.80948  -5692126.99845  23475411.871    23475421.055
 -12043273.06749  -9384370.55446  21818883.901    21818888.832
 -21192063.91149 -16513305.46347  21060404.343    21060408.959
 -20351310.83349 -15858171.57846  21701685.750    21701689.344
 -24795587.14749 -19321243.30547  20302739.571    20302741.486
  -8664058.56749  -6751209.17046  22122159.929    22122165.346
 02  1  8  4  2  0.0000000  0  8G 3G 8G22G 2G 1G27G13G31
   -671502.89549   -523248.42046  21959896.629    21959901.248
  -6995071.92648  -5450713.10445  23422370.390    23422377.391
  -7197074.59448  -5608138.81345  23495921.950    23495931.631
 -12098880.65849  -9427701.14646  21808302.325    21808307.327
 -21128470.10849 -16463751.96947  21072506.335    21072510.716
 -20409656.41249 -15903635.69946  21690583.298    21690586.865
 -24794723.55249 -19320570.42047  20302903.901    20302905.670
  -8747066.06449  -6815890.35746  22106364.024    22106370.034
 02  1  8  4  2 30.0000000  0  8G 3G 8G22G 2G 1G27G13G31
   -682023.30849   -531446.21046  21957894.776    21957900.196
  -7083726.75048  -5519794.83945  23405499.487    23405507.344
  -7089196.32748  -5524078.14745  23516451.452    23516458.957
 -12154180.29949  -9470791.77546  21797778.941    21797784.125
 -21064442.76049 -16413860.64047  21084690.332    21084694.816
 -20467853.42249 -15948984.04946  21679509.275    21679512.476
 -24793317.97949 -19319475.21747  20303171.603    20303173.280
  -8829686.05049  -6880269.57646  22090641.613    22090648.166
 02  1  8  4  3  0.0000000  0  8G 3G 8G22G 2G 1G27G13G31
   -691956.45549   -539186.38346  21956004.893    21956010.313
  -7172312.16648  -5588822.49045  23388642.144    23388650.583
  -6981225.64848  -5439945.44545  23536997.353    23537008.771
 -12209169.93749  -9513640.84546  21787315.132    21787320.112
 -20999981.46349 -16363631.16847  21096956.930    21096961.420
 -20525899.43349 -15994214.73146  21668463.310    21668466.650
 -24791368.16049 -19317955.92347  20303542.689    20303544.393
  -8911913.84149  -6944343.19146  22074994.313    22075000.010
 02  1  8  4  3 30.0000000  0  8G 3G 8G22G 2G 1G27G13G31
   -701300.58949   -546467.59146  21954226.574    21954231.738
  -7260826.31348  -5657794.54445  23371798.883    23371806.355
  -6873163.59248  -5355741.54745  23557561.260    23557570.941
 -12263848.05849  -9556247.16846  21776910.367    21776915.039
 -20935086.16349 -16313063.51847  21109306.430    21109311.111
 -20583792.42349 -16039326.17046  21657446.110    21657449.628
 -24788872.07549 -19316010.96947  20304017.674    20304019.426
  -8993745.22949  -7008107.92446  22059422.285    22059427.945
 02  1  8  4  4  0.0000000  0  8G 3G 8G22G 2G 1G27G13G31
   -710055.38549   -553289.56046  21952561.148    21952566.456
  -7349268.88948  -5726710.87845  23354968.450    23354973.240
  -6765012.57048  -5271468.32945  23578141.907    23578152.084
 -12318214.74049  -9598610.81346  21766564.522    21766569.065
 -20869758.41249 -16262158.89247  21121737.904    21121742.367
 -20641531.96549 -16084318.03846  21646458.719    21646462.207
 -24785829.57749 -19313640.23847  20304596.713    20304598.317
  -9075177.10849  -7071561.34746  22043925.870    22043931.905
 02  1  8  4  4 30.0000000  0  8G 3G 8G22G 2G 1G27G13G31
   -718217.18449   -559649.45246  21951007.438    21951012.978
  -7437636.42248  -5795568.75145  23338152.809    23338161.000
  -6656771.74448  -5187125.15545  23598739.993    23598748.433
 -12372266.67549  -9640729.20746  21756278.931    21756283.652
 -20803996.45249 -16210915.91947  21134252.005    21134256.830
 -20699114.45549 -16129187.53146  21635501.428    21635504.768
 -24782237.21249 -19310841.03447  20305280.454    20305282.204
  -9156203.49549  -7134698.80146  22028507.533    22028513.537
 02  1  8  4  5  0.0000000  0  8G 3G 8G22G 2G 1G27G13G31
   -725788.03849   -565548.86546  21949567.202    21949572.285
  -7525930.77348  -5864369.56245  23321349.853    23321358.293
  -6548445.78348  -5102715.58945  23619353.795    23619361.220
 -12426006.08549  -9682604.06346  21746052.222    21746056.980
 -20737803.93749 -16159337.45047  21146848.287    21146852.827
 -20756541.65449 -16173936.01246  21624573.302    21624576.768
 -24778096.83949 -19307614.81247  20306068.410    20306070.044
  -9236823.94549  -7197519.94746  22013165.901    22013172.249
 02  1  8  4  5 30.0000000  0  8G 3G 8G22G 2G 1G27G13G31
   -732761.95049   -570983.12746  21948240.105    21948245.222
  -7614145.89548  -5933108.61945  23304564.918    23304569.052
  -6440031.12948  -5018236.97745  23639984.667    23639994.347
 -12479427.45549  -9724231.10546  21735887.065    21735891.328
 -20671176.72649 -16107420.25647  21159526.961    21159531.714
 -20813807.30149 -16218558.61146  21613675.753    21613679.338
 -24773402.58549 -19303956.99447  20306961.675    20306963.568
  -9317030.20649  -7260018.33846  21997903.054    21997909.232
 02  1  8  4  6  0.0000000  0  8G 3G 8G22G 2G 1G27G13G31
   -739132.88049   -575947.53246  21947028.027    21947032.860
  -7702275.23148  -6001780.86745  23287794.790    23287799.932
  -6331524.47148  -4933686.62144  23660632.663    23660643.336
 -12532524.90949  -9765605.74846  21725782.530    21725787.171
 -20604110.31249 -16055160.82947  21172289.527    21172294.209
 -20870904.99749 -16263050.33646  21602810.528    21602814.297
 -24768148.40749 -19299862.87747  20307961.517    20307963.404
  -9396813.33649  -7322187.02846  21982721.141    21982726.627
 02  1  8  4  6 30.0000000  0  8G 3G 8G22G 2G 1G27G13G31
   -744917.75749   -580455.25946  21945926.840    21945932.080
  -7790335.98348  -6070399.64745  23271035.158    23271043.845
  -6222945.38848  -4849079.82645  23681295.268    23681306.189
 -12585315.66249  -9806741.39446  21715736.695    21715741.408
 -20536623.47949 -16002573.79947  21185131.824    21185136.582
 -20927851.39749 -16307424.17147  21591974.157    21591977.896
 -24762351.16349 -19295345.59247  20309064.811    20309066.540
  -9476187.65449  -7384037.14746  21967616.196    21967622.737
 02  1  8  4  7  0.0000000  0  8G 3G 8G22G 2G 1G27G13G31
   -750114.61049   -584504.78546  21944938.306    21944943.356
  -7878325.97748  -6138963.28745  23254293.684    23254299.687
  -6114294.53248  -4764417.11945  23701970.782    23701978.434
 -12637798.02849  -9847636.74446  21705750.092    21705754.704
 -20468716.07149 -15949659.05447  21198054.103    21198058.953
 -20984644.37049 -16351678.45947  21581166.723    21581170.158
 -24756008.96849 -19290403.67047  20310271.617    20310273.462
  -9555148.88649  -7445565.39046  21952590.819    21952596.702
 02  1  8  4  7 30.0000000  0  8G 3G 8G22G 2G 1G27G13G31
   -754700.11649   -588077.93446  21944065.478    21944070.937
  -7966221.56848  -6207453.38645  23237566.799    23237572.248
  -6005550.87448  -4679682.18644  23722664.410    23722671.770
 -12689948.85549  -9888273.75846  21695825.613    21695830.257
 -20400366.40549 -15896399.68547  21211060.964    21211065.584
 -21041260.22349 -16395794.72747  21570393.214    21570396.809
 -24749098.27149 -19285018.76147  20311586.633    20311588.464
  -9633671.17649  -7506751.59446  21937648.245    21937654.413
 02  1  8  4  8  0.0000000  0  8G 3G 8G22G 2G 1G27G13G31
   -758700.73249   -591195.32346  21943304.526    21943309.666
  -8054049.08348  -6275890.41545  23220854.002    23220859.882
  -5896743.54348  -4594897.38045  23743369.651    23743378.835
 -12741794.77149  -9928673.16946  21685959.511    21685964.551
 -20331602.70349 -15842817.69547  21224146.289    21224151.058
 -21097725.07749 -16439793.33647  21559648.347    21559652.055
 -24741645.68449 -19279211.60147  20313004.829    20313006.737
  -9711778.38449  -7567614.35546  21922785.004    21922791.532
 02  1  8  4  8 30.0000000  0  8G 3G 8G22G 2G 1G27G13G31
   -762112.26449   -593853.68646  21942654.932    21942660.282
  -8141804.11048  -6344271.00945  23204154.939    23204160.732
  -5787870.81348  -4510061.79344  23764087.944    23764097.128
 -12793331.89949  -9968831.97546  21676153.092    21676157.550
 -20262422.51149 -15788911.17047  21237310.890    21237315.647
 -21154034.43949 -16483670.78447  21548933.195    21548937.006
 -24733647.07949 -19272978.97047  20314526.702    20314528.488
  -9789463.72849  -7628148.38446  21908002.325    21908008.283
 02  1  8  4  9  0.0000000  0  8G 3G 8G22G 2G 1G27G13G31
   -764929.12349   -596048.66446  21942119.328    21942124.680
  -8229480.89248  -6412590.59645  23187469.849    23187475.595
  -5678929.49348  -4425172.76044  23784818.715    23784826.280
 -12844554.98449 -10008746.07546  21666405.072    21666410.190
 -20192821.95949 -15734677.09147  21250555.797    21250560.256
 -21210182.43349 -16527422.48847  21538248.140    21538252.016
 -24725096.86949 -19266316.52147  20316153.982    20316155.718
  -9866719.04649  -7688347.33046  21893301.389    21893306.783
 02  1  8  4  9 30.0000000  0  8G 3G 8G22G 2G 1G27G13G31
   -767162.35349   -597788.86046  21941693.891    21941698.441
  -8317089.72348  -6480857.24245  23170799.088    23170806.316
  -5569932.80748  -4340240.55344  23805560.816    23805570.497
 -12895474.80449 -10048423.86146  21656715.506    21656720.594
 -20122813.57749 -15680125.22347  21263877.536    21263882.874
 -21266179.37849 -16571056.49247  21527592.465    21527596.411
 -24716005.84949 -19259232.66347  20317884.187    20317885.920
  -9943552.56949  -7748217.58346  21878679.825    21878685.565
 02  1  8  4 10  0.0000000  0  8G 3G 8G22G 2G 1G27G13G31
   -768808.23649   -599071.38146  21941380.746    21941386.281
  -8404626.72248  -6549067.92945  23154141.724    23154146.029
  -5460879.50148                  23826312.430
 -12946087.87349 -10087862.62446  21647084.149    21647088.808
 -20052395.31849 -15625253.97347  21277277.982    21277282.897
 -21322021.24649 -16614569.65747  21516966.432    21516970.224
 -24706370.27749 -19251724.48247  20319717.989    20319719.683
 -10019957.96949  -7807754.24646  21864140.924    21864146.703
 02  1  8  4 10 30.0000000  0  8G 3G 8G22G 2G 1G27G13G31
   -769856.40049   -599888.14446  21941181.419    21941186.124
  -8492081.46848  -6617214.49845  23137498.855    23137505.863
  -5351761.61148  -4170237.61244  23847077.958    23847087.887
 -12996384.03949 -10127054.44846  21637513.324    21637518.153
 -19981558.62649 -15570056.66247  21290757.651    21290762.643
 -21377697.14849 -16657953.49447  21506371.740    21506375.152
 -24696179.76149 -19243783.87947  20321657.087    20321658.896
 -10095922.34549  -7866947.23546  21849684.691    21849691.230
 02  1  8  4 11  0.0000000  0  8G 3G 8G22G 2G 1G27G13G31
   -770295.04549   -600229.95646  21941098.079    21941103.850
  -8579441.40648  -6685287.22145  23120875.250    23120881.068
  -5242569.58748                  23867855.666
 -13046351.41849 -10165990.07546  21628003.990    21628009.371
 -19910293.00949 -15514525.13047  21304318.859    21304324.407
 -21433194.53449 -16701198.22247  21495810.330    21495814.326
 -24685422.59249 -19235401.72847  20323704.134    20323705.874
 -10171431.07049  -7925785.16246  21835316.032    21835321.814
 02  1  8  4 11 30.0000000  0  8G 3G 8G22G 2G 1G27G13G31
   -770124.07249   -600096.74146  21941130.320    21941136.000
  -8666706.10248  -6753285.73445  23104269.444    23104275.823
  -5133305.67148  -4000012.78744  23888649.249    23888658.681
 -13095990.22049 -10204669.67247  21618559.040    21618563.684
 -19838600.38749 -15458660.86846  21317962.480    21317967.244
 -21488512.90849 -16744303.46447  21485283.788    21485287.369
 -24674098.83149 -19226578.08047  20325859.111    20325860.877
 -10246481.64849  -7984266.08746  21821034.674    21821040.678
 02  1  8  4 12  0.0000000  0  7G 8G22G 2G 1G27G13G31
  -8753895.85748  -6821225.83545  23087678.435    23087683.842
  -5023992.53648                  23909450.085
 -13145321.18149 -10243109.39346  21609171.440    21609176.466
 -19766502.88549 -15402481.10946  21331681.576    21331686.771
 -21543672.11249 -16787284.67247  21474787.685    21474791.261
 -24662228.66049 -19217328.65747  20328118.091    20328119.938
 -10321091.95449  -8042403.93346  21806836.542    21806841.898
 02  1  8  4 12 30.0000000  0  7G 8G22G 2G 1G27G13G31
  -8841000.03648  -6889099.27045  23071102.783    23071109.688
  -4914622.51148  -3829610.90244  23930263.632    23930274.057
 -13194334.28949 -10281301.43647  21599844.032    21599849.352
 -19693992.29849 -15345979.47746  21345480.451    21345485.444
 -21598661.84249 -16830133.82447  21464323.535    21464327.025
 -24649802.18649 -19207645.75247  20330482.720    20330484.634
 -10395249.34849  -8100188.85746  21792725.203    21792730.771
 02  1  8  4 13  0.0000000  0  7G 8G22G 2G 1G27G13G31
  -8928024.42348  -6956910.51045  23054542.289    23054548.878
  -4805203.93848                  23951084.607
 -13243035.91749 -10319250.76547  21590577.119    21590582.167
 -19621076.39549 -15289162.00446  21359355.705    21359360.667
 -21653487.51349 -16872855.14147  21453890.568    21453894.063
 -24636825.79449 -19197534.33947  20332952.058    20332954.069
 -10468957.24349  -8157623.52346  21778698.293    21778704.886
 02  1  8  4 13 30.0000000  0  7G 8G22G 2G 1G27G13G31
  -9014960.30048  -7024652.78045  23037998.749    23038006.516
  -4695730.61248  -3659046.42644  23971917.815    23971927.992
 -13291417.68449 -10356950.85747  21581369.972    21581375.128
 -19547748.39349 -15232023.41446  21373310.090    21373315.335
 -21708139.96949 -16915441.47947  21443490.435    21443494.050
 -24623291.29349 -19186988.04047  20335527.556    20335529.373
 -10542204.62749  -8214699.33946  21764760.189    21764765.970
 02  1  8  4 14  0.0000000  0  7G 8G22G 2G 1G27G13G31
  -9101813.63148  -7092330.72945  23021471.946    23021478.464
  -4586211.21048                  23992757.827
 -13339486.33549 -10394406.95847  21572222.851    21572227.929
 -19474016.47949 -15174570.09346  21387340.123    21387346.011
 -21762625.31449 -16957897.60547  21433122.038    21433125.729
 -24609204.55449 -19176011.42447  20338208.285    20338210.149
 -10614995.29849  -8271419.28046  21750909.012    21750914.260
 02  1  8  4 14 30.0000000  0  7G 8G22G 2G 1G27G13G31
  -9188586.22748  -7159945.77345  23004959.117    23004964.261
  -4476650.30848  -3488335.16344  24013607.785    24013617.962
 -13387244.40349 -10431621.04647  21563135.301    21563139.949
 -19399884.64249 -15116805.14546  21401447.559    21401452.968
 -21816945.34549 -17000224.91647  21422785.378    21422788.919
 -24594568.31749 -19164606.63047  20340993.528    20340995.501
 -10687329.22749  -8327783.31446  21737143.108    21737149.830
 02  1  8  4 15  0.0000000  0  7G 8G22G 2G 1G27G13G31
  -9275282.71948  -7227501.49745  22988460.985    22988467.818
  -4367054.89748                  24034462.838
 -13434696.93249 -10468597.05947  21554105.109    21554109.799
 -19325359.52749 -15058733.75046  21415628.868    21415634.560
 -21871104.26549 -17042426.68347  21412479.303    21412482.945
 -24579387.68549 -19152777.63347  20343882.323    20343884.368
 -10759208.71349  -8383793.24046  21723465.585    21723471.280
 02  1  8  4 15 30.0000000  0  7G 8G22G 2G 1G27G13G31
  -9361885.27348  -7294984.02345  22971981.693    22971988.401
  -4257410.15448                  24055327.090
 -13481826.95449 -10505321.76147  21545136.320    21545141.412
 -19250425.93549 -15000344.06346  21429888.736    21429894.071
 -21925084.39949 -17084489.14147  21402207.396    21402210.921
 -24563645.77149 -19140511.27147  20346877.819    20346879.878
 -10830614.15449  -8439433.78746  21709877.632    21709883.025
 02  1  8  4 16  0.0000000  0  7G 8G22G 2G 1G27G13G31
  -9448385.84748  -7362387.10745  22955521.039    22955527.654
  -4147710.62848  -3232019.61544  24076204.213    24076212.011
 -13528626.98549 -10541789.33447  21536230.544    21536235.428
 -19175077.82549 -14941631.36746  21444226.952    21444232.583
 -21978877.44349 -17126405.81447  21391970.935    21391974.572
 -24547334.93049 -19127801.59047  20349981.796    20349983.753
 -10901535.29549  -8494696.96046  21696381.204    21696387.315
 02  1  8  4 16 30.0000000  0  7G 8G22G 2G 1G27G13G31
  -9534810.37348  -7429730.90345  22939074.695    22939082.028
  -4037984.67148                  24097083.244
 -13575123.46449 -10578020.36347  21527382.931    21527388.032
 -19099343.35449 -14882617.62246  21458638.725    21458643.956
 -22032509.20049 -17168196.81047  21381765.109    21381768.587
 -24530481.62949 -19114669.21047  20353189.268    20353191.268
 -10971996.39349  -8549601.65846  21682973.418    21682979.206
 02  1  8  4 17  0.0000000  0  7G 8G22G 2G 1G27G13G31
  -9621136.40448  -7496997.94145  22922647.143    22922654.482
  -3928212.23848  -3060982.55144  24117973.269    24117982.949
 -13621294.62549 -10613997.90147  21518596.893    21518602.026
 -19023202.29749 -14823287.05246  21473128.166    21473133.292
 -22085956.98949 -17209844.45547  21371594.211    21371598.026
 -24513064.11049 -19101097.18147  20356503.628    20356505.647
 -11041972.46749  -8604128.43446  21669657.099    21669662.823
 02  1  8  4 17 30.0000000  0  7G 8G22G 2G 1G27G13G31
  -9707370.74548  -7564193.55845  22906237.644    22906244.067
  -3818403.10748  -2975417.37844  24138869.672    24138876.700
 -13667148.08249 -10649727.86947  21509871.234    21509876.050
 -18946663.83949 -14763646.82046  21487693.196    21487698.483
 -22139227.55649 -17251354.01147  21361457.060    21361460.861
 -24495089.82949 -19087091.31347  20359923.716    20359925.895
 -11111468.41249  -8658281.07746  21656432.392    21656438.204
 02  1  8  4 18  0.0000000  0  7G 8G22G 2G 1G27G13G31
  -9793527.11148  -7631328.38245  22889843.050    22889848.459
  -3708573.37748                  24159768.363
 -13712698.13449 -10685221.41947  21501203.154    21501208.020
 -18869743.88149 -14703709.32346  21502330.477    21502336.455
 -22192334.25949 -17292735.88147  21351351.281    21351355.175
 -24476572.90549 -19072662.60647  20363447.362    20363449.578
 -11180495.92149  -8712068.72046  21643297.374    21643302.606
 02  1  8  4 18 30.0000000  0  7G 8G22G 2G 1G27G13G31
  -9879587.84748  -7698388.69745  22873465.818    22873474.257
  -3598708.37248                  24180677.416
 -13757928.15749 -10720465.59647  21492596.336    21492601.101
 -18792427.38049 -14643462.83046  21517043.692    21517048.773
 -22245259.56149 -17333976.40147  21341280.035    21341283.695
 -24457497.40249 -19057798.64047  20367077.629    20367079.649
 -11249035.49349  -8765476.14946  21630254.135    21630259.422
 02  1  8  4 19  0.0000000  0  7G 8G22G 2G 1G27G13G31
  -9965560.75648  -7765380.55245  22857106.109    22857112.421
  -3488818.28048                  24201586.834
 -13802846.55449 -10755466.93547  21484048.425    21484053.373
 -18714724.20849 -14582915.03446  21531829.722    21531835.626
 -22298011.06049 -17375081.48947  21331241.547    21331245.395
 -24437871.45149 -19042505.75147  20370812.129    20370814.561
 -11317092.98949  -8818507.94946  21617303.308    21617308.671
 02  1  8  4 19 30.0000000  0  8G28G 8G22G 2G 1G27G13G31
         -.48758                  25167347.562
 -10051426.48048  -7832288.90045  22840766.555    22840770.903
  -3378886.25548                  24222507.771
 -13847434.67349 -10790210.92347  21475563.633    21475568.510
 -18636617.32249 -14522052.66346  21546693.135    21546699.107
 -22350569.23249 -17416035.92847  21321240.159    21321244.005
 -24417676.30849 -19026769.33847  20374655.076    20374657.389
 -11384646.79349  -8871147.25646  21604448.041    21604453.976
 02  1  8  4 20  0.0000000  0  8G28G 8G22G 2G 1G27G13G31
   -100212.15148                  25148277.044
 -10137189.14648  -7899116.92045  22824445.515    22824452.076
  -3268919.00648                  24243433.542
 -13891696.98949 -10824701.02847  21467140.858    21467145.572
 -18558113.09049 -14460880.66846  21561632.110    21561638.369
 -22402937.73749 -17456842.57647  21311274.733    21311278.831
 -24396916.66849 -19010593.05547  20378605.677    20378607.892
 -11451699.01449  -8923395.73246  21591688.747    21591694.285
 02  1  8  4 20 30.0000000  0  8G28G 8G22G 2G 1G27G13G31
   -200319.82248                  25129227.718
 -10222849.25448  -7965865.03145  22808145.808    22808152.967
  -3158919.51748                  24264366.188
 -13935634.99249 -10858938.42947  21458779.618    21458784.533
 -18479214.59849 -14399401.46246  21576646.428    21576652.369
 -22455117.10449 -17497501.84047  21301345.342    21301349.246
 -24375594.24749 -18993978.23947  20382663.192    20382665.359
 -11518248.62549  -8975252.56446  21579024.664    21579030.647
 02  1  8  4 21  0.0000000  0  8G28G 8G22G 2G 1G27G13G31
   -300337.36148                  25110195.851
 -10308421.07948  -8032544.32645  22791861.593    22791869.083
  -3048904.99948                  24285302.462
 -13979263.94349 -10892935.01047  21450477.449    21450482.354
 -18399938.71149 -14337628.18846  21591731.620    21591738.061
 -22507121.71449 -17538024.93747  21291449.498    21291453.193
 -24353724.31949 -18976936.79847  20386824.906    20386827.258
 -11584307.90149  -9026727.31146  21566454.103    21566459.296
 02  1  8  4 21 30.0000000  0  8G28G 8G22G 2G 1G27G13G31
   -400250.12648                  25091182.502
 -10393890.35048  -8099143.72745  22775597.526    22775602.878
  -2938863.38748                  24306241.744
 -14022570.23249 -10926680.16547  21442236.446    21442241.331
 -18320273.48149 -14275551.52446  21606891.879    21606897.825
 -22558936.94649 -17578400.46447  21281589.650    21281593.164
 -24331293.28249 -18959458.12747  20391093.213    20391095.513
 -11649860.79049  -9077807.48946  21553979.649    21553985.508
 02  1  8  4 22  0.0000000  0  8G28G 8G22G 2G 1G27G13G31
   -500060.21048                  25072189.037
 -10479259.71448  -8165665.27945  22759352.794    22759359.131
  -2828800.11848  -2204301.37844  24327187.937    24327196.872
 -14065557.31549 -10960176.59447  21434056.379    21434061.333
 -18240223.97649 -14213175.42846  21622125.100    21622131.406
 -22610565.28649 -17618630.36647  21271765.013    21271768.612
 -24308304.95749 -18941545.20847  20395467.997    20395470.395
 -11714908.08649  -9128493.68546  21541601.574    21541606.669
 02  1  8  4 22 30.0000000  0  8G28G 8G22G 2G 1G27G13G31
   -599763.03148                  25053217.557
 -10564524.96448  -8232105.70045  22743126.116    22743132.970
  -2718713.43948                  24348135.725
 -14108221.96349 -10993421.77347  21425937.548    21425942.387
 -18159788.39849 -14150498.49646  21637430.949    21637437.137
 -22662002.43049 -17658711.28447  21261976.572    21261980.491
 -24284755.84549 -18923195.31147  20399949.424    20399951.617
 -11779443.78649  -9178781.24246  21529320.903    21529326.549
 02  1  8  4 23  0.0000000  0  8G28G 8G22G 2G 1G27G13G31
   -699369.62748                  25034261.486
 -10649697.28748  -8298473.68245  22726918.477    22726925.808
  -2608617.12248                  24369087.763
 -14150575.86049 -11026424.80647  21417877.626    21417882.766
 -18078980.39949 -14087531.36346  21652808.881    21652815.149
 -22713259.24749 -17698651.67647  21252222.884    21252226.741
 -24260658.07049 -18904417.88647  20404535.180    20404537.554
 -11843477.31449  -9228677.49346  21517135.929    21517141.384
 02  1  8  4 23 30.0000000  0  8G28G 8G22G 2G 1G27G13G31
   -798872.31048                  25015327.507
 -10734769.30248  -8364763.53245  22710730.208    22710736.099
  -2498506.53448                  24390040.611
 -14192612.79149 -11059180.85047  21409878.443    21409883.255
 -17997795.28349 -14024270.37746  21668257.739    21668263.857
 -22764328.42849 -17738445.86447  21242504.575    21242508.264
 -24236005.40149 -18885208.07547  20409226.596    20409228.995
 -11906999.73149  -9278175.48146  21505047.816    21505053.641
 02  1  8  4 24  0.0000000  0  8G28G 8G22G 2G 1G27G13G31
   -898282.37548                  24996409.826
 -10819752.83248  -8430984.40945  22694557.996    22694564.680
  -2388395.72448                  24410994.361
 -14234345.41149 -11091699.76847  21401936.841    21401942.238
 -17916247.13549 -13960726.51246  21683776.231    21683782.749
 -22815221.58149 -17778102.88447  21232819.722    21232823.909
 -24210810.89049 -18865576.05047  20414020.949    20414023.233
 -11970020.80149  -9327282.80146  21493055.549    21493060.524
 02  1  8  4 24 30.0000000  0  8G28G 8G22G 2G 1G27G13G31
   -997586.85148                  24977513.016
 -10904635.07649  -8497126.37645  22678406.868    22678411.475
  -2278274.57348                  24431950.359
 -14275761.59849 -11123972.11547  21394055.517    21394060.693
 -17834325.72449 -13896891.78446  21699365.199    21699371.892
 -22865925.78649 -17817612.67147  21223171.196    21223175.051
 -24185062.33449 -18845512.30247  20418920.585    20418922.816
 -12032525.97749  -9375988.12746  21481160.800    21481166.219
 02  1  8  4 25  0.0000000  0  8G28G 8G22G 2G 1G27G13G31
  -1096788.50748                  24958635.423
 -10989419.40548  -8563192.04945  22662271.353    22662278.287
  -2168148.82948                  24452906.533
 -14316865.53349 -11156001.15247  21386233.693    21386238.860
 -17752036.71949 -13832770.63046  21715024.395    21715031.123
 -22916444.12849 -17856977.63147  21213557.880    21213562.059
 -24158764.26749 -18825020.36147  20423925.099    20423927.360
 -12094516.77649  -9424292.63946  21469364.413    21469369.776
 02  1  8  4 25 30.0000000  0  8G28G 8G22G 2G 1G27G13G31
  -1195873.05948                  24939780.195
 -11074091.64048  -8629170.37145  22646159.422    22646165.350
  -2058007.02848                  24473866.091
 -14357644.20449 -11187776.73547  21378473.714    21378478.942
 -17669368.84549 -13768354.25246  21730755.531    21730762.298
 -22966762.28949 -17896186.59947  21203982.374    21203986.342
 -24131903.95849 -18804090.30647  20429036.406    20429038.957
 -12155977.52749  -9472184.12246  21457669.269    21457674.400
 02  1  8  4 26  0.0000000  0  8G28G 8G22G 2G 1G27G13G31
  -1294833.78848                  24920948.400
 -11158645.40149  -8695056.39145  22630069.767    22630074.906
  -1947845.26148                  24494829.787
 -14398092.23149 -11219294.67247  21370776.734    21370781.785
 -17586318.29249 -13703639.68846  21746559.528    21746567.101
 -23016873.88149 -17935234.60147  21194446.584    21194450.800
 -24104475.90049 -18782717.85547  20434255.606    20434257.979
 -12216900.19649  -9519656.32746  21446075.807    21446081.188
 02  1  8  4 26 30.0000000  0  8G28G 8G22G 2G 1G27G13G31
  -1393680.59848                  24902138.892
 -11243090.83548  -8760857.99545  22613998.687    22614005.756
  -1837676.38548                  24515794.208
 -14438220.54749 -11250563.48047  21363140.729    21363145.851
 -17502897.62149 -13638636.72346  21762434.163    21762441.125
 -23066788.76549 -17974129.32847  21184947.834    21184952.019
 -24076491.53549 -18760911.91847  20439581.174    20439583.712
 -12277293.33149  -9566715.89946  21434583.141    21434588.837
 02  1  8  4 27  0.0000000  0  8G28G 8G22G 2G 1G27G13G31
  -1492424.85848                  24883348.984
 -11327439.62349  -8826584.30845  22597949.323    22597954.878
  -1727514.36448                  24536757.281
 -14478041.69949 -11281592.93647  21355562.947    21355567.803
 -17419121.15049 -13573356.50646  21778376.320    21778383.215
 -23116518.50349 -18012879.78547  21175484.736    21175488.679
 -24047963.82949 -18738682.59347  20445009.950    20445012.374
 -12337167.04349  -9613370.72546  21423189.822    21423195.158
 02  1  8  4 27 30.0000000  0  8G28G 8G22G 2G 1G27G13G31
  -1591060.22048                  24864578.750
 -11411685.73848  -8892230.62445  22581916.597    22581923.183
  -1617355.89648                  24557720.221
 -14517550.69749 -11312379.15647  21348044.959    21348049.725
 -17334985.49849 -13507796.41546  21794387.407    21794394.094
 -23166056.92949 -18051481.16547  21166058.207    21166062.445
 -24018888.01749 -18716026.17747  20450543.046    20450545.482
 -12396513.77649  -9659614.92346  21411896.473    21411901.860
 02  1  8  4 28  0.0000000  0  8G28G 8G22G 2G 1G27G13G31
  -1689581.99548                  24845832.170
 -11495824.85748  -8957793.54745  22565905.986    22565912.581
  -1507198.92148                  24578683.241
 -14556744.02549 -11342919.40047  21340586.261    21340591.309
 -17250488.90249 -13441955.07046  21810466.595    21810472.911
 -23215399.47049 -18089929.91447  21156668.721    21156672.649
 -23989260.62049 -18692939.95547  20456180.689    20456183.603
 -12455327.67449  -9705443.91946  21400704.180    21400710.163
 02  1  8  4 28 30.0000000  0  8G28G 8G22G 2G 1G27G13G31
  -1787990.88048                  24827104.803
 -11579857.74949  -9023273.71645  22549915.921    22549921.462
  -1397047.04248                  24599643.800
 -14595623.76349 -11373215.28947  21333187.679    21333192.797
 -17165635.02249 -13375835.32446  21826613.971    21826620.262
 -23264547.06549 -18128226.75447  21147316.261    21147320.456
 -23959084.09249 -18669425.84047  20461923.143    20461925.902
 -12513608.08349  -9750857.21046  21389613.912    21389619.212
 02  1  8  4 29  0.0000000  0  8G28G 8G22G 2G 1G27G13G31
  -1886280.77548                  24808400.526
 -11663778.84248  -9088666.74945  22533944.030    22533952.221
  -1286896.65748                  24620605.932
 -14634184.97249 -11403262.97747  21325850.239    21325854.896
 -17080420.54449 -13309434.58646  21842830.032    21842836.952
 -23313493.54349 -18166366.87747  21138002.211    21138005.875
 -23928353.90649 -18645480.30447  20467771.274    20467773.940
 -12571347.60649  -9795849.03246  21378626.457    21378631.935
 02  1  8  4 29 30.0000000  0  8G28G 8G22G 2G 1G27G13G31
  -1984454.56248                  24789719.268
 -11747591.10449  -9153974.98945  22517997.285    22518002.805
  -1176753.70548                  24641565.566
 -14672431.78449 -11433065.68647  21318571.627    21318576.665
 -16994851.29849 -13242757.41246  21859112.819    21859120.363
 -23362242.11349 -18204352.78647  21128725.390    21128729.465
 -23897074.46949 -18621106.78047  20473723.618    20473726.317
 -12628547.89649  -9840420.66946  21367741.817    21367747.142
 02  1  8  4 30  0.0000000  0  8G28G 8G22G 2G 1G27G13G31
  -2082512.02348                  24771060.027
 -11831294.63248  -9219198.49745  22502068.575    22502074.568
  -1066620.56648                  24662522.729
 -14710365.17549 -11462624.17347  21311353.381    21311358.326
 -16908930.17649 -13175806.05246  21875463.753    21875470.302
 -23410792.77749 -18242184.48847  21119486.645    21119490.906
 -23865247.25649 -18596306.41747  20479780.084    20479782.777
 -12685207.55549  -9884571.04046  21356959.542    21356965.187
 02  1  8  4 30 30.0000000  0  8G28G 8G22G 2G 1G27G13G31
  -2180451.98548                  24752422.236
 -11914888.56248  -9284336.61645  22486159.864    22486167.226
   -956499.00448                  24683479.092
 -14747985.29649 -11491938.55647  21304194.480    21304199.093
 -16822659.07849 -13108581.98446  21891880.243    21891886.797
 -23459144.35449 -18279861.05747  21110285.697    21110289.759
 -23832872.91649 -18571079.72347  20485940.487    20485943.354
 -12741324.36849  -9928298.40946  21346280.994    21346286.762
 02  1  8  4 31  0.0000000  0  8G28G 8G22G 2G 1G27G13G31
  -2278248.54148                  24733813.509
 -11998346.99849  -9349369.14446  22470279.808    22470285.620
   -846365.54148                  24704436.469
 -14785267.57749 -11520989.68847  21297099.747    21297104.653
 -16736014.92849 -13041067.22246  21908368.354    21908375.200
 -23507270.90549 -18317362.28147  21101127.392    21101131.447
 -23799926.71649 -18545407.42647  20492209.779    20492212.824
 -12796871.16349  -9971581.61946  21335710.904    21335716.062
 02  1  8  4 31 30.0000000  0  8G28G 8G22G 2G 1G27G13G31
  -2375916.09648                  24715227.100
 -12081684.93048  -9414307.79846  22454420.291    22454427.261
   -736237.57848                  24725394.098
 -14822227.80349 -11549789.86947  21290066.629    21290071.623
 -16649015.34749 -12973275.50646  21924923.706    21924930.324
 -23555187.22949 -18354699.68647  21092009.458    21092013.621
 -23766425.17949 -18519302.39347  20498585.012    20498587.880
 -12851861.26149 -10014431.03746  21325246.539    21325252.468
 02  1  8  4 32  0.0000000  0  8G28G 8G22G 2G 1G27G13G31
  -2473463.44148                  24696663.059
 -12164911.03648  -9479159.27746  22438582.583    22438589.640
   -626126.44048                  24746347.841
 -14858875.81549 -11578346.76447  21283092.893    21283097.647
 -16561671.74149 -12905215.72146  21941545.159    21941552.098
 -23602901.84249 -18391879.91047  21082929.631    21082933.856
 -23732378.29649 -18492772.41847  20505064.280    20505067.272
 -12906302.02549 -10056852.40146  21314886.884    21314892.373
 02  1  8  4 32 30.0000000  0  8G28G 8G22G 2G 1G27G13G31
  -2570419.24748                  24678126.222
 -12248032.39749  -9543929.15246  22422766.163    22422772.185
   -516041.61648                  24767296.274
 -14895219.81549 -11606666.76047  21276176.714    21276181.531
 -16473994.09649 -12836895.63446  21958229.604    21958237.298
 -23650421.69649 -18428908.37547  21073886.574    21073890.831
 -23697794.88549 -18465824.37547  20511645.458    20511648.397
 -12960199.25049 -10098850.23646  21304630.378    21304636.183
 02  1  8  4 33  0.0000000  0  7G 8G22G 2G 1G27G13G31
 -12331032.75948  -9608604.73846  22406969.377    22406976.963
   -405969.18848                  24788243.666
 -14931244.51749 -11634737.95547  21269321.438    21269326.159
 -16385968.94949 -12768304.78146  21974980.291    21974987.046
 -23697730.32249 -18465772.24647  21064884.360    21064888.601
 -23662660.23749 -18438446.79547  20518330.978    20518334.047
 -13013535.37649 -10140410.84646  21294480.759    21294486.207
 02  1  8  4 33 30.0000000  0  7G 8G22G 2G 1G27G13G31
 -12413905.51049  -9673180.87146  22391201.353    22391207.015
   -295905.12547                  24809186.433
 -14966944.50449 -11662556.12447  21262528.024    21262532.901
 -16297592.52949 -12699440.20446  21991798.253    21991805.705
 -23744821.01549 -18502466.30047  21055923.162    21055927.345
 -23626969.23049 -18410635.68947  20525123.181    20525126.122
 -13066302.67949 -10181528.22046  21284439.581    21284445.193
 02  1  8  4 34  0.0000000  0  8G28G 8G22G 2G 1G27G13G31
         -.74958                  24622649.992
 -12496660.36649  -9737665.15046  22375453.758    22375459.429
   -185861.71448                  24830129.644
 -15002330.82949 -11690129.88647  21255794.074    21255798.971
 -16208877.42949 -12630311.72146  22008679.534    22008686.610
 -23791703.49549 -18538998.10847  21047001.709    21047005.770
 -23590733.04649 -18382399.76947  20532018.731    20532021.556
 -13118509.73349 -10222209.03346  21274504.586    21274509.918
 02  1  8  4 34 30.0000000  0  8G28G 8G22G 2G 1G27G13G31
    -96917.52348                  24604207.036
 -12579300.43448  -9802059.96246  22359726.172    22359732.699
    -75844.49848                  24851065.016
 -15037407.46249 -11717462.33347  21249119.239    21249124.101
 -16119829.39649 -12560923.80546  22025625.647    22025632.361
 -23838380.47949 -18575369.79147  21038119.405    21038123.548
 -23553956.40549 -18353742.71247  20539016.531    20539019.720
 -13170158.08149 -10262454.49146  21264676.353    21264682.157
 02  1  8  4 35  0.0000000  0  8G28G 8G22G 2G 1G27G13G31
   -193717.02748                  24585786.500
 -12661832.37449  -9866370.50846  22344022.993    22344027.921
     34137.70547                  24871993.263
 -15072182.39149 -11744559.69147  21242502.250    21242506.793
 -16030457.99449 -12491283.91946  22042632.236    22042640.112
 -23884858.62849 -18611586.53847  21029274.866    21029278.682
 -23516647.65249 -18324671.02847  20546116.509    20546119.622
 -13221253.31749 -10302268.95646  21254953.198    21254958.967
 02  1  8  4 35 30.0000000  0  8G28G 8G22G 2G 1G27G13G31
   -290391.32948                  24567389.691
 -12744248.46849  -9930590.80746  22328338.305    22328344.442
    144089.91448                  24892918.643
 -15106648.96549 -11771416.77047  21235943.124    21235947.886
 -15940758.48949 -12421388.36446  22059701.981    22059708.821
 -23931130.01149 -18647642.17047  21020469.838    21020473.822
 -23478800.80749 -18295180.05047  20553318.816    20553321.809
 -13271786.44849 -10341645.41446  21245337.155    21245342.983
 02  1  8  4 36  0.0000000  0  7G28G 8G 2G 1G27G13G31
   -386936.75748                  24549017.881
 -12826545.24349  -9994718.10846  22312677.884    22312684.561
 -15140804.77549 -11798031.69847  21229443.603    21229448.435
 -15850730.06049 -12351236.51746  22076833.605    22076841.797
 -23977190.99549 -18683533.85847  21011704.718    21011708.846
 -23440413.82049 -18265268.18347  20560623.507    20560626.479
 -13321752.70249 -10380580.14646  21235829.003    21235834.532
 02  1  8  4 36 30.0000000  0  7G28G 8G 2G 1G27G13G31
   -483336.87848                  24530673.325
 -12908706.06649 -10058739.47446  22297043.744    22297049.776
 -15174634.62849 -11824392.63347  21223006.228    21223010.845
 -15760359.31649 -12280817.92746  22094030.941    22094038.612
 -24023025.01849 -18719248.69347  21002983.119    21002986.865
 -23401472.13849 -18234924.08147  20568033.923    20568036.860
 -13371134.72149 -10419059.63146  21226432.014    21226437.280
 02  1  8  4 37  0.0000000  0  8G28G 8G10G 2G 1G27G13G31
   -579606.91048                  24512353.921
 -12990746.75349 -10122667.23146  22281430.701    22281437.839
         -.96258         -.16954  24361078.614    24361085.967
 -15208154.99449 -11850512.40247  21216627.346    21216632.071
 -15669664.53949 -12210146.84946  22111289.347    22111296.616
 -24068647.50549 -18754798.69047  20994301.246    20994304.863
 -23361992.87549 -18204161.08547  20575546.935    20575549.994
 -13419947.07749 -10457095.22246  21217143.002    21217148.848
 02  1  8  4 37 30.0000000  0  8G28G 8G10G 2G 1G27G13G31
   -675749.63848                  24494058.063
 -13072669.69149 -10186503.23746  22265842.467    22265848.316
    -20965.90448    -16336.67844  24357089.795    24357097.103
 -15241370.03749 -11876394.25747  21210306.339    21210311.174
 -15578651.44749 -12139227.73746  22128609.369    22128616.405
 -24114061.08249 -18790185.90547  20985659.316    20985663.022
 -23321980.22149 -18172982.46247  20583160.737    20583163.822
 -13468191.47349 -10494688.24446  21207962.453    21207968.293
 02  1  8  4 38  0.0000000  0  8G28G 8G10G 2G 1G27G13G31
   -771740.73848   -601353.61944  24475791.839    24475801.023
 -13154450.73549 -10250228.68946  22250279.331    22250285.522
    -41362.11648    -32229.94744  24353207.857    24353215.353
 -15274256.73249 -11902020.25347  21204048.437    21204053.448
 -15487298.82149 -12068044.05146  22145992.792    22146000.406
 -24159241.28249 -18825391.26747  20977061.908    20977065.887
 -23281412.13849 -18141371.03847  20590881.124    20590884.179
 -13515842.58349 -10531818.96246  21198894.694    21198900.535
 02  1  8  4 38 30.0000000  0  8G28G 8G10G 2G 1G27G13G31
   -867576.86748                  24457554.715
 -13236086.72549 -10313841.09646  22234743.938    22234750.646
    -61187.20448    -47678.21944  24349434.676    24349444.357
 -15306813.15049 -11927388.89147  21197853.368    21197858.113
 -15395606.58949 -11996595.74346  22163441.739    22163449.230
 -24204184.76349 -18860412.17547  20968509.366    20968513.146
 -23240287.14349 -18109325.65447  20598707.051    20598710.031
 -13562896.00849 -10568483.95946  21189941.077    21189946.383
