     2.10           OBSERVATION DATA    G (GPS)             RINEX VERSION / TYPE
teqc  2004Apr5                          20041208 15:58:25UTCPGM / RUN BY / DATE
OBSERVATION MODE: Permanent                                 COMMENT
CHUM Chumysh (CHUM)                                         MARKER NAME
25601M001                                                   MARKER NUMBER
T136                ROGUE SNR-8000       3.20               REC # / TYPE / VERS
113                 AOAD/M_T        NONE                    ANT # / TYPE
        0.0900        0.0000        0.0000                  ANTENNA: DELTA H/E/N
  1228950.8663  4508079.8913  4327868.4923                  APPROX POSITION XYZ
  74.75109760  42.99850108  716.3251  LonLatAlt  S/W        COMMENT
Linux 2.0.36|Pentium II|gcc -static|Linux|486/DX+           COMMENT
BIT 2 OF LLI FLAGS DATA COLLECTED UNDER A/S CONDITION       COMMENT
Konovalov           IVTAN                                   OBSERVER / AGENCY
     1     1                                                WAVELENGTH FACT L1/2
     5    L1    L2    C1    P2    P1                        # / TYPES OF OBSERV
    30.0000                                                 INTERVAL
    P1 =    P1  TurboRogue; =    Y1  Benchmark              COMMENT
    L1 = L1(P1) TurboRogue; = L1(Y1) Benchmark              COMMENT
    P2 =    P2  TurboRogue; =    Y2  Benchmark              COMMENT
    L2 = L2(P2) TurboRogue; = L2(Y2) Benchmark              COMMENT
 SNR is mapped to RINEX snr flag value [1,4-9]              COMMENT
    SNR:  >=316 >=100 >=31.6 >=10 >=3.2    >0 bad=0         COMMENT
L1 & L2:      9     8     7     6     5     4     1         COMMENT
  2002     1    11     0     0    0.0000000     GPS         TIME OF FIRST OBS
  2002     1    11    23    59   30.0000000     GPS         TIME OF LAST OBS
                                                            END OF HEADER
 02  1 11  0  0  0.0000000  0  8G20G14G 1G29G30G22G11G25
 -21877756.25649 -17047597.76747  21179896.371    21179896.262
   1665038.01048   1297435.87945  23491118.135    23491116.687
  -9720967.06448  -7574776.57245  23254966.023    23254966.637
  -8130227.70449  -6335237.76446  22218906.136    22218906.446
   2285173.18148   1780653.69344  24152071.148    24152072.172
 -12925605.33149 -10071897.22745  22411359.102    22411361.543
  -9383447.76948                  23575591.619
 -22793429.17049 -17761104.86747  20738271.640    20738271.222
 02  1 11  0  0 30.0000000  0  8G20G14G 1G29G30G22G11G25
 -21933523.24049 -17091052.55747  21169284.068    21169283.838
   1744999.46748   1359743.47445  23506334.819    23506334.409
  -9798602.36948  -7635271.58645  23240191.917    23240193.461
  -8065670.05949  -6284933.13746  22231190.841    22231190.385
   2358737.53448   1837976.54444  24166070.032    24166068.978
 -13029406.71049 -10152781.38945  22391606.315    22391607.871
  -9306392.02048  -7251735.59744  23590253.396    23590253.399
 -22758681.48049 -17734028.74447  20744883.989    20744883.631
 02  1 11  0  1  0.0000000  0  8G20G14G 1G29G30G22G11G25
 -21988829.41449 -17134148.27747  21158759.601    21158759.171
   1825077.75148   1422142.10345  23521572.754    23521573.800
  -9876152.53748  -7695700.25445  23225435.257    23225436.547
  -8000930.97449  -6234487.11246  22243510.558    22243510.590
   2432736.64848   1895638.19744  24180152.228    24180152.781
 -13132947.85649 -10233462.76345  22371902.860    22371904.561
  -9229105.89948                  23604962.303
 -22723567.71049 -17706667.36047  20751565.811    20751565.752
 02  1 11  0  1 30.0000000  0  8G20G14G 1G29G30G22G11G25
 -22043672.14749 -17176882.87347  21148323.534    21148323.461
   1905272.80648   1484631.71745  23536833.913    23536832.307
  -9953616.70148  -7756061.90645  23210694.428    23210695.426
  -7936010.49349  -6183899.74846  22255864.765    22255864.695
   2507168.73448   1953637.22244  24194315.170    24194318.626
 -13236225.08849 -10313938.49345  22352250.113    22352251.644
  -9151591.65047                  23619710.388
 -22688089.32749 -17679021.86347  20758317.222    20758317.124
 02  1 11  0  2  0.0000000  0  8G20G14G 1G29G30G22G11G25
 -22098048.94749 -17219254.40547  21137976.027    21137976.048
   1985584.80848   1547212.46745  23552116.507    23552115.036
 -10030994.00348  -7816355.88745  23195970.299    23195972.724
  -7870908.16649  -6133170.67946  22268252.577    22268253.003
   2582032.02948   2011972.21444  24208561.634    24208564.428
 -13339234.52849 -10394205.56845  22332647.839    22332648.788
  -9073851.87148                  23634505.378
 -22652247.25749 -17651092.96947  20765137.929    20765137.688
 02  1 11  0  2 30.0000000  0  8G20G14G 1G29G30G22G11G25
 -22151967.26949 -17261268.68047  21127715.774    21127715.567
   2066003.14348   1609876.07645  23567419.786    23567418.955
 -10108294.16948  -7876589.74245  23181260.139    23181262.214
  -7805634.22649  -6082307.88746  22280674.434    22280675.011
   2657313.87648   2070633.44344  24222888.411    24222888.060
 -13441982.85949 -10474269.16345  22313095.260    22313098.217
  -8995899.64348                  23649338.503
 -22616053.15149 -17622889.76447  20772025.204    20772024.981
 02  1 11  0  3  0.0000000  0  8G20G14G 1G29G30G22G11G25
 -22205429.06049 -17302927.22147  21117542.386    21117542.256
   2146523.89448   1672619.47145  23582742.468    23582741.769
 -10185520.36649  -7936765.97845  23166565.109    23166565.418
  -7740192.65449  -6031314.47146  22293127.247    22293127.731
   2733008.34748   2129616.07944  24237291.857    24237295.694
 -13544470.69849 -10554129.79545  22293592.825    22293594.200
  -8917741.62848                  23664212.306
 -22579511.80249 -17594415.97747  20778978.960    20778978.716
 02  1 11  0  3 30.0000000  0  8G20G14G 1G29G30G22G11G25
 -22258404.66249 -17344206.90847  21107461.794    21107461.610
   2227174.02548   1735463.69645  23598089.509    23598088.897
 -10262644.59348  -7996862.74045  23151887.882    23151889.159
  -7674556.24449  -5980169.24246  22305617.535    22305617.011
   2809140.17848   2188939.58344  24251780.420    24251782.902
 -13646667.30149 -10633763.48345  22274144.848    22274146.490
  -8839353.22248                  23679129.060
 -22542597.62849 -17565651.67647  20786003.565    20786003.244
 02  1 11  0  4  0.0000000  0  8G20G14G 1G29G30G22G11G25
 -22310915.21749 -17385124.22147  21097469.008    21097468.649
   2307930.13848   1798390.51245  23613456.534    23613455.135
 -10339689.67048  -8056897.84345  23137227.141    23137228.682
  -7608748.29749  -5928890.34246  22318140.791    22318140.383
   2885683.93548   2248584.12544  24266344.703    24266342.421
 -13748592.52149 -10713185.69045  22254749.819    22254750.989
  -8760760.39648                  23694084.328
 -22505335.24649 -17536616.04347  20793094.239    20793094.042
 02  1 11  0  4 30.0000000  0  8G20G14G 1G29G30G22G11G25
 -22362952.78349 -17425672.97547  21087566.345    21087566.224
   2388797.46548   1861403.97745  23628846.178    23628845.010
 -10416649.26649  -8116866.31445  23122582.418    23122583.931
  -7542763.24549  -5877473.43346  22330697.166    22330696.665
   2962643.08648   2308552.23044  24280991.020    24280990.378
 -13850237.28249 -10792389.37445  22235406.946    22235408.920
  -8681960.98348                  23709079.991
 -22467720.59249 -17507305.91847  20800252.246    20800251.941
 02  1 11  0  5  0.0000000  0  8G20G14G 1G29G30G22G11G25
 -22414520.00049 -17465855.21847  21077753.470    21077753.318
   2469770.99448   1924500.19945  23644254.035    23644255.534
 -10493527.93248  -8176771.75145  23107952.103    23107954.100
  -7476606.29549  -5825922.59246  22343286.120    22343285.757
   3040010.09448   2368838.18444  24295713.561    24295714.668
 -13951603.30949 -10871375.86645  22216117.977    22216119.186
  -8602962.29148                  23724113.237
 -22429760.12049 -17477726.32347  20807475.964    20807475.852
 02  1 11  0  5 30.0000000  0  8G20G14G 1G29G30G22G11G25
 -22465596.79449 -17505655.31947  21068034.027    21068033.845
   2550868.15548   1987692.75445  23659686.176    23659686.514
 -10570307.02749  -8236599.58645  23093342.792    23093343.288
  -7410259.49649  -5774223.80446  22355911.729    22355912.036
   3117800.78648   2429454.28744  24310515.414    24310516.736
 -14052669.21849 -10950128.49446  22196885.370    22196887.709
  -8523749.36248                  23739186.686
 -22391437.56449 -17447864.58647  20814768.108    20814767.853
 02  1 11  0  6  0.0000000  0  8G20G14G 1G29G30G22G11G25
 -22516178.30649 -17545069.47947  21058408.699    21058408.617
   2632091.44648   2050983.58145  23675143.678    23675142.882
 -10646983.33349  -8296347.32846  23078750.743    23078752.309
  -7343720.29149  -5722375.10446  22368574.172    22368574.418
   3196015.24348   2490400.61444  24325400.411    24325399.701
 -14153428.99349 -11028642.58146  22177712.046    22177713.735
  -8444322.24048                  23754300.474
 -22352751.27149 -17417719.41747  20822129.772    20822129.679
 02  1 11  0  6 30.0000000  0  8G20G14G 1G29G30G22G11G25
 -22566276.66649 -17584107.16247  21048875.180    21048874.958
   2713426.77948   2114361.73145  23690620.167    23690620.806
 -10723570.44949  -8356025.56845  23064176.534    23064178.340
  -7277003.06449  -5670387.67946  22381269.486    22381270.111
   3274636.90348   2551664.26744  24340360.715    24340361.872
 -14253893.42249 -11106926.52846  22158594.204    22158595.502
  -8364698.09848                  23769454.283
 -22313717.11549 -17387303.18547  20829557.661    20829557.495
 02  1 11  0  7  0.0000000  0  8G20G14G 1G29G30G22G11G25
 -22615905.35149 -17622778.85847  21039431.273    21039431.270
   2794857.72848   2177814.37745  23706115.810    23706115.927
 -10800083.28249  -8415645.95345  23049616.763    23049617.710
  -7210123.43549  -5618273.69246  22393996.872    22393996.358
   3353647.95148   2613231.29044  24355396.107    24355397.234
 -14354074.78849 -11184989.89646  22139530.596    22139531.828
  -8284895.59848                  23784638.702
 -22274352.34549 -17356629.33747  20837048.903    20837048.724
 02  1 11  0  7 30.0000000  0  8G20G14G 1G29G30G22G11G25
 -22665050.89049 -17661074.08247  21030079.069    21030079.096
   2876395.43348   2241350.21845  23721632.951    23721631.239
 -10876510.07949  -8475199.26345  23035073.329    23035074.680
  -7143070.66749  -5566024.80646  22406756.136    22406756.221
   3433057.02748   2675108.48444  24370507.351    24370506.599
 -14453958.59449 -11262821.41646  22120522.773    22120524.712
  -8204906.17148                  23799860.852
 -22234647.01249 -17325690.11747  20844604.220    20844604.038
 02  1 11  0  8  0.0000000  0  8G20G14G 1G29G30G22G11G25
 -22713706.04349 -17698987.18947  21020820.348    21020820.443
   2958044.86048   2304973.11545  23737169.676    23737168.004
 -10952844.99749  -8534680.98445  23020547.670    23020548.266
  -7075839.22849  -5513636.70446  22419549.979    22419550.483
   3512867.04948   2737298.05244  24385694.880    24385696.014
 -14553536.11449 -11340414.26546  22101573.936    22101575.730
  -8124727.77148                  23815119.509
 -22194597.44149 -17294482.65447  20852225.216    20852225.293
 02  1 11  0  8 30.0000000  0  8G20G14G 1G29G30G22G11G25
 -22761866.82149 -17736515.06147  21011655.803    21011655.818
   3039807.54448   2368684.24645  23752728.899    23752730.640
 -11029085.59549  -8594089.21945  23006040.266    23006040.135
  -7008427.60549  -5461108.18146  22432377.624    22432378.858
   3593077.27648   2799799.53444  24400959.496    24400958.422
 -14652802.27749 -11417764.49446  22082684.255    22082686.043
  -8044361.25948                  23830412.054
 -22154203.41649 -17263006.79147  20859912.132    20859911.895
 02  1 11  0  9  0.0000000  0  8G20G14G 1G29G30G22G11G25
 -22809543.91449 -17773666.04047  21002583.159    21002583.097
   3121670.68848   2432473.67145  23768307.431    23768306.009
 -11105243.90949  -8653433.32945  22991545.958    22991547.958
  -6940848.60249  -5408449.24746  22445237.971    22445237.088
   3673672.81448   2862601.25044  24416294.416    24416295.490
 -14751766.22249 -11494879.22246  22063851.894    22063853.288
  -7963822.10748                  23845737.534
 -22113478.84749 -17231273.35847  20867661.867    20867661.523
 02  1 11  0  9 30.0000000  0  8G20G14G 1G29G30G22G11G25
 -22856724.76749 -17810430.34247  20993604.928    20993604.633
   3203644.14448   2496349.07545  23783905.474    23783905.612
 -11181309.08549  -8712704.86245  22977073.015    22977073.752
  -6873091.88749  -5355651.81846  22458131.834    22458131.974
   3754661.52848   2925709.29644  24431706.677    24431707.575
 -14850414.56649 -11571748.03846  22045079.697    22045080.872
  -7883103.07148                  23861097.739
 -22072415.04349 -17199275.58847  20875476.104    20875475.862
 02  1 11  0 10  0.0000000  0  8G14G 1G29G30G22G20G11G25
   3285723.77648   2560307.15045  23799525.614    23799524.908
 -11257284.52449  -8771906.47945  22962614.662    22962614.789
  -6805161.62849  -5302719.17646  22471058.112    22471059.662
   3836036.79348   2989118.55944  24447192.187    24447189.406
 -14948747.76849 -11648371.28146  22026367.737    22026368.018
 -22903411.20249 -17846809.38047  20984720.755    20984720.418
  -7802211.02148                  23876492.027
 -22031017.53349 -17167017.79047  20883353.938    20883353.514
 02  1 11  0 10 30.0000000  0  8G14G 1G29G30G22G20G11G25
   3367912.32948   2624350.15445  23815165.472    23815164.905
 -11333166.45248  -8831035.21545  22948173.587    22948175.921
  -6737055.02749  -5249649.11445  22484018.782    22484018.771
   3917799.40248   3052829.72644  24462750.429    24462751.080
 -15046759.44549 -11724743.99246  22007716.816    22007718.394
 -22949598.18049 -17882799.23247  20975931.756    20975931.446
  -7721145.64847                  23891914.932
 -21989284.80549 -17134498.78347  20891295.408    20891294.978
 02  1 11  0 11  0.0000000  0  8G14G 1G29G30G22G20G11G25
   3450209.52248   2688477.79445  23830825.912    23830824.335
 -11408954.10049  -8890090.50346  22933753.568    22933754.309
  -6668771.81149  -5196441.43745  22497012.699    22497011.756
   3999946.93748   3116840.69744  24478383.248    24478386.262
 -15144446.12549 -11800863.45846  21989127.170    21989129.087
 -22995283.41049 -17918398.11347  20967237.991    20967237.728
  -7639909.75748                  23907377.789
 -21947218.15549 -17101719.57947  20899300.575    20899300.136
 02  1 11  0 11 30.0000000  0  8G14G 1G29G30G22G20G11G25
   3532606.00448   2752682.79745  23846505.631    23846504.404
 -11484656.31448  -8949079.21045  22919345.862    22919348.127
  -6600321.64849  -5143103.66645  22510037.680    22510038.294
   4082467.70748   3181142.67744  24494086.002    24494084.944
 -15241813.81949 -11876734.36146  21970599.271    21970600.779
 -23040474.51549 -17953611.95947  20958638.575    20958638.293
  -7558515.53447                  23922864.590
 -21904828.50749 -17068688.68347  20907366.922    20907366.503
 02  1 11  0 12  0.0000000  0  8G14G 1G29G30G22G20G11G25
   3615112.17248   2816973.27145  23862206.064    23862206.534
 -11560261.75649  -9007992.51645  22904960.011    22904961.282
  -6531693.87849  -5089627.50545  22523097.756    22523098.210
   4165369.95148   3245741.81544  24509862.513    24509861.657
 -15338848.49649 -11952345.76446  21952133.328    21952135.139
 -23085158.45349 -17988430.60847  20950135.374    20950135.076
  -7476955.11147                  23938384.849
 -21862106.41849 -17035398.74947  20915496.601    20915496.269
 02  1 11  0 12 30.0000000  0  8G14G 1G29G30G22G20G11G25
   3697738.35248   2881357.28045  23877929.466    23877929.375
 -11635758.81349  -9066821.35846  22890593.698    22890594.811
  -6462877.88749  -5036004.68045  22536192.824    22536193.371
   4248661.69548   3310644.44144  24525712.011    24525713.753
 -15435536.21749 -12027686.81046  21933734.576    21933736.225
 -23129322.58249 -18022844.21647  20941730.985    20941730.767
  -7395220.59447                  23953937.859
 -21819043.07549 -17001842.90247  20923691.337    20923690.976
 02  1 11  0 13  0.0000000  0  8G14G 1G29G30G22G20G11G25
   3780475.37548   2945827.61145  23893673.201    23893674.084
 -11711156.05048  -9125572.41445  22876243.943    22876246.791
  -6393882.99749  -4982242.45145  22549322.047    22549322.495
   4332331.51648   3375841.65844  24541633.289    24541632.465
 -15531882.70349 -12102761.97446  21915400.396    21915401.884
 -23172973.95449 -18056858.27247  20933424.696    20933424.499
  -7313324.02147                  23969523.349
 -21775648.51449 -16968028.96447  20931949.204    20931948.885
 02  1 11  0 13 30.0000000  0  8G14G 1G29G30G22G20G11G25
   3863313.75848   3010376.97545  23909437.510    23909437.142
 -11786461.90349  -9184252.26945  22861916.108    22861916.615
  -6324718.17349  -4928347.80845  22562483.069    22562484.015
   4416367.88648   3441324.56444  24557625.565    24557625.545
 -15627893.68149 -12177575.69446  21897130.503    21897131.518
 -23216119.82749 -18090478.43447  20925214.293    20925214.090
  -7231277.41247                  23985135.425
 -21731933.75749 -16933965.51647  20940267.985    20940267.631
 02  1 11  0 14  0.0000000  0  8G14G 1G29G30G22G20G11G25
   3946257.72448   3075008.57045  23925221.102    23925219.858
 -11861671.06149  -9242856.79245  22847603.627    22847604.461
  -6255379.27149  -4874317.52045  22575679.050    22575678.493
   4500772.76648   3507094.62544  24573686.885    24573689.542
 -15723561.44349 -12252121.98346  21878925.261    21878926.689
 -23258753.54249 -18123699.50747  20917101.257    20917101.130
  -7149079.10648                  24000778.662
 -21687895.71549 -16899650.16147  20948647.771    20948647.432
 02  1 11  0 14 30.0000000  0  8G14G 1G29G30G22G20G11G25
   4029297.33548   3139714.72345  23941023.064    23941023.164
 -11936792.59048  -9301393.00645  22833306.818    22833309.892
  -6185876.00149  -4820159.13545  22588904.356    22588904.629
   4585534.03248   3573142.26544  24589816.214    24589816.720
 -15818892.12649 -12326405.58846  21860784.204    21860785.588
 -23300882.85949 -18156527.54647  20909084.654    20909084.334
  -7066741.46548                  24016446.878
 -21643545.51449 -16865091.56447  20957087.222    20957087.015
 02  1 11  0 15  0.0000000  0  8G14G 1G29G30G22G20G11G25
   4112449.00048   3204508.16045  23956845.977    23956846.419
 -12011809.12849  -9359847.41546  22819033.515    22819034.749
  -6116191.70348  -4765859.71445  22602164.404    22602165.034
   4670665.75548   3639478.69844  24606017.046    24606016.414
 -15913865.92049 -12400411.10646  21842711.378    21842713.455
 -23342489.17749 -18188948.05347  20901166.917    20901166.769
  -6984251.09648                  24032144.083
 -21598867.89149 -16830277.83647  20965589.289    20965588.877
 02  1 11  0 15 30.0000000  0  8G14G 1G29G30G22G20G11G25
   4195704.98948   3269382.91045  23972690.566    23972688.820
 -12086727.54549  -9418225.37446  22804776.619    22804777.496
  -6046334.26549  -4711425.37745  22615458.735    22615458.226
   4756157.97548   3706095.99344  24622284.836    24622286.459
 -16008486.98049 -12474141.78146  21824705.388    21824706.696
 -23383578.03649 -18220965.34347  20893348.016    20893347.763
  -6901618.18048                  24047869.145
 -21553872.20649 -16795216.26747  20974151.580    20974151.250
 02  1 11  0 16  0.0000000  0  8G14G 1G29G30G22G20G11G25
   4279080.48448   3334350.78345  23988554.298    23988553.129
 -12161531.67648  -9476514.27146  22790540.942    22790543.620
  -5976288.24548  -4656844.08845  22628787.375    22628788.094
   4842023.50248   3773004.15844  24638624.576    24638627.740
 -16102736.55049 -12547582.97146  21806770.669    21806772.190
 -23424131.90949 -18252565.76647  20885630.785    20885630.653
  -6818829.87948                  24063623.182
 -21508544.18849 -16759895.73447  20982777.047    20982776.748
 02  1 11  0 16 30.0000000  0  8G14G 1G29G30G22G20G11G25
   4362560.84148   3399400.34944  24004441.025    24004442.329
 -12236235.23649  -9534724.79746  22776326.897    22776328.106
  -5906068.13748  -4602127.13645  22642149.962    22642150.374
   4928245.43148   3840190.06144  24655032.095    24655032.851
 -16196625.76549 -12620743.37146  21788903.779    21788905.474
 -23464163.52349 -18283759.23347  20878012.908    20878012.793
  -6735903.85848                  24079404.344
 -21462900.14249 -16724328.94947  20991462.902    20991462.582
 02  1 11  0 17  0.0000000  0  8G14G 1G29G30G22G20G11G25
   4446140.03448   3464526.94345  24020346.103    24020346.332
 -12310843.42848  -9592861.00846  22762126.997    22762129.149
  -5835679.94148  -4547279.22645  22655544.719    22655544.505
   5014815.70448   3907647.37444  24671506.070    24671507.664
 -16290157.24949 -12693625.01646  21771105.715    21771106.912
 -23503676.77349 -18314548.77847  20870494.130    20870494.036
  -6652848.65348                  24095208.441
 -21416947.13049 -16688521.41047  21000207.367    21000206.994
 02  1 11  0 17 30.0000000  0  8G14G 1G29G30G22G20G11G25
   4529821.32848   3529733.07445  24036269.326    24036269.057
 -12385351.97549  -9650919.57946  22747949.488    22747950.779
  -5765120.09048  -4492297.54845  22668971.742    22668972.332
   5101735.26348   3975376.91344  24688046.225    24688047.672
 -16383323.99549 -12766222.45346  21753376.212    21753378.234
 -23542665.80849 -18344929.84547  20863074.780    20863074.569
  -6569663.21748                  24111037.648
 -21370682.81449 -16652471.29647  21009011.201    21009010.974
 02  1 11  0 18  0.0000000  0  8G14G 1G29G30G22G20G11G25
   4613598.34148   3595013.82144  24052211.775    24052211.623
 -12459766.17249  -9708904.63346  22733790.317    22733790.809
  -5694394.87648  -4437187.02245  22682430.202    22682430.545
   5188995.25848                  24704650.623
 -16476128.78249 -12838537.83846  21735716.550    21735717.986
 -23581135.18949 -18374905.98447  20855753.866    20855753.836
  -6486356.76048  -5054306.31344  24126891.835    24126889.947
 -21324115.26149 -16616184.89547  21017872.748    21017872.363
 02  1 11  0 18 30.0000000  0  8G14G 1G29G30G22G20G11G25
   4697475.92448   3660372.90245  24068173.673    24068172.131
 -12534080.51849  -9766811.88646  22719646.547    22719648.293
  -5623499.45148  -4381943.86845  22695921.229    22695921.203
   5276598.31448   4111633.82644  24721322.198    24721321.736
 -16568563.48349 -12910564.85646  21718126.467    21718127.841
 -23619078.05049 -18404471.84847  20848533.676    20848533.719
  -6402927.14348                  24142766.830
 -21277240.76849 -16579659.31747  21026793.148    21026792.561
 02  1 11  0 19  0.0000000  0  8G14G 1G29G30G22G20G11G25
   4781431.73048   3725792.96345  24084149.711    24084148.523
 -12608316.00449  -9824657.68846  22705521.582    22705522.680
  -5552455.83148  -4326585.23745  22709440.142    22709440.334
   5364519.90248   4180144.08744  24738051.678    24738053.545
 -16660646.80749 -12982318.06046  21700603.629    21700604.944
 -23656514.56149 -18433643.15547  20841409.939    20841409.635
  -6319399.27248  -4924209.68044  24158661.357    24158657.790
 -21230082.75849 -16542912.82047  21035766.814    21035766.214
 02  1 11  0 19 30.0000000  0  8G14G 1G29G30G22G20G11G25
   4865485.56648   3791289.38544  24100144.044    24100143.131
 -12682451.77749  -9882425.79946  22691413.968    22691415.184
  -5481244.13248  -4271095.62045  22722991.712    22722991.743
   5452777.51648   4248916.26144  24754847.492    24754847.781
 -16752355.44049 -13053779.30846  21683152.331    21683153.316
 -23693422.87949 -18462402.88347  20834386.520    20834386.271
  -6235755.96348                  24174578.178
 -21182622.63549 -16505930.91147  21044798.191    21044797.758
 02  1 11  0 20  0.0000000  0  8G14G 1G29G30G22G20G11G25
   4949653.17448   3856874.49144  24116162.115    24116160.901
 -12756471.27249  -9940103.31046  22677327.459    22677329.324
  -5409848.34348  -4215462.56145  22736577.375    22736577.930
   5541384.69948   4317960.80244  24771709.043    24771709.838
 -16843669.89949 -13124933.39846  21665775.319    21665776.630
 -23729784.84549 -18490736.88247  20827466.872    20827466.576
  -6151983.89648                  24190520.194
 -21134845.61849 -16468702.06947  21053889.864    21053889.373
 02  1 11  0 20 30.0000000  0  7G14G 1G29G22G20G11G25
   5033945.80948   3922557.01344  24132201.531    24132201.050
 -12830362.04249  -9997680.50346  22663267.604    22663268.189
  -5338257.32748  -4159677.38745  22750200.998    22750201.178
 -16934575.72549 -13195769.07446  21648476.785    21648478.129
 -23765587.50649 -18518635.05947  20820653.635    20820653.636
  -6068074.63148                  24206486.915
 -21086742.44149 -16431219.07447  21063043.505    21063042.891
 02  1 11  0 21  0.0000000  0  8G14G 1G29G 4G22G20G11G25
   5118321.42848   3988304.17345  24148257.829    24148257.395
 -12904165.29349 -10055189.51246  22649222.767    22649224.002
  -5266512.85848  -4103772.64745  22763853.594    22763853.368
         -.90258                  25327164.549
 -17025111.15949 -13266316.14246  21631248.660    21631250.126
 -23800870.72549 -18546128.47747  20813939.607    20813939.573
  -5984072.70548                  24222471.831
 -21038356.37449 -16393515.64747  21072250.983    21072250.532
 02  1 11  0 21 30.0000000  0  8G14G 1G29G 4G22G20G11G25
   5202791.01648   4054124.58345  24164332.545    24164333.110
 -12977868.98749 -10112620.93746  22635197.213    22635198.729
  -5194603.87048  -4047739.68445  22777537.458    22777538.658
    -53389.04548                  25317006.438
 -17115261.98349 -13336563.51646  21614093.004    21614094.439
 -23835621.70949 -18573207.16847  20807326.841    20807326.570
  -5899969.78948  -4597381.68544  24238477.149    24238476.677
 -20989677.33749 -16355583.92847  21081514.317    21081513.802
 02  1 11  0 22  0.0000000  0  8G14G 1G29G 4G22G20G11G25
   5287363.24448   4120024.96345  24180425.012    24180425.859
 -13051463.26749 -10169967.12046  22621193.122    22621193.840
  -5122521.63648  -3991571.74445  22791254.277    22791253.850
   -106320.24648                  25306934.317
 -17205016.11649 -13406501.77646  21597013.404    21597014.974
 -23869829.45449 -18599862.55347  20800817.493    20800817.264
  -5815759.43848                  24254500.206
 -20940697.89549 -16317418.12747  21090834.856    21090834.439
 02  1 11  0 22 30.0000000  0  8G14G 1G29G 4G22G20G11G25
   5372033.30348   4186001.57045  24196537.824    24196538.331
 -13124952.27649 -10227231.27446  22607208.242    22607208.741
  -5050270.77948  -3935272.40045  22805003.754    22805003.042
   -158797.22848                  25296947.762
 -17294375.00749 -13476132.05946  21580008.817    21580009.769
 -23903497.11149 -18626097.09047  20794410.530    20794410.409
  -5731449.48048  -4466067.21144  24270545.517    24270546.100
 -20891424.31149 -16279023.12847  21100211.181    21100210.768
 02  1 11  0 23  0.0000000  0  8G14G 1G29G 4G22G20G11G25
   5456817.64948   4252067.21844  24212671.520    24212672.853
 -13198318.13249 -10284399.45046  22593246.905    22593248.806
  -4977834.57148  -3878828.64645  22818787.142    22818788.306
   -210801.18948                  25287051.225
 -17383318.08949 -13545438.32546  21563083.656    21563084.907
 -23936605.84649 -18651896.10847  20788110.072    20788109.962
  -5647025.70348                  24286610.285
 -20841840.86449 -16240386.67547  21109646.859    21109646.454
 02  1 11  0 23 30.0000000  0  8G14G 1G29G 4G22G20G11G25
   5541715.54048   4318221.36244  24228827.020    24228826.628
 -13271560.77049 -10341471.60146  22579309.899    22579310.787
  -4905213.71448  -3822240.99045  22832606.654    22832606.831
   -262330.98648                  25277246.131
 -17471842.97349 -13614418.73146  21546238.139    21546239.035
 -23969154.64749 -18677258.81047  20781916.413    20781916.152
  -5562491.54048                  24302697.255
 -20791950.00349 -16201510.67647  21119140.494    21119140.069
 02  1 11  0 24  0.0000000  0  8G14G 1G29G 4G22G20G11G25
   5626702.01648   4384444.53744  24244999.758    24244999.053
 -13344704.34849 -10398466.57846  22565390.615    22565391.680
  -4832433.31748  -3765529.01245  22846456.801    22846456.815
   -313410.02248                  25267526.820
 -17559971.45449 -13683090.25046  21529467.096    21529468.826
 -24001166.83149 -18702203.36947  20775825.055    20775824.830
  -5477874.55048                  24318798.500
 -20741778.25049 -16162415.80547  21128687.688    21128687.457
 02  1 11  0 24 30.0000000  0  8G14G 1G29G 4G22G20G11G25
   5711775.37448   4450735.40344  24261188.395    24261187.677
 -13417749.20849 -10455384.62246  22551491.027    22551491.833
  -4759494.74348  -3708693.79445  22860335.767    22860337.377
   -364037.77348                  25257892.268
 -17647701.68649 -13751451.44846  21512773.157    21512774.248
 -24032641.78349 -18726729.30947  20769835.522    20769835.247
  -5393178.95448                  24334916.486
 -20691328.16249 -16123104.04847  21138288.621    21138288.201
 02  1 11  0 25  0.0000000  0  8G14G 1G29G 4G22G20G11G25
   5796945.06448   4517101.33344  24277395.353    24277394.363
 -13490684.84449 -10512217.56546  22537611.767    22537613.084
  -4686388.36748  -3651727.82845  22874247.352    22874247.900
   -414203.06148                  25248345.413
 -17735020.68249 -13819492.20446  21496156.518    21496158.209
 -24063568.29149 -18750827.88847  20763950.128    20763949.858
  -5308397.99248                  24351048.587
 -20640591.36849 -16083568.88047  21147943.028    21147942.920
 02  1 11  0 25 30.0000000  0  8G14G 1G29G 4G22G20G11G25
   5882221.53548   4583550.46744  24293623.659    24293622.631
 -13563499.84549 -10568956.49446  22523755.187    22523756.253
  -4613103.72948  -3594622.95345  22888194.026    22888193.837
   -463893.23848                  25238890.350
 -17821914.44749 -13887201.60746  21479621.576    21479622.698
 -24093933.88149 -18774489.38747  20758171.690    20758171.439
  -5223523.77748  -4070281.18444  24367199.472    24367202.677
 -20589558.88849 -16043803.30947  21157654.065    21157653.880
 02  1 11  0 26  0.0000000  0  8G14G 1G29G 4G22G20G11G25
   5967593.16748   4650073.76244  24309869.063    24309868.763
 -13636204.71049 -10625609.60646  22509920.489    22509921.791
  -4539652.26048  -3537388.07145  22902170.478    22902169.802
   -513118.08548                  25229522.863
 -17908391.33649 -13954586.16746  21463165.234    21463167.130
 -24123748.31849 -18797721.41847  20752498.125    20752498.086
  -5138570.24148                  24383366.423
 -20538243.43149 -16003817.23947  21167419.159    21167418.864
 02  1 11  0 26 30.0000000  0  8G14G 1G29G 4G22G20G11G25
   6053051.64348   4716664.71644  24326131.179    24326130.425
 -13708806.40349 -10682182.33946  22496104.678    22496105.640
  -4466041.83148  -3480029.34445  22916178.253    22916179.649
   -561884.04548                  25220242.513
 -17994456.05649 -14021649.55646  21446788.234    21446789.107
 -24153017.96849 -18820528.93447  20746928.340    20746928.104
  -5053548.05148                  24399545.524
 -20486654.25649 -15963617.87847  21177236.301    21177235.981
 02  1 11  0 27  0.0000000  0  8G14G 1G29G 4G22G20G11G25
   6138607.51248   4783331.54344  24342411.690    24342411.373
 -13781293.65049 -10738665.87746  22482310.132    22482311.663
  -4392262.34348  -3422538.86945  22930219.042    22930217.611
   -610178.59848                  25211051.411
 -18080094.97649 -14088381.15746  21430491.024    21430492.404
 -24181730.76949 -18842902.54847  20741464.857    20741464.541
  -4968449.66848                  24415739.008
 -20434782.48949 -15923198.31847  21187107.026    21187107.034
 02  1 11  0 27 30.0000000  0  8G14G 1G29G 4G22G20G11G25
   6224270.12048   4850081.58044  24358714.302    24358713.772
 -13853656.01549 -10795052.10446  22468540.808    22468542.128
  -4318304.12848  -3364909.13445  22944292.434    22944293.445
   -657990.73348                  25201954.724
 -18165295.27649 -14154770.97846  21414278.087    21414278.911
 -24209875.59149 -18864833.58247  20736108.911    20736108.750
  -4883268.18548                  24431949.109
 -20382619.83449 -15882552.09047  21197033.168    21197033.335
 02  1 11  0 28  0.0000000  0  8G14G 1G29G 4G22G20G11G25
   6310030.06848   4916907.47444  24375032.368    24375031.991
 -13925901.57249 -10851347.32146  22454792.632    22454793.270
  -4244176.32048  -3307147.23345  22958398.030    22958398.498
   -705327.71648                  25192946.667
 -18250062.79949 -14220823.57846  21398147.499    21398148.100
 -24237459.81249 -18886327.78347  20730859.738    20730859.493
  -4798015.34548                  24448171.556
 -20330176.96649 -15841687.51947  21207012.925    21207012.982
 02  1 11  0 28 30.0000000  0  8G14G 1G29G 4G22G20G11G25
   6395886.40448   4983808.41044  24391370.306    24391367.977
 -13998030.35249 -10907551.54546  22441066.760    22441067.855
  -4169880.00548  -3249254.03145  22972536.508    22972536.284
   -752188.94448                  25184028.577
 -18334395.28449 -14286537.17746  21382099.630    21382100.881
 -24264482.68249 -18907384.56547  20725717.489    20725717.376
  -4712695.06648                  24464408.839
 -20277456.17549 -15800606.37447  21217045.194    21217045.103
 02  1 11  0 29  0.0000000  0  8G14G 1G29G 4G22G20G11G25
   6481836.96248   5050782.85044  24407727.459    24407728.941
 -14070043.23549 -10963665.45546  22427363.226    22427365.348
  -4095417.05648  -3191230.99445  22986706.458    22986706.873
   -798574.67948                  25175201.664
 -18418291.40149 -14351910.75446  21366134.782    21366135.520
 -24290944.42749 -18928004.11047  20720681.834    20720681.776
  -4627311.58948                  24480655.314
 -20224460.65849 -15759311.16647  21227130.105    21227129.926
 02  1 11  0 29 30.0000000  0  8G14G 1G29G 4G22G20G11G25
   6567887.87348   5117835.43244  24424101.574    24424102.109
 -14141933.06149 -11019683.47246  22413683.548    22413684.165
  -4020781.08848  -3133073.13545  23000909.000    23000909.216
   -844477.00948                  25166467.176
 -18501741.54149 -14416936.81346  21350254.266    21350255.554
 -24316837.26749 -18948180.35347  20715754.484    20715754.536
  -4541861.32848                  24496916.730
 -20171185.68349 -15717798.19347  21237268.030    21237267.873
 02  1 11  0 30  0.0000000  0  8G14G 1G29G 4G22G20G11G25
   6654027.29348   5184956.97344  24440493.215    24440494.925
 -14213710.48549 -11075613.90246  22400023.719    22400024.055
  -3945983.97548  -3074789.71545  23015142.260    23015144.471
   -889905.72048                  25157821.964
 -18584754.30649 -14481622.06346  21334457.735    21334458.814
 -24342170.92549 -18967920.86847  20710933.456    20710933.561
  -4456358.58548                  24513186.862
 -20117644.27049 -15676077.60747  21247456.484    21247456.582
 02  1 11  0 30 30.0000000  0  7G14G 1G29G22G20G11G25
   6740245.34948   5252139.83044  24456900.611    24456899.411
 -14285384.24949 -11131463.57846  22386385.391    22386385.823
  -3871035.62348  -3016388.43545  23029404.738    23029404.564
 -18667336.29449 -14545971.63446  21318742.831    21318744.040
 -24366954.04449 -18987232.39147  20706217.532    20706217.629
  -4370815.96548                  24529465.033
 -20063847.57149 -15634158.09647  21257693.915    21257693.589
 02  1 11  0 31  0.0000000  0  7G14G 1G29G22G20G11G25
   6826588.05848   5319419.76944  24473330.834    24473331.193
 -14356907.12249 -11187195.66446  22372774.634    22372775.936
  -3795889.49348  -2957833.07145  23043704.403    23043704.665
 -18749438.12249 -14609947.06346  21303119.369    21303120.940
 -24391138.73949 -19006077.61247  20701615.355    20701615.597
  -4285190.16348                  24545760.511
 -20009750.64049 -15592004.64047  21267988.008    21267987.694
 02  1 11  0 31 30.0000000  0  7G14G 1G29G22G20G11G25
   6913029.76148   5386776.86144  24489779.470    24489779.157
 -14428303.90749 -11242829.49146  22359187.960    22359189.356
  -3720571.44648  -2899143.70845  23058037.409    23058038.479
 -18831082.20149 -14673565.79646  21287582.985    21287584.724
 -24414749.06249 -19024475.27147  20697122.752    20697122.847
  -4199508.95348                  24562063.536
 -19955380.18349 -15549638.04847  21278334.425    21278334.114
 02  1 11  0 32  0.0000000  0  7G14G 1G29G22G20G11G25
   6999549.22748   5454194.55944  24506245.374    24506242.170
 -14499594.71149 -11298380.73546  22345622.025    22345622.594
  -3645102.89148  -2840337.08145  23072398.271    23072398.781
 -18912286.60449 -14736841.92646  21272130.639    21272131.269
 -24437804.64749 -19042440.66647  20692735.551    20692735.511
  -4113795.88548                  24578375.913
 -19900759.24949 -15507076.27847  21288728.460    21288728.048
 02  1 11  0 32 30.0000000  0  7G14G 1G29G22G20G11G25
   7086144.21448   5521671.10344  24522722.698    24522722.584
 -14570780.47549 -11353850.14246  22332075.766    22332076.801
  -3569485.73748  -2781414.67145  23086787.680    23086787.766
 -18993050.20449 -14799774.58846  21256761.416    21256762.473
 -24460306.07249 -19059974.24747  20688453.486    20688453.385
  -4028056.06548                  24594689.455
 -19845890.93849 -15464321.74747  21299169.638    21299169.306
 02  1 11  0 33  0.0000000  0  7G14G 1G29G22G20G11G25
   7172831.04448   5589219.21044  24539218.491    24539219.427
 -14641843.51849 -11409223.91446  22318553.081    22318554.298
  -3493703.41048  -2722363.54645  23101208.996    23101209.297
 -19073353.25149 -14862348.36646  21241480.640    21241481.305
 -24482235.16949 -19077061.85747  20684280.299    20684280.403
  -3942275.40348                  24611014.469
 -19790759.81749 -15421362.42947  21309660.530    21309660.157
 02  1 11  0 33 30.0000000  0  7G14G 1G29G22G20G11G25
   7259614.78848   5656842.80744  24555733.690    24555733.050
 -14712777.74649 -11464497.31146  22305055.390    22305056.038
  -3417750.61348  -2663179.59045  23115662.052    23115662.646
 -19153187.22849 -14924556.63546  21226288.161    21226289.555
 -24503585.42249 -19093698.42147  20680217.611    20680217.652
  -3856451.24748                  24627344.688
 -19735361.85149 -15378195.17947  21320202.628    21320202.215
 02  1 11  0 34  0.0000000  0  7G14G 1G29G22G20G11G25
   7346500.41748   5724545.83344  24572266.707    24572269.090
 -14783577.04149 -11519665.57246  22291581.990    22291582.692
  -3341622.42648  -2603858.98345  23130149.585    23130149.153
 -19232544.23249 -14986393.24146  21211187.130    21211188.443
 -24524350.22249 -19109878.79047  20676266.481    20676266.487
  -3770581.43648                  24643685.547
 -19679693.64049 -15334817.35047  21330796.050    21330795.733
 02  1 11  0 34 30.0000000  0  7G14G 1G29G22G20G11G25
   7433452.95448   5792300.95644  24588813.320    24588817.180
 -14854274.99849 -11574754.86246  22278128.389    22278129.086
  -3265353.68048  -2544428.82845  23144661.578    23144662.868
 -19311455.75149 -15047882.71546  21196170.802    21196171.763
 -24544562.93249 -19125628.95547  20672420.292    20672420.223
  -3684703.32448                  24660027.099
 -19623791.37349 -15291257.14047  21341433.710    21341433.596
 02  1 11  0 35  0.0000000  0  7G14G 1G29G22G20G11G25
   7520499.93848   5860129.67744  24605378.909    24605378.148
 -14924843.00349 -11629742.88946  22264700.889    22264701.682
  -3188916.74648  -2484867.61645  23159208.310    23159209.066
 -19389891.17649 -15109001.20946  21181245.170    21181246.315
 -24564194.69349 -19140926.43647  20668683.891    20668684.022
  -3598790.97948                  24676376.451
 -19567628.75449 -15247494.06047  21352121.359    21352120.980
 02  1 11  0 35 30.0000000  0  6G14G 1G29G22G20G25
   7607643.85948   5928033.95844  24621960.919    24621961.479
 -14995277.39749 -11684626.80246  22251296.732    22251297.652
  -3112309.07348  -2425173.38245  23173785.035    23173786.058
 -19467844.75349 -15169744.23346  21166410.759    21166412.298
 -24583241.30549 -19155767.95647  20665059.494    20665059.612
 -19511204.45549 -15203527.07347  21362858.087    21362858.090
 02  1 11  0 36  0.0000000  0  6G14G 1G29G22G25G20
   7694880.67148   5996010.59944  24638561.927    24638563.467
 -15065581.23249 -11739408.98746  22237918.292    22237918.878
  -3035534.97048  -2365349.44845  23188395.797    23188397.164
 -19545317.48849 -15230112.58146  21151668.410    21151669.619
 -19454523.90149 -15159360.40947  21373643.951    21373643.848
 -24601705.25149 -19170155.44947  20661546.156    20661546.215
 02  1 11  0 36 30.0000000  0  6G14G 1G29G22G20G25
   7782217.54348   6064065.21244  24655182.607    24655184.886
 -15135745.96149 -11794082.77546  22224567.066    22224567.674
  -2958586.91748  -2305389.97945  23203037.987    23203039.488
 -19622299.00349 -15290098.16146  21137019.048    21137020.428
 -24619578.27849 -19184082.48747  20658145.017    20658144.964
 -19397581.00549 -15114989.32047  21384480.272    21384480.039
 02  1 11  0 37  0.0000000  0  8G14G 1G29G13G22G20G 4G25
   7869637.91748   6132184.88244  24671817.279    24671817.851
 -15205786.58049 -11848659.85646  22211238.094    22211239.652
  -2881480.91648  -2245307.42845  23217711.030    23217712.266
         -.25558                  25092927.766
 -19698802.23549 -15349711.05046  21122461.172    21122462.656
 -24636874.88849 -19197560.36947  20654853.270    20654853.254
         -.43158                  25046502.786
 -19340393.16049 -15070427.36747  21395362.459    21395362.498
 02  1 11  0 37 30.0000000  0  8G14G 1G29G13G22G20G 4G25
   7957150.35148   6200376.29444  24688470.750    24688472.375
 -15275693.53949 -11903132.79546  22197935.271    22197936.161
  -2804208.69948  -2185095.37545  23232415.984    23232417.799
    -91803.27547                  25075455.974
 -19774815.66749 -15408942.27846  21107996.553    21107997.476
 -24653585.21749 -19210581.41047  20651673.319    20651673.344
    -38081.57748    -29673.15144  25039257.015    25039255.735
 -19282953.20349 -15025668.96347  21406292.905    21406292.859
 02  1 11  0 38  0.0000000  0  8G 1G14G29G13G22G20G 4G25
 -15345473.05549 -11957506.42546  22184656.653    22184657.030
   8044747.22748   6268633.49144  24705139.652    24705139.636
  -2726777.48648  -2124759.40845  23247149.750    23247151.321
   -183622.02348                  25057984.556
 -19850343.63949 -15467795.22046  21093623.490    21093624.778
 -24669715.26849 -19223150.28747  20648604.216    20648604.190
    -75667.18548    -58960.63444  25032104.710    25032109.453
 -19225269.71249 -14980720.79047  21417270.165    21417269.871
 02  1 11  0 38 30.0000000  0  8G 1G14G29G13G22G20G 4G25
 -15415125.94949 -12011781.37946  22171401.885    22171402.848
   8132426.86648   6336955.19844  24721824.992    24721826.629
  -2649189.33548  -2064301.17345  23261914.991    23261913.727
   -275457.89048                  25040509.370
 -19925385.02849 -15526269.01246  21079343.978    21079345.063
 -24685265.84749 -19235267.62847  20645645.012    20645644.905
   -112757.64548                  25025045.487
 -19167345.54949 -14935585.08147  21428292.474    21428292.400
 02  1 11  0 39  0.0000000  0  8G 1G14G29G13G22G20G 4G25
 -15484644.89949 -12065951.97146  22158173.414    22158173.806
   8220195.01448   6405345.83844  24738526.777    24738527.034
  -2571438.20348  -2003715.91245  23276710.772    23276710.545
   -367304.10548                  25023031.258
 -19999930.74649 -15584356.57346  21065158.492    21065159.392
 -24700229.52249 -19246927.64047  20642797.637    20642797.645
   -149345.62648                  25018083.577
 -19109176.18849 -14890258.30747  21439361.548    21439361.310
 02  1 11  0 39 30.0000000  0  8G 1G14G29G13G22G20G 4G25
 -15554029.45249 -12120017.83946  22144970.041    22144970.408
   8308050.82748   6473804.79044  24755244.895    24755246.714
  -2493524.78348  -1943004.21445  23291536.281    23291536.453
   -459160.11548                  25005552.188
 -20073978.41649 -15642056.03946  21051067.587    21051068.604
 -24714605.83449 -19258129.96947  20640061.976    20640061.888
   -185430.55148                  25011217.430
 -19050763.60149 -14844742.01147  21450477.393    21450477.088
 02  1 11  0 40  0.0000000  0  8G 1G14G29G13G22G20G 4G25
 -15623279.20449 -12173978.66146  22131791.264    22131791.875
   8395993.28948   6542331.28944  24771980.701    24771984.348
  -2415449.90048  -1882166.66845  23306394.638    23306394.482
   -551026.44348                  24988069.237
 -20147526.00249 -15699365.82046  21037071.414    21037072.549
 -24728394.35349 -19268874.27547  20637438.218    20637437.985
   -221011.81748   -172216.11044  25004446.715    25004448.489
 -18992109.77449 -14799037.72947  21461638.920    21461638.422
 02  1 11  0 40 30.0000000  0  8G 1G29G14G13G22G20G 4G25
 -15692377.65749 -12227821.58246  22118643.230    22118644.091
  -2337198.32348  -1821191.49145  23321285.130    23321285.961
   8484037.55348   6610937.09444  24788734.167    24788734.658
   -642886.24648                  24970590.151
 -20220555.19049 -15756271.67246  21023175.250    21023176.102
 -24741578.53049 -19279147.66647  20634929.264    20634929.136
   -256072.89148                  24997773.948
 -18933200.85549 -14753134.67947  21472848.837    21472848.519
 02  1 11  0 41  0.0000000  0  8G 1G29G14G13G22G20G 4G25
 -15761339.88849 -12281558.36346  22105520.346    22105521.484
  -2258786.08448  -1760091.07245  23336205.710    23336204.704
   8572167.67948   6679609.79144  24805505.003    24805509.854
   -734755.31548                  24953108.236
 -20293079.12249 -15812783.81946  21009373.667    21009374.864
 -24754173.11449 -19288961.63647  20632532.435    20632532.406
   -290628.44948                  24991198.096
 -18874054.12349 -14707046.31347  21484104.067    21484103.665
 02  1 11  0 41 30.0000000  0  8G 1G29G14G13G22G20G 4G25
 -15830166.12049 -12335189.16646  22092422.202    22092423.692
  -2180214.65148  -1698866.65345  23351158.697    23351159.106
   8660382.07748   6748348.14644  24822292.189    24822293.699
   -826634.03048                  24935623.137
 -20365096.10649 -15868900.93946  20995669.087    20995670.507
 -24766178.48649 -19298316.47647  20630247.696    20630247.517
   -324678.85248                  24984718.298
 -18814672.47949 -14660774.90547  21495403.905    21495403.532
 02  1 11  0 42  0.0000000  0  8G 1G29G25G14G13G22G20G 4
 -15898848.41449 -12388707.81546  22079352.543    22079353.636
  -2101477.07248  -1637512.75645  23366141.256    23366142.539
 -18755049.87949 -14614315.73647  21506749.589    21506749.218
   8748687.42048   6817157.39444  24839096.282    24839099.219
   -918514.39648                  24918139.390
 -20436596.33449 -15924615.39146  20982063.507    20982064.694
 -24777586.56249 -19307205.89547  20628076.765    20628076.677
   -358215.86048   -279128.28144  24978337.172    24978338.286
 02  1 11  0 42 30.0000000  0  8G 1G29G25G14G13G22G20G 4
 -15967389.50049 -12442116.42746  22066310.477    22066311.001
  -2022577.62948  -1576032.73344  23381155.508    23381155.323
 -18695191.62349 -14567672.94147  21518140.261    21518140.063
   8837079.50948   6886034.19544  24855916.170    24855917.930
  -1010399.61448                  24900653.841
 -20507580.89449 -15979928.01246  20968555.574    20968556.877
 -24788400.23849 -19315632.14147  20626019.258    20626019.317
   -391242.33748   -304863.18744  24972052.486    24972053.312
 02  1 11  0 43  0.0000000  0  8G 1G29G25G14G13G22G20G 4
 -16035799.60749 -12495422.97446  22053291.719    22053292.907
  -1943527.58448  -1514435.34345  23396198.420    23396197.653
 -18635110.48749 -14520856.47647  21529573.535    21529573.202
   8925546.87748   6954969.73744  24872751.440    24872751.773
  -1102300.20948                  24883166.734
 -20578058.53049 -16034845.62746  20955144.014    20955145.164
 -24798629.93749 -19323603.34147  20624072.449    20624072.318
   -423768.39248                  24965862.266
 02  1 11  0 43 30.0000000  0  8G 1G29G25G14G13G22G20G 4
 -16104077.02449 -12548626.12746  22040298.233    22040299.592
  -1864326.54948  -1452720.29945  23411269.481    23411270.256
 -18574807.03849 -14473866.78147  21541048.704    21541048.706
   9014089.94748   7023964.16144  24889601.429    24889602.611
  -1194214.99148                  24865675.772
 -20648025.71649 -16089365.49446  20941829.565    20941830.696
 -24808274.04649 -19331118.23747  20622236.936    20622236.989
   -455792.67948                  24959768.527
 02  1 11  0 44  0.0000000  0  8G 1G29G25G14G13G22G20G 4
 -16172216.98249 -12601722.17946  22027333.088    22027333.453
  -1784971.09248  -1390884.95045  23426370.282    23426369.826
 -18514279.11549 -14426702.16947  21552566.697    21552566.662
   9102712.07648   7093020.22644  24906464.963    24906464.076
  -1286139.81248                  24848181.676
 -20717475.99049 -16143482.57146  20928614.052    20928615.421
 -24817327.93149 -19338173.21847  20620514.171    20620514.219
   -487310.10648                  24953771.159
 02  1 11  0 44 30.0000000  0  8G 1G29G25G14G13G22G20G 4
 -16240220.47749 -12654711.89246  22014392.064    22014392.696
  -1705463.62148  -1328931.14345  23441500.866    23441501.093
 -18453529.97549 -14379365.17947  21564126.930    21564126.738
   9191410.85848   7162135.97944  24923344.785    24923346.565
  -1378075.73648                  24830688.306
 -20786408.79549 -16197196.42246  20915496.086    20915497.202
 -24825792.73749 -19344769.17947  20618903.730    20618903.858
   -518321.98248   -403886.23944  24947870.165    24947870.608
 02  1 11  0 45  0.0000000  0  8G 1G29G25G14G13G22G20G 4
 -16308078.18249 -12707587.99046  22001478.206    22001479.243
  -1625795.57348  -1266852.18845  23456660.849    23456662.820
 -18392552.70249 -14331850.42047  21575730.518    21575730.391
   9280194.58648   7231317.93444  24940239.461    24940241.085
  -1470013.58848                  24813190.866
 -20854813.02849 -16250498.40446  20902479.762    20902480.391
 -24833659.16449 -19350898.86947  20617406.772    20617406.785
   -548818.82748   -427649.99744  24942066.897    24942065.935
 02  1 11  0 45 30.0000000  0  8G 1G29G25G14G13G22G20G 4
 -16375786.14549 -12760347.39246  21988594.749    21988595.323
  -1545964.58348  -1204646.29645  23471851.916    23471853.494
 -18331345.99249 -14284156.88647  21587377.714    21587377.716
   9369065.50548   7300567.87344  24957150.936    24957150.832
  -1561949.34948                  24795698.149
 -20922683.29349 -16303384.31646  20889564.064    20889565.112
 -24840923.67449 -19356559.53147  20616024.624    20616024.792
   -578797.04748   -451009.68244  24936361.718    24936362.503
 02  1 11  0 46  0.0000000  0  8G 1G29G25G14G13G22G20G 4
 -16443337.94049 -12812985.16446  21975739.897    21975740.433
  -1465965.60448  -1142309.49345  23487076.428    23487076.822
 -18269905.75849 -14236281.38247  21599069.529    21599069.298
   9458028.71548   7369889.58944  24974079.870    24974084.098
  -1653877.00548                  24778203.068
 -20990011.63449 -16355847.93346  20876751.906    20876753.086
 -24847580.02849 -19361746.31147  20614757.878    20614757.807
   -608250.26248   -473960.23644  24930756.376    24930758.894
 02  1 11  0 46 30.0000000  0  8G 1G29G25G14G13G22G20G 4
 -16510746.36849 -12865511.18646  21962911.998    21962913.050
  -1385812.62348  -1079852.66744  23502327.456    23502329.270
 -18208247.44449 -14188235.94947  21610802.778    21610802.458
   9547069.92448   7439272.20044  24991024.843    24991022.029
  -1745810.34348                  24760708.879
 -21056809.26049 -16407898.02146  20864041.002    20864041.826
 -24853641.43849 -19366469.49347  20613604.366    20613604.494
   -637191.69348   -496511.98144  24925249.715    24925252.435
 02  1 11  0 47  0.0000000  0  8G 1G29G25G14G13G22G20G 4
 -16578004.55449 -12917920.13846  21950113.119    21950114.384
  -1305500.07048  -1017271.53745  23517610.970    23517611.387
 -18146366.70649 -14140017.19547  21622578.534    21622577.994
   9636194.77048                  25007984.393
  -1837742.58348                  24743215.439
 -21123067.73049 -16459527.98346  20851431.786    20851432.937
 -24859101.50049 -19370724.09347  20612565.099    20612565.104
   -665614.36948   -518659.48644  24919841.246    24919842.770
 02  1 11  0 47 30.0000000  0  8G 1G29G25G14G13G22G20G 4
 -16645115.61949 -12970214.45046  21937342.720    21937343.229
  -1225032.38048   -954569.49445  23532923.608    23532925.101
 -18084268.61449 -14091629.07347  21634395.180    21634395.146
   9725398.71548   7578229.33144  25024958.707    25024960.355
  -1929677.09848                  24725719.114
 -21188788.75849 -16510739.15346  20838925.984    20838927.101
 -24863963.53149 -19374512.69547  20611639.792    20611639.720
   -693521.96248   -540405.62144  24914531.051    24914532.869
 02  1 11  0 48  0.0000000  0  8G 1G29G14G13G22G20G 4G25
 -16712065.70749 -13022383.33446  21924602.648    21924603.173
  -1144396.93348   -891736.75944  23548268.061    23548270.577
   9814694.32748   7647810.13344  25041952.044    25041956.525
  -2021600.12848                  24708229.231
 -21253956.87349 -16561519.48946  20826524.797    20826525.637
 -24868214.02049 -19377824.77247  20610831.178    20610831.382
   -720900.57648   -561739.67044  24909320.580    24909321.063
 -18021941.82349 -14043062.75147  21646255.512    21646255.239
 02  1 11  0 48 30.0000000  0  8G 1G29G14G13G22G20G 4G25
 -16778872.95249 -13074440.90946  21911889.012    21911889.844
  -1063613.32448   -828788.56944  23563640.663    23563643.263
   9904061.99148                  25058958.353
  -2113530.04848                  24690733.900
 -21318588.89749 -16611882.09147  20814225.335    20814226.632
 -24871871.30949 -19380674.61447  20610135.228    20610135.466
   -747768.66248                  24904206.842
 -17959407.17249 -13994334.45146  21658155.721    21658155.600
 02  1 11  0 49  0.0000000  0  8G 1G29G14G13G22G20G 4G25
 -16845535.85649 -13126386.01046  21899203.444    21899204.640
   -982681.28048   -765724.68345  23579041.484    23579041.912
   9993501.73848                  25075978.253
  -2205465.75848                  24673240.285
 -21382681.89649 -16661824.66847  20802029.281    20802030.484
 -24874934.59249 -19383061.59747  20609552.064    20609552.225
   -774125.29048                  24899191.659
 -17896665.56149 -13945444.89246  21670094.888    21670094.622
 02  1 11  0 49 30.0000000  0  8G 1G29G14G13G22G20G 4G25
 -16912052.90849 -13178217.46446  21886546.182    21886546.974
   -901600.81848   -702545.19444  23594471.167    23594471.733
  10083013.82148                  25093011.232
  -2297406.10448                  24655744.534
 -21446232.79749 -16711344.82947  20789936.073    20789936.741
 -24877402.66149 -19384984.77447  20609082.445    20609082.551
   -799969.06948   -623351.45244  24894274.798    24894274.640
 -17833718.04449 -13896394.88746  21682073.301    21682073.329
 02  1 11  0 50  0.0000000  0  8G 1G29G14G13G22G20G 4G25
 -16978416.00049 -13229928.94546  21873917.328    21873917.970
   -820365.14948   -639244.71744  23609929.305    23609930.324
  10172604.63048   7926700.33244  25110061.186    25110061.001
  -2389343.50948                  24638249.125
 -21509232.35949 -16760435.37947  20777947.169    20777948.097
 -24879268.26849 -19386438.50047  20608727.633    20608727.679
   -825292.40848   -643083.90244  24889456.980    24889457.601
 -17770559.04949 -13847180.09446  21694092.124    21694091.805
 02  1 11  0 50 30.0000000  0  8G 1G14G29G13G22G20G 4G25
 -17044623.35649 -13281519.07946  21861318.461    21861319.311
  10262274.27048   7996572.59944  25127124.271    25127129.621
   -738974.13748   -575823.25044  23625417.884    23625417.482
  -2481276.56548  -1933461.22644  24620754.868    24620754.198
 -21571677.55349 -16809093.95847  20766064.725    20766065.511
 -24880530.28749 -19387421.89947  20608487.297    20608487.524
   -850094.29048                  24884736.690
 -17707189.32249 -13797801.09746  21706150.882    21706150.885
 02  1 11  0 51  0.0000000  0  8G 1G14G29G13G22G20G 4G25
 -17110677.68149 -13332989.96246  21848749.084    21848750.111
  10352019.10348                  25144202.137
   -657431.38748   -512283.49844  23640935.111    23640936.176
  -2573207.94448                  24603260.051
 -21633569.55949 -16857321.47747  20754287.064    20754287.653
 -24881191.52849 -19387937.15847  20608361.186    20608361.291
   -874377.35848                  24880114.411
 -17643613.85649 -13748261.77146  21718249.084    21718248.897
 02  1 11  0 51 30.0000000  0  8G 1G14G29G13G22G20G 4G25
 -17176570.90849 -13384335.31546  21836209.801    21836210.829
  10441845.70448                  25161296.941
   -575730.32548   -448620.38444  23656481.861    23656482.278
  -2665130.09348  -2076723.58944  24585769.379    24585770.574
 -21694899.09949 -16905110.71447  20742615.730    20742617.177
 -24881244.60349 -19387978.52147  20608351.259    20608351.590
   -898134.16548                  24875592.121
 -17579826.82549 -13698557.59846  21730386.919    21730386.805
 02  1 11  0 52  0.0000000  0  8G 1G14G29G13G22G20G 4G25
 -17242297.22949 -13435550.61046  21823702.264    21823703.190
  10531758.41048                  25178406.057
   -493866.71448   -384830.65344  23672060.689    23672061.685
  -2757036.97348                  24568278.522
 -21755658.98349 -16952456.06347  20731054.273    20731054.960
 -24880684.36549 -19387541.98347  20608458.072    20608458.226
   -921359.25148                  24871173.834
 -17515825.02749 -13648686.07746  21742566.114    21742565.986
 02  1 11  0 52 30.0000000  0  8G 1G14G29G13G22G20G 4G25
 -17307861.75049 -13486639.82846  21811226.311    21811226.896
  10621750.34248                  25195530.614
   -411847.09148   -320919.34044  23687668.504    23687667.897
  -2848934.74148  -2219947.84244  24550792.144    24550793.496
 -21815853.19549 -16999360.63247  20719599.418    20719600.270
 -24879516.62049 -19386632.05947  20608680.471    20608680.604
   -944058.16548                  24866855.164
 -17451616.03549 -13598653.10346  21754784.951    21754784.515
 02  1 11  0 53  0.0000000  0  8G 1G14G29G13G22G20G 4G25
 -17373267.18449 -13537605.08746  21798780.088    21798780.693
  10711817.27448                  25212669.980
   -329675.56648   -256889.66144  23703304.973    23703306.983
  -2940826.35848                  24533305.047
 -21875483.31249 -17045825.64047  20708251.914    20708252.731
 -24877745.00849 -19385251.58947  20609017.473    20609017.574
   -966234.79148   -752909.09044  24862636.620    24862635.873
 -17387205.27449 -13548462.90446  21767041.804    21767041.602
 02  1 11  0 53 30.0000000  0  8G 1G14G29G13G22G20G 4G25
 -17438516.51549 -13588448.70946  21786362.980    21786363.913
  10801954.90548   8417101.32544  25229823.173    25229823.982
   -247356.47848   -192744.98344  23718969.605    23718970.534
  -3032714.67248  -2363152.91744  24515819.404    24515819.357
 -21934551.03849 -17091852.42347  20697011.992    20697012.771
 -24875372.77849 -19383403.10647  20609468.869    20609468.811
   -987892.04948   -769784.90444  24858515.181    24858512.338
 -17322597.77849 -13498119.40946  21779336.137    21779336.254
 02  1 11  0 54  0.0000000  0  8G 1G25G14G29G13G22G20G 4
 -17503619.09649 -13639177.97446  21773974.553    21773975.469
 -17257805.80649 -13447632.16946  21791665.763    21791665.738
  10892152.45648                  25246987.016
   -164900.54348   -128493.72444  23734660.437    23734659.574
  -3124609.45548  -2434759.20944  24498333.190    24498333.441
 -21993064.58549 -17137447.38447  20685877.485    20685878.145
 -24872410.32549 -19381094.71147  20610032.366    20610032.640
  -1009040.18548   -786263.99944  24854489.386    24854491.225
 02  1 11  0 54 30.0000000  0  8G 1G25G14G29G13G22G20G 4
 -17568557.21849 -13689779.09246  21761617.400    21761617.842
 -17192813.85349 -13396989.08946  21804033.401    21804033.165
  10982426.09148                  25264166.555
    -82291.60848    -64123.21644  23750379.988    23750382.728
  -3216493.55348                  24480846.653
 -22051005.06549 -17182595.79547  20674851.506    20674852.502
 -24868840.47049 -19378313.01447  20610711.852    20610712.051
  -1029661.97148                  24850563.277
 02  1 11  0 55  0.0000000  0  8G 1G25G14G29G13G22G20G 4
 -17633324.92849 -13740247.41746  21749292.683    21749293.123
 -17127618.52749 -13346187.55046  21816439.581    21816439.645
  11072780.33248                  25281360.875
       474.97448       370.15444  23766131.019    23766132.171
  -3308361.19748                  24463365.860
 -22108365.20449 -17227291.99147  20663936.009    20663937.040
 -24864658.01949 -19375053.96847  20611508.001    20611508.163
  -1049752.04748   -817987.43744  24846740.915    24846738.099
 02  1 11  0 55 30.0000000  0  8G 1G25G14G29G13G22G20G 4
 -17697912.76249 -13790575.58546  21737001.860    21737002.764
 -17062213.03949 -13295222.24046  21828886.109    21828886.053
  11163222.96148                  25298570.435
     83407.08948     64992.50244  23781912.100    23781913.397
  -3400202.73648  -2649507.06344  24445889.477    24445888.245
 -22165134.83649 -17271528.05347  20653133.205    20653133.928
 -24859854.68949 -19371311.12347  20612422.142    20612421.981
  -1069301.86548   -833221.08644  24843022.416    24843026.041
 02  1 11  0 56  0.0000000  0  8G 1G25G14G29G13G22G20G 4
 -17762337.45549 -13840776.62246  21724742.130    21724742.920
 -16996616.20149 -13244107.83146  21841368.239    21841368.165
  11253735.60448                  25315795.752
    166486.32548    129729.46044  23797722.305    23797723.870
  -3492035.98948                  24428412.593
 -22221329.55249 -17315316.12247  20642439.810    20642440.333
 -24854447.93649 -19367098.07947  20613450.949    20613451.092
  -1088328.82148   -848047.29144  24839402.388    24839398.143
 02  1 11  0 56 30.0000000  0  8G 1G25G14G29G13G22G20G 4
 -17826598.22849 -13890849.93246  21712514.124    21712514.704
 -16930829.74549 -13192845.66546  21853887.041    21853886.971
  11344317.79948   8839719.54044  25333033.001    25333037.498
    249712.21248    194580.70544  23813559.471    23813561.526
  -3583860.18648  -2792616.63844  24410940.181    24410940.257
 -22276947.37849 -17358654.67247  20631855.890    20631856.762
 -24848437.70449 -19362414.79647  20614594.608    20614594.643
  -1106832.62848                  24835880.816
 02  1 11  0 57  0.0000000  0  8G 1G25G14G29G13G22G20G 4
 -17890702.28849 -13940801.12946  21700315.182    21700315.693
 -16864863.58249 -13141443.46846  21866440.075    21866440.395
  11434960.59948                  25350282.115
    333076.02848    259539.41644  23829422.686    23829424.250
  -3675682.71748                  24393466.808
 -22331994.76649 -17401548.72847  20621381.088    20621381.900
 -24841832.49349 -19357267.88947  20615851.515    20615851.685
  -1124821.57248                  24832456.881
 02  1 11  0 57 30.0000000  0  8G 1G25G14G29G13G22G20G 4
 -17954633.64849 -13990617.75646  21688149.104    21688149.572
 -16798704.50849 -13089890.95346  21879029.984    21879030.139
  11525678.44148   8981038.76944  25367546.149    25367547.990
    416592.14048    324616.78244  23845316.977    23845318.188
  -3767487.95248  -2935703.09544  24375996.854    24375997.289
 -22386454.55349 -17443984.90547  20611017.310    20611018.208
 -24834617.10749 -19351645.52147  20617224.547    20617224.668
  -1142280.23248                  24829133.506
 02  1 11  0 58  0.0000000  0  8G 1G25G14G29G13G22G20G 4
 -18018390.97849 -14040298.77146  21676016.899    21676017.480
 -16732353.23149 -13038188.67746  21891656.343    21891656.752
  11616471.00748                  25384822.535
    500260.48748    389812.84044  23861236.547    23861239.600
  -3859274.84048  -3007225.30144  24358530.085    24358527.558
 -22440324.70149 -17485961.61647  20600766.089    20600766.619
 -24826791.28549 -19345547.48647  20618713.720    20618713.779
  -1159208.45448                  24825912.154
 02  1 11  0 58 30.0000000  0  8G 1G25G14G29G13G22G20G 4
 -18081976.96449 -14089846.27746  21663916.725    21663917.250
 -16665815.15249 -12986340.82746  21904318.129    21904317.986
  11707334.29048                  25402113.699
    584076.90148    455124.15144  23877187.526    23877188.621
  -3951046.52348                  24341065.969
 -22493606.89949 -17527480.19247  20590627.252    20590627.869
 -24818358.50349 -19338976.49747  20620318.611    20620318.848
  -1175609.37148   -916058.07544  24822791.754    24822792.391
 02  1 11  0 59  0.0000000  0  8G 1G25G14G29G13G22G20G 4
 -18145389.82749 -14139258.87846  21651849.607    21651850.417
 -16599090.35349 -12934347.48746  21917015.186    21917015.498
  11798268.58948   9193445.33244  25419419.636    25419423.119
    668041.64248    520551.14844  23893165.338    23893164.826
  -4042801.03148  -3150232.62444  24323606.517    24323605.974
 -22546298.29849 -17568538.40447  20580600.247    20580600.802
 -24809317.98049 -19331931.94347  20622039.223    20622039.350
  -1191482.16548                  24819772.412
 02  1 11  0 59 30.0000000  0  8G 1G25G14G29G13G22G20G 4
 -18208633.05349 -14188539.29846  21639815.365    21639815.642
 -16532184.94549 -12882213.41746  21929747.053    21929746.720
  11889268.68348                  25436735.935
    752149.49148    586089.58844  23909170.465    23909169.304
  -4134542.46948  -3221719.46144  24306148.240    24306147.878
 -22598401.54249 -17609138.31047  20570685.301    20570686.004
 -24799674.37849 -19324417.45847  20623873.979    20623873.916
  -1206831.19348   -940386.75244  24816851.551    24816849.927
 02  1 11  1  0  0.0000000  0  8G 1G25G14G29G13G22G20G 4
 -18271702.64849 -14237684.42046  21627813.288    21627813.657
 -16465098.25349 -12829938.08746  21942512.650    21942512.570
  11980336.68748                  25454066.035
    836402.85548    651741.45544  23925204.622    23925205.148
  -4226267.14748  -3293193.19544  24288693.674    24288692.352
 -22649912.14649 -17649276.42347  20560883.267    20560883.817
 -24789425.03449 -19316430.96547  20625824.415    20625824.452
  -1221653.51848                  24814031.167
 02  1 11  1  0 30.0000000  0  8G 1G25G14G29G13G22G20G 4
 -18334599.07649 -14286694.60546  21615843.587    21615844.636
 -16397832.46649 -12777523.20346  21955312.957    21955313.041
  12071470.60948                  25471409.433
    920799.96048    717505.32544  23941263.200    23941268.546
  -4317976.01448  -3364654.61644  24271241.799    24271239.747
 -22700829.48849 -17688952.24947  20551194.381    20551194.841
 -24778571.27749 -19307973.50647  20627890.113    20627890.231
  -1235950.73748   -963077.34144  24811309.791    24811308.037
 02  1 11  1  1  0.0000000  0  8G 1G25G14G29G13G22G20G 4
 -18397314.11649 -14335563.44846  21603909.999    21603910.544
 -16330382.40749 -12724964.72846  21968148.562    21968148.838
  12162677.17248                  25488764.405
   1005347.37648    783386.29844  23957352.676    23957354.654
  -4409660.96848  -3436097.43344  24253794.998    24253794.803
 -22751144.70649 -17728158.89647  20541619.568    20541620.022
 -24767106.21449 -19299039.70147  20630071.677    20630071.755
  -1249715.46348   -973803.03944  24808690.255    24808688.199
 02  1 11  1  1 30.0000000  0  8G 1G25G14G29G13G22G20G 4
 -18459839.80449 -14384284.74446  21592012.302    21592012.474
 -16262742.07949 -12672257.99446  21981019.926    21981020.101
  12253962.66748                  25506136.179
   1090051.30048    849389.19544  23973472.783    23973471.962
  -4501314.46648  -3507515.65644  24236353.358    24236354.294
 -22800849.07649 -17766889.55847  20532160.934    20532161.373
 -24755023.19049 -19289624.36547  20632370.948    20632370.851
  -1262940.95048                  24806172.388
 02  1 11  1  2  0.0000000  0  8G 1G25G14G29G13G22G20G 4
 -18522185.85849 -14432866.06946  21580147.352    21580147.757
 -16194923.81849 -12619412.60546  21993925.860    21993925.534
  12345315.80448                  25523520.984
   1174900.41748    915505.27544  23989617.376    23989619.560
  -4592946.50148  -3578917.19144  24218917.209    24218916.795
 -22849951.75649 -17805151.36147  20522816.668    20522817.346
 -24742333.21349 -19279736.08747  20634785.771    20634785.926
  -1275637.87448                  24803756.413
 02  1 11  1  2 30.0000000  0  7G 1G25G29G13G22G20G 4
 -18584352.78549 -14481307.82146  21568317.538    21568318.109
 -16126930.61949 -12566430.90946  22006864.463    22006864.276
   1259892.89448    981733.02844  24005792.152    24005794.398
  -4684557.56748  -3650302.40744  24201483.673    24201485.552
 -22898452.27549 -17842943.96047  20513587.377    20513588.055
 -24729037.75349 -19269375.99947  20637315.920    20637315.880
  -1287807.44248                  24801441.091
 02  1 11  1  3  0.0000000  0  7G 1G25G29G13G22G20G 4
 -18646323.42749 -14529596.61746  21556525.357    21556525.663
 -16058747.95649 -12513301.57846  22019839.041    22019838.615
   1345044.22448   1048084.59244  24021995.647    24021997.649
  -4776130.86148  -3721658.16044  24184057.695    24184054.613
 -22946333.00949 -17880253.60347  20504476.078    20504476.664
 -24715120.91949 -19258531.72447  20639964.256    20639964.571
  -1299433.71848  -1012544.59444  24799229.571    24799230.843
 02  1 11  1  3 30.0000000  0  7G 1G25G29G13G22G20G 4
 -18708120.91549 -14577750.49146  21544765.391    21544765.689
 -15990401.57249 -12460044.66946  22032845.055    22032845.053
   1430329.57048   1114540.55144  24038224.337    24038226.609
  -4867690.09148  -3793002.98544  24166634.817    24166633.397
 -22993616.34249 -17917097.73647  20495478.452    20495479.066
 -24700607.28749 -19247222.41447  20642725.892    20642726.190
  -1310541.33448                  24797116.273
 02  1 11  1  4  0.0000000  0  7G 1G25G29G13G22G20G 4
 -18769745.61649 -14625769.72546  21533038.964    21533038.641
 -15921894.14149 -12406662.27346  22045881.631    22045881.177
   1515746.70348   1181099.21244  24054480.294    24054483.200
  -4959235.64848  -3864337.11244  24149213.767    24149214.262
 -23040302.39549 -17953476.45747  20486593.936    20486594.821
 -24685498.69049 -19235449.49347  20645600.838    20645601.119
  -1321131.59648  -1029452.03144  24795101.737    24795099.675
 02  1 11  1  4 30.0000000  0  7G 1G25G29G13G22G20G 4
 -18831195.28549 -14673652.56746  21521345.008    21521345.412
 -15853225.59049 -12353154.33246  22058948.679    22058948.286
   1601296.49748   1247761.26744  24070759.044    24070760.576
  -5050765.84748  -3935659.36744  24131797.801    24131796.673
 -23086388.01149 -17989387.30647  20477824.303    20477824.799
 -24669794.24749 -19223212.27747  20648589.471    20648589.568
  -1331203.35748  -1037300.15644  24793184.681    24793183.312
 02  1 11  1  5  0.0000000  0  7G 1G25G29G13G22G20G 4
 -18892462.47049 -14721393.22346  21509686.531    21509686.665
 -15784390.70149 -12299516.77946  22072047.652    22072047.667
   1686984.90748   1314531.29544  24087064.566    24087066.824
  -5142273.11848  -4006963.68744  24114382.729    24114381.641
 -23131865.17249 -18024824.04047  20469170.386    20469170.958
 -24653487.71049 -19210505.89147  20651692.898    20651692.977
  -1340750.40348                  24791367.350
 02  1 11  1  5 30.0000000  0  7G 1G25G29G13G22G20G 4
 -18953522.88349 -14768972.75546  21498067.099    21498067.497
 -15715368.45049 -12245733.22546  22085181.965    22085182.158
   1772834.00248   1381426.53544  24103402.141    24103404.029
  -5233733.85948  -4078231.83044  24096979.489    24096978.823
 -23176709.43749 -18059767.60247  20460636.643    20460637.147
 -24636556.71549 -19197312.92047  20654914.873    20654914.991
  -1349750.00748                  24789654.537
 02  1 11  1  6  0.0000000  0  7G 1G25G29G13G22G20G 4
 -19014371.17149 -14816386.98946  21486487.909    21486488.426
 -15646156.14349 -12191801.57746  22098352.940    22098352.564
   1858847.86948   1448450.14244  24119769.202    24119774.879
  -5325142.60748  -4149459.40044  24079584.778    24079580.977
 -23220914.89549 -18094213.39347  20452224.801    20452225.453
 -24618997.10149 -19183630.11747  20658256.024    20658256.200
  -1358197.77748                  24788045.505
 02  1 11  1  6 30.0000000  0  7G 1G25G29G13G22G20G 4
 -19075048.84049 -14863668.27846  21474941.017    21474941.555
 -15576797.17749 -12137755.65046  22111551.193    22111551.139
   1944983.38748   1515568.56444  24136160.992    24136159.943
  -5416541.23848  -4220679.09944  24062191.691    24062190.451
 -23264522.31549 -18128193.18347  20443926.655    20443927.296
 -24600851.47149 -19169490.67847  20661708.668    20661708.976
  -1366136.47148  -1064520.76644  24786534.934    24786537.010
 02  1 11  1  7  0.0000000  0  7G 1G25G29G13G22G20G 4
 -19135550.70849 -14910812.57746  21463428.177    21463428.664
 -15507288.77249 -12083593.27946  22124778.301    22124778.078
   2031244.11448   1582784.56344  24152575.372    24152574.345
  -5507924.95048  -4291887.18644  24044802.481    24044801.105
 -23307526.24249 -18161702.71947  20435743.198    20435743.843
 -24582116.72849 -19154892.19247  20665273.689    20665273.918
  -1373562.34848                  24785122.101
 02  1 11  1  7 30.0000000  0  7G 1G25G29G13G22G20G 4
 -19195861.02949 -14957807.62446  21451951.884    21451952.404
 -15437617.79749 -12029304.22546  22138036.611    22138036.250
   2117643.77248   1650108.72444  24169017.114    24169017.704
  -5599278.30548  -4363071.62544  24027416.804    24027414.038
 -23349910.88649 -18194729.69847  20427677.700    20427678.287
 -24562778.68249 -19139823.59647  20668954.118    20668954.217
  -1380461.27548                  24783810.057
 02  1 11  1  8  0.0000000  0  7G 1G25G29G13G22G20G 4
 -19255976.84449 -15004651.10546  21440511.703    21440512.261
 -15367783.99749 -11974888.29946  22151325.116    22151324.717
   2204183.87948   1717542.47844  24185485.514    24185487.481
  -5690598.47748  -4434230.17144  24010040.582    24010039.712
 -23391672.58049 -18227271.25747  20419730.531    20419731.173
 -24542835.69349 -19124283.61647  20672749.115    20672749.430
  -1386831.41748                  24782598.332
 02  1 11  1  8 30.0000000  0  7G 1G25G29G13G22G20G 4
 -19315899.15549 -15051343.80146  21429109.063    21429109.166
 -15297790.86349 -11920348.21746  22164644.581    22164644.238
   2290861.40348   1785083.19344  24201979.467    24201982.608
  -5781886.96948  -4505364.00944  23992668.604    23992671.169
 -23432812.13949 -18259328.04147  20411901.779    20411902.522
 -24522290.65149 -19108274.50747  20676658.297    20676658.488
  -1392675.15148                  24781486.298
 02  1 11  1  9  0.0000000  0  7G 1G25G29G13G22G20G 4
 -19375640.77249 -15097895.70046  21417740.490    21417741.028
 -15227653.75049 -11865695.94446  22177991.272    22177991.417
   2377662.08848   1852719.85144  24218497.818    24218500.268
  -5873156.44348  -4576483.12944  23975300.894    23975299.250
 -23473342.12249 -18290909.82947  20404189.400    20404189.915
 -24501157.87849 -19091807.42147  20680680.183    20680680.397
  -1398006.66348  -1089354.74244  24780471.589    24780474.792
 02  1 11  1  9 30.0000000  0  8G 1G25G 6G29G13G22G20G 4
 -19435197.20749 -15144303.29846  21406406.825    21406407.386
 -15157370.55549 -11810929.83946  22191365.857    22191365.493
         -.06557                  25534962.589
   2464588.65348   1920454.66944  24235038.725    24235041.375
  -5964402.58848  -4647583.99744  23957937.470    23957939.329
 -23513257.72449 -18322012.87947  20396593.523    20396594.091
 -24479434.60849 -19074880.21347  20684813.815    20684814.175
  -1402823.22048                  24779555.066
 02  1 11  1 10  0.0000000  0  8G 1G25G 6G29G13G22G20G 4
 -19494532.78749 -15190538.80847  21395116.390    21395116.723
 -15086908.22349 -11756024.15446  22204774.410    22204774.156
    -10390.99448                  25532985.429
   2551674.86648                  24251611.311
  -6055590.63148  -4718639.54844  23940583.715    23940583.360
 -23552523.15249 -18352609.30147  20389121.599    20389122.241
 -24457087.04249 -19057466.53847  20689066.276    20689066.653
  -1407090.52048  -1096433.11844  24778743.483    24778740.871
 02  1 11  1 10 30.0000000  0  8G 1G25G 6G29G13G22G20G 4
 -19553648.56549 -15236603.04347  21383866.379    21383866.863
 -15016270.07449 -11700981.45946  22218216.021    22218215.637
    -20298.47547                  25531100.237
   2638917.87748   2056295.17044  24268213.835    24268216.334
  -6146721.74848  -4789650.77744  23923243.610    23923241.910
 -23591139.30549 -18382699.79647  20381773.379    20381774.087
 -24434117.93449 -19039568.54547  20693437.332    20693437.700
  -1410811.38748                  24778034.726
 02  1 11  1 11  0.0000000  0  8G 1G25G 6G29G13G22G20G 4
 -19612551.51349 -15282501.43147  21372657.750    21372658.046
 -14945465.52449 -11645809.10946  22231690.194    22231689.890
    -29729.64647                  25529305.534
   2726309.26548                  24284842.983
  -6237802.66448  -4860622.87444  23905909.655    23905912.725
 -23629112.89749 -18412289.59247  20374547.382    20374548.000
 -24410535.85849 -19021192.91447  20697924.757    20697925.040
  -1413993.93248  -1101812.44444  24777430.515    24777429.054
 02  1 11  1 11 30.0000000  0  8G 1G25G 6G29G13G22G20G 4
 -19671251.49349 -15328241.66847  21361487.937    21361488.319
 -14874507.43049 -11590517.10846  22245192.734    22245192.676
    -38694.99547                  25527599.496
   2813837.06548   2192595.40444  24301499.886    24301499.381
  -6328844.21448  -4931564.33244  23888586.677    23888587.226
 -23666453.76049 -18441386.35347  20367441.279    20367442.059
 -24386352.66549 -19002348.88147  20702526.828    20702526.947
  -1416649.80948                  24776923.161
 02  1 11  1 12  0.0000000  0  8G 1G25G 6G29G13G22G20G 4
 -19729775.63249 -15373844.88347  21350350.813    21350351.346
 -14803424.77549 -11535128.05346  22258719.547    22258719.888
    -47222.05847                  25525976.824
   2901472.51748                  24318175.946
  -6419873.15148  -5002495.90644  23871262.908    23871263.495
 -23703188.87649 -18470011.10547  20360450.871    20360451.723
 -24361597.34049 -18983059.03147  20707237.401    20707237.758
  -1418807.81948                  24776513.588
 02  1 11  1 12 30.0000000  0  8G 1G25G 6G29G13G22G20G 4
 -19788101.17949 -15419293.34847  21339251.739    21339252.332
 -14732197.22349 -11479626.09346  22272273.846    22272274.271
    -55288.25047                  25524441.765
   2989236.67548   2329269.96444  24334877.616    24334879.310
  -6510867.50848  -5073400.57144  23853948.190    23853948.733
 -23739295.33049 -18498145.99147  20353579.959    20353580.705
 -24336248.75949 -18963306.90347  20712061.393    20712061.821
  -1420446.50448                  24776200.318
 02  1 11  1 13  0.0000000  0  8G 1G25G 6G29G13G22G20G 4
 -19846216.68649 -15464578.15747  21328192.763    21328193.243
 -14660815.84649 -11424004.27046  22285857.054    22285856.868
    -62882.50247                  25522996.905
   3077139.08048                  24351604.940
  -6601815.57348  -5144269.16344  23836640.868    23836642.970
 -23774761.75449 -18525782.15647  20346830.841    20346831.371
 -24310297.53649 -18943085.18747  20716999.974    20717000.101
  -1421556.25648                  24775990.189
 02  1 11  1 13 30.0000000  0  8G 1G25G 6G29G13G22G20G 4
 -19904116.51849 -15509694.89947  21317174.364    21317174.762
 -14589277.92449 -11368260.46146  22299470.305    22299470.425
    -69999.97847                  25521642.427
   3165183.48948                  24368358.349
  -6692712.30448  -5215097.73044  23819343.965    23819344.054
 -23809582.45549 -18552915.15847  20340205.012    20340205.435
 -24283739.93449 -18922390.96847  20722053.856    20722054.006
  -1422133.21848                  24775878.161
 02  1 11  1 14  0.0000000  0  8G 1G25G 6G29G13G22G20G 4
 -19961788.41649 -15554634.03247  21306200.089    21306200.562
 -14517573.39049 -11312386.82446  22313115.423    22313115.299
    -76628.84347                  25520380.604
   3253380.47848                  24385143.071
  -6783545.76748  -5285877.01944  23802059.297    23802059.391
 -23843745.46249 -18579535.66947  20333704.097    20333704.559
 -24256565.79549 -18901216.32847  20727224.567    20727224.561
  -1422166.94848  -1108181.16344  24775872.151    24775874.658
 02  1 11  1 14 30.0000000  0  8G 1G25G 6G29G13G22G20G 4
 -20019247.18949 -15599407.08947  21295266.547    21295267.002
 -14445719.94749 -11256397.16146  22326788.775    22326788.601
    -82784.50647    -64504.42644  25519209.276    25519211.265
   3341713.09948                  24401952.259
  -6874330.83448  -5356618.58444  23784782.666    23784782.338
 -23877265.59149 -18605655.23547  20327325.531    20327325.869
 -24228791.94449 -18879574.38147  20732509.812    20732509.864
  -1421673.90748  -1107797.02744  24775967.031    24775968.827
 02  1 11  1 15  0.0000000  0  8G 1G25G 6G29G13G22G20G 4
 -20076510.30849 -15644027.69447  21284369.531    21284370.022
 -14373737.21149 -11200306.74246  22340486.620    22340486.669
    -88484.88847    -68946.78544  25518124.461    25518124.060
   3430162.31048                  24418783.563
  -6965085.27548  -5427336.28144  23767513.703    23767510.145
 -23910160.31749 -18631287.47647  20321065.737    20321066.116
 -24200438.08149 -18857480.47547  20737905.690    20737905.558
  -1420673.48248                  24776157.797
 02  1 11  1 15 30.0000000  0  8G 1G25G 6G29G13G22G20G 4
 -20133578.14849 -15688496.13047  21273509.836    21273510.426
 -14301628.33449 -11144118.03846  22354207.876    22354208.137
    -93731.15847                  25517126.028
   3518725.62448                  24435637.692
  -7055809.69148  -5498030.60044  23750248.273    23750247.836
 -23942430.35249 -18656432.95047  20314924.726    20314925.180
 -24171506.32549 -18834936.26347  20743411.124    20743411.180
  -1419167.89348                  24776444.132
 02  1 11  1 16  0.0000000  0  8G 1G25G 6G29G13G22G20G 4
 -20190428.06349 -15732794.75747  21262691.845    21262692.198
 -14229373.07749 -11087815.27646  22367958.238    22367958.147
    -98501.18247                  25516218.453
   3607423.92448                  24452515.724
  -7146481.46448  -5568683.90044  23732994.707    23732995.507
 -23974053.22249 -18681074.13447  20308907.218    20308907.677
 -24141976.17549 -18811925.77147  20749030.630    20749030.894
  -1417136.26348  -1104261.15144  24776829.919    24776829.735
 02  1 11  1 16 30.0000000  0  7G 1G25G 6G13G22G20G 4
 -20247046.43049 -15776912.95347  21251917.320    21251917.843
 -14156959.65849 -11031389.27546  22381738.174    22381738.237
   -102781.70247                  25515403.927
  -7237087.61648  -5639286.08345  23715753.256    23715753.030
 -24005015.22449 -18705200.35847  20303015.124    20303015.600
 -24111836.03249 -18788439.96647  20754765.720    20754765.905
  -1414566.63448                  24777320.424
 02  1 11  1 17  0.0000000  0  8G 1G25G 6G29G13G22G20G 4
 -20303456.92149 -15820869.17347  21241182.940    21241183.451
 -14084414.48349 -10974860.59146  22395542.571    22395542.892
   -106596.95347                  25514677.940
         -.38458                  24486352.803
  -7327651.73248  -5709855.47244  23698518.361    23698517.277
 -24035340.30249 -18728830.27747  20297244.360    20297244.745
 -24081111.86949 -18764499.07847  20760612.380    20760612.451
  -1411484.55748                  24777906.180
 02  1 11  1 17 30.0000000  0  8G 1G25G 6G29G13G22G20G 4
 -20359672.93949 -15864673.85147  21230485.514    21230486.027
 -14011753.41049 -10918241.61046  22409370.129    22409370.002
   -109961.09348                  25514037.970
     89072.25448                  24503301.727
  -7418187.33048  -5780402.61544  23681290.694    23681290.611
 -24065042.00049 -18751974.44747  20291592.407    20291592.893
 -24049818.96649 -18740115.01447  20766567.519    20766567.356
  -1407905.17548                  24778588.559
 02  1 11  1 18  0.0000000  0  8G 1G25G 6G29G13G22G20G 4
 -20415663.26349 -15908302.66347  21219830.650    21219831.151
 -13938947.99749 -10861510.15646  22423224.284    22423224.627
   -112843.55348                  25513489.451
    178280.39648                  24520279.596
  -7508663.47748  -5850903.44744  23664072.835    23664071.760
 -24094089.50749 -18774608.85747  20286064.944    20286065.381
 -24017928.48449 -18715265.30447  20772635.864    20772635.788
  -1403799.48048                  24779369.894
 02  1 11  1 18 30.0000000  0  8G 1G25G 6G29G13G22G20G 4
 -20471428.10149 -15951755.77947  21209219.128    21209219.592
 -13866000.74649 -10804668.17946  22437105.449    22437105.680
   -115245.51648                  25513031.976
    267621.57148                  24537280.244
  -7599080.74348  -5921358.45744  23646868.768    23646867.173
 -24122483.50549 -18796734.04047  20280661.738    20280662.131
 -23985442.79149 -18689951.79647  20778817.197    20778817.611
  -1399169.50348                  24780251.523
 02  1 11  1 19  0.0000000  0  8G 1G25G 6G29G13G22G20G 4
 -20526965.10849 -15995031.36347  21198650.970    21198651.344
 -13792911.95949 -10747715.91746  22451014.180    22451014.461
   -117165.18148                  25512667.168
    357096.45048                  24554306.829
  -7689436.87848  -5991765.77244  23629672.327    23629673.308
 -24150221.85749 -18818348.32947  20275383.232    20275383.626
 -23952361.67649 -18664174.31947  20785112.941    20785113.126
  -1394014.98648  -1086244.77944  24781232.268    24781230.141
 02  1 11  1 19 30.0000000  0  8G 1G25G13G 6G29G22G20G 4
 -20582278.20549 -16038132.46747  21188124.863    21188125.410
 -13719688.05349 -10690658.36746  22464947.956    22464947.625
  -7779736.20948  -6062128.88244  23612490.208    23612486.062
   -118607.30548                  25512392.488
    446699.09648                  24571359.412
 -24177308.96749 -18839455.15447  20270228.778    20270229.267
 -23918691.57449 -18637937.89547  20791520.485    20791520.348
  -1388342.08648  -1081824.36844  24782312.138    24782310.258
 02  1 11  1 20  0.0000000  0  8G 1G25G13G 6G29G22G20G 4
 -20637372.53249 -16081063.10047  21177640.627    21177641.241
 -13646336.37749 -10633501.25246  22478906.484    22478906.897
  -7869983.86148  -6132451.69344  23595316.456    23595316.033
   -119577.70848                  25512207.680
    536422.51548                  24588431.457
 -24203750.59349 -18860059.02047  20265196.990    20265197.378
 -23884439.94649 -18611248.33247  20798037.687    20798037.873
  -1382157.81648  -1077005.44844  24783489.101    24783484.580
 02  1 11  1 20 30.0000000  0  8G 1G25G13G 6G29G22G20G 4
 -20692261.75349 -16123833.91347  21167195.567    21167196.142
 -13572873.14149 -10576257.21946  22492885.956    22492885.901
  -7960193.79348  -6202745.08944  23578149.418    23578150.196
   -120091.03148                  25512110.198
    626250.99948                  24605525.997
 -24229560.63749 -18880170.73847  20260285.727    20260286.091
 -23849622.90849 -18584118.18947  20804663.330    20804663.445
  -1375477.80148  -1071800.30544  24784759.770    24784760.282
 02  1 11  1 21  0.0000000  0  8G 1G13G 6G29G22G20G 4G25
 -20746919.25449 -16166424.16447  21156794.541    21156795.083
  -8050339.80148  -6272988.70644  23560996.392    23560997.135
   -120121.40748                  25512104.427
    716209.12948                  24622645.735
 -24254713.15949 -18899770.08947  20255499.256    20255499.610
 -23814216.17549 -18556528.54747  20811401.324    20811401.648
  -1368277.65548  -1066189.80044  24786130.455    24786128.392
 -13499274.22149 -10518907.44746  22506891.485    22506891.284
 02  1 11  1 21 30.0000000  0  8G 1G13G 6G29G22G20G 4G25
 -20801345.09949 -16208833.90247  21146437.769    21146438.363
  -8140421.99948  -6343182.60544  23543852.833    23543853.186
   -119669.69648                  25512190.535
    806295.11548                  24639787.309
 -24279208.62649 -18918857.46047  20250837.878    20250838.283
 -23778221.96749 -18528481.12847  20818250.862    20818251.028
  -1360559.48448                  24787599.381
 -13425542.04249 -10461453.84646  22520922.430    22520922.826
 02  1 11  1 22  0.0000000  0  8G 1G13G 6G29G22G20G 4G25
 -20855529.19149 -16251055.26347  21136127.032    21136127.454
  -8230430.20748  -6413318.82744  23526725.962    23526723.871
   -118726.57748                  25512370.191
    896517.20248                  24656957.267
 -24303037.45149 -18937425.37547  20246303.168    20246303.586
 -23741632.58349 -18499969.94347  20825212.984    20825213.367
  -1352315.36448  -1053751.71344  24789167.591    24789165.815
 -13351668.93249 -10403890.41646  22534979.972    22534979.787
 02  1 11  1 22 30.0000000  0  8G 1G 6G29G13G22G20G 4G25
 -20909469.77749 -16293086.88047  21125862.294    21125862.749
   -117291.32648    -91393.99944  25512643.183    25512641.641
    986874.80048                  24674151.774
  -8320363.31548  -6483396.53645  23509611.805    23509611.277
 -24326198.49649 -18955472.93747  20241896.088    20241896.497
 -23704448.99249 -18470995.73647  20832288.823    20832289.019
  -1343545.69448  -1046918.23944  24790836.877    24790833.703
 -13277655.94549 -10346218.00846  22549064.007    22549063.489
 02  1 11  1 23  0.0000000  0  8G 1G13G25G 6G29G22G20G 4
 -20963171.77949 -16334932.57947  21115643.302    21115643.811
  -8410226.20348  -6553419.51245  23492511.429    23492511.276
 -13203510.09349 -10288442.05546  22563173.666    22563174.469
   -115369.85748                  25513009.055
   1077361.17348                  24691371.431
 -24348697.44049 -18973004.57147  20237614.510    20237614.910
 -23666678.56649 -18441564.25547  20839476.502    20839476.648
  -1334257.62048  -1039680.75744  24792604.774    24792605.363
 02  1 11  1 23 30.0000000  0  8G 1G13G25G 6G29G22G20G 4
 -21016645.86149 -16376600.68747  21105467.442    21105467.966
  -8500029.36248  -6623395.97244  23475423.149    23475423.612
 -13129244.54849 -10230572.85246  22577305.588    22577306.047
   -112973.73148    -88029.63644  25513464.967    25513464.419
   1167963.72848                  24708613.192
 -24370545.43249 -18990028.97247  20233457.111    20233457.464
 -23628334.25949 -18411685.59747  20846772.931    20846773.272
  -1324464.09648  -1032049.49744  24794467.665    24794462.197
 02  1 11  1 24  0.0000000  0  8G 1G13G25G 6G29G22G20G 4
 -21069893.14649 -16418092.06647  21095335.074    21095335.599
  -8589774.72648  -6693327.38644  23458344.282    23458343.087
 -13054862.75349 -10172613.05046  22591460.316    22591460.398
   -110104.84848                  25514010.662
   1258679.47948                  24725875.159
 -24391744.34449 -19006547.60147  20229423.066    20229423.489
 -23589419.74049 -18381362.61247  20854178.276    20854178.700
  -1314168.35048                  24796427.103
 02  1 11  1 24 30.0000000  0  8G 1G13G25G 6G29G22G20G 4
 -21122917.16749 -16459409.47547  21085244.570    21085245.067
  -8679465.74648  -6763216.47745  23441277.349    23441276.412
 -12980371.03749 -10114567.60446  22605635.571    22605635.968
   -106768.12948                  25514645.719
   1349502.59148                  24743159.176
 -24412298.47349 -19022563.79447  20225511.933    20225512.302
 -23549941.36049 -18350600.25647  20861691.183    20861691.449
  -1303376.29748  -1015617.51244  24798480.621    24798479.758
 02  1 11  1 25  0.0000000  0  8G 1G13G25G 6G29G22G20G 4
 -21175707.01249 -16500544.41247  21075198.973    21075199.551
  -8769091.52548  -6833054.67445  23424221.138    23424220.913
 -12905760.44249 -10056429.53146  22619833.729    22619834.010
   -102953.60748                  25515371.819
   1440442.05548                  24760464.751
 -24432197.59649 -19038069.59147  20221725.025    20221725.394
 -23509890.56049 -18319391.86147  20869312.160    20869312.576
  -1292079.18348  -1006814.54844  24800631.135    24800627.992
 02  1 11  1 25 30.0000000  0  8G 1G13G25G 6G29G22G20G 4
 -21228256.38149 -16541491.96147  21065198.784    21065199.375
  -8858646.26648  -6902837.53845  23407180.338    23407177.122
 -12831027.50849  -9998196.12446  22634055.296    22634055.510
    -98656.13848                  25516189.637
   1531502.01548                  24777793.679
 -24451436.37749 -19053060.84647  20218063.943    20218064.258
 -23469263.65449 -18287734.55147  20877043.148    20877043.557
  -1280273.41448   -997615.28444  24802877.299    24802874.718
 02  1 11  1 26  0.0000000  0  8G 1G13G25G 6G29G22G20G 4
 -21280555.51849 -16582244.52347  21055247.052    21055247.488
  -8948120.16748  -6972557.43845  23390153.471    23390152.925
 -12756164.60649  -9939861.45046  22648300.940    22648300.625
    -93866.71048                  25517100.794
   1622690.33048                  24795146.059
 -24470005.76449 -19067530.49647  20214530.439    20214530.787
 -23428053.80049 -18255623.00147  20884885.580    20884885.857
  -1267951.21148                  24805222.255
 02  1 11  1 26 30.0000000  0  8G 1G13G25G 6G29G22G20G 4
 -21332605.34949 -16622802.82247  21045342.649    21045343.106
  -9037514.63448  -7042215.42645  23373142.564    23373140.871
 -12681175.46949  -9881428.41246  22662571.437    22662571.562
    -88587.59848                  25518105.553
   1714003.89548                  24812523.192
 -24487907.62349 -19081479.99547  20211123.587    20211123.939
 -23386264.59549 -18223060.00547  20892837.555    20892837.852
  -1255116.08048   -978012.27444  24807664.272    24807665.620
 02  1 11  1 27  0.0000000  0  8G 1G13G25G 6G29G22G20G 4
 -21384416.55249 -16663175.17847  21035482.781    21035483.359
  -9126840.13848  -7111819.67445  23356144.721    23356144.315
 -12606073.51349  -9822907.45346  22676862.753    22676863.019
    -82830.46148                  25519201.139
   1805430.14248                  24829920.909
 -24505153.45949 -19094918.30547  20207841.904    20207842.377
 -23343909.17849 -18190055.80847  20900897.528    20900897.913
  -1241780.91548   -967621.22844  24810201.985    24810202.737
 02  1 11  1 27 30.0000000  0  8G 1G13G25G 6G29G22G20G 4
 -21435979.63949 -16703354.19847  21025670.366    21025670.958
  -9216087.37848  -7181362.95645  23339160.124    23339160.756
 -12530850.98649  -9764292.54646  22691176.687    22691176.504
    -76587.00047                  25520389.154
   1896976.49948                  24847342.523
 -24521734.72449 -19107838.76947  20204686.715    20204687.158
 -23300980.84349 -18156605.18047  20909066.877    20909067.187
  -1227938.79948                  24812836.604
 02  1 11  1 28  0.0000000  0  7G 1G13G 6G22G20G 4G25
 -21487300.02549 -16743344.09947  21015904.499    21015905.130
  -9305261.98648  -7250849.60145  23322192.227    23322192.591
    -69863.98247                  25521668.557
 -24537657.93049 -19120246.46047  20201656.646    20201657.088
 -23257487.77749 -18122714.50147  20917343.078    20917343.401
  -1213597.73048   -945660.38044  24815565.520    24815565.062
 -12455516.01349  -9705590.02146  22705513.240    22705512.665
 02  1 11  1 28 30.0000000  0  7G 1G13G25G 6G22G20G 4
 -21538375.18649 -16783142.91347  21006185.407    21006185.955
  -9394361.66948  -7320277.88245  23305235.818    23305236.106
 -12380068.72249  -9646799.99246  22719869.752    22719870.860
    -62660.06947                  25523039.371
 -24552921.47649 -19132140.13347  20198751.945    20198752.323
 -23213430.29849 -18088384.02047  20925726.719    20925727.224
  -1198757.55148   -934096.57644  24818389.648    24818388.427
 02  1 11  1 29  0.0000000  0  7G 1G13G25G 6G22G20G 4
 -21589211.18849 -16822755.37347  20996511.636    20996512.219
  -9483392.61748  -7389652.62345  23288294.794    23288294.177
 -12304517.26349  -9587928.78746  22734246.446    22734246.407
    -54982.41547                  25524500.636
 -24567532.39749 -19143525.26747  20195971.718    20195972.061
 -23168817.42349 -18053620.75747  20934216.556    20934216.798
  -1183426.80148   -922150.56144  24821307.615    24821308.663
 02  1 11  1 29 30.0000000  0  8G13G 6G 1G27G22G20G 4G25
  -9572351.41348  -7458971.11045  23271365.559    23271366.008
    -46828.64647                  25526052.272
 -21639804.36949 -16862178.62747  20986884.183    20986884.756
         -.62558          .22054  25608580.951    25608580.993
 -24581488.22449 -19154399.93547  20193315.910    20193316.350
 -23123648.14949 -18018423.94447  20942812.196    20942812.438
  -1167604.34048   -909821.40944  24824317.878    24824317.705
 -12228860.53249  -9528975.54646  22748643.754    22748643.672
 02  1 11  1 30  0.0000000  0  8G13G 6G 1G27G22G20G 4G25
  -9661220.20448  -7528219.48845  23254455.270    23254454.177
    -38182.20348                  25527697.573
 -21690136.80349 -16901398.69947  20977306.131    20977306.720
    -84821.35248                  25592438.103
 -24594772.03149 -19164750.95147  20190788.017    20190788.370
 -23077907.44449 -17982781.86147  20951515.587    20951516.098
  -1151275.08148   -897097.32944  24827424.700    24827424.902
 -12153083.35349  -9469928.45046  22763063.677    22763064.318
 02  1 11  1 30 30.0000000  0  8G13G25G 6G 1G27G22G20G 4
  -9749998.46548  -7597397.31745  23237561.439    23237559.983
 -12077187.20549  -9410788.66746  22777506.569    22777506.853
    -29043.50548                  25529436.803
 -21740207.76649 -16940415.02847  20967777.943    20967778.367
   -169577.05048   -132137.24744  25576311.349    25576313.498
 -24607384.32749 -19174578.71447  20188388.019    20188388.464
 -23031597.43849 -17946696.16947  20960328.711    20960329.196
  -1134440.48248   -883979.50344  24830627.793    24830627.038
 02  1 11  1 31  0.0000000  0  7G13G 6G 1G22G20G 4G25
  -9838709.42348  -7666522.69045  23220679.533    23220679.270
    -19437.24648                  25531264.860
 -21790040.56349 -16979245.77247  20958294.981    20958295.539
 -24619349.42549 -19183902.16847  20186111.149    20186111.586
 -22984744.41349 -17910187.34147  20969244.849    20969245.181
  -1117126.84448   -870488.36144  24833922.705    24833925.349
 -12001197.58549  -9351576.03946  22791967.045    22791966.678
 02  1 11  1 31 30.0000000  0  7G13G 6G 1G22G20G 4G25
  -9927338.98848  -7735584.66345  23203814.335    23203813.000
     -9350.49248                  25533184.117
 -21839621.10349 -17017879.95747  20948860.427    20948860.879
 -24630654.26549 -19192711.13847  20183959.882    20183960.283
 -22937336.93049 -17873246.47447  20978265.766    20978266.143
  -1099322.12048   -856614.55644  24837309.959    24837307.459
 -11925102.36249  -9292281.12546  22806447.142    22806447.929
 02  1 11  1 32  0.0000000  0  7G20G13G 6G 1G22G 4G25
 -22889354.45949 -17835857.56347  20987396.758    20987397.261
 -10015863.75248  -7804564.96745  23186968.531    23186967.949
      1238.96148                  25535199.422
 -21888925.82549 -17056299.21647  20939477.851    20939478.394
 -24641276.58249 -19200988.27147  20181938.541    20181939.065
  -1081005.40948   -842341.81144  24840794.969    24840797.837
 -11848880.84849  -9232887.80846  22820951.987    22820952.240
 02  1 11  1 32 30.0000000  0  8G20G13G 6G 1G27G22G 4G25
 -22840824.73249 -17798042.21547  20996631.963    20996632.030
 -10104308.59548  -7873482.98045  23170137.752    23170136.434
     12304.77248      9589.45644  25537305.147    25537307.806
 -21937979.45449 -17094522.81847  20930143.074    20930143.635
         -.56758         -.88554  25511896.837    25511904.461
 -24651242.36049 -19208753.81547  20180042.033    20180042.519
  -1062204.51748   -827691.81044  24844372.647    24844373.299
 -11772560.64249  -9173417.59346  22835475.541    22835475.914
 02  1 11  1 33  0.0000000  0  8G20G13G 6G 1G27G22G 4G25
 -22791746.53649 -17759799.48747  21005970.902    21005971.395
 -10192669.47049  -7942335.59545  23153323.800    23153323.125
     23849.91748     18585.67244  25539502.117    25539501.485
 -21986777.85649 -17132547.54747  20920857.241    20920857.810
    -84481.34448    -65830.11644  25495821.473    25495824.609
 -24660548.86549 -19216005.64047  20178271.179    20178271.637
  -1042917.84848                  24848042.834
 -11696139.19449  -9113868.49146  22850017.504    22850018.640
 02  1 11  1 33 30.0000000  0  8G20G13G 6G 1G27G22G 4G25
 -22742118.98349 -17721128.69947  21015414.168    21015414.559
 -10280942.57848  -8011119.78745  23136525.212    23136524.786
     35876.74548                  25541790.644
 -22035317.04549 -17170370.28947  20911620.509    20911621.037
   -168905.54448   -131615.19044  25479755.003    25479760.688
 -24669193.36949 -19222741.62047  20176626.257    20176626.699
  -1023144.06248                  24851805.555
 -11619615.29249  -9054239.54346  22864580.069    22864580.387
 02  1 11  1 34  0.0000000  0  8G20G13G 6G 1G27G22G 4G25
 -22691929.15449 -17682019.76547  21024966.089    21024966.289
 -10369112.05549  -8079823.26045  23119747.954    23119747.087
     48399.78348     37715.32344  25544173.872    25544174.481
 -22083580.94349 -17207978.52347  20902436.429    20902436.932
   -253258.36648   -197344.61744  25463703.802    25463706.921
 -24677161.17549 -19228950.30147  20175109.872    20175110.377
  -1002870.03648                  24855663.185
 -11542975.18049  -8994520.06846  22879164.063    22879165.400
 02  1 11  1 34 30.0000000  0  8G20G13G 6G 1G27G22G 4G25
 -22641193.38449 -17642485.42947  21034620.096    21034620.698
 -10457191.26348  -8148456.37345  23102985.835    23102986.211
     61404.38348                  25546648.629
 -22131582.60749 -17245382.41547  20893301.816    20893302.379
   -337553.91348   -263029.46544  25447663.438    25447665.324
 -24684466.97749 -19234643.13547  20173719.836    20173720.315
   -982111.57048                  24859613.911
 -11466234.65149  -8934722.33045  22893766.666    22893767.840
 02  1 11  1 35  0.0000000  0  8G20G13G 6G 1G27G22G 4G25
 -22589910.24849 -17602524.57447  21044378.874    21044379.360
 -10545175.70649  -8217015.62945  23086244.701    23086242.452
     74893.69348                  25549215.293
 -22179317.60249 -17282578.51247  20884217.987    20884218.633
   -421788.86548                  25431632.340
 -24691107.50649 -19239817.57547  20172456.278    20172456.658
   -960867.13048   -748727.78644  24863656.634    24863657.574
 -11389391.87449  -8874844.92046  22908390.161    22908389.712
 02  1 11  1 35 30.0000000  0  8G20G13G 6G 1G27G22G 4G25
 -22538085.03249 -17562141.31347  21054241.644    21054241.853
 -10633067.49049  -8285502.71045  23069517.715    23069516.798
     88864.00548                  25551873.925
 -22226788.16349 -17319568.56547  20875184.689    20875185.337
   -505966.46648   -394259.99144  25415615.147    25415618.104
 -24697086.46449 -19244476.50847  20171318.338    20171318.850
   -939141.55448   -731798.78444  24867789.941    24867789.619
 -11312450.93649  -8814891.03245  22923031.205    22923032.468
 02  1 11  1 36  0.0000000  0  8G20G13G 6G 1G27G22G 4G25
 -22485718.45549 -17521336.21846  21064206.228    21064206.770
 -10720864.52649  -8353915.95345  23052810.922    23052810.209
    103315.98948                  25554623.892
 -22273992.31649 -17356351.01947  20866201.786    20866202.522
   -590085.52248   -459807.29744  25399607.044    25399610.098
 -24702403.01549 -19248619.28047  20170306.365    20170306.817
   -916935.36648   -714495.30144  24872016.273    24872015.075
 -11235412.00049  -8754860.78546  22937691.443    22937691.927
 02  1 11  1 36 30.0000000  0  8G20G13G 6G 1G27G22G 4G25
 -22432816.10149 -17480113.62946  21074273.060    21074273.607
 -10808569.04749  -8422257.12545  23036122.641    23036121.243
    118245.73348     92140.67444  25557465.187    25557468.986
 -22320932.14049 -17392927.50847  20857269.532    20857270.291
   -674149.19548   -525311.45444  25383611.277    25383612.619
 -24707061.05849 -19252248.93047  20169420.082    20169420.624
   -894253.84948                  24876332.567
 -11158279.99949  -8694758.01445  22952368.743    22952369.046
 02  1 11  1 37  0.0000000  0  8G20G13G 6G 1G27G22G 4G25
 -22379379.14649 -17438474.47546  21084442.379    21084442.566
 -10896179.19749  -8490524.70945  23019449.329    23019448.498
    133653.87148                  25560397.115
 -22367605.44449 -17429296.31447  20848388.394    20848389.169
   -758156.63548   -590771.70544  25367624.424    25367625.527
 -24711060.00249 -19255365.00147  20168659.201    20168659.732
   -871097.59648                  24880740.265
 -11081054.93649  -8634582.72545  22967064.805    22967065.562
 02  1 11  1 37 30.0000000  0  7G20G13G 1G27G22G 4G25
 -22325400.59849 -17396413.30346  21094713.659    21094714.213
 -10983684.79049  -8558710.86345  23002798.419    23002795.800
 -22414002.20149 -17465449.63047  20839559.177    20839559.904
   -842098.79048   -656181.18344  25351651.017    25351655.516
 -24714391.40049 -19257960.90647  20168025.438    20168025.902
   -847459.80548   -660359.67444  24885238.605    24885236.173
 -11003729.27949  -8574329.05945  22981779.443    22981780.686
 02  1 11  1 38  0.0000000  0  7G20G13G 1G27G22G 4G25
 -22270862.56749 -17353916.16646  21105091.796    21105092.132
 -11071065.02049  -8626799.31945  22986169.754    22986169.139
 -22460101.27649 -17501370.98947  20830786.598    20830787.101
   -925955.85548   -721524.34144  25335693.567    25335695.593
 -24717035.69349 -19260021.39947  20167521.898    20167522.352
   -823321.89248   -641550.91844  24889830.707    24889832.688
 -10926284.47448  -8513982.55145  22996516.431    22996517.985
 02  1 11  1 38 30.0000000  0  8G20G13G 3G 1G27G22G 4G25
 -22215797.04949 -17311008.00146  21115571.214    21115571.147
 -11158348.42449  -8694812.32645  22969560.943    22969559.888
         -.64958                  25231719.249
 -22505931.29649 -17537082.69847  20822065.808    20822066.228
  -1009757.35548   -786824.24044  25319746.254    25319748.448
 -24719023.07749 -19261570.01747  20167143.900    20167144.364
   -798715.45548   -622377.08944  24894514.269    24894514.957
 -10848750.92049  -8453566.90045  23011271.354    23011271.045
 02  1 11  1 39  0.0000000  0  8G20G13G 3G 1G27G22G 4G25
 -22160209.85849 -17267693.33446  21126148.640    21126149.055
 -11245537.69149  -8762751.96545  22952969.067    22952968.664
    -89331.71648                  25214721.551
 -22551495.09749 -17572586.95747  20813394.988    20813395.449
  -1093507.39848   -852083.95644  25303808.584    25303809.655
 -24720358.03149 -19262610.25047  20166889.891    20166890.454
   -773646.24648   -602842.68044  24899284.863    24899287.824
 -10771134.42848  -8393086.61745  23026040.382    23026041.722
 02  1 11  1 39 30.0000000  0  8G20G13G 3G 1G27G22G 4G25
 -22104109.88549 -17223979.10346  21136824.171    21136824.547
 -11332638.47049  -8830622.68645  22936394.137    22936393.128
   -178751.16548                  25197705.396
 -22596798.01549 -17607887.93047  20804774.485    20804774.879
  -1177212.37248   -917308.63044  25287881.843    25287882.283
 -24721047.55649 -19263147.55147  20166758.609    20166759.176
   -748122.60248                  24904141.526
 -10693442.29548  -8332547.39145  23040824.972    23040825.593
 02  1 11  1 40  0.0000000  0  8G20G13G25G 3G 1G27G22G 4
 -22047482.55049 -17179853.94046  21147599.837    21147600.217
 -11419632.83849  -8898410.48245  22919839.864    22919838.240
 -10615658.93748  -8271937.09445  23055627.486    23055627.945
   -268239.82448                  25180676.146
 -22641822.03349 -17642971.58547  20796206.605    20796207.129
  -1260855.74348   -982485.27944  25271962.972    25271966.371
 -24721075.67549 -19263169.46947  20166753.303    20166753.907
   -722129.78448   -562700.06344  24909087.551    24909089.102
 02  1 11  1 40 30.0000000  0  8G20G13G25G 3G 1G27G22G 4
 -21990325.06249 -17135315.66646  21158476.944    21158476.979
 -11506514.26349  -8966110.26045  22903305.980    22903305.036
 -10537780.51548  -8211252.70945  23070446.183    23070447.764
   -357790.03048                  25163634.586
 -22686560.86349 -17677833.01447  20787693.084    20787693.436
  -1344432.16848  -1047609.75944  25256060.243    25256063.621
 -24720437.71149 -19262672.36547  20166874.098    20166874.861
   -695664.35748   -542077.68844  24914124.041    24914126.878
 02  1 11  1 41  0.0000000  0  8G20G13G25G 3G 1G27G22G 4
 -21932641.57549 -17090367.52846  21169453.396    21169453.965
 -11593284.28149  -9033723.24045  22886795.683    22886795.018
 -10459810.39548  -8150496.88945  23085284.039    23085285.702
   -447401.67848                  25146581.854
 -22731015.71749 -17712473.16047  20779233.910    20779234.258
  -1427944.01948  -1112683.92244  25240167.547    25240171.857
 -24719136.71749 -19261658.61247  20167122.133    20167122.807
   -668730.68248                  24919248.113
 02  1 11  1 41 30.0000000  0  8G20G13G25G 3G 1G27G22G 4
 -21874425.07149 -17045004.04746  21180531.438    21180532.037
 -11679932.33549  -9101241.16445  22870305.836    22870306.366
 -10381740.73248  -8089663.50145  23100141.068    23100141.644
   -537062.92848                  25129520.395
 -22775176.10549 -17746883.85647  20770830.128    20770830.585
  -1511381.73948  -1177700.31944  25224290.796    25224292.564
 -24717163.80449 -19260121.28947  20167497.362    20167497.981
   -641321.16448   -499732.47244  24924464.419    24924468.118
 02  1 11  1 42  0.0000000  0  8G20G13G25G 3G 1G27G22G 4
 -21815690.37349 -16999236.78546  21191708.553    21191709.049
 -11766469.74249  -9168672.88145  22853839.364    22853837.583
 -10303584.85148  -8028762.93345  23115012.577    23115014.097
   -626784.00448                  25112446.731
 -22819053.44549 -17781073.99547  20762480.262    20762480.587
  -1594757.92548  -1242668.80044  25208424.406    25208427.615
 -24714532.25749 -19258070.73947  20167998.631    20167999.297
   -613450.26348                  24929768.969
 02  1 11  1 42 30.0000000  0  8G20G13G25G 3G 1G27G22G 4
 -21756435.14649 -16953063.91646  21202984.414    21202985.201
 -11852890.74349  -9236013.90245  22837393.581    22837392.943
 -10225339.82948  -7967792.90445  23129903.115    23129905.075
   -716557.81048                  25095363.033
 -22862642.07449 -17815039.16647  20754185.778    20754186.325
  -1678067.95148  -1307585.68844  25192571.429    25192573.065
 -24711238.38549 -19255504.09747  20168625.275    20168626.013
   -585115.57048                  24935160.805
 02  1 11  1 43  0.0000000  0  8G20G13G25G 3G 1G27G22G 4
 -21696662.02149 -16906487.49446  21214358.474    21214358.868
 -11939194.55649  -9303263.59445  22820970.180    22820969.398
 -10147006.77048  -7906754.27445  23144809.333    23144808.776
   -806260.94248                  25078262.749
 -22905941.00749 -17848778.59847  20745946.242    20745946.813
  -1761312.11248  -1372451.24144  25176730.823    25176732.467
 -24707283.14949 -19252422.10647  20169377.816    20169378.629
   -556319.09848   -433497.15744  24940640.617    24940640.074
 02  1 11  1 43 30.0000000  0  8G20G13G25G 3G 1G27G22G 4
 -21636363.94949 -16859502.01846  21225833.103    21225833.850
 -12025370.26049  -9370413.48045  22804571.665    22804571.189
 -10068577.25548  -7845640.47345  23159733.869    23159734.772
   -895374.07748                  25061173.011
 -22948939.39049 -17882283.83547  20737763.785    20737764.421
  -1844480.96448  -1437258.12644  25160903.976    25160908.296
 -24702657.71949 -19248817.88947  20170257.482    20170258.293
   -527053.48748                  24946209.541
 02  1 11  1 44  0.0000000  0  7G20G13G25G 1G27G22G 4
 -21575567.02449 -16812127.82746  21237402.519    21237403.057
 -12111441.02249  -9437481.57645  22788192.889    22788192.322
  -9990076.71648  -7784471.36345  23174672.474    23174673.314
 -22991660.30349 -17915572.86547  20729634.565    20729635.126
  -1927598.60348  -1502025.16344  25145088.034    25145089.206
 -24697387.10849 -19244710.92747  20171260.581    20171261.611
   -497344.56248                  24951862.588
 02  1 11  1 44 30.0000000  0  8G20G13G25G 3G 1G27G22G 4
 -21514261.91849 -16764357.65046  21249068.257    21249069.068
 -12197393.43349  -9504457.45145  22771836.661    22771836.342
  -9911494.17848  -7723238.35145  23189626.231    23189627.516
         -.01658                  25026937.334
 -23034090.73749 -17948635.54847  20721560.497    20721560.987
  -2010653.12148  -1566742.96644  25129282.018    25129284.987
 -24691460.09349 -19240092.48947  20172388.562    20172389.637
   -467182.74248   -364040.32644  24957602.756    24957599.884
 02  1 11  1 45  0.0000000  0  8G20G13G25G 3G 1G27G22G 4
 -21452450.14949 -16716192.67046  21260831.170    21260831.684
 -12283225.83749  -9571339.81445  22755503.682    22755502.161
  -9832830.11148  -7661941.79045  23204595.500    23204596.767
    -90011.48048                  25009806.858
 -23076228.71249 -17981470.34047  20713542.094    20713542.410
  -2093643.67448  -1631410.93945  25113490.813    25113490.201
 -24684876.95249 -19234962.77547  20173641.447    20173642.419
   -436568.91248   -340185.43244  24963427.888    24963427.453
 02  1 11  1 45 30.0000000  0  8G20G13G25G 3G 1G27G22G 4
 -21390121.37849 -16667624.83146  21272691.906    21272692.365
 -12368924.28549  -9638117.80745  22739195.188    22739193.852
  -9754073.09548  -7600572.83045  23219583.104    23219584.664
   -180050.38848                  24992673.871
 -23118060.42149 -18014066.48247  20705581.453    20705581.945
  -2176557.59848  -1696019.18544  25097712.198    25097714.510
 -24677625.78549 -19229312.52347  20175021.598    20175022.597
   -405492.62748                  24969341.224
 02  1 11  1 46  0.0000000  0  8G20G13G25G 3G 1G27G22G 4
 -21327295.78949 -16618669.86146  21284647.017    21284647.854
 -12454505.50349  -9704804.45345  22722909.667    22722909.087
  -9675242.00848  -7539146.15245  23234584.066    23234584.681
   -270132.04948                  24975532.360
 -23159602.59749 -18046437.02147  20697675.967    20697676.402
  -2259412.74848  -1760581.65044  25081945.509    25081946.726
 -24669725.34949 -19223156.35347  20176525.022    20176525.960
   -373973.79748   -291410.03744  24975339.172    24975338.298
 02  1 11  1 46 30.0000000  0  8G20G13G25G 3G 1G27G22G 4
 -21263966.85449 -16569322.67746  21296698.776    21296699.270
 -12539958.92649  -9771391.50145  22706648.328    22706647.342
  -9596328.95548  -7477655.59845  23249599.910    23249600.899
   -360244.96548                  24958383.707
 -23200844.92149 -18078573.90647  20689827.864    20689828.257
  -2342200.07548  -1825091.27444  25066190.870    25066193.152
 -24661167.47049 -19216487.88847  20178153.077    20178154.008
   -342005.58048                  24981423.115
 02  1 11  1 47  0.0000000  0  8G20G13G25G 3G 1G27G22G 4
 -21200126.16549 -16519576.72446  21308846.709    21308847.579
 -12625272.61349  -9837869.67546  22690414.535    22690412.345
  -9517324.11148  -7416093.52445  23264635.689    23264636.171
   -450375.46048                  24941233.523
 -23241775.17449 -18110467.61847  20682039.408    20682039.878
  -2424908.61048  -1889539.49844  25050452.665    25050454.942
 -24651942.36249 -19209299.50847  20179908.231    20179909.383
   -309579.19348   -241232.46344  24987594.435    24987591.360
 02  1 11  1 47 30.0000000  0  8G20G13G25G 3G 1G27G22G 4
 -21135788.24649 -16469443.31846  21321089.673    21321090.197
 -12710457.56049  -9904247.53146  22674202.568    22674201.972
  -9438240.80648  -7354470.32845  23279683.733    23279684.741
   -540533.15348                  24924076.687
 -23282404.28749 -18142126.68047  20674308.190    20674308.464
  -2507550.48448  -1953935.74644  25034726.711    25034729.559
 -24642063.10249 -19201601.39647  20181788.124    20181789.090
   -276708.70648   -215619.16544  24993849.455    24993848.208
 02  1 11  1 48  0.0000000  0  8G20G13G25G 3G 1G27G22G 4
 -21070951.24149 -16418921.02146  21333428.140    21333428.759
 -12795508.38849  -9970520.87845  22658019.657    22658018.608
  -9359075.97848  -7292783.59145  23294748.082    23294750.026
   -630711.54448                  24906915.187
 -23322727.11149 -18173547.07147  20666635.046    20666635.307
  -2590121.65648  -2018276.93744  25019013.534    25019014.113
 -24631526.53949 -19193391.10147  20183793.479    20183794.454
   -243392.13348                  25000188.809
 02  1 11  1 48 30.0000000  0  8G20G13G25G 3G 1G27G22G 4
 -21005615.70749 -16368010.25046  21345861.224    21345861.812
 -12880421.64649 -10036687.03845  22641860.458    22641859.991
  -9279828.93148  -7231032.79345  23309829.911    23309829.254
   -720906.27748                  24889752.273
 -23362740.59549 -18204726.41647  20659020.657    20659020.998
  -2672620.20948  -2082561.54544  25003315.038    25003316.994
 -24620331.97249 -19184668.07547  20185924.340    20185925.276
   -209629.75948   -163349.83644  25006614.090    25006613.196
 02  1 11  1 49  0.0000000  0  8G20G13G25G 3G 1G27G22G 4
 -20939795.08449 -16316721.49746  21358386.148    21358386.869
 -12965207.15849 -10102753.64446  22625726.054    22625725.673
  -9200511.26248  -7169226.96145  23324922.179    23324923.275
   -811125.39248                  24872584.177
 -23402454.28649 -18235672.16247  20651463.238    20651463.592
  -2755056.88948  -2146797.93344  24987627.544    24987630.448
 -24608491.17749 -19175441.49247  20188177.689    20188178.532
   -175434.61548   -136704.29944  25013121.725    25013121.880
 02  1 11  1 49 30.0000000  0  8G20G13G25G 3G 1G27G22G 4
 -20873504.07349 -16265066.20246  21371001.262    21371001.800
 -13049875.48749 -10168728.94446  22609615.165    22609613.573
  -9121136.47748  -7107376.65545  23340027.745    23340027.298
   -901378.23148                  24855409.272
 -23441879.16449 -18266392.86047  20643960.919    20643961.327
  -2837443.99848  -2210995.68444  24971950.013    24971950.742
 -24596017.33849 -19165721.63247  20190551.079    20190551.821
   -140820.84448   -109732.55244  25019707.329    25019707.075
 02  1 11  1 50  0.0000000  0  8G20G13G25G 3G 1G27G22G 4
 -20806729.51649 -16213034.12046  21383708.083    21383709.069
 -13134410.21749 -10234600.14846  22593527.591    22593525.994
  -9041690.02148  -7045470.48445  23355146.069    23355146.406
   -991646.83648                  24838231.669
 -23480998.41349 -18296875.40147  20636516.918    20636517.166
  -2919765.97348  -2275142.67444  24956284.062    24956286.782
 -24582895.98849 -19155497.21947  20193048.085    20193048.936
   -105775.13748    -82424.18344  25026376.218    25026376.618
 02  1 11  1 50 30.0000000  0  8G20G13G25G 3G 1G27G22G 4
 -20739473.17149 -16160626.62746  21396506.329    21396507.037
 -13218809.01949 -10300365.43546  22577468.014    22577467.226
  -8962171.93348  -6983508.48745  23370276.906    23370280.094
  -1081927.90548                  24821051.697
 -23519810.21949 -18327118.37847  20629131.380    20629131.527
  -3002021.93448  -2339238.24644  24940631.867    24940631.357
 -24569127.62049 -19144768.63847  20195668.153    20195668.851
    -70298.92048                  25033127.824
 02  1 11  1 51  0.0000000  0  8G20G13G25G 3G 1G27G22G 4
 -20671717.12149 -16107829.75846  21409399.803    21409400.715
 -13303050.13749 -10366007.86346  22561436.880    22561435.458
  -8882562.76648  -6921475.55045  23385426.974    23385428.455
  -1172198.24848                  24803873.953
 -23558292.85249 -18357104.85747  20621808.240    20621808.527
  -3084191.44448  -2403266.41244  24924995.041    24924997.907
 -24554692.84849 -19133520.78247  20198415.033    20198415.921
    -34373.90848    -26786.91844  25039964.716    25039963.276
 02  1 11  1 51 30.0000000  0  8G20G13G25G 3G 1G27G22G 4
 -20603482.13849 -16054659.69146  21422384.797    21422385.525
 -13387150.44649 -10431540.55946  22545432.990    22545430.944
  -8802881.83248  -6859386.65645  23400590.028    23400590.738
  -1262473.57748                  24786694.424
 -23596463.23449 -18386848.02447  20614544.592    20614544.975
  -3166292.71648  -2467241.43044  24909372.143    24909376.603
 -24539610.98349 -19121768.70047  20201285.092    20201285.911
      1979.40348      1540.34544  25046882.940    25046879.001
 02  1 11  1 52  0.0000000  0  8G20G13G25G 3G 1G27G22G 4
 -20534763.43649 -16001112.70146  21435461.210    21435462.572
 -13471101.35549 -10496956.84146  22529458.507    22529457.335
  -8723122.87348  -6797237.01145  23415766.711    23415768.299
  -1352744.19048                  24769517.564
 -23634312.86249 -18416341.25747  20607342.332    20607342.739
  -3248318.60448  -2531157.68044  24893762.833    24893761.246
 -24523876.17749 -19109507.83347  20204279.440    20204280.240
     38766.06148                  25053882.572
 02  1 11  1 52 30.0000000  0  8G20G13G25G 3G 1G27G22G 4
 -20465570.70049 -15947196.33346  21448628.338    21448629.129
 -13554908.61149 -10562261.18746  22513509.557    22513508.663
  -8643294.26448  -6735033.08645  23430958.447    23430959.710
  -1443014.36748  -1124424.09044  24752339.520    24752350.442
 -23671847.70549 -18445589.19847  20600199.546    20600200.005
  -3330275.97648  -2595020.56744  24878166.570    24878168.813
 -24507496.67849 -19096744.61347  20207396.136    20207396.880
     75976.76348                  25060963.014
 02  1 11  1 53  0.0000000  0  8G20G13G25G 3G 1G27G22G 4
 -20395900.41549 -15892907.85346  21461886.124    21461886.873
 -13638564.65549 -10627447.70646  22497590.995    22497590.062
  -8563390.54848  -6672770.61245  23446163.186    23446166.241
  -1533275.24048                  24735163.467
 -23709060.27949 -18474586.02647  20593118.139    20593118.737
  -3412158.63348  -2658825.19644  24862584.618    24862587.960
 -24490467.46749 -19083475.12247  20210636.850    20210637.585
    113615.55148                  25068124.315
 02  1 11  1 53 30.0000000  0  8G20G13G25G 3G 1G27G22G 4
 -20325753.21349 -15838247.74846  21475234.894    21475235.520
 -13722066.29249 -10692513.91346  22481700.679    22481699.417
  -8483410.78848  -6610448.92045  23461382.954    23461385.666
  -1623522.36448                  24717989.802
 -23745947.45249 -18503329.29247  20586098.971    20586099.443
  -3493964.72348  -2722570.21844  24847018.438    24847019.652
 -24472788.01849 -19069698.95347  20214001.292    20214002.045
    151681.93348                  25075367.483
 02  1 11  1 54  0.0000000  0  8G13G20G25G 3G 1G27G22G 4
 -13805418.71049 -10757463.83546  22465839.791    22465838.570
 -20255138.23249 -15783223.13946  21488672.659    21488673.241
  -8403363.20048  -6548074.37345  23476616.418    23476618.009
  -1713759.93748                  24700817.481
 -23782514.68549 -18531823.25747  20579140.252    20579140.859
  -3575700.98348  -2786260.77344  24831462.906    24831465.562
 -24454466.26749 -19055422.28447  20217487.759    20217488.549
    190167.00348                  25082691.742
 02  1 11  1 54 30.0000000  0  7G13G 3G 1G27G22G20G25
 -13888634.44949 -10822307.26946  22450004.713    22450003.174
  -1803998.85948                  24683645.854
 -23818774.81049 -18560077.91947  20572239.987    20572240.593
  -3657381.44348  -2849907.85944  24815921.695    24815922.325
 -24435517.47249 -19040657.01347  20221093.746    20221094.444
 -20184072.20149 -15727847.06346  21502196.319    21502196.884
  -8323262.42348  -6485658.37345  23491858.389    23491860.812
 02  1 11  1 55  0.0000000  0  7G13G20G 3G 1G27G22G25
 -13971698.45749 -10887032.46146  22434196.809    22434195.748
 -20112543.93449 -15672110.80546  21515807.406    21515807.928
  -1894222.75148                  24666477.175
 -23854712.67649 -18588081.47147  20565401.336    20565402.119
  -3738992.16348  -2913500.64344  24800390.315    24800394.275
 -24415929.15449 -19025393.41647  20224821.308    20224822.140
  -8243095.07848  -6423190.51045  23507114.418    23507117.256
 02  1 11  1 55 30.0000000  0  7G13G20G 3G 1G27G22G25
 -14054623.37449 -10951649.27046  22418417.915    22418417.313
 -20040570.19549 -15616027.42746  21529503.681    21529504.727
  -1984443.10048                  24649308.743
 -23890341.32849 -18615844.07347  20558621.389    20558622.039
  -3820547.33448  -2977050.09544  24784871.728    24784872.197
 -24395716.90449 -19009643.64147  20228667.618    20228668.290
  -8162876.82748  -6360682.98245  23522379.653    23522381.960
 02  1 11  1 56  0.0000000  0  7G13G20G 3G 1G27G22G25
 -14137395.43849 -11016146.98446  22402666.098    22402665.379
 -19968141.18749 -15559589.29546  21543286.547    21543287.170
  -2074644.89448                  24632143.318
 -23925647.05049 -18643355.04747  20551902.740    20551903.472
  -3902034.30048  -3040546.41644  24769364.507    24769366.547
 -24374869.53849 -18993398.96947  20232634.816    20232635.607
  -8082595.67948  -6298126.45045  23537656.123    23537661.276
 02  1 11  1 56 30.0000000  0  7G13G20G 3G 1G27G22G25
 -14219996.00549 -11080511.05646  22386948.356    22386947.175
 -19895242.39549 -15502785.10246  21557158.665    21557159.291
  -2164808.24748                  24614986.604
 -23960611.38649 -18670600.01047  20545249.651    20545250.242
  -3983436.01848  -3103976.24344  24753873.682    24753876.850
 -24353371.29549 -18976647.12047  20236725.711    20236726.324
  -8002236.02648  -6235508.76745  23552949.245    23552949.951
 02  1 11  1 57  0.0000000  0  7G 3G 1G27G13G22G20G25
  -2254925.65248                  24597837.562
 -23995228.37749 -18697574.31547  20538662.360    20538662.923
  -4064747.64748  -3167335.92844  24738401.156    24738404.740
 -14302418.79649 -11144736.60146  22371264.265    22371263.124
 -24331218.97649 -18959385.60947  20240940.974    20240941.876
 -19821871.79649 -15445613.26146  21571120.943    21571121.296
  -7921793.68248  -6172826.65645  23568256.541    23568258.173
 02  1 11  1 57 30.0000000  0  7G13G 3G 1G27G22G20G25
 -14384677.57649 -11208834.34446  22355609.489    22355609.208
  -2345009.42248                  24580695.488
 -24029512.01249 -18724288.85947  20532138.224    20532138.699
  -4145984.50748  -3230637.32244  24722942.289    24722945.660
 -24308429.33949 -18941627.48647  20245277.706    20245278.540
 -19748047.14649 -15388087.61646  21585169.027    21585169.811
  -7841284.70948  -6110092.60845  23583576.636    23583580.176
 02  1 11  1 58  0.0000000  0  7G13G 3G 1G27G22G20G25
 -14466786.60749 -11272815.40646  22339986.330    22339984.450
  -2435072.56848                  24563556.354
 -24063476.76149 -18750754.92447  20525675.048    20525675.619
  -4227162.30348  -3293892.70244  24707495.876    24707495.408
 -24285019.35749 -18923385.97847  20249732.620    20249733.296
 -19673786.90149 -15330222.54646  21599300.315    21599300.913
  -7760725.77848  -6047319.65145  23598907.615    23598910.747
 02  1 11  1 58 30.0000000  0  7G13G 3G 1G27G22G20G25
 -14548729.76949 -11336667.21846  22324391.481    22324390.912
  -2525097.76748                  24546425.079
 -24097106.51749 -18776959.95547  20519275.632    20519276.153
  -4308266.08548  -3357090.42744  24692060.398    24692064.856
 -24260975.97549 -18904650.91247  20254308.010    20254308.792
 -19599078.96449 -15272008.62646  21613516.813    21613517.558
  -7680103.11648  -5984497.04045  23614249.320    23614251.153
 02  1 11  1 59  0.0000000  0  7G13G 3G 1G27G22G20G25
 -14630498.94849 -11400383.46846  22308831.599    22308830.813
  -2615075.49748                  24529302.834
 -24130393.38849 -18802897.80247  20512941.208    20512941.753
  -4389289.22448  -3420225.32244  24676643.516    24676647.684
 -24236293.99349 -18885418.23747  20259004.821    20259005.668
 -19523919.57649 -15213442.93046  21627819.466    21627820.604
  -7599411.28648  -5921620.51245  23629604.541    23629606.150
 02  1 11  1 59 30.0000000  0  7G13G 3G 1G27G22G20G25
 -14712104.50349 -11463972.21246  22293303.866    22293302.604
  -2705014.87948                  24512188.293
 -24163348.13149 -18828576.85347  20506670.130    20506670.631
  -4470243.49048                  24661238.479
 -24210986.75449 -18865698.35147  20263820.594    20263821.325
 -19448323.19749 -15154536.72446  21642204.781    21642205.713
  -7518662.63248  -5858699.72945  23644971.013    23644974.119
 02  1 11  2  0  0.0000000  0  7G13G 3G 1G27G22G20G25
 -14793552.87249 -11527438.48046  22277802.837    22277802.668
  -2794921.28148                  24495078.409
 -24195977.50549 -18854002.36947  20500461.064    20500461.622
  -4551137.04948  -3546340.40844  24645843.174    24645847.304
 -24185063.92149 -18845498.78547  20268753.579    20268754.443
 -19372300.63949 -15095298.43446  21656671.811    21656672.465
  -7437866.30948  -5795741.80545  23660345.735    23660349.044
 02  1 11  2  0 30.0000000  0  7G13G 3G 1G27G22G20G25
 -14874811.10349 -11590756.57546  22262341.075    22262339.501
  -2884760.36948                  24477983.812
 -24228248.58849 -18879148.69447  20494319.817    20494320.291
  -4631938.38048  -3609302.41944  24630466.687    24630470.334
 -24158495.60949 -18824796.24347  20273809.445    20273810.398
 -19295823.22149 -15035705.70146  21671224.738    21671225.646
  -7356991.34348  -5732722.60545  23675736.762    23675738.150
 02  1 11  2  1  0.0000000  0  7G13G 3G 1G27G22G20G25
 -14955905.53849 -11653947.06046  22246909.187    22246907.920
  -2974556.89948                  24460895.072
 -24260188.01749 -18904036.58847  20488241.840    20488242.403
  -4712224.06547                  24615105.899
 -24131311.22349 -18803613.64647  20278982.567    20278983.530
 -19218921.41849 -14975782.28246  21685859.045    21685859.703
  -7276066.43148  -5669664.47145  23691136.184    23691138.692
 02  1 11  2  1 30.0000000  0  6G13G 3G20G25G 1G22
 -15036829.11949 -11717004.39546  22231509.288    22231508.711
  -3064302.97548                  24443817.330
 -19141592.52349 -14915526.07146  21700574.184    21700574.790
  -7195087.36948  -5606564.18545  23706546.423    23706549.486
 -24291789.03249 -18928660.78247  20482228.465    20482229.168
 -24103506.72949 -18781947.85147  20284273.728    20284274.499
 02  1 11  2  2  0.0000000  0  6G13G 3G 1G22G20G25
 -15117561.01849 -11779912.37146  22216147.366    22216146.408
  -3153976.41548                  24426753.345
 -24323031.15149 -18953005.31747  20476283.717    20476284.320
 -24075064.63849 -18759785.22847  20289685.863    20289686.785
 -19063819.98349 -14854924.15246  21715373.742    21715374.830
  -7114035.37848  -5543407.06645  23721970.202    23721971.651
 02  1 11  2  2 30.0000000  0  7G13G 3G 1G27G22G20G25
 -15198119.01049 -11842684.83946  22200817.014    22200816.610
  -3243593.86748  -2527472.11844  24409698.621    24409706.812
 -24353932.62949 -18977084.42047  20470403.301    20470403.865
         -.78958         2.41256  24569100.505    24569100.034
 -24046006.04449 -18737142.21347  20295215.314    20295216.395
 -18985625.99049 -14793993.83846  21730253.673    21730254.463
  -7032931.09248  -5480209.15545  23737404.556    23737405.947
 02  1 11  2  3  0.0000000  0  7G13G 3G 1G27G22G20G25
 -15278499.88249 -11905319.28146  22185521.489    22185520.392
  -3333150.56948                  24392657.199
 -24384490.35749 -19000895.66447  20464588.299    20464588.810
    -80436.36748    -62680.95145  24553793.727    24553792.555
 -24016330.84749 -18714018.73347  20300862.399    20300863.402
 -18907011.64649 -14732735.97846  21745213.503    21745214.520
  -6951773.12248  -5416969.46745  23752847.587    23752849.585
 02  1 11  2  3 30.0000000  0  7G13G 3G 1G27G22G20G25
 -15358699.77749 -11967812.71246  22170259.855    22170259.305
  -3422641.58848                  24375628.044
 -24414700.68349 -19024436.21147  20458839.713    20458840.195
   -160797.86548                  24538501.548
 -23986038.35849 -18690414.24647  20306626.993    20306628.040
 -18827977.30149 -14671150.84446  21760253.535    21760254.504
  -6870560.20948  -5353686.97945  23768301.898    23768306.104
 02  1 11  2  4  0.0000000  0  7G13G 3G 1G27G22G20G25
 -15438717.80149 -12030164.42446  22155032.208    22155031.813
  -3512064.65448                  24358611.171
 -24444563.10949 -19047705.66747  20453156.989    20453157.588
   -241085.89148   -187865.50944  24523223.243    24523222.973
 -23955131.18549 -18666330.78647  20312508.338    20312509.425
 -18748526.54949 -14609241.23146  21775372.147    21775373.297
  -6789293.93848  -5290362.91245  23783767.722    23783769.257
 02  1 11  2  4 30.0000000  0  8G13G 3G 1G27G22G20G 2G25
 -15518556.02549 -12092376.03146  22139840.315    22139838.584
  -3601420.67648                  24341607.807
 -24474080.17749 -19070706.01147  20447539.853    20447540.494
   -321304.11048   -250373.18244  24507957.888    24507961.104
 -23923614.56349 -18641772.43047  20318505.931    20318506.812
 -18668665.88149 -14547012.21446  21790569.321    21790570.372
         -.79057                  24897925.498
  -6707978.75148  -5227000.69745  23799240.450    23799243.646
 02  1 11  2  5  0.0000000  0  8G13G 3G 1G27G22G20G 2G25
 -15598206.28849 -12154441.18146  22124682.841    22124682.447
  -3690700.14548                  24324618.380
 -24503243.84649 -19093430.98247  20441990.232    20441990.902
   -401445.84748   -312821.21344  24492707.825    24492710.981
 -23891483.77949 -18616735.50947  20324620.508    20324621.415
 -18588391.59049 -14484460.89446  21805844.993    21805845.988
    -99804.50247                  24878933.157
  -6626608.78148  -5163595.82844  23814725.145    23814728.629
 02  1 11  2  5 30.0000000  0  8G13G 3G 1G27G22G20G 2G25
 -15677667.09149 -12216358.69346  22109562.677    22109561.665
  -3779900.36648  -2945373.46244  24307644.077    24307652.268
 -24532052.94049 -19115879.66147  20436508.019    20436508.663
   -481511.18848   -375209.76344  24477472.451    24477476.025
 -23858740.68749 -18591221.46647  20330851.470    20330852.243
 -18507706.42449 -14421589.41146  21821199.105    21821200.235
   -199529.20448                  24859956.596
  -6545184.76048  -5100148.83644  23830220.695    23830222.402
 02  1 11  2  6  0.0000000  0  8G13G 3G 1G27G22G20G 2G25
 -15756927.01649 -12278119.68746  22094479.865    22094479.065
  -3869008.83448                  24290686.788
 -24560496.69649 -19138043.66047  20431095.560    20431096.200
   -561490.41748   -437531.16244  24462252.390    24462256.030
 -23825377.43949 -18565224.18747  20337200.186    20337201.123
 -18426603.79149 -14358392.62646  21836632.285    21836633.413
   -299163.49248                  24840996.476
  -6463697.95648  -5036652.69944  23845725.597    23845726.277
 02  1 11  2  6 30.0000000  0  7G13G 3G 1G27G22G20G25
 -15835991.68949 -12339728.53446  22079433.896    22079432.890
  -3958029.57548  -3084175.51244  24273746.884    24273753.317
 -24588580.51149 -19159927.18847  20425751.796    20425752.397
   -641390.24748   -499790.73644  24447047.926    24447051.422
 -23791402.67749 -18538750.40347  20343665.487    20343666.410
 -18345093.15949 -14294877.92346  21852143.137    21852144.994
  -6382156.16848  -4973113.15445  23861243.676    23861244.638
 02  1 11  2  7  0.0000000  0  8G13G20G 3G 1G27G22G 2G25
 -15914857.48749 -12401182.41046  22064426.805    22064425.653
 -18263175.92149 -14231046.39046  21867731.517    21867732.898
  -4046958.22048                  24256824.322
 -24616301.76549 -19181528.20047  20420476.581    20420477.205
   -721209.09048   -561987.18744  24431859.307    24431864.306
 -23756816.81949 -18511800.44447  20350247.104    20350247.926
        -1.13758                  24803126.394
  -6300558.32448  -4909530.80444  23876772.259    23876776.069
 02  1 11  2  7 30.0000000  0  8G13G20G 3G 1G27G22G 2G25
 -15993532.89449 -12462487.93246  22049454.940    22049454.238
 -18180864.92549 -14166908.03346  21883394.746    21883396.161
  -4135801.71748  -3222699.28144  24239917.990    24239923.744
 -24643669.15249 -19202853.47347  20415268.626    20415269.260
   -800956.93648   -624128.32545  24416683.650    24416686.736
 -23721631.48049 -18484383.35447  20356942.666    20356943.513
    -99381.95148                  24784215.149
  -6218915.33248  -4845913.20544  23892307.297    23892313.319
 02  1 11  2  8  0.0000000  0  8G13G20G 3G 1G27G22G 2G25
 -16072001.38549 -12523632.22846  22034522.924    22034521.789
 -18098148.03149 -14102453.39846  21899135.525    21899137.167
  -4224542.29948                  24223031.468
 -24670666.39849 -19223890.32547  20410131.198    20410131.836
   -880618.87948   -686202.53544  24401524.348    24401524.843
 -23685833.81349 -18456489.12947  20363754.659    20363755.637
   -198666.23547                  24765321.322
  -6137212.98148  -4782249.38545  23907855.814    23907859.232
 02  1 11  2  8 30.0000000  0  8G13G20G 3G 1G27G22G 2G25
 -16150255.89949 -12584609.78346  22019632.192    22019631.071
 -18015022.83449 -14037680.60246  21914954.063    21914955.154
  -4313171.69048                  24206165.470
 -24697286.97249 -19244633.66647  20405065.386    20405066.152
   -960189.29148   -748205.41944  24386382.469    24386385.559
 -23649420.23549 -18428114.97147  20370683.837    20370684.873
   -297846.77047                  24746448.331
  -6055446.35148  -4718535.44444  23923416.545    23923419.091
 02  1 11  2  9  0.0000000  0  8G13G20G 3G 1G27G22G 2G25
 -16228308.64549 -12645430.12546  22004778.667    22004777.491
 -17931506.13449 -13972602.74146  21930846.514    21930847.431
  -4401700.86848                  24189318.938
 -24723543.48749 -19265093.32347  20400068.886    20400069.481
  -1039682.06248   -810147.82544  24371256.383    24371259.551
 -23612406.58449 -18399273.22647  20377727.592    20377728.470
   -396936.04547                  24727591.569
  -5973630.64148  -4654783.32045  23938984.034    23938990.597
 02  1 11  2  9 30.0000000  0  8G13G20G 3G 1G27G22G 2G25
 -16306168.18249 -12706099.90646  21989962.636    21989961.685
 -17847610.95049 -13907229.95846  21946811.850    21946812.863
  -4490137.03848                  24172491.118
 -24749444.91449 -19285276.29347  20395139.930    20395140.661
  -1119107.58048   -872037.77344  24356140.614    24356143.781
 -23574804.98449 -18369973.34047  20384882.982    20384883.987
   -495942.77247                  24708751.706
  -5891776.47448  -4591001.19145  23954561.731    23954565.259
 02  1 11  2 10  0.0000000  0  7G13G 3G 1G27G22G20G25
 -16383826.17949 -12766612.64946  21975184.906    21975183.560
  -4578470.86148  -3567636.28444  24155680.609    24155685.261
 -24774983.32649 -19305176.39247  20390280.355    20390281.091
  -1198459.01548   -933870.06144  24341041.669    24341042.464
 -23536610.73849 -18340211.65347  20392150.818    20392151.903
 -17763333.69749 -13841559.46146  21962849.015    21962850.806
  -5809877.92248  -4527184.47645  23970146.911    23970150.066
 02  1 11  2 10 30.0000000  0  7G13G20G 3G 1G27G22G25
 -16461284.37349 -12826969.69546  21960444.771    21960444.629
 -17678680.55549 -13775596.06246  21978958.374    21978959.240
  -4666702.66448  -3636388.36844  24138891.613    24138896.275
 -24800160.83849 -19324795.27047  20385489.310    20385489.956
  -1277739.69148   -995647.20644  24325954.984    24325956.032
 -23497829.24549 -18309992.37147  20399530.488    20399531.525
  -5727938.61048  -4463336.03145  23985738.908    23985742.952
 02  1 11  2 11  0.0000000  0  8G13G20G 3G 1G27G22G 2G25
 -16538538.87849 -12887168.03346  21945744.379    21945743.174
 -17593652.18849 -13709340.28946  21995138.288    21995139.633
  -4754827.54148  -3705057.12444  24122121.418    24122131.098
 -24824973.98149 -19344130.23047  20380767.636    20380768.251
  -1356947.32848  -1057367.39644  24310882.166    24310883.350
 -23458460.35649 -18279315.38047  20407022.514    20407023.572
         -.19957                  24652333.033
  -5645957.72548  -4399455.19145  24001340.804    24001346.728
 02  1 11  2 11 30.0000000  0  8G13G20G 3G 1G27G22G 2G25
 -16615587.37349 -12947205.84146  21931081.984    21931081.232
 -17508251.15149 -13642794.11646  22011389.977    22011391.350
  -4842842.14348  -3773639.93444  24105372.908    24105380.112
 -24849420.93949 -19363179.84647  20376115.577    20376116.203
  -1436081.25348  -1119030.20444  24295823.360    24295824.973
 -23418505.43849 -18248181.74647  20414625.806    20414626.913
    -98638.92147                  24633563.733
  -5563935.10548  -4335541.84245  24016949.004    24016953.215
 02  1 11  2 12  0.0000000  0  8G13G20G 3G 1G27G22G 2G25
 -16692420.04549 -13007075.47446  21916461.807    21916460.399
 -17422471.99849 -13575953.31846  22027713.006    22027714.700
  -4930735.03748  -3842127.93244  24088647.620    24088657.052
 -24873492.09449 -19381936.63247  20371535.058    20371535.714
  -1515133.16248  -1180629.09044  24280779.861    24280781.025
 -23377958.21349 -18216586.57347  20422341.488    20422342.817
   -197172.30347                  24614813.294
  -5481863.11748  -4271590.00045  24032566.234    24032569.277
 02  1 11  2 12 30.0000000  0  8G13G20G 3G 1G27G22G 2G25
 -16769032.70149 -13066773.66446  21901882.429    21901881.912
 -17336315.31849 -13508818.34346  22044108.163    22044109.412
  -5018500.86448  -3910516.90744  24071945.074    24071952.304
 -24897184.16349 -19400398.02347  20367026.678    20367027.309
  -1594100.73948  -1242162.25944  24265752.712    24265753.093
 -23336818.52549 -18184529.74047  20430170.009    20430171.416
   -295596.84047                  24596082.974
  -5399740.58648  -4207598.80145  24048195.507    24048198.746
 02  1 11  2 13  0.0000000  0  8G13G20G 3G 1G27G22G 2G25
 -16845429.93649 -13126304.00146  21887344.412    21887343.561
 -17249790.11749 -13441396.21246  22060573.746    22060574.949
  -5106142.91648  -3978809.44344  24055269.386    24055273.209
 -24920501.89449 -19418567.72847  20362589.436    20362589.881
  -1672990.06148  -1303634.47444  24250740.792    24250743.169
 -23295094.41849 -18152017.51747  20438109.807    20438111.178
   -393917.17948                  24577374.341
  -5317573.91848  -4143573.20445  24063830.483    24063835.697
 02  1 11  2 13 30.0000000  0  8G13G20G 3G 1G27G22G 2G25
 -16921607.82449 -13185663.42446  21872848.938    21872847.756
 -17162897.60049 -13373687.85546  22077108.577    22077109.839
  -5193656.41348  -4047001.78244  24038615.087    24038621.947
 -24943442.21549 -19436443.35047  20358223.938    20358224.518
  -1751799.20848  -1365044.19544  24235744.203    24235744.026
 -23252786.26949 -18119050.19647  20446160.991    20446162.214
   -492129.65548                  24558684.851
  -5235361.98848  -4079512.36545  24079475.681    24079481.964
 02  1 11  2 14  0.0000000  0  8G13G20G 3G 1G27G22G 2G25
 -16997565.05649 -13244850.90646  21858394.056    21858393.346
 -17075640.95849 -13305695.76946  22093713.487    22093715.292
  -5281038.69148  -4115091.89144  24021987.056    24021991.753
 -24966004.13949 -19454024.11647  20353930.455    20353931.144
  -1830528.29748  -1426391.51744  24220762.305    24220765.117
 -23209896.39849 -18085629.58647  20454322.739    20454324.034
   -590233.06348                  24540016.406
  -5153105.87548  -4015417.10445  24095128.994    24095133.120
 02  1 11  2 14 30.0000000  0  8G13G20G 3G 1G27G22G 2G25
 -17073293.56649 -13303860.15646  21843983.890    21843982.821
 -16988016.45749 -13237417.04146  22110387.718    22110389.628
  -5368280.12248  -4183072.29944  24005385.773    24005393.437
 -24988179.84149 -19471303.92947  20349710.511    20349711.095
  -1909170.58848  -1487671.24844  24205797.819    24205798.523
 -23166420.21949 -18051752.11347  20462595.883    20462597.329
   -688219.16848                  24521370.644
  -5070799.55148  -3951282.71444  24110791.082    24110794.375
 02  1 11  2 15  0.0000000  0  8G13G20G 3G 1G27G22G 2G25
 -17148794.63849 -13362692.19046  21829616.112    21829615.176
 -16900030.67749 -13168856.80546  22127130.739    22127131.856
  -5455381.57248                  23988810.781
 -25009971.52449 -19488284.51047  20345563.763    20345564.371
  -1987729.63348  -1548886.07744  24190847.746    24190850.843
 -23122363.38549 -18017422.18547  20470979.744    20470981.184
   -786089.91848   -612537.25644  24502746.190    24502752.525
  -4988447.09848  -3887112.36945  24126462.564    24126469.158
 02  1 11  2 15 30.0000000  0  8G13G20G 3G 1G27G22G 2G25
 -17224059.65049 -13421340.28346  21815293.998    21815292.942
 -16811679.72349 -13100012.01546  22143943.447    22143944.669
  -5542332.67648  -4318697.80444  23972264.170    23972273.602
 -25031371.03349 -19504959.49947  20341491.788    20341492.440
  -2066198.41548  -1610030.57244  24175915.387    24175919.020
 -23077721.23949 -17982636.16647  20479474.950    20479476.526
   -883836.56048                  24484145.965
  -4906042.05148  -3822901.04544  24142144.383    24142147.742
 02  1 11  2 16  0.0000000  0  8G13G20G 3G 1G27G22G 2G25
 -17299104.98249 -13479817.19346  21801013.619    21801012.992
 -16722984.41349 -13030898.89146  22160821.690    22160823.586
  -5629148.85248  -4386346.73944  23955743.999    23955749.917
 -25052395.21649 -19521342.02047  20337491.182    20337491.774
  -2144594.93048  -1671118.75644  24160996.735    24161001.168
 -23032513.85949 -17947409.70847  20488077.693    20488079.401
   -981475.64348                  24465565.174
  -4823603.40748  -3758663.56645  24157832.117    24157835.400
 02  1 11  2 16 30.0000000  0  8G13G20G 3G 1G27G22G 2G25
 -17373930.11049 -13538122.52046  21786774.354    21786773.832
 -16633949.22249 -12961520.92446  22177764.812    22177766.406
  -5715828.16848                  23939248.527
 -25073044.00349 -19537432.03047  20333561.943    20333562.549
  -2222920.23248  -1732151.46844  24146092.000    24146094.570
 -22986744.75449 -17911745.54347  20496787.257    20496788.829
  -1079006.98148                  24447005.515
  -4741132.85748  -3694401.23045  24173525.467    24173532.840
 02  1 11  2 17  0.0000000  0  8G13G20G 3G 1G27G22G 2G25
 -17448531.65349 -13596253.62946  21772578.546    21772577.036
 -16544575.11949 -12891878.88546  22194772.202    22194773.847
  -5802365.81448  -4521321.12844  23922781.580    23922789.011
 -25093314.64649 -19553227.38547  20329704.433    20329705.166
  -2301172.45848  -1793127.20744  24131201.731    24131202.542
 -22940414.30749 -17875643.96747  20505603.621    20505605.248
  -1176427.11148                  24428468.186
  -4658629.25748  -3630113.15745  24189226.467    24189230.405
 02  1 11  2 17 30.0000000  0  8G13G20G 3G 1G27G22G 2G25
 -17522901.44349 -13654204.14546  21758426.661    21758425.145
 -16454858.86649 -12821970.22046  22211844.636    22211846.415
  -5888752.95848  -4588635.78144  23906342.789    23906350.980
 -25113199.53749 -19568722.15447  20325920.504    20325921.170
  -2379345.25648  -1854041.07444  24116324.611    24116327.001
 -22893518.42249 -17839101.79147  20514527.835    20514529.551
  -1273728.22348                  24409950.870
  -4576087.14748  -3565795.07144  24204933.691    24204939.612
 02  1 11  2 18  0.0000000  0  8G13G20G 3G 1G27G22G 2G25
 -17597027.49749 -13711964.74046  21744320.495    21744319.687
 -16364793.48349 -12751789.50646  22228983.537    22228985.575
  -5974976.36048  -4655822.87344  23889934.703    23889941.787
 -25132687.31949 -19583907.48447  20322212.432    20322213.036
  -2457428.49248  -1914885.10244  24101466.928    24101468.535
 -22846049.22749 -17802112.88047  20523560.919    20523562.439
  -1370898.67148                  24391461.626
  -4493496.93148  -3501439.52245  24220650.602    24220655.886
 02  1 11  2 18 30.0000000  0  8G13G20G 3G 1G27G22G 2G25
 -17670907.11649 -13769533.31046  21730261.895    21730260.922
 -16274381.01149 -12681338.33445  22246188.730    22246190.125
  -6061031.96448                  23873558.645
 -25151775.94049 -19598781.78147  20318580.101    20318580.698
  -2535421.15848  -1975658.61244  24086625.599    24086625.651
 -22798008.03849 -17764678.26147  20532702.987    20532704.735
  -1467935.82648                  24372994.750
  -4410858.34148  -3437046.25445  24236376.871    24236381.259
 02  1 11  2 19  0.0000000  0  8G13G20G 3G 1G27G22G 2G25
 -17744540.72549 -13826910.18446  21716250.122    21716249.185
 -16183626.62449 -12610620.75845  22263458.239    22263460.307
  -6146919.08548  -4789804.25244  23857215.539    23857222.900
 -25170466.43549 -19613345.84847  20315023.353    20315024.103
  -2613325.32948  -2036363.11544  24071800.498    24071802.538
 -22749399.34249 -17726801.42947  20541953.119    20541954.781
  -1564840.24848                  24354556.014
  -4328174.41048  -3372617.71244  24252110.401    24252118.065
 02  1 11  2 19 30.0000000  0  8G13G20G 3G 1G27G22G 2G25
 -17817944.22749 -13884107.75446  21702281.695    21702280.999
 -16092551.08849 -12539652.92345  22280789.807    22280791.612
  -6232652.35448  -4856609.35644  23840900.642    23840909.081
 -25188775.26349 -19627612.51847  20311539.271    20311540.113
  -2691158.55248  -2097012.39245  24056989.780    24056992.826
 -22700243.04949 -17688497.90247  20551307.541    20551309.223
  -1661628.10948                  24336136.951
  -4245462.80148  -3308167.57545  24267851.971    24267855.195
 02  1 11  2 20  0.0000000  0  8G13G20G 3G 1G27G22G 2G25
 -17891096.40849 -13941109.48846  21688361.461    21688360.977
 -16001138.08849 -12468422.12745  22298185.294    22298186.804
  -6318209.59648  -4923277.37444  23824619.856    23824627.225
 -25206681.83749 -19641565.74547  20308131.706    20308132.657
  -2768901.39648  -2157591.18744  24042196.215    24042196.512
 -22650521.95049 -17649754.26447  20560768.998    20560770.575
  -1758278.46548                  24317745.878
  -4162704.75148  -3243681.23245  24283599.938    24283605.793
 02  1 11  2 20 30.0000000  0  8G13G20G 3G 1G27G22G 2G25
 -17964009.94749 -13997925.26746  21674486.413    21674485.395
 -15909405.10949 -12396942.01645  22315641.990    22315644.185
  -6403602.51248  -4989817.32044  23808370.233    23808378.672
 -25224199.51549 -19655215.93947  20304798.084    20304799.113
  -2846568.37048  -2218110.91144  24027416.583    24027417.119
 -22600253.16149 -17610583.85747  20570335.032    20570336.584
  -1854804.26648                  24299377.232
  -4079915.76548  -3179170.83144  24299353.615    24299362.799
 02  1 11  2 21  0.0000000  0  8G13G20G 3G 1G27G22G 2G25
 -18036678.63549 -14054550.25946  21660657.767    21660656.787
 -15817350.73449 -12325211.46345  22333158.578    22333161.144
  -6488823.19448  -5056223.04644  23792153.223    23792162.407
 -25241322.66249 -19668558.70247  20301539.705    20301540.784
  -2924155.04948  -2278568.03245  24012651.749    24012654.908
 -22549434.44749 -17570984.93747  20580005.435    20580007.066
  -1951199.41048                  24281033.747
  -3997092.19248  -3114633.47445  24315116.634    24315123.091
 02  1 11  2 21 30.0000000  0  8G13G20G 3G 1G27G22G 2G25
 -18109098.96349 -14110981.71546  21646876.909    21646876.402
 -15724976.33449 -12253231.52845  22350737.363    22350739.419
  -6573867.27548  -5122491.13744  23775969.715    23775978.899
 -25258048.58049 -19681591.93647  20298356.891    20298358.025
  -3001659.68848  -2338961.23345  23997903.664    23997905.444
 -22498066.40149 -17530957.97047  20589780.779    20589782.562
  -2047460.82248                  24262716.155
  -3914232.71948  -3050068.11845  24330882.782    24330890.007
 02  1 11  2 22  0.0000000  0  8G13G20G 3G 1G27G22G 2G25
 -18181246.73149 -14167200.79246  21633147.306    21633146.638
 -15632262.65448 -12180987.22345  22368379.851    22368382.587
  -6658709.58948  -5188602.05244  23759825.276    23759829.880
 -25274353.88649 -19694297.42347  20295253.944    20295255.056
  -3079059.87448  -2399273.06844  23983173.694    23983174.939
 -22446129.28149 -17490487.56947  20599664.144    20599665.722
  -2143564.69948                  24244427.891
  -3831315.25648  -2985457.64945  24346662.404    24346669.835
 02  1 11  2 22 30.0000000  0  8G13G20G 3G 1G27G22G 2G25
 -18253154.38049 -14223232.76346  21619464.318    21619463.169
 -15539246.81648 -12108507.49345  22386080.768    22386083.441
  -6743381.11848  -5254579.83944  23743712.629    23743720.332
 -25290271.13549 -19706700.53047  20292225.154    20292226.279
  -3156389.35548  -2459529.79745  23968460.467    23968461.556
 -22393659.24049 -17449601.90547  20609648.716    20609650.292
  -2239543.19948                  24226163.371
  -3748375.17548  -2920829.51145  24362446.791    24362453.624
 02  1 11  2 23  0.0000000  0  8G13G20G 3G 1G27G22G 2G25
 -18324813.98649 -14279071.46246  21605827.571    21605826.909
 -15445926.14348 -12035790.21345  22403839.223    22403840.595
  -6827872.94448  -5320417.66844  23727634.040    23727641.001
 -25305793.46449 -19718795.90947  20289271.585    20289272.687
  -3233642.32748  -2519726.89544  23953757.979    23953761.505
 -22340652.98449 -17408298.41147  20619735.163    20619736.966
  -2335389.33048                  24207925.392
  -3665407.06148  -2856179.54745  24378233.991    24378242.430
 02  1 11  2 23 30.0000000  0  7G13G 3G 1G27G22G20G25
 -18396223.07549 -14334714.94546  21592239.156    21592238.528
  -6912181.35648  -5386112.50944  23711591.536    23711595.363
 -25320919.00349 -19730582.10147  20286393.338    20286394.544
  -3310818.14648  -2579863.88745  23939072.620    23939073.466
 -22287112.06149 -17366578.29447  20629924.034    20629925.800
 -15352302.75848 -11962837.05645  22421655.058    22421656.389
  -3582410.26748  -2791507.24544  24394028.732    24394035.866
 02  1 11  2 24  0.0000000  0  7G13G20G 3G 1G27G22G25
 -18467373.06349 -14390156.53646  21578699.484    21578698.929
 -15258373.22548 -11889645.34245  22439529.650    22439531.653
  -6996296.89648  -5451657.11244  23695585.112    23695591.984
 -25335639.95649 -19742053.03147  20283592.043    20283593.226
  -3387909.93248  -2639935.40045  23924402.830    23924401.957
 -22233032.32449 -17324438.32447  20640215.054    20640216.881
  -3499378.88048  -2726807.95845  24409830.344    24409834.794
 02  1 11  2 24 30.0000000  0  7G13G 3G 1G27G22G20G25
 -18538263.92249 -14445396.21146  21565209.451    21565208.802
  -7080218.15948  -5517050.30745  23679614.184    23679620.001
 -25349956.89449 -19753209.14747  20280867.678    20280868.803
  -3464919.21348  -2699942.64945  23909747.389    23909750.301
 -22178417.80049 -17281881.64247  20650608.004    20650609.894
 -15164142.35548 -11816218.82045  22457460.817    22457463.314
  -3416315.17748  -2662083.53244  24425635.462    24425646.880
 02  1 11  2 25  0.0000000  0  7G13G20G 3G 1G27G22G25
 -18608878.41849 -14500420.53946  21551772.385    21551771.873
 -15069597.69348 -11742547.80345  22475452.644    22475454.987
  -7163926.67448  -5582277.76944  23663686.283    23663692.447
 -25363853.15649 -19764037.46247  20278223.420    20278224.611
  -3541830.59248  -2759873.56045  23895113.406    23895114.772
 -22123255.46949 -17238898.09947  20661105.080    20661106.805
  -3333204.13748  -2597322.20345  24441451.942    24441460.878
 02  1 11  2 25 30.0000000  0  7G13G20G 3G 1G27G22G25
 -18679240.69849 -14555248.33546  21538382.566    21538382.120
 -14974768.43248 -11668655.00245  22493498.271    22493500.508
  -7247445.78948  -5647357.60345  23647792.684    23647798.694
 -25377354.18349 -19774557.80247  20275654.316    20275655.496
  -3618670.32548  -2819748.69944  23880490.184    23880491.429
 -22067574.09249 -17195510.10347  20671700.887    20671702.937
  -3250072.78048  -2532545.03445  24457272.601    24457278.602
 02  1 11  2 26  0.0000000  0  7G13G20G 3G 1G27G22G25
 -18749329.89549 -14609863.35146  21525045.709    21525045.191
 -14879638.61248 -11594528.00045  22511600.415    22511602.696
  -7330753.18348  -5712272.46945  23631940.772    23631948.169
 -25390439.56949 -19784754.26647  20273164.352    20273165.355
  -3695419.14848  -2879552.95645  23865885.754    23865885.789
 -22011357.00649 -17151704.67647  20682398.773    20682400.749
  -3166902.52548  -2467737.60645  24473098.748    24473108.428
 02  1 11  2 26 30.0000000  0  7G13G 3G 1G27G22G20G25
 -18819148.53149 -14664267.53646  21511759.312    21511758.139
  -7413850.46948  -5777023.62145  23616126.653    23616134.405
 -25403112.67249 -19794629.47147  20270752.803    20270754.040
  -3772081.24048  -2939289.65344  23851297.082    23851299.634
 -21954611.10549 -17107487.18547  20693197.243    20693199.166
 -14784215.76148 -11520172.68645  22529759.130    22529762.304
  -3083697.68848  -2402903.22844  24488932.751    24488941.191
 02  1 11  2 27  0.0000000  0  6G13G20G 1G27G22G25
 -18888684.29149 -14718451.29946  21498526.524    21498525.991
 -14688492.55448 -11445583.32645  22547974.408    22547975.901
 -25415361.74949 -19804174.26847  20268421.811    20268422.903
  -3848646.12148  -2998950.59944  23836727.197    23836728.682
 -21897328.27349 -17062851.30947  20704097.958    20704099.755
  -3000448.89548  -2338034.60144  24504774.885    24504785.806
 02  1 11  2 27 30.0000000  0  7G13G20G31G 1G27G22G25
 -18957950.93749 -14772425.36146  21485346.373    21485345.723
 -14592487.71048 -11370774.49745  22566243.783    22566246.429
         -.41358          .28854  25250566.953    25250574.689
 -25427201.43449 -19813400.05647  20266168.790    20266169.874
  -3925129.30848  -3058547.89345  23822173.707    23822174.902
 -21839526.80049 -17017811.30047  20715097.128    20715099.226
  -2917172.38348  -2273144.35644  24520622.617    24520632.794
 02  1 11  2 28  0.0000000  0  6G13G20G27G25G 1G22
 -19026960.64949 -14826199.21846  21472214.452    21472213.597
 -14496218.44848 -11295759.62245  22584563.817    22584566.255
  -4001544.91648  -3118092.53244  23807630.904    23807635.060
  -2833882.57348  -2208243.75044  24536472.073    24536482.746
 -25438644.61149 -19822316.87947  20263991.420    20263992.551
 -21781223.19949 -16972380.02147  20726192.083    20726194.193
 02  1 11  2 28 30.0000000  0  6G13G20G 1G27G22G25
 -19095677.35149 -14879744.75546  21459137.536    21459136.815
 -14399653.57148 -11220514.42345  22602939.038    22602940.851
 -25449656.04949 -19830897.28347  20261895.960    20261897.089
  -4077858.50048  -3177557.67244  23793110.355    23793110.670
 -21722385.82549 -16926532.81447  20737388.655    20737390.689
  -2750545.82448  -2143306.65144  24552331.461    24552340.645
 02  1 11  2 29  0.0000000  0  7G13G20G 1G27G22G 2G25
 -19164127.45949 -14933082.55246  21446112.216    21446111.589
 -14302824.16948 -11145063.09845  22621365.375    22621367.253
 -25460262.95949 -19839162.47347  20259877.571    20259878.646
  -4154098.15548  -3236965.21844  23778600.730    23778602.697
 -21663045.20449 -16880293.47047  20748680.791    20748682.997
          .22657                  23991241.783
  -2667190.57548                  24568193.736
 02  1 11  2 29 30.0000000  0  7G13G20G 1G27G22G 2G25
 -19232304.11849 -14986207.27446  21433138.401    21433137.690
 -14205728.84648 -11069404.55845  22639842.289    22639844.955
 -25470459.54549 -19847107.92947  20257937.141    20257938.169
  -4230259.04748  -3296311.35044  23764108.710    23764109.874
 -21603199.28549 -16833660.38847  20760069.042    20760071.346
    -93894.44148                  23973375.201
  -2583812.77448  -2013385.93844  24584059.812    24584070.734
 02  1 11  2 30  0.0000000  0  8G13G20G31G 1G27G22G 2G25
 -19300188.51349 -15039104.25946  21420220.580    21420219.908
 -14108353.87248 -10993528.12245  22658372.364    22658374.336
         -.10058                  25151745.055
 -25480227.74649 -19854719.58447  20256078.532    20256079.598
  -4306324.24848  -3355582.97445  23749633.915    23749635.792
 -21542833.83449 -16786622.47947  20771556.418    20771558.451
   -187617.38848                  23955539.354
  -2500396.14448  -1948386.55444  24599934.445    24599945.615
 02  1 11  2 30 30.0000000  0  8G13G20G31G 1G27G22G 2G25
 -19367772.11749 -15091766.85446  21407359.926    21407359.233
 -14010695.45348 -10917430.80945  22676956.495    22676958.417
   -104185.87748    -81183.20344  25131917.395    25131925.835
 -25489559.94949 -19861991.50347  20254302.740    20254303.906
  -4382286.96448  -3414774.71545  23735178.590    23735181.641
 -21481944.68649 -16739176.49447  20783143.418    20783145.616
   -281160.32448   -219085.16844  23937739.412    23937743.888
  -2416934.81648  -1883352.35444  24615817.597    24615825.091
 02  1 11  2 31  0.0000000  0  8G13G31G 1G27G22G20G 2G25
 -19435069.09149 -15144206.10646  21394553.852    21394553.261
   -208479.37248                  25112073.038
 -25498471.09749 -19868935.32747  20252607.055    20252608.196
  -4458163.08948  -3473898.97345  23720740.075    23720743.219
 -21420550.23549 -16691336.76847  20794826.217    20794828.483
 -13912773.00648 -10841127.77345  22695590.316    22695591.964
   -374537.92648                  23919970.802
  -2333444.75948                  24631703.839
 02  1 11  2 31 30.0000000  0  8G13G31G 1G27G22G20G 2G25
 -19502079.85949 -15196422.33546  21381802.084    21381801.710
   -312880.22348                  25092206.039
 -25506962.51149 -19875552.08147  20250991.240    20250992.210
  -4533954.93348  -3532957.58445  23706316.804    23706319.323
 -21358655.60449 -16643107.28747  20806604.429    20806606.793
 -13814591.74948 -10764623.07245  22714274.216    22714276.996
   -467750.96448                  23902231.719
  -2249928.84448  -1753219.06544  24647598.050    24647608.971
 02  1 11  2 32  0.0000000  0  8G13G31G 1G27G22G20G 2G25
 -19568812.94449 -15248422.18346  21369103.007    21369102.581
   -417396.37348   -325243.03044  25072316.591    25072323.112
 -25515043.53849 -19881849.05747  20249453.317    20249454.454
  -4609672.52348  -3591958.31445  23691907.918    23691911.267
 -21296273.72449 -16594498.13747  20818475.326    20818477.576
 -13716165.09048 -10687927.15945  22733003.631    22733006.009
   -560808.18148                  23884524.813
  -2166397.77948  -1688130.55244  24663494.401    24663505.074
 02  1 11  2 32 30.0000000  0  8G13G31G 1G27G22G20G 2G25
 -19635252.02449 -15300192.94546  21356460.128    21356459.666
   -522010.55448   -406760.45444  25052409.179    25052415.800
 -25522698.59149 -19887814.10847  20247996.815    20247997.781
  -4685301.27348  -3650889.82345  23677517.429    23677518.620
 -21233392.51849 -16545499.90047  20830441.341    20830443.729
 -13617481.84848 -10611031.29745  22751783.257    22751785.435
   -653693.84648   -509371.27244  23866849.349    23866852.271
  -2082837.66248  -1623019.41844  24679394.606    24679401.253
 02  1 11  2 33  0.0000000  0  8G13G31G 1G27G22G20G 2G25
 -19701402.11749 -15351738.52346  21343872.119    21343871.675
   -626727.49348   -488358.05644  25032482.880    25032488.709
 -25529933.72449 -19893451.94547  20246620.067    20246621.189
  -4760848.41648  -3709757.73845  23663140.130    23663142.218
 -21170021.77549 -16496120.20647  20842500.532    20842502.901
 -13518552.18948 -10533943.43744  22770608.041    22770609.699
   -746413.66148                  23849204.260
  -1999256.21148  -1557891.66844  24695300.994    24695307.739
 02  1 11  2 33 30.0000000  0  8G13G31G 1G27G22G20G 2G25
 -19767251.10049 -15403049.46946  21331341.999    21331341.429
   -731534.37148                  25012538.711
 -25536737.86149 -19898753.94447  20245325.245    20245326.384
  -4836303.60748  -3768554.01545  23648782.411    23648783.550
 -21106154.07849 -16446353.27547  20854654.237    20854656.654
 -13419368.96848 -10456657.96645  22789482.462    22789482.899
   -838955.95248                  23831595.447
  -1915643.80248  -1492739.74444  24711213.718    24711222.654
 02  1 11  2 34  0.0000000  0  8G13G31G 1G27G22G20G 2G25
 -19832800.33349 -15454126.85146  21318868.219    21318867.703
   -836431.77348   -651763.89344  24992576.268    24992583.139
 -25543113.29849 -19903721.88847  20244112.016    20244113.121
  -4911669.91348  -3827281.01745  23634440.645    23634442.561
 -21041795.24749 -16396203.65047  20866901.494    20866903.846
 -13319938.61748 -10379179.96444  22808403.664    22808407.334
   -931322.54248                  23814017.128
  -1832004.28048                  24727128.518
 02  1 11  2 34 30.0000000  0  8G13G31G 1G27G22G20G 2G25
 -19898047.78349 -15504969.07046  21306451.640    21306451.338
   -941416.87648   -733570.46844  24972599.511    24972609.192
 -25549058.80749 -19908354.82347  20242980.737    20242981.760
  -4986947.10848  -3885938.58245  23620115.172    23620117.005
 -20976947.60349 -16345673.12847  20879241.762    20879244.005
 -13220263.91448 -10301511.53844  22827371.694    22827374.092
  -1023512.00648                  23796476.026
  -1748337.50948                  24743051.182
 02  1 11  2 35  0.0000000  0  8G13G31G 1G27G22G20G 2G25
 -19962986.53749 -15555570.75646  21294094.754    21294094.258
  -1046482.08548                  24952606.009
 -25554568.61049 -19912648.24647  20241932.379    20241933.584
  -5062130.12348  -3944522.79045  23605808.853    23605810.384
 -20911609.18349 -16294760.19047  20891675.122    20891677.483
 -13120343.51448 -10223651.65344  22846385.941    22846386.517
  -1115517.81648                  23778966.594
  -1664639.14848                  24758979.408
 02  1 11  2 35 30.0000000  0  8G13G31G 1G27G22G20G 2G25
 -20027624.66549 -15605938.18846  21281794.764    21281794.239
  -1151634.54048                  24932596.309
 -25559651.54749 -19916609.04747  20240965.259    20240966.451
  -5137228.80548  -4003041.28545  23591517.961    23591520.382
 -20845792.34449 -16243474.45647  20904199.528    20904201.999
 -13020190.37248 -10145610.40744  22865443.466    22865445.552
  -1207348.46448                  23761491.533
  -1580919.75148                  24774909.631
 02  1 11  2 36  0.0000000  0  8G13G31G 1G27G22G20G 2G25
 -20091954.66549 -15656065.52446  21269552.720    21269552.298
  -1256865.61348   -979374.99644  24912571.491    24912580.923
 -25564300.69949 -19920231.83747  20240080.394    20240081.752
  -5212237.03548  -4061489.26545  23577244.692    23577247.854
 -20779493.97149 -16191813.51147  20916816.169    20916818.458
 -12919801.37248 -10067385.41244  22884547.796    22884553.094
  -1298996.51348                  23744052.742
  -1497173.86748  -1166662.60844  24790847.287    24790857.960
 02  1 11  2 36 30.0000000  0  8G13G31G 1G27G22G20G 2G25
 -20155972.49949 -15705949.61446  21257370.514    21257370.159
  -1362171.18548                  24892532.503
 -25568513.54849 -19923514.64647  20239278.688    20239280.044
  -5287153.14248  -4119865.47945  23562989.082    23562988.812
 -20712715.13449 -16139778.17547  20929523.707    20929526.500
 -12819178.22648  -9988977.95744  22903695.614    22903700.834
  -1390459.13748                  23726647.180
  -1413400.30848                  24806789.619
 02  1 11  2 37  0.0000000  0  8G13G31G 1G27G22G20G 2G25
 -20219664.51649 -15755579.81747  21245251.121    21245250.728
  -1467536.47348  -1143534.24944  24872481.753    24872492.178
 -25572277.36949 -19926447.56547  20238562.523    20238563.957
  -5361965.07048  -4178160.54345  23548751.919    23548753.749
 -20645446.51149 -16087361.19147  20942324.757    20942327.223
 -12718312.01448  -9910381.09144  22922890.266    22922890.968
  -1481722.77548  -1154589.09244  23709279.943    23709281.691
  -1329587.46348                  24822739.132
 02  1 11  2 37 30.0000000  0  8G13G31G 1G27G22G20G 2G25
 -20283059.35649 -15804978.46146  21233186.984    21233186.534
  -1572989.42548                  24852415.208
 -25575621.81749 -19929053.70147  20237926.123    20237927.544
  -5436703.21748  -4236398.09045  23534530.115    23534532.636
 -20577721.33049 -16034588.45547  20955212.528    20955215.418
 -12617236.37248  -9831621.07144  22942123.457    22942124.309
  -1572816.62948  -1225571.34144  23691946.170    23691952.002
  -1245766.03648                  24838690.006
 02  1 11  2 38  0.0000000  0  8G13G31G 1G27G22G20G 2G25
 -20346143.69649 -15854135.15847  21221182.418    21221181.969
  -1678515.99148                  24832333.930
 -25578534.53149 -19931323.42647  20237371.879    20237373.300
  -5511356.23548  -4294569.32045  23520324.891    23520325.767
 -20509531.01349 -15981453.27647  20968188.747    20968191.522
 -12515943.56448  -9752691.78444  22961399.684    22961403.673
  -1663728.19348  -1296411.55944  23674645.975    23674649.602
  -1161925.91348                  24854645.718
 02  1 11  2 38 30.0000000  0  8G13G31G 1G27G22G20G 2G25
 -20408919.84949 -15903051.70647  21209236.716    21209236.317
  -1784117.55648  -1390220.94444  24812238.177    24812248.603
 -25581018.72049 -19933259.23647  20236899.236    20236900.749
  -5585928.12648  -4352677.31145  23506133.723    23506135.149
 -20440882.43949 -15927961.01547  20981251.947    20981254.875
 -12414440.75348  -9673598.87744  22980715.765    22980721.657
  -1754459.83748  -1367111.63444  23657380.862    23657388.409
  -1078071.27948                  24870602.124
 02  1 11  2 39  0.0000000  0  8G13G22G31G 1G27G20G 2G25
 -20471370.76349 -15951714.81847  21197352.825    21197352.468
 -20371763.34049 -15874102.10947  20994405.146    20994407.931
  -1889776.34348                  24792132.283
 -25583058.61949 -19934848.84947  20236511.133    20236512.555
  -5660403.70948  -4410710.26545  23491962.448    23491963.493
 -12312715.88748  -9594332.93844  23000072.959    23000075.070
  -1844995.43548  -1437658.81544  23640151.218    23640154.574
   -994187.20248                  24886565.489
 02  1 11  2 39 30.0000000  0  8G13G22G31G 1G27G20G 2G25
 -20533495.78749 -16000123.99147  21185530.894    21185531.003
 -20302177.50749 -15819879.51346  21007647.023    21007649.636
  -1995490.72748                  24772016.057
 -25584654.46249 -19936092.44347  20236207.744    20236209.365
  -5734784.06648  -4468669.00145  23477807.207    23477809.624
 -12210773.12748  -9514897.26244  23019472.822    23019475.144
  -1935334.72348  -1508053.05444  23622961.255    23622963.478
   -910275.43548                  24902534.335
 02  1 11  2 40  0.0000000  0  8G13G22G31G 1G27G20G 2G25
 -20595296.31249 -16048280.30647  21173770.759    21173770.569
 -20232131.12749 -15765298.05346  21020976.361    21020979.266
  -2101261.20348                  24751888.197
 -25585808.64349 -19936991.88347  20235988.103    20235989.610
  -5809072.42548  -4526556.07245  23463671.163    23463672.289
 -12108619.06748  -9435296.90344  23038912.112    23038917.178
  -2025479.62748  -1578295.84044  23605806.901    23605812.173
   -826340.22648   -643940.46044  24918506.958    24918514.845
 02  1 11  2 40 30.0000000  0  8G13G22G31G 1G27G20G 2G25
 -20656786.23249 -16096194.59447  21162069.787    21162069.575
 -20161642.79149 -15710372.21046  21034390.101    21034393.005
  -2207100.89948  -1719818.26844  24731747.695    24731757.871
 -25586536.39449 -19937559.04547  20235849.519    20235851.272
  -5883284.58948  -4584383.77445  23449549.223    23449550.520
 -12006272.77648  -9355546.72244  23058387.399    23058392.774
  -2115444.75548  -1648398.54844  23588686.716    23588691.868
   -742397.75448                  24934480.954
 02  1 11  2 41  0.0000000  0  8G13G22G31G 1G27G20G 2G25
 -20717943.14749 -16143849.40147  21150432.106    21150432.140
 -20090694.65849 -15655088.08746  21047891.554    21047894.363
  -2312986.57148                  24711597.788
 -25586816.20349 -19937777.16647  20235796.414    20235798.180
  -5957399.87748  -4642135.99745  23435444.730    23435447.096
 -11903716.78248  -9275633.20244  23077903.751    23077911.942
  -2205208.09248  -1718344.01144  23571606.240    23571608.639
   -658427.52948                  24950460.343
 02  1 11  2 41 30.0000000  0  8G13G22G31G 1G27G20G 2G25
 -20778755.77449 -16191235.92747  21138859.539    21138859.246
 -20019280.42849 -15599440.77246  21061480.805    21061483.947
  -2418906.22148                  24691442.094
 -25586638.01749 -19937638.40147  20235830.467    20235832.087
  -6031409.00148  -4699805.49745  23421361.901    23421363.931
 -11800945.26948  -9195551.70444  23097460.646    23097465.557
  -2294759.10148  -1788124.03544  23554564.238    23554568.511
   -574421.06748                  24966446.610
 02  1 11  2 42  0.0000000  0  8G13G22G31G 1G27G20G 2G25
 -20839230.20249 -16238358.91647  21127351.783    21127351.628
 -19947410.50549 -15543438.37246  21075157.526    21075160.406
  -2524864.80848  -1967426.24844  24671279.394    24671289.570
 -25586008.76149 -19937148.15547  20235950.114    20235951.914
  -6105319.63848  -4757398.26445  23407296.678    23407299.065
 -11697968.91048  -9115310.61744  23117056.786    23117059.963
  -2384104.34048  -1857743.71544  23537563.430    23537566.630
   -490386.46448                  24982438.669
 02  1 11  2 42 30.0000000  0  8G13G22G31G 1G27G20G 2G25
 -20899376.70749 -16285226.38747  21115906.529    21115906.370
 -19875100.00149 -15487092.66346  21088917.907    21088920.863
  -2630872.09048                  24651106.902
 -25584940.01449 -19936315.45047  20236153.416    20236155.498
  -6179143.94348  -4814923.73145  23393248.587    23393251.667
 -11594803.09548  -9034921.86744  23136687.863    23136692.891
  -2473254.71848  -1927211.58244  23520597.568    23520603.796
   -406336.41948                  24998434.306
 02  1 11  2 43  0.0000000  0  8G13G22G31G 1G27G20G 2G25
 -20959201.51549 -16331843.18747  21104522.058    21104521.761
 -19802359.78049 -15430412.10646  21102759.613    21102762.742
  -2736933.29748  -2132674.33844  24630924.210    24630933.146
 -25583439.02749 -19935145.93347  20236439.045    20236441.001
  -6252889.79948  -4872388.09445  23379215.294    23379216.529
 -11491459.32248  -8954394.46644  23156353.762    23156359.520
  -2562216.96148  -1996532.80144  23503669.785    23503673.193
   -322279.41048                  25014430.102
 02  1 11  2 43 30.0000000  0  8G13G22G31G 1G27G20G 2G25
 -21018685.98349 -16378194.78447  21093202.641    21093202.564
 -19729176.03349 -15373385.94946  21116686.112    21116689.226
  -2843028.98348                  24610734.579
 -25581488.22649 -19933625.90747  20236810.458    20236812.499
  -6326540.41348  -4929778.23045  23365199.895    23365201.518
 -11387923.90448  -8873717.75244  23176056.367    23176061.106
  -2650973.11448  -2065693.51844  23486779.894    23486783.117
   -238199.21548                  25030429.714
 02  1 11  2 44  0.0000000  0  8G13G22G31G 1G27G20G 2G25
 -21077828.47949 -16424279.91147  21081947.940    21081948.057
 -19655551.51049 -15316016.32846  21130696.773    21130699.964
  -2949156.36448                  24590538.147
 -25579087.07049 -19931754.95647  20237267.375    20237269.570
  -6400095.72748  -4987094.10745  23351203.181    23351205.486
 -11284200.05148  -8792894.22144  23195794.834    23195797.990
  -2739521.86448  -2134692.58144  23469929.241    23469934.116
   -154096.68348                  25046435.000
 02  1 11  2 44 30.0000000  0  8G13G22G31G 1G27G20G 2G25
 -21136628.80049 -16470098.40947  21070758.915    21070758.870
 -19581491.15749 -15258307.09846  21144789.804    21144793.023
  -3055314.77548                  24570337.834
 -25576236.98949 -19929534.19947  20237809.715    20237811.837
  -6473557.92148  -5044337.45245  23337223.902    23337226.053
 -11180293.11648  -8711927.97744  23215567.859    23215569.893
  -2827864.27748  -2203530.88244  23453119.037    23453122.264
    -69973.98948                  25062443.294
 02  1 11  2 45  0.0000000  0  8G13G22G31G 1G27G20G 2G25
 -21195100.75249 -16515661.03547  21059632.156    21059632.020
 -19507013.50649 -15200272.70646  21158962.845    21158965.956
  -3161517.18848                  24550126.606
 -25572952.93649 -19926975.27847  20238434.647    20238436.861
  -6546942.59248  -5101520.36945  23323258.834    23323260.994
 -11076221.94348  -8630833.78244  23235372.204    23235374.879
  -2916014.65248  -2272219.54345  23436343.809    23436345.515
     14152.62148                  25078451.673
 02  1 11  2 45 30.0000000  0  8G13G22G31G 1G27G20G 2G25
 -21253231.55149 -16560957.83347  21048570.090    21048570.112
 -19432110.26649 -15141906.68746  21173216.696    21173219.991
  -3267749.54248  -2546297.15344  24529912.147    24529922.572
 -25569222.91549 -19924068.85447  20239144.873    20239146.987
  -6620238.20548  -5158633.89545  23309311.652    23309314.689
 -10971978.56148  -8549605.41944  23255209.978    23255212.336
  -3003960.37448  -2340748.72844  23419608.547    23419613.568
     98294.13148                  25094465.234
 02  1 11  2 46  0.0000000  0  8G13G22G31G 1G27G20G 2G25
 -21311006.57349 -16605977.40147  21037575.891    21037575.923
 -19356771.50649 -15083201.30646  21187553.156    21187556.341
  -3373996.34648                  24509693.780
 -25565033.64249 -19920804.56747  20239942.337    20239944.285
  -6693432.10148  -5215668.16645  23295383.112    23295385.081
 -10867553.47548  -8468235.46044  23275081.065    23275085.242
  -3091687.52048  -2409107.59244  23402915.233    23402918.748
    182462.96348                  25110481.793
 02  1 11  2 46 30.0000000  0  8G13G22G31G 1G27G20G 2G25
 -21368416.87149 -16650712.76547  21026651.263    21026651.357
 -19280993.29949 -15024153.48946  21201973.293    21201976.478
  -3480247.79448  -2711880.16944  24489475.114    24489486.284
 -25560377.49749 -19917176.48447  20240828.184    20240830.252
  -6766517.24148  -5272617.68145  23281475.490    23281477.804
 -10762942.84148  -8386720.96044  23294987.672    23294993.556
  -3179188.05348  -2477289.83444  23386263.942    23386267.831
    266665.51348                  25126504.810
 02  1 11  2 47  0.0000000  0  8G13G22G31G 1G27G20G 2G25
 -21425482.01049 -16695179.18247  21015792.557    21015792.300
 -19204799.67449 -14964781.98146  21216472.267    21216475.616
  -3586522.15348                  24469251.959
 -25555275.01449 -19913200.60847  20241798.992    20241801.141
  -6839514.78249  -5329498.95345  23267585.569    23267587.437
 -10658171.17348  -8305080.91944  23314924.799    23314931.364
  -3266481.91548  -2545311.06545  23369652.909    23369656.033
    350879.79148                  25142531.146
 02  1 11  2 47 30.0000000  0  8G13G22G31G 1G27G20G 2G25
 -21482186.58449 -16739364.64047  21005001.639    21005001.697
 -19128179.99749 -14905078.49146  21231052.938    21231056.159
  -3692803.12048  -2877507.64544  24449027.280    24449038.946
 -25549712.08749 -19908865.94547  20242857.750    20242859.781
  -6912410.97048  -5386301.23445  23253712.590    23253715.436
 -10553227.89648  -8223307.19144  23334895.649    23334899.202
  -3353554.31948  -2613159.71845  23353082.861    23353088.517
    435118.90148                  25158561.613
 02  1 11  2 48  0.0000000  0  8G13G22G31G 1G27G20G 2G25
 -21538536.43849 -16783273.69947  20994278.741    20994278.737
 -19051144.90149 -14845051.29346  21245712.247    21245715.714
  -3799095.87048                  24428800.161
 -25543695.75249 -19904177.98147  20244002.815    20244004.813
  -6985213.53948  -5443030.56945  23239858.475    23239861.858
 -10448124.29248  -8141408.54744  23354895.887    23354902.251
  -3440412.02448  -2680841.07045  23336555.054    23336558.964
    519374.78348                  25174595.658
 02  1 11  2 48 30.0000000  0  8G22G31G 1G27G13G20G 2G25
 -18973689.75549 -14784696.79046  21260451.715    21260455.298
  -3905389.83048  -3043159.62545  24408573.415    24408584.833
 -25537217.83649 -19899130.34447  20245235.760    20245237.912
  -7057914.88749  -5499681.03545  23226025.046    23226027.180
 -21594522.12049 -16826898.98547  20983625.576    20983625.670
 -10342855.82948  -8059381.44844  23374927.879    23374931.768
  -3527046.22848  -2748348.25545  23320069.044    23320074.957
    603654.68848                  25190634.577
 02  1 11  2 49  0.0000000  0  8G22G31G 1G27G13G20G 2G25
 -18895832.31449 -14724028.81846  21275267.596    21275270.782
  -4011697.02448                  24388343.545
 -25530292.72449 -19893734.24647  20246553.550    20246555.645
  -7130529.86848  -5556264.19045  23212205.888    23212209.014
 -21650156.71749 -16870250.69847  20973038.345    20973038.630
 -10237440.79548                  23394987.641
  -3613470.52348  -2815691.90345  23303623.330    23303626.798
    687942.87948                  25206673.871
 02  1 11  2 49 30.0000000  0  8G22G31G 1G27G13G20G 2G25
 -18817578.26849 -14663051.80346  21290158.959    21290162.176
  -4118017.38948  -3208843.37544  24368112.207    24368122.880
 -25522922.65049 -19887991.42547  20247956.046    20247958.139
  -7203061.13048  -5612782.12645  23198404.274    23198407.358
 -21705440.88249 -16913329.35347  20962517.800    20962518.103
 -10131884.98148                  23415075.704
  -3699686.30348  -2882873.04745  23287217.338    23287220.875
    772236.28448                  25222714.954
 02  1 11  2 50  0.0000000  0  8G22G31G 1G27G13G20G 2G25
 -18738919.70949 -14601759.58446  21305127.138    21305130.675
  -4224337.37948  -3291690.05244  24347879.809    24347890.979
 -25515096.31449 -19881893.07447  20249445.407    20249447.643
  -7275497.85549  -5669226.38445  23184620.776    23184622.295
 -21760362.45949 -16956125.46947  20952066.927    20952067.317
 -10026180.76948                  23435189.097
  -3785681.87848  -2949882.62045  23270851.764    23270856.186
    856545.20648                  25238758.546
 02  1 11  2 50 30.0000000  0  8G22G31G 1G27G13G20G 2G25
 -18659849.98349 -14540146.97546  21320174.111    21320177.327
  -4330644.51648                  24327650.644
 -25506803.42849 -19875431.17947  20251023.687    20251025.859
  -7347830.44648  -5725589.49445  23170854.946    23170858.598
 -21814909.97349 -16998630.11247  20941686.784    20941687.099
  -9920321.95648                  23455335.152
  -3871446.54248  -3016712.24245  23254531.912    23254534.475
    940878.99348                  25254807.539
 02  1 11  2 51  0.0000000  0  8G31G 1G27G13G22G20G 2G25
  -4436946.36848  -3457359.29344  24307421.105    24307431.282
 -25498053.85549 -19868613.42547  20252688.702    20252690.960
  -7420069.26549  -5781879.53845  23157109.510    23157111.668
 -21869091.69549 -17040849.71847  20931376.569    20931376.786
 -18580382.51649 -14478224.43146  21335296.197    21335299.587
  -9814321.95448  -7647538.24644  23475505.090    23475510.353
  -3956989.62648  -3083369.18845  23238253.272    23238257.951
   1025226.64148                  25270859.436
 02  1 11  2 51 30.0000000  0  8G22G31G 1G27G13G20G 2G25
 -18500534.81649 -14416005.60846  21350490.811    21350494.470
  -4543254.80748                  24287192.151
 -25488861.89449 -19861450.94847  20254437.933    20254440.106
  -7492228.83549  -5838107.83445  23143377.987    23143380.982
 -21922920.83449 -17082794.58147  20921133.008    20921133.553
  -9708199.01748                  23495699.977
  -4042324.72848  -3149864.10445  23222015.023    23222018.574
   1109572.85848                  25286910.569
 02  1 11  2 52  0.0000000  0  8G22G31G 1G27G13G20G 2G25
 -18420297.71049 -14353483.34946  21365759.726    21365763.405
  -4649554.95448  -3623028.22544  24266963.251    24266972.187
 -25479214.92949 -19853933.92347  20256273.950    20256276.147
  -7564296.89348  -5894264.81945  23129662.905    23129666.094
 -21976383.24249 -17124453.67747  20910959.582    20910960.076
  -9601943.86048  -7482049.37244  23515920.504    23515921.876
  -4127438.39948  -3216186.46945  23205817.628    23205823.238
   1193929.63048                  25302962.529
 02  1 11  2 52 30.0000000  0  8G22G31G 1G27G13G20G 2G25
 -18339655.23149 -14290645.22146  21381105.538    21381109.118
  -4755825.00448  -3705836.01244  24246741.627    24246747.764
 -25469093.38249 -19846047.09647  20258199.979    20258202.118
  -7636254.33549  -5950335.60245  23115971.650    23115974.169
 -22029458.72549 -17165811.26847  20900859.775    20900860.170
  -9495540.85248                  23536168.336
  -4212310.69248  -3282320.74645  23189667.906    23189669.981
   1278315.22448                  25319021.854
 02  1 11  2 53  0.0000000  0  8G22G31G 1G27G13G20G 2G25
 -18258611.11949 -14227494.13046  21396527.818    21396531.746
  -4862062.65348                  24226524.353
 -25458497.58449 -19837790.71947  20260216.563    20260218.657
  -7708101.77648  -6006320.68245  23102298.476    23102300.783
 -22082145.17449 -17206865.71447  20890833.983    20890834.416
  -9388993.79048                  23556443.930
  -4296941.25548  -3348266.66345  23173562.237    23173567.348
   1362728.61848                  25335085.018
 02  1 11  2 53 30.0000000  0  8G22G31G 1G27G13G20G 2G25
 -18177184.03749 -14164044.63046  21412022.956    21412026.463
  -4968280.92048  -3871385.98544  24206311.924    24206323.342
 -25447442.87849 -19829176.75147  20262320.230    20262322.440
  -7779855.10248  -6062232.41445  23088643.452    23088646.143
 -22134457.26649 -17247628.44847  20880879.407    20880879.787
  -9282321.98648                  23576742.996
  -4381344.90848  -3414035.77245  23157502.082    23157504.985
   1447153.34048                  25351150.444
 02  1 11  2 54  0.0000000  0  8G22G31G 1G27G13G20G 2G25
 -18095370.45349 -14100293.96846  21427591.914    21427595.447
  -5074470.53948                  24186104.536
 -25435922.15649 -19820199.65547  20264512.353    20264514.540
  -7851507.50449  -6118065.51745  23075010.734    23075011.816
 -22186386.53449 -17288092.88047  20870997.654    20870998.016
  -9175521.78748  -7149773.63444  23597066.804    23597069.820
  -4465513.89048  -3479622.02045  23141484.322    23141488.829
   1531595.69348                  25367220.906
 02  1 11  2 54 30.0000000  0  8G22G31G 1G27G13G20G 2G25
 -18013165.78449 -14036238.56046  21443234.987    21443239.216
  -5180621.17948  -4036845.91644  24165905.329    24165914.513
 -25423927.56149 -19810853.31147  20266795.112    20266797.319
  -7923051.52748  -6173814.16045  23061394.930    23061397.784
 -22237923.67349 -17328251.76147  20861190.301    20861190.787
  -9068589.06248  -7066449.74044  23617415.686    23617423.270
  -4549439.58148  -3545018.69345  23125514.040    23125517.722
   1616062.64348                  25383294.942
 02  1 11  2 55  0.0000000  0  8G22G31G 1G27G13G20G 2G25
 -17930576.24949 -13971883.26746  21458951.416    21458954.685
  -5286732.75148  -4119530.19044  24145712.090    24145722.515
 -25411462.11249 -19801140.06947  20269167.313    20269169.551
  -7994490.34948  -6229480.83045  23047800.716    23047803.568
 -22289070.13649 -17368106.21347  20851457.655    20851458.108
  -8961530.48948  -6983027.78544  23637788.340    23637794.481
  -4633124.16048  -3610227.48645  23109589.429    23109594.401
   1700550.44448                  25399372.735
 02  1 11  2 55 30.0000000  0  8G22G31G 1G27G13G20G 2G25
 -17847632.57049 -13907252.01546  21474734.953    21474738.697
  -5392830.27948  -4202203.54244  24125523.167    24125532.599
 -25398553.21249 -19791081.27947  20271623.865    20271626.000
  -8065851.54749  -6285087.03345  23034222.228    23034223.608
 -22339851.86049 -17407676.45347  20841794.258    20841794.939
  -8854376.90348  -6899531.77144  23658180.437    23658182.219
  -4716594.36048  -3675269.22445  23093705.123    23093710.301
   1785031.02648                  25415449.722
 02  1 11  2 56  0.0000000  0  8G22G31G 1G27G13G20G 2G25
 -17764335.77349 -13842345.60946  21490586.014    21490590.124
  -5498908.97148  -4284862.23244  24105336.554    24105346.234
 -25385198.55349 -19780675.14747  20274165.506    20274167.845
  -8137133.32348  -6340631.33745  23020656.562    23020659.417
 -22390265.73149 -17446960.05947  20832201.051    20832201.622
  -8747129.41548  -6815962.67944  23678587.645    23678597.573
  -4799847.31348  -3740141.70245  23077863.071    23077867.253
   1869505.79348                  25431526.009
 02  1 11  2 56 30.0000000  0  8G22G31G 1G27G13G20G 2G25
 -17680669.15649 -13777151.03246  21506507.511    21506511.899
  -5604946.18148                  24085158.001
 -25371377.93549 -19769905.93147  20276795.439    20276797.809
  -8208315.80849  -6396098.27745  23007111.341    23007114.367
 -22440289.53349 -17485939.71847  20822681.813    20822682.393
  -8639771.46248  -6732307.39744  23699019.168    23699023.931
  -4882862.15348  -3804828.62145  23062066.142    23062070.823
   1953994.34648                  25447603.750
 02  1 11  2 57  0.0000000  0  8G22G31G 1G27G13G20G 2G25
 -17596613.39149 -13711653.23246  21522503.018    21522507.283
  -5710916.78248  -4450062.99544  24064993.204    24065000.272
 -25357068.76749 -19758756.02947  20279518.428    20279520.723
  -8279376.65049  -6451470.43345  22993589.857    22993591.710
 -22489899.48649 -17524596.89447  20813241.232    20813241.802
  -8532284.25848  -6648551.43344  23719471.972    23719482.645
  -4965615.64748  -3869311.89845  23046318.736    23046322.176
   2038518.36248   1588397.77544  25463688.749    25463691.848
 02  1 11  2 57 30.0000000  0  8G22G31G 1G27G13G20G 2G25
 -17512201.43049 -13645877.86846  21538566.085    21538570.206
  -5816847.71848  -4532606.45944  24044835.136    24044844.816
 -25342300.42149 -19747248.33147  20282328.791    20282330.965
  -8350345.65349  -6506771.01145  22980083.904    22980086.263
 -22539123.55249 -17562953.38147  20803874.363    20803874.955
  -8424700.73348  -6564720.44844  23739945.710    23739950.493
  -5048136.71248  -3933614.05845  23030615.325    23030619.113
   2123047.35448   1654268.86745  25479775.011    25479780.249
 02  1 11  2 58  0.0000000  0  7G22G 1G27G13G20G 2G25
 -17427440.79449 -13579830.80646  21554695.550    21554699.918
 -25327077.62549 -19735386.51747  20285225.744    20285228.182
  -8421227.55049  -6562003.72446  22966595.790    22966598.924
 -22587965.07849 -17601011.79247  20794580.233    20794580.734
  -8317028.95548  -6480820.67144  23760434.221    23760439.363
  -5130428.91248  -3997737.87645  23014955.916    23014961.424
   2207576.26248   1720131.71044  25495860.640    25495863.908
 02  1 11  2 58 30.0000000  0  7G22G 1G27G13G20G 2G25
 -17342315.67149 -13513499.72646  21570894.619    21570898.697
 -25311381.20649 -19723155.64547  20288212.602    20288214.792
  -8492003.27549  -6617153.70045  22953128.037    22953130.970
 -22636403.26349 -17638755.91147  20785362.974    20785363.515
  -8209253.15448  -6396839.83644  23780944.373    23780953.061
  -5212472.48948  -4061667.95445  22999343.348    22999347.913
   2292123.39848                  25511950.147
 02  1 11  2 59  0.0000000  0  7G22G 1G27G13G20G 2G25
 -17256848.31149 -13446901.96946  21587158.650    21587162.966
 -25295229.75749 -19710570.20447  20291286.280    20291288.643
  -8562691.74649  -6672235.68945  22939676.125    22939678.960
 -22684455.43049 -17676199.23947  20776218.754    20776219.384
  -8101395.41048  -6312795.20544  23801469.207    23801477.022
  -5294285.55248  -4125418.42445  22983774.999    22983779.496
   2376669.37148                  25528039.303
 02  1 11  2 59 30.0000000  0  7G22G 1G27G13G20G 2G25
 -17171008.40049 -13380013.91446  21603493.636    21603497.879
 -25278590.12549 -19697604.36147  20294452.702    20294455.032
  -8633259.92849  -6727223.94246  22926247.682    22926249.840
 -22732087.09649 -17713314.91047  20767154.943    20767155.745
  -7993426.33248  -6228663.77944  23822015.040    23822019.795
  -5375834.21048  -4188962.86445  22968256.907    22968260.860
   2461246.80048                  25544133.927
 02  1 11  3  0  0.0000000  0  7G22G 1G27G13G20G 2G25
 -17084816.09749 -13312851.27846  21619895.398    21619900.354
 -25261479.22649 -19684271.29947  20297708.685    20297711.167
  -8703724.84249  -6782131.71346  22912838.440    22912841.813
 -22779313.56149 -17750114.83647  20758168.179    20758168.497
  -7885365.98548  -6144461.30344  23842578.761    23842587.200
  -5457134.62148  -4252313.87345  22952785.592    22952790.890
   2545837.77548                  25560232.521
 02  1 11  3  0 30.0000000  0  7G22G 1G27G13G20G 2G25
 -16998268.70949 -13245411.95046  21636365.405    21636369.473
 -25243890.92349 -19670566.23647  20301055.936    20301058.397
  -8774080.58049  -6836954.41846  22899449.814    22899452.671
 -22826127.04849 -17786592.97147  20749260.070    20749260.357
  -7777211.55148  -6060185.46144  23863159.865    23863166.201
  -5538179.79248  -4315465.99745  22937363.431    22937367.401
   2630448.11448                  25576333.900
 02  1 11  3  1  0.0000000  0  6G22G 1G27G13G20G 2
 -16911350.23549 -13177683.46646  21652905.316    21652910.173
 -25225806.11649 -19656474.28747  20304497.589    20304499.989
  -8844308.23949  -6891677.31546  22886086.763    22886088.998
 -22872507.17749 -17822733.42247  20740434.259    20740434.558
  -7668947.54048  -5975824.25944  23883762.509    23883770.948
  -5618949.99948  -4378403.86445  22921993.184    22921997.527
 02  1 11  3  1 30.0000000  0  7G22G 1G27G13G20G 2G25
 -16824113.21849 -13109706.77346  21669505.903    21669509.789
 -25207273.98549 -19642033.77647  20308024.199    20308026.625
  -8914457.11049  -6946338.83646  22872737.524    22872740.748
 -22918501.62249 -17858573.34047  20731682.062    20731682.521
  -7560626.54548                  23904374.949
  -5699493.66148  -4441165.18545  22906666.371    22906671.201
         -.36158                  25608548.491
 02  1 11  3  2  0.0000000  0  8G22G 8G 1G27G13G20G 2G25
 -16736547.49549 -13041473.95046  21686169.570    21686174.107
         -.18458                  25081638.598
 -25188281.59349 -19627234.62247  20311638.268    20311640.990
  -8984514.19649  -7000928.79546  22859405.781    22859408.603
 -22964095.69149 -17894101.27747  20723005.859    20723006.300
  -7452238.88248                  23925000.670
  -5779797.13048  -4503739.36345  22891385.124    22891390.735
     84636.41548                  25624655.249
 02  1 11  3  2 30.0000000  0  7G22G 1G27G13G20G 2G25
 -16648646.10049 -12972979.57446  21702896.857    21702901.321
 -25168818.61649 -19612068.78047  20315342.028    20315344.751
  -9054469.27949  -7055439.30046  22846094.394    22846097.322
 -23009277.81549 -17929308.21647  20714407.980    20714408.465
  -7343777.61148  -5722446.13844  23945641.077    23945650.509
  -5859849.33048  -4566117.76245  22876151.953    22876156.198
    169283.58848                  25640762.909
 02  1 11  3  3  0.0000000  0  7G22G 1G27G13G20G 2G25
 -16560411.03049 -12904225.19946  21719687.605    21719692.617
 -25148883.94449 -19596535.38147  20319135.591    20319138.173
  -9124321.44249  -7109869.59646  22832801.070    22832804.590
 -23054045.19349 -17964191.97547  20705888.942    20705889.480
  -7235245.03048  -5637875.68744  23966293.779    23966300.925
  -5939648.24548  -4628298.79245  22860966.526    22860970.749
    253941.50148                  25656873.074
 02  1 11  3  3 30.0000000  0  6G22G 1G27G13G20G 2
 -16471838.09249 -12835207.56046  21736542.537    21736547.869
 -25128470.04049 -19580628.55547  20323020.163    20323023.034
  -9194063.22849  -7164213.89546  22819530.068    22819533.155
 -23098388.82049 -17998745.53847  20697450.713    20697451.334
  -7126637.11048  -5553246.50844  23986961.942    23986968.563
  -6019185.90349  -4690276.24545  22845831.514    22845836.094
 02  1 11  3  4  0.0000000  0  6G22G 1G27G13G20G 2
 -16382937.42149 -12765934.55046  21753459.586    21753465.140
 -25107583.85449 -19564353.71947  20326994.619    20326997.481
  -9263701.61049  -7218477.61446  22806279.269    22806281.804
 -23142314.20449 -18032973.19247  20689092.063    20689092.585
  -7017963.78648  -5468566.32844  24007641.716    24007645.405
  -6098468.55949  -4752054.99745  22830744.208    22830749.035
 02  1 11  3  4 30.0000000  0  7G22G 1G27G13G20G 2G31
 -16293733.69249 -12696425.39646  21770435.016    21770440.705
 -25086247.28849 -19547727.93847  20331054.951    20331057.894
  -9333258.38649  -7272677.75346  22793042.313    22793045.610
 -23185841.74849 -18066890.84547  20680808.829    20680809.670
  -6909250.27348  -5383854.88844  24028329.785    24028334.207
  -6177516.88749  -4813651.13645  22815701.581    22815706.029
         -.37458          .03554  23763905.785    23763916.210
 02  1 11  3  5  0.0000000  0  7G22G 1G27G13G20G 2G31
 -16204210.87349 -12626667.58446  21787470.947    21787475.823
 -25064441.24949 -19530736.33547  20335204.710    20335207.615
  -9402714.26649  -7326799.25646  22779825.501    22779828.185
 -23228950.72749 -18100482.34047  20672605.402    20672606.437
  -6800480.76848  -5299099.78844  24049028.277    24049035.900
  -6256311.01749  -4875049.21445  22800707.952    22800712.490
   -104861.23848                  23743951.903
 02  1 11  3  5 30.0000000  0  7G 1G27G13G22G20G 2G31
 -25042150.90849 -19513367.35147  20339446.612    20339449.565
  -9472054.39149  -7380830.57446  22766631.067    22766633.338
 -23271624.66749 -18133734.84447  20664485.225    20664486.028
 -16114357.30349 -12556652.06046  21804569.373    21804574.980
  -6691643.83648  -5214292.12744  24069739.683    24069748.618
  -6334835.62949  -4936237.27446  22785764.866    22785769.864
   -209613.09148   -163334.37644  23724018.704    23724029.626
 02  1 11  3  6  0.0000000  0  8G 8G 1G27G13G22G20G 2G31
         -.29758                  24940184.320
 -25019395.07349 -19495635.65047  20343776.636    20343779.761
  -9541297.73949  -7434786.46946  22753453.388    22753456.574
 -23313880.86449 -18166661.83147  20656444.288    20656445.120
 -16024194.90249 -12486395.87946  21821727.346    21821732.264
  -6582761.43548  -5129449.08544  24090459.025    24090466.786
  -6413108.69949  -4997229.32646  22770870.447    22770875.006
   -314271.94448   -244886.64445  23704102.616    23704112.545
 02  1 11  3  6 30.0000000  0  8G 8G 1G27G13G22G20G 2G31
    -92800.43448                  24922526.145
 -24996156.08749 -19477527.46647  20348198.987    20348202.102
  -9610426.69149  -7488653.23246  22740299.401    22740302.372
 -23355700.27949 -18199248.46747  20648486.515    20648487.133
 -15933708.98349 -12415887.60746  21838945.918    21838951.556
  -6473819.14748  -5044559.36544  24111191.007    24111200.439
  -6491111.87649  -5058011.06046  22756026.840    22756031.810
   -418817.24548                  23684208.408
 02  1 11  3  7  0.0000000  0  8G 8G 1G27G13G22G20G 2G31
   -185573.92448                  24904871.273
 -24972444.49449 -19459051.01547  20352711.117    20352714.294
  -9679451.60549  -7542438.92846  22727164.741    22727167.898
 -23397091.81049 -18231501.68347  20640609.700    20640610.524
 -15842913.08849 -12345137.79346  21856224.053    21856229.583
  -6364830.61148  -4959633.62844  24131930.473    24131940.401
  -6568854.89349  -5118590.08546  22741232.902    22741236.878
   -523256.58548   -407731.66345  23664334.431    23664344.607
 02  1 11  3  7 30.0000000  0  8G 8G 1G27G13G22G20G 2G31
   -278316.58748                  24887222.651
 -24948255.83549 -19440202.81647  20357314.153    20357317.313
  -9748367.97649  -7596140.03646  22714049.346    22714052.993
 -23438049.07949 -18263416.51447  20632815.836    20632816.684
 -15751805.75049 -12274145.31046  21873561.636    21873567.443
  -6255794.49848  -4874670.83544  24152679.919    24152690.096
  -6646332.41649  -5178962.21846  22726489.157    22726493.685
   -627582.43848                  23644481.185
 02  1 11  3  8  0.0000000  0  8G 8G 1G27G13G22G20G 2G31
   -371017.39348                  24869582.439
 -24923579.61149 -19420974.70047  20362010.092    20362013.256
  -9817164.99349  -7649748.13946  22700957.930    22700961.840
 -23478560.15349 -18294983.66347  20625107.036    20625107.721
 -15660379.35349 -12202904.20246  21890959.528    21890965.139
  -6146703.55648  -4789665.32744  24173439.573    24173448.757
  -6723532.91849  -5239118.49646  22711798.535    22711803.354
   -731781.30548   -570218.32445  23624653.223    23624663.400
 02  1 11  3  8 30.0000000  0  8G 8G 1G27G13G22G20G 2G31
   -463697.47148                  24851946.361
 -24898436.77949 -19401382.99747  20366794.822    20366797.919
  -9885863.42049  -7703279.41046  22687885.741    22687888.883
 -23518644.43549 -18326218.24547  20617479.689    20617480.271
 -15568657.96549 -12131433.23346  21908413.768    21908419.676
  -6037581.97448  -4704635.90844  24194204.840    24194216.010
  -6800476.68649  -5299074.72146  22697156.618    22697161.588
   -835871.11548   -651327.21445  23604845.520    23604856.938
 02  1 11  3  9  0.0000000  0  8G 8G 1G27G13G22G20G 2G31
   -556351.78048                  24834315.019
 -24872822.75649 -19381424.12947  20371669.156    20371672.312
  -9954458.35349  -7756730.04546  22674832.403    22674836.449
 -23558295.54349 -18357115.29247  20609934.141    20609934.734
 -15476639.84049 -12059731.04546  21925924.389    21925930.424
  -5928427.98248  -4619581.26044  24214976.106    24214986.035
  -6877158.21249  -5358826.60346  22682564.723    22682569.414
   -939844.21848   -732345.13345  23585060.108    23585071.029
 02  1 11  3  9 30.0000000  0  8G 8G 1G27G13G22G20G 2G31
   -648974.66348                  24816689.846
 -24846732.15249 -19361093.90247  20376633.947    20376637.120
 -10022944.41649  -7810095.83746  22661799.641    22661802.667
 -23597506.62049 -18387669.45847  20602472.359    20602473.061
 -15384322.37949 -11987795.59746  21943491.957    21943497.198
  -5819239.33248  -4534499.61444  24235755.024    24235762.556
  -6953571.43449  -5418369.41746  22668023.774    22668029.591
  -1043692.06548   -813265.47445  23565298.698    23565308.378
 02  1 11  3 10  0.0000000  0  8G 8G 1G27G13G22G20G 2G31
   -741552.49148                  24799072.748
 -24820151.43449 -19340381.77047  20381692.241    20381695.462
 -10091308.03249  -7863366.23146  22648791.030    22648793.647
 -23636262.53049 -18417868.95147  20595097.336    20595098.075
 -15291695.07249 -11915618.72446  21961118.458    21961123.971
  -5710005.49648  -4449382.73544  24256541.717    24256550.156
  -7029701.97249  -5477691.96446  22653536.782    22653541.614
  -1147398.27548                  23545563.407
 02  1 11  3 10 30.0000000  0  8G 8G 1G27G13G22G20G 2G31
   -834111.43948                  24781459.843
 -24793107.28049 -19319308.52547  20386838.559    20386841.779
 -10159575.54549  -7916561.73646  22635799.348    22635802.739
 -23674588.25349 -18447733.23547  20587804.391    20587804.998
 -15198787.45749 -11843223.43446  21978798.489    21978804.625
  -5600756.12448                  24277331.010
  -7105575.42749  -5536814.17346  22639098.259    22639103.008
  -1250986.21048   -974793.23045  23525851.505    23525859.945
 02  1 11  3 11  0.0000000  0  8G 8G 1G27G13G22G20G 2G31
   -926630.27748                  24763853.359
 -24765578.54449 -19297857.68647  20392077.677    20392080.868
 -10227725.69049  -7969665.79546  22622831.484    22622834.257
 -23712461.04849 -18477244.58847  20580597.618    20580598.201
 -15105581.29249 -11770595.52146  21996535.290    21996542.118
  -5491473.46448  -4279098.89644  24298127.843    24298137.771
  -7181169.92949  -5595719.03546  22624713.168    22624717.983
  -1354431.62248  -1055399.95145  23506166.102    23506177.024
 02  1 11  3 11 30.0000000  0  8G 8G 1G27G13G22G20G 2G31
  -1019121.18248                  24746252.950
 -24737577.27349 -19276038.63947  20397406.052    20397409.265
 -10295770.29349  -8022687.61146  22609883.741    22609886.378
 -23749891.55749 -18506411.30747  20573474.941    20573475.599
 -15012091.62849 -11697746.69046  22014325.858    22014332.417
  -5382172.44948  -4193929.66844  24318926.597    24318937.022
  -7256496.80649  -5654415.34346  22610379.105    22610384.591
  -1457743.57548  -1135902.67945  23486507.381    23486516.317
 02  1 11  3 12  0.0000000  0  8G 8G 1G27G13G22G20G 2G31
  -1111595.09848                  24728656.668
 -24709115.15049 -19253860.48847  20402822.025    20402825.209
 -10363720.70849  -8075636.03846  22596952.337    22596955.433
 -23786889.52349 -18535240.97447  20566434.747    20566435.417
 -14918332.79249 -11624688.12146  22032167.842    22032174.434
  -5272867.58848                  24339727.914
  -7331566.68949  -5712911.39646  22596093.518    22596098.901
  -1560930.51848  -1216308.01745  23466870.789    23466881.214
 02  1 11  3 12 30.0000000  0  8G 8G 1G27G13G22G20G 2G31
  -1204040.49448                  24711064.793
 -24680180.76149 -19231314.33747  20408328.174    20408331.434
 -10431565.33749  -8128502.04846  22584041.825    22584044.453
 -23823441.92349 -18563723.45047  20559478.830    20559479.612
 -14824296.19849 -11551413.10646  22050062.997    22050069.108
  -5163550.73548                  24360529.810
  -7406367.46149  -5771197.75846  22581859.970    22581864.621
  -1663978.12148  -1296604.77845  23447261.447    23447271.872
 02  1 11  3 13  0.0000000  0  8G 8G 1G27G13G22G20G 2G31
  -1296448.87448                  24693480.207
 -24650766.12849 -19208393.97147  20413925.732    20413928.954
 -10499295.74049  -8181279.05046  22571153.751    22571156.861
 -23859539.08949 -18591851.19947  20552609.862    20552610.645
 -14729976.61949 -11477917.58346  22068011.111    22068018.133
  -5054216.57648                  24381335.513
  -7480890.29049  -5829267.52246  22567678.057    22567683.961
  -1766874.90748  -1376784.02345  23427681.223    23427691.400
 02  1 11  3 13 30.0000000  0  8G 8G 1G27G13G22G20G 2G31
  -1388824.57548                  24675900.952
 -24620875.95449 -19185103.05147  20419614.118    20419617.280
 -10566916.15449  -8233970.35846  22558285.925    22558289.067
 -23895183.80449 -18619626.38747  20545827.213    20545827.874
 -14635381.47349 -11404207.34646  22086012.585    22086017.729
  -4944872.70248                  24402143.361
  -7555138.66349  -5887123.44046  22553549.825    22553554.664
  -1869622.44348  -1456846.94045  23408128.300    23408139.718
 02  1 11  3 14  0.0000000  0  8G 8G 1G27G13G22G20G 2G31
  -1481167.98548  -1154158.61744  24658329.738    24658334.338
 -24590511.07749 -19161442.23447  20425392.230    20425395.450
 -10634426.91449  -8286576.22446  22545439.175    22545442.229
 -23930375.22749 -18647048.36147  20539130.283    20539131.059
 -14540514.28749 -11330285.11446  22104065.227    22104071.192
  -4835522.70448                  24422952.870
  -7629112.55749  -5944765.46946  22539472.629    22539478.603
  -1972218.25948                  23388605.782
 02  1 11  3 14 30.0000000  0  8G 8G 1G27G13G22G20G 2G31
  -1573481.08248  -1226091.00944  24640762.368    24640766.549
 -24559673.70749 -19137413.23547  20431260.215    20431263.640
 -10701830.21749  -8339098.36246  22532612.763    22532615.565
 -23965114.49449 -18674118.00847  20532519.494    20532520.539
 -14445380.21749 -11256154.94446  22122169.021    22122175.174
  -4726171.90148  -3682762.98244  24443761.038    24443771.463
  -7702813.51049  -6002194.81746  22525448.110    22525453.174
  -2074661.53048  -1616617.48845  23369110.219    23369120.892
 02  1 11  3 15  0.0000000  0  8G 8G 1G27G13G22G20G 2G31
  -1665760.47748                  24623201.800
 -24528360.73949 -19113013.64047  20437219.099    20437222.468
 -10769122.49149  -8391533.98946  22519807.392    22519809.741
 -23999396.10049 -18700831.03947  20525996.034    20525997.124
 -14349978.71949 -11181816.38746  22140323.043    22140329.766
  -4616820.06348                  24464571.459
  -7776237.39349  -6059408.27746  22511475.841    22511481.745
  -2176945.78048  -1696319.41445  23349646.978    23349655.913
 02  1 11  3 15 30.0000000  0  8G 8G 1G27G13G22G20G 2G31
  -1757996.42648                  24605651.204
 -24496563.17449 -19088236.44147  20443270.352    20443273.650
 -10836294.20549  -8443875.67146  22507025.172    22507028.277
 -24033209.67049 -18727179.36647  20519561.462    20519562.505
 -14254303.58049 -11107264.59146  22158530.027    22158536.363
  -4507460.90248                  24485381.914
  -7849374.25949  -6116398.07946  22497558.886    22497563.596
  -2279058.71748  -1775887.85445  23330214.959    23330225.632
 02  1 11  3 16  0.0000000  0  8G 8G 1G27G13G22G20G 2G31
  -1850194.85548  -1441712.50444  24588106.119    24588108.429
 -24464287.09749 -19063086.37347  20449412.450    20449415.705
 -10903351.05949  -8496127.85246  22494265.101    22494268.138
 -24066559.45449 -18753166.30447  20513215.608    20513216.619
 -14158363.28449 -11032506.20746  22176786.805    22176793.489
  -4398103.36448                  24506191.920
  -7922229.29449  -6173168.28046  22483694.166    22483700.573
  -2381003.02248  -1855324.87345  23310815.695    23310826.865
 02  1 11  3 16 30.0000000  0  8G 8G 1G27G13G22G20G 2G31
  -1942350.54548  -1513522.19044  24570568.714    24570576.384
 -24431528.08549 -19037559.99747  20455646.188    20455649.560
 -10970288.05749  -8548286.63746  22481526.899    22481530.344
 -24099439.36749 -18778787.10947  20506958.769    20506959.876
 -14062156.08249 -10957539.83446  22195095.156    22195101.721
  -4288745.82348                  24527002.682
  -7994797.04749  -6229714.61646  22469885.800    22469890.634
  -2482770.74448  -1934624.30645  23291449.704    23291460.626
 02  1 11  3 17  0.0000000  0  8G 8G 1G27G13G22G20G 2G31
  -2034463.94748  -1585299.05044  24553041.367    24553041.491
 -24398287.00049 -19011657.97547  20461971.812    20461975.266
 -11037105.49549  -8600352.24846  22468812.099    22468815.285
 -24131848.22949 -18804040.86247  20500791.804    20500792.804
 -13965685.42249 -10882368.16146  22213452.578    22213459.934
  -4179391.46648                  24547812.423
  -8067077.33849  -6286036.96846  22456130.891    22456136.172
  -2584359.51848  -2013784.29445  23272118.139    23272129.557
 02  1 11  3 17 30.0000000  0  8G 8G 1G27G13G22G20G 2G31
  -2126543.66848                  24535517.879
 -24364572.71849 -18985387.23547  20468387.637    20468390.939
 -11103812.06549  -8652331.47446  22456118.982    22456121.923
 -24163793.77449 -18828933.58747  20494712.635    20494713.933
 -13868963.02249 -10807000.34246  22231858.530    22231865.145
  -4070052.53448                  24568618.676
  -8139078.37449  -6342141.71146  22442429.954    22442435.066
  -2685775.02848  -2092809.25745  23252819.246    23252830.416
 02  1 11  3 18  0.0000000  0  8G 8G 1G27G13G22G20G 2G31
  -2218600.29648                  24518001.291
 -24330396.34849 -18958756.42647  20474891.143    20474894.547
 -11170418.37349  -8704232.57446  22443443.923    22443447.019
 -24195285.29549 -18853472.52747  20488720.163    20488721.281
 -13772002.56549 -10731447.01246  22250309.722    22250316.484
  -3960742.86348  -3086327.95344  24589420.796    24589431.965
  -8210810.26549  -6398036.73946  22428780.020    22428785.149
  -2787024.96248  -2171705.18245  23233551.892    23233563.559
 02  1 11  3 18 30.0000000  0  8G 8G 1G27G13G22G20G 2G31
  -2310613.02448  -1800480.53844  24500491.498    24500492.004
 -24295737.59549 -18931749.73847  20481486.570    20481490.049
 -11236903.49549  -8756039.23546  22430792.179    22430795.077
 -24226300.60949 -18877640.40047  20482818.352    20482819.219
 -13674786.26749 -10655694.35146  22268810.144    22268817.124
  -3851444.57548                  24610219.362
  -8282251.85149  -6453705.54546  22415185.349    22415190.133
  -2888085.63648  -2250453.64145  23214320.962    23214331.139
 02  1 11  3 19  0.0000000  0  8G 8G 1G27G13G22G20G 2G31
  -2402589.02048                  24482988.469
 -24260604.09049 -18904373.11047  20488172.670    20488176.153
 -11303274.49349  -8807756.97246  22418162.443    22418165.803
 -24256845.74749 -18901441.90447  20477005.954    20477006.802
 -13577324.25349 -10579750.21646  22287356.414    22287363.705
  -3742168.04148                  24631015.116
  -8353409.58449  -6509153.18146  22401644.347    22401649.717
  -2988961.35348  -2329057.95445  23195124.384    23195136.050
 02  1 11  3 19 30.0000000  0  8G 8G 1G27G13G22G20G 2G31
  -2494522.99848  -1943787.29944  24465495.234    24465497.660
 -24224991.45049 -18876623.13347  20494949.302    20494952.902
 -11369526.45049  -8859381.93846  22405555.178    22405558.150
 -24286914.31949 -18924872.05847  20471283.914    20471284.923
 -13479614.63849 -10503613.14146  22305949.579    22305957.250
  -3632911.44848  -2830876.28344  24651805.147    24651815.572
  -8424278.12449  -6564375.47646  22388158.562    22388162.953
  -3089643.98448  -2407511.81745  23175965.733    23175976.158
 02  1 11  3 20  0.0000000  0  8G 8G 1G27G13G22G20G 2G31
  -2586422.77748                  24448006.432
 -24188907.91849 -18848506.22847  20501815.822    20501819.641
 -11435666.99549  -8910920.09546  22392969.059    22392972.031
 -24316512.96649 -18947936.04047  20465651.403    20465652.376
 -13381668.17049 -10427291.52246  22324588.985    22324597.425
  -3523685.82048  -2745765.86444  24672591.297    24672594.884
  -8494864.81949  -6619378.14846  22374726.289    22374731.314
  -3190138.34348  -2485818.96645  23156841.616    23156852.041
 02  1 11  3 20 30.0000000  0  8G 8G 1G27G13G22G20G 2G31
  -2678277.56548  -2086972.91944  24430528.260    24430531.809
 -24152343.11749 -18820014.31047  20508773.800    20508777.653
 -11501685.15049  -8962362.87046  22380406.226    22380409.448
 -24345629.54749 -18970624.38947  20460110.850    20460111.983
 -13283476.99349 -10350779.21346  22343274.898    22343282.325
  -3414483.33548                  24693372.105
  -8565158.31849  -6674152.35846  22361350.363    22361355.389
  -3290430.82348  -2563968.80045  23137756.562    23137766.490
 02  1 11  3 21  0.0000000  0  8G 8G 1G27G13G22G20G 2G31
  -2770099.77848                  24413053.944
 -24115310.45749 -18791157.82747  20515821.082    20515825.091
 -11567593.59449  -9013720.16646  22367864.371    22367867.617
 -24374275.62849 -18992946.11947  20454659.977    20454661.184
 -13185056.77049 -10274088.42846  22362003.132    22362010.450
  -3305319.77248                  24714145.345
  -8635171.05049  -6728707.78246  22348026.466    22348031.411
  -3390531.04848  -2641968.84045  23118708.044    23118719.214
 02  1 11  3 21 30.0000000  0  8G 8G 1G27G13G22G20G 2G31
  -2861877.99848  -2230038.50544  24395590.185    24395597.198
 -24077798.98149 -18761928.24247  20522959.537    20522963.553
 -11633380.88849  -9064983.05746  22355345.413    22355348.569
 -24402438.48749 -19014891.31247  20449300.983    20449302.264
 -13086399.11349 -10197212.62946  22380777.351    22380785.140
  -3196187.17148                  24734912.911
  -8704890.98649  -6783035.06846  22334760.040    22334764.952
  -3490424.87648  -2719808.04245  23099698.568    23099709.241
 02  1 11  3 22  0.0000000  0  8G 8G 1G27G13G22G20G 2G31
  -2953617.90748  -2301524.25444  24378132.296    24378137.158
 -24039814.97549 -18732330.45247  20530187.736    20530191.753
 -11699052.53149  -9116155.83946  22342848.648    22342852.084
 -24430122.57749 -19036463.43447  20444032.861    20444034.260
 -12987512.74948 -10120158.61246  22399594.507    22399603.195
  -3087094.13048                  24755673.480
  -8774323.45449  -6837138.35046  22321546.982    22321552.855
  -3590115.20448  -2797488.67645  23080728.264    23080738.938
 02  1 11  3 22 30.0000000  0  8G 8G 1G27G13G22G20G 2G31
  -3045309.93548                  24360683.417
 -24001349.31749 -18702357.34847  20537507.430    20537511.449
 -11764598.75849  -9167230.89846  22330374.934    22330378.387
 -24457317.37349 -19057654.29347  20438857.766    20438859.333
 -12888390.76448 -10042921.00746  22418457.385    22418465.219
  -2978034.02548                  24776426.679
  -8843458.28649  -6891009.69646  22308391.329    22308396.544
  -3689589.33048  -2875000.86345  23061798.836    23061809.758
 02  1 11  3 23  0.0000000  0  8G 8G 1G27G13G22G20G 2G31
  -3136974.79848  -2444400.00744  24343242.098    24343248.886
 -23962423.73449 -18672025.86047  20544914.597    20544918.954
 -11830040.47449  -9218224.52646  22317922.533    22317925.689
 -24484042.46849 -19078479.14547  20433772.140    20433773.740
 -12789057.51048  -9965518.77046  22437360.169    22437369.601
  -2869031.03848                  24797169.791
  -8912316.13949  -6944665.21046  22295287.358    22295294.165
  -3788864.95848  -2952358.37445  23042907.009    23042918.179
 02  1 11  3 23 30.0000000  0  8G 8G 1G27G13G22G20G 2G31
  -3228606.41448  -2515801.43444  24325803.872    24325808.857
 -23923032.88149 -18641331.82747  20552410.739    20552414.939
 -11895371.71749  -9269132.08346  22305490.450    22305493.630
 -24510290.98649 -19098932.63447  20428777.514    20428779.115
 -12689509.86848  -9887949.49445  22456303.469    22456312.156
  -2760082.39248  -2150753.35344  24817902.134    24817913.552
  -8980890.66949  -6998099.95246  22282239.233    22282244.627
  -3887933.49348  -3029554.52745  23024054.741    23024064.917
 02  1 11  3 24  0.0000000  0  8G 8G 1G27G13G22G20G 2G31
  -3320189.79648  -2587165.25244  24308377.116    24308382.977
 -23883162.33349 -18610264.00347  20559998.223    20560002.435
 -11960577.21549  -9319941.65446  22293082.060    22293085.331
 -24536046.48549 -19119001.95447  20423876.639    20423878.158
 -12589735.71148  -9810203.70745  22475289.931    22475298.370
  -2651175.98848                  24838626.389
  -9049166.33549  -7051301.82346  22269245.701    22269251.575
  -3986776.86748  -3106575.24245  23005245.283    23005256.205
 02  1 11  3 24 30.0000000  0  8G 8G 1G27G13G22G20G 2G31
  -3411736.74748  -2658500.70044  24290956.077    24290959.687
 -23842824.75249 -18578832.25747  20567674.308    20567678.494
 -12025668.65649  -9370662.36546  22280696.189    22280699.783
 -24561319.82549 -19138695.55847  20419067.374    20419068.810
 -12489749.81548  -9732292.94046  22494316.931    22494327.108
  -2542327.04048                  24859340.860
  -9117154.88849  -7104279.96746  22256308.923    22256314.540
  -4085404.14448  -3183427.56245  22986477.374    22986488.047
 02  1 11  3 25  0.0000000  0  8G 8G 1G27G13G22G20G 2G31
  -3503229.31448  -2729793.72744  24273545.648    24273549.873
 -23802002.83349 -18547023.10547  20575442.340    20575446.632
 -12090628.08649  -9421280.21246  22268334.656    22268337.901
 -24586092.13949 -19157998.74847  20414353.510    20414354.863
 -12389537.31448  -9654205.57945  22513386.885    22513395.324
  -2433520.48448                  24880045.701
  -9184837.92149  -7157020.03446  22243428.561    22243434.513
  -4183794.46348  -3260095.26445  22967753.825    22967763.753
 02  1 11  3 25 30.0000000  0  8G 8G 1G27G13G22G20G 2G31
  -3594671.55448  -2801047.54144  24256144.956    24256149.783
 -23760701.59849 -18514840.46547  20583301.898    20583306.148
 -12155459.76549  -9471798.50446  22255997.432    22256001.031
 -24610366.16949 -19176913.66347  20409734.345    20409735.812
 -12289105.58548  -9575947.41945  22532498.837    22532509.262
  -2324763.90248  -1811545.21744  24900742.019    24900741.636
  -9252219.43849  -7209525.15746  22230606.822    22230612.232
  -4281949.41248  -3336579.54045  22949075.572    22949085.253
 02  1 11  3 26  0.0000000  0  8G 8G 1G27G13G22G20G 2G31
  -3686061.19448  -2872260.42344  24238753.722    24238759.317
 -23718919.34949 -18482283.00547  20591253.042    20591257.270
 -12220161.22449  -9522215.33546  22243685.694    22243688.787
 -24634138.93649 -19195437.98147  20405210.365    20405211.931
 -12188454.99648  -9497518.71845  22551652.305    22551661.985
  -2216057.97348                  24921428.428
  -9319296.59049  -7261793.13146  22217842.010    22217848.024
  -4379863.27648  -3412875.96245  22930443.285    22930453.710
 02  1 11  3 26 30.0000000  0  8G 8G 1G27G13G22G20G 2G31
  -3777415.96948  -2943446.11244  24221370.609    24221376.560
 -23676674.62349 -18449365.17647  20599291.879    20599296.258
 -12284750.14849  -9572544.47446  22231394.588    22231397.969
 -24657427.43049 -19213584.94347  20400778.793    20400780.165
 -12087606.45848  -9418935.79745  22570843.685    22570851.397
  -2107423.66248                  24942101.361
  -9386087.10749  -7313837.73646  22205132.988    22205138.611
  -4477551.21348  -3488996.34345  22911853.769    22911864.939
 02  1 11  3 27  0.0000000  0  8G 8G 1G27G13G22G20G 2G31
  -3868721.47448  -3014593.44144  24203995.465    24204002.947
 -23633954.10749 -18416076.60047  20607421.484    20607426.024
 -12349212.33249  -9622774.83646  22219127.417    22219131.403
 -24680215.86149 -19231342.24847  20396442.348    20396444.047
 -11986548.53448  -9340189.69845  22590074.440    22590083.872
  -1998849.78848                  24962762.188
  -9452576.42349  -7365647.63846  22192480.051    22192485.964
  -4574995.95748  -3564927.24845  22893310.484    22893320.909
 02  1 11  3 27 30.0000000  0  8G 8G 1G27G13G22G20G 2G31
  -3959986.01048  -3085708.82144  24186628.724    24186635.299
 -23590766.90849 -18382424.37647  20615639.800    20615644.514
 -12413555.88049  -9672912.76146  22206883.694    22206886.967
 -24702511.80949 -19248715.80747  20392199.716    20392201.216
 -11885292.61248  -9261289.34945  22609342.864    22609352.296
  -1890347.51448                  24983409.709
  -9518772.28249  -7417228.87046  22179883.596    22179888.910
  -4672202.74048  -3640672.71045  22874812.266    22874822.939
 02  1 11  3 28  0.0000000  0  8G 8G 1G27G13G22G20G 2G31
  -4051209.28648  -3156792.04044  24169269.283    24169274.095
 -23547113.67749 -18348409.00847  20623947.076    20623951.441
 -12477780.45549  -9722957.97446  22194662.384    22194666.113
 -24724313.95549 -19265704.58747  20388050.794    20388052.547
 -11783841.42948  -9182236.82645  22628649.171    22628657.859
  -1781920.11548                  25004042.859
  -9584674.36249  -7468581.19346  22167342.609    22167348.479
  -4769168.54848  -3716230.41645  22856361.035    22856371.460
 02  1 11  3 28 30.0000000  0  8G 8G 1G27G13G22G20G 2G31
  -4142390.10848  -3227842.18644  24151917.624    24151922.898
 -23502994.20449 -18314030.33847  20632342.726    20632347.227
 -12541884.66849  -9772909.38946  22182463.470    22182467.271
 -24745620.38749 -19282307.10047  20383996.244    20383998.157
 -11682196.69648  -9103033.51145  22647991.223    22648001.648
  -1673569.46148                  25024662.051
  -9650281.34249  -7519703.56046  22154858.130    22154864.126
  -4865889.75448  -3791597.54045  22837955.061    22837965.238
 02  1 11  3 29  0.0000000  0  8G 8G 1G27G13G22G20G 2G31
  -4233515.79548  -3298849.38944  24134578.756    24134583.448
 -23458396.39049 -18279278.93347  20640829.215    20640833.965
 -12605855.64949  -9822756.97646  22170290.427    22170294.205
 -24766417.11649 -19298512.44547  20380038.916    20380040.792
 -11580348.66048  -9023671.76745  22667373.201    22667382.634
  -1565285.57748                  25045267.296
  -9715580.32449  -7570585.93046  22142432.180    22142438.248
  -4962350.19548  -3866761.45745  22819599.843    22819609.027
 02  1 11  3 29 30.0000000  0  8G 8G 1G27G13G22G20G 2G31
  -4324599.40248  -3369823.81844  24117244.899    24117250.869
 -23413334.40749 -18244165.84047  20649404.471    20649409.156
 -12669706.63049  -9872511.05646  22158140.028    22158143.897
 -24786716.41949 -19314330.19047  20376176.208    20376178.156
 -11478313.51448  -8944164.22545  22686789.355    22686800.028
  -1457084.90148                  25065858.071
  -9780584.33949  -7621238.44746  22130062.610    22130068.269
  -5058560.37148  -3941730.38945  22801291.572    22801301.005
 02  1 11  3 30  0.0000000  0  8G 8G 1G27G13G22G20G 2G31
  -4415642.26248  -3440766.42944  24099920.345    24099924.357
 -23367810.33549 -18208692.68247  20658067.480    20658072.158
 -12733438.91249  -9922172.64246  22146012.218    22146015.780
 -24806518.98449 -19329760.86847  20372408.138    20372410.199
 -11376095.52448  -8864514.21445  22706242.189    22706250.380
  -1348971.81748                  25086431.078
  -9845294.31249  -7671661.83846  22117748.565    22117754.450
  -5154518.63048  -4016503.01945  22783031.100    22783040.035
 02  1 11  3 30 30.0000000  0  8G 8G 1G27G13G22G20G 2G31
  -4506641.57448  -3511675.18645  24082604.254    24082607.305
 -23321822.30449 -18172857.99947  20666818.945    20666823.747
 -12797049.68549  -9971739.54946  22133907.848    22133911.380
 -24825821.20749 -19344801.67547  20368735.289    20368737.432
 -11273694.72648  -8784721.76745  22725727.329    22725738.499
  -1240946.74548                  25106987.815
  -9909707.34649  -7721853.84746  22105491.472    22105497.074
  -5250219.51948  -4091075.12045  22764820.034    22764830.210
 02  1 11  3 31  0.0000000  0  8G 8G 1G27G13G22G20G 2G31
  -4597588.80048  -3582543.27244  24065297.001    24065301.091
 -23275363.09649 -18136656.16847  20675659.880    20675664.495
 -12860530.45649 -10021205.14746  22121828.240    22121831.461
 -24844613.63349 -19359445.23247  20365158.985    20365160.919
 -11171105.82248  -8704782.73845  22745250.748    22745260.428
  -1133004.27648                  25127528.582
  -9973814.85349  -7771807.78946  22093291.856    22093297.799
  -5345651.98148  -4165438.03345  22746660.087    22746669.271
 02  1 11  3 31 30.0000000  0  8G 8G 1G27G13G22G20G 2G31
  -4688469.32148  -3653359.38944  24048003.053    24048009.464
 -23228419.00749 -18100076.51147  20684593.075    20684597.770
 -12923866.43749 -10070557.92246  22109775.329    22109779.343
 -24862880.77549 -19373679.47547  20361682.934    20361685.146
 -11068317.02348  -8624687.92845  22764810.481    22764819.665
  -1025132.82748                  25148055.844
 -10037601.92749  -7821512.04046  22081153.905    22081159.179
  -5440798.40848  -4239578.09345  22728553.709    22728563.886
 02  1 11  3 32  0.0000000  0  8G 8G 1G27G13G22G20G 2G31
  -4779300.04848  -3724136.67644  24030719.203    24030723.012
 -23181007.93049 -18063132.97347  20693615.528    20693620.172
 -12987074.45549 -10119811.00446  22097747.231    22097750.676
 -24880638.66349 -19387516.90047  20358303.835    20358305.876
 -10965348.21448  -8544452.86145  22784405.357    22784412.689
   -917352.54848                  25168567.338
 -10101085.46549  -7870979.77846  22069073.314    22069079.327
  -5535672.81048  -4313506.17245  22710499.623    22710509.055
 02  1 11  3 32 30.0000000  0  8G 8G 1G27G13G22G20G 2G31
  -4870079.59648  -3794874.14145  24013444.855    24013448.518
 -23133129.69749 -18025825.41747  20702726.570    20702731.234
 -13050153.20349 -10168963.32746  22085743.788    22085747.615
 -24897885.37449 -19400955.99847  20355021.966    20355024.179
 -10862201.10948  -8464078.85445  22804033.872    22804043.801
   -809664.90748                  25189059.207
 -10164264.04249  -7920209.90446  22057050.938    22057056.176
  -5630271.13448  -4387219.10245  22692498.211    22692507.394
 02  1 11  3 33  0.0000000  0  7G 8G 1G27G13G22G 2G31
  -4960815.01648  -3865577.17044  23996178.062    23996183.259
 -23084792.14549 -17988159.94947  20711924.972    20711929.421
 -13113109.36549 -10218020.20446  22073764.351    22073767.586
 -24914626.78949 -19414001.35747  20351836.378    20351838.424
 -10758885.34048  -8383573.42445  22823694.023    22823704.945
 -10227144.34549  -7969207.55546  22045085.562    22045091.223
  -5724597.26048  -4460719.95745  22674548.466    22674558.891
 02  1 11  3 33 30.0000000  0  8G 8G 1G27G13G22G 3G 2G31
  -5051491.90648  -3936234.61645  23978923.431    23978926.723
 -23035982.02349 -17950126.24547  20721213.057    20721217.973
 -13175928.71649 -10266970.43946  22061809.780    22061813.406
 -24930848.04449 -19426641.39447  20348749.614    20348751.658
 -10655389.77848  -8302927.88345  22843389.912    22843398.848
         -.31659          .66656  22083929.960    22083937.865
 -10289712.13349  -8017961.72646  22033178.984    22033184.420
  -5818634.23348  -4533995.49346  22656653.963    22656663.147
 02  1 11  3 34  0.0000000  0  8G 8G 1G27G13G22G 3G 2G31
  -5142138.83648  -4006868.75944  23961673.056    23961681.744
 -22986729.08149 -17911747.48947  20730586.054    20730590.933
 -13238639.68249 -10315836.22446  22049876.061    22049879.666
 -24946577.04949 -19438897.85347  20345756.361    20345758.561
 -10551745.98948                  22863111.592
    -29165.09049    -22725.23646  22078379.638    22078387.483
 -10351995.80249  -8066494.49946  22021327.006    22021332.723
  -5912407.87148  -4607065.81246  22638809.617    22638818.552
 02  1 11  3 34 30.0000000  0  8G 8G 1G27G13G22G 3G 2G31
  -5232730.73548  -4077459.84645  23944435.306    23944439.431
 -22937009.18049 -17873004.86947  20740047.595    20740052.389
 -13301216.85149 -10364597.75846  22037968.280    22037971.917
 -24961787.81749 -19450750.49047  20342861.863    20342864.119
 -10447931.52048  -8141272.82645  22882868.066    22882879.484
    -57773.61049    -45017.70346  22072935.672    22072942.392
 -10413970.24649  -8114786.31746  22009533.657    22009538.803
  -6005890.10548  -4679909.08646  22621020.156    22621030.084
 02  1 11  3 35  0.0000000  0  8G 8G 1G27G13G22G 3G 2G31
  -5323271.59048  -4148011.29344  23927204.983    23927210.032
 -22886827.49249 -17833902.41647  20749596.791    20749601.549
 -13363664.32649 -10413258.24746  22026086.175    22026089.363
 -24976483.90949 -19462202.08247  20340065.410    20340067.566
 -10343953.41148                  22902654.065
    -85828.81449    -66879.00446  22067596.752    22067604.192
 -10475639.39449  -8162840.25146  21997798.547    21997803.622
  -6099082.17548  -4752526.21946  22603286.510    22603295.694
 02  1 11  3 35 30.0000000  0  8G 8G 1G27G13G22G 3G 2G31
  -5413750.43648  -4218514.41145  23909988.656    23909993.758
 -22836174.53349 -17794432.74347  20759235.926    20759240.843
 -13425971.24449 -10461809.21546  22014229.003    22014232.761
 -24990653.51349 -19473243.42347  20337369.135    20337371.335
 -10239803.82248  -7979096.12245  22922473.907    22922483.091
   -113318.81949    -88299.89246  22062365.657    22062373.207
 -10536992.25949  -8210647.72946  21986123.141    21986129.327
  -6191970.49748  -4824906.67946  22585610.299    22585620.228
 02  1 11  3 36  0.0000000  0  8G 8G 1G27G13G22G 3G 2G31
  -5504177.93348  -4288977.52445  23892779.359    23892785.108
 -22785061.93749 -17754604.90747  20768962.675    20768967.466
 -13488147.95649 -10510258.71646  22002396.320    22002400.597
 -25004306.57849 -19483882.26747  20334771.422    20334773.471
 -10135496.19448  -7897817.82745  22942322.707    22942334.373
   -140253.53149   -109288.08346  22057240.010    22057247.830
 -10598039.41249  -8258216.98546  21974506.654    21974512.578
  -6284562.86748  -4897056.52946  22567990.587    22568000.020
 02  1 11  3 36 30.0000000  0  8G 8G 1G27G13G22G 3G 2G31
  -5594548.79548  -4359396.45744  23875583.089    23875589.345
 -22733485.44649 -17714415.59147  20778776.900    20778782.244
 -13550189.10849 -10558602.58346  21990591.319    21990594.645
 -25017437.23449 -19494114.04147  20332273.103    20332275.174
 -10031028.02348  -7816414.41945  22962202.660    22962214.326
   -166626.79649   -129838.76846  22052220.967    22052229.158
 -10658775.54949  -8305543.88846  21962948.653    21962954.557
  -6376851.14948  -4968969.42746  22550428.889    22550439.563
 02  1 11  3 37  0.0000000  0  8G 8G 1G27G13G22G 3G 2G31
  -5684867.12548  -4429774.49044  23858396.146    23858402.150
 -22681450.61549 -17673869.12947  20788679.310    20788684.594
 -13612098.88549 -10606844.07446  21978810.726    21978814.117
 -25030049.08049 -19503941.55047  20329873.005    20329874.835
  -9926406.69948  -7734891.67945  22982112.476    22982121.908
   -192441.86749   -149954.49346  22047308.756    22047317.196
 -10719205.12249  -8352631.90846  21951449.107    21951455.129
  -6468836.94248  -5040646.61146  22532923.921    22532934.843
 02  1 11  3 37 30.0000000  0  8G 8G 1G27G13G22G 3G 2G31
  -5775127.27548  -4500107.17844  23841220.029    23841226.263
 -22628952.83649 -17632961.93147  20798669.269    20798674.670
 -13673871.27749 -10654978.50846  21967055.001    21967058.784
 -25042135.59249 -19513359.70547  20327573.103    20327574.973
  -9821629.03448  -7653247.13645  23002049.973    23002060.150
   -217692.10149   -169630.08246  22042503.612    22042512.052
 -10779322.11149  -8399476.36146  21940009.572    21940015.663
  -6560511.60949  -5112081.36146  22515479.351    22515489.528
 02  1 11  3 38  0.0000000  0  8G 8G 1G27G13G22G 3G 2G31
  -5865324.78748  -4570391.06045  23824057.589    23824062.630
 -22575989.22449 -17591691.74847  20808748.021    20808753.709
 -13735501.94749 -10703002.50346  21955326.847    21955331.096
 -25053692.21349 -19522364.95947  20325373.869    20325375.771
  -9716693.86848  -7571479.84445  23022020.051    23022030.972
   -242372.30249   -188861.49446  22037807.103    22037816.039
 -10839122.46249  -8446074.08346  21928630.003    21928636.005
  -6651868.00649  -5183268.11546  22498094.760    22498104.440
 02  1 11  3 38 30.0000000  0  8G 8G 1G27G13G22G 3G 2G31
  -5955457.94648  -4640624.81744  23806903.444    23806913.373
 -22522559.24449 -17550058.16047  20818915.481    20818921.245
 -13796989.15749 -10750914.70046  21943626.678    21943630.853
 -25064716.76449 -19530955.61647  20323276.025    20323278.100
  -9611602.26848  -7489590.71545  23042017.349    23042027.526
   -266479.86049   -207646.68246  22033219.558    22033227.997
 -10898604.36749  -8492423.65746  21917311.043    21917316.944
  -6742901.79848  -5254203.46746  22480770.931    22480780.363
 02  1 11  3 39  0.0000000  0  8G 8G 1G27G13G22G 3G 2G31
  -6045529.80348  -4710810.74844  23789765.954    23789773.047
 -22468666.93649 -17508064.31947  20829170.732    20829176.640
 -13858335.69849 -10798717.27746  21931953.398    21931957.460
 -25075210.94349 -19539132.99747  20321279.215    20321281.434
  -9506360.01248  -7407584.16045  23062046.277    23062055.710
   -290017.37449   -225987.67046  22028740.775    22028749.710
 -10957770.78549  -8538527.39546  21906051.795    21906057.886
  -6833613.02949  -5324887.51946  22463509.881    22463518.817
 02  1 11  3 39 30.0000000  0  8G 8G 1G27G13G22G 3G 2G31
  -6135539.07048  -4780947.99144  23772636.524    23772644.715
 -22414312.51249 -17465710.38647  20839514.551    20839520.103
 -13919540.28049 -10846409.23346  21920306.214    21920310.336
 -25085173.44249 -19546896.08747  20319383.384    20319385.601
  -9400968.91448                  23082100.354
   -312982.81249   -243882.89146  22024370.514    22024378.954
 -11016620.58649  -8584384.41846  21894853.206    21894859.015
  -6923997.90449  -5395317.25046  22446309.590    22446319.767
 02  1 11  3 40  0.0000000  0  8G 8G 1G27G13G22G 3G 2G31
  -6225502.10448  -4851048.50345  23755517.150    23755521.658
 -22359513.56449 -17423010.07147  20849942.148    20849948.301
 -13980619.07649 -10894003.16746  21908682.802    21908687.087
 -25094620.24349 -19554257.33847  20317585.820    20317588.042
  -9295447.88648                  23102181.797
   -335391.83849   -261344.52746  22020106.545    22020114.736
 -11075170.05149  -8630007.40846  21883711.659    21883717.295
  -7014069.88549  -5465503.16746  22429170.121    22429179.554
 02  1 11  3 40 30.0000000  0  8G 8G 1G27G13G22G 3G 2G31
  -6315422.44948  -4921116.17945  23738406.094    23738411.498
 -22304275.02949 -17379967.22147  20860453.989    20860459.715
 -14041575.53949 -10941501.77846  21897083.819    21897087.844
 -25103554.21949 -19561218.98547  20315885.796    20315887.942
  -9189803.61148                  23122284.802
   -357247.33849   -278374.84446  22015947.898    22015956.834
 -11133422.84249  -8675399.22246  21872626.782    21872632.661
  -7103829.91149  -5535446.03046  22412089.041    22412098.225
 02  1 11  3 41  0.0000000  0  8G 8G 1G27G13G22G 3G 2G31
  -6405288.12148  -4991141.47644  23721304.777    23721312.205
 -22248586.34349 -17336573.60047  20871051.404    20871057.358
 -14102397.60849 -10988895.66846  21885510.106    21885513.728
 -25111962.84249 -19567771.26847  20314285.757    20314287.932
  -9084026.89348                  23142414.145
   -378536.43649   -294963.80746  22011896.675    22011905.114
 -11191367.03049  -8720550.56646  21861600.011    21861606.024
  -7193263.10849  -5605134.21746  22395070.836    22395080.020
 02  1 11  3 41 30.0000000  0  8G 8G 1G27G13G22G 3G 2G31
  -6495096.26248  -5061121.96645  23704215.969    23704221.588
 -22192446.36949 -17292828.32647  20881734.529    20881740.562
 -14163082.71249 -11036182.83246  21873961.666    21873965.917
 -25119843.13949 -19573911.86947  20312785.905    20312788.121
  -8978118.03848                  23162568.724
   -399256.05649   -311109.01746  22007953.813    22007962.749
 -11249000.46249  -8765459.75846  21850633.004    21850639.097
  -7282364.46449  -5674563.84846  22378115.007    22378124.191
 02  1 11  3 42  0.0000000  0  8G 8G 1G27G13G22G 3G 2G31
  -6584841.18148  -5131053.17445  23687136.832    23687145.767
 -22135850.53849 -17248727.84247  20892504.554    20892510.525
 -14223624.62549 -11083358.41946  21862440.246    21862445.029
 -25127188.83949 -19579635.89947  20311388.343    20311390.734
  -8872073.86948                  23182747.241
   -419399.98249   -326805.64046  22004120.404    22004129.588
 -11306317.21449  -8810122.18646  21839725.816    21839732.138
  -7371125.44149  -5743728.23646  22361223.632    22361233.312
 02  1 11  3 42 30.0000000  0  8G 8G 1G27G13G22G 3G 2G31
  -6674513.14748  -5200927.55045  23670074.663    23670079.644
 -22078790.40349 -17204265.56147  20903363.359    20903368.905
 -14284013.40049 -11130414.68346  21850949.303    21850954.109
 -25133989.76049 -19584935.42247  20310094.277    20310096.767
  -8765887.46648  -6830595.48145  23202955.863    23202966.784
   -438957.54249   -342045.35246  22000398.569    22000407.008
 -11363307.54749  -8854530.26446  21828881.120    21828887.262
  -7459533.46149  -5812617.60546  22344401.567    22344410.751
 02  1 11  3 43  0.0000000  0  8G 8G 1G27G13G22G 3G 2G31
  -6764105.47748  -5270739.87645  23653024.620    23653033.555
 -22021261.04949 -17159437.65347  20914310.365    20914316.588
 -14344242.79149 -11177346.74846  21839488.198    21839492.078
 -25140239.35649 -19589805.33747  20308904.864    20308907.682
  -8659555.54248                  23223189.020
   -457921.93149   -356822.84946  21996790.030    21996798.966
 -11419965.20249  -8898679.10946  21818099.263    21818105.245
  -7547579.57049  -5881224.97446  22327646.336    22327656.016
 02  1 11  3 43 30.0000000  0  8G 8G 1G27G13G22G 3G 2G31
  -6853637.67748  -5340505.29445  23635987.498    23635993.335
 -21963283.15749 -17114260.24347  20925343.338    20925349.547
 -14404331.82649 -11224169.45246  21828053.838    21828057.844
 -25145956.42549 -19594260.29547  20307817.355    20307819.878
  -8553099.76348                  23243448.372
   -476312.06649   -371152.87846  21993290.122    21993299.306
 -11476309.40349  -8942583.70246  21807377.615    21807383.387
  -7635280.38949  -5949563.27846  22310956.523    22310966.948
 02  1 11  3 44  0.0000000  0  8G 8G 1G27G13G22G 3G 2G31
  -6943112.51248  -5410226.03945  23618961.099    23618968.235
 -21904861.12149 -17068736.74147  20936461.482    20936466.733
 -14464283.25749 -11270884.94246  21816645.604    21816649.935
 -25151142.76449 -19598301.69547  20306830.510    20306833.044
  -8446525.92848                  23263728.144
   -494130.23149   -385037.20546  21989899.680    21989908.616
 -11532343.38749  -8986246.57446  21796714.721    21796720.641
  -7722635.79149  -6017632.43346  22294334.505    22294342.944
 02  1 11  3 44 30.0000000  0  8G 8G 1G27G13G22G 3G 2G31
  -7032549.28548  -5479917.10645  23601942.593    23601947.335
 -21846015.73749 -17022883.36547  20947658.435    20947665.161
 -14524116.16749 -11317508.08646  21805259.607    21805264.102
 -25155818.02049 -19601944.83947  20305940.662    20305943.197
  -8339856.21448                  23284027.679
   -511395.38749   -398490.62046  21986614.139    21986622.826
 -11588086.75449  -9029682.99146  21786107.289    21786113.064
  -7809662.62549  -6085445.56446  22277773.458    22277782.891
 02  1 11  3 45  0.0000000  0  8G 8G 1G27G13G22G 3G 2G31
  -7121923.19048  -5549559.20145  23584935.718    23584941.384
 -21786723.62849 -16976681.90147  20958942.181    20958948.580
 -14583805.72149 -11364019.52646  21793901.386    21793905.600
 -25159956.91649 -19605170.04047  20305153.032    20305155.878
  -8233068.65748                  23304348.436
   -528082.18449   -411493.36546  21983438.737    21983447.425
 -11643514.82449  -9072873.72746  21775559.591    21775565.727
  -7896333.63849  -6152981.42346  22261279.960    22261290.385
 02  1 11  3 45 30.0000000  0  8G 8G 1G27G13G22G 3G 2G31
  -7211231.49348  -5619150.15345  23567939.766    23567946.567
 -21726983.68949 -16930131.47647  20970310.602    20970316.590
 -14643349.15549 -11410417.11146  21782570.528    21782574.900
 -25163556.73549 -19607975.17447  20304468.084    20304470.961
  -8126163.31548                  23324691.917
   -544187.43649   -424042.95446  21980374.031    21980382.967
 -11698625.08749  -9115816.81746  21765072.858    21765078.394
  -7982643.39249  -6220235.77846  22244856.892    22244866.076
 02  1 11  3 46  0.0000000  0  8G 8G 1G27G13G22G 3G 2G31
  -7300470.92548  -5688687.46745  23550957.961    23550963.782
 -21666794.11149 -16883230.68247  20981764.151    20981770.535
 -14702743.12749 -11456698.23046  21771268.349    21771272.647
 -25166613.91249 -19610357.47047  20303886.529    20303889.442
  -8019139.88248                  23345058.717
   -559707.54449   -436136.58846  21977420.981    21977429.916
 -11753414.56249  -9158509.94846  21754646.239    21754652.608
  -8068585.78149  -6287203.88646  22228501.930    22228511.362
 02  1 11  3 46 30.0000000  0  8G 8G 1G27G13G22G 3G 2G31
  -7389641.50348  -5758171.12845  23533990.338    23533996.652
 -21606156.50449 -16835980.77747  20993303.026    20993309.617
 -14761987.24549 -11502862.57546  21759994.843    21759998.941
 -25169128.10349 -19612316.66147  20303408.367    20303411.070
  -7912000.89848                  23365445.814
   -574642.28549   -447774.10046  21974579.288    21974587.727
 -11807883.44549  -9200953.26646  21744281.415    21744287.448
  -8154158.18349  -6353883.65946  22212218.051    22212227.980
 02  1 11  3 47  0.0000000  0  8G 8G 1G27G13G22G 3G 2G31
  -7478742.53348  -5827600.59545  23517034.666    23517042.254
 -21545071.57649 -16788382.31347  21004927.407    21004933.857
 -14821080.63849 -11548909.46646  21748749.600    21748753.978
 -25171098.13749 -19613851.83147  20303033.179    20303036.090
  -7804748.73748                  23385857.079
   -588990.75649   -458954.78246  21971849.087    21971858.023
 -11862031.05749  -9243146.24446  21733977.455    21733983.215
  -8239357.25749  -6420272.53846  22196005.518    22196013.958
 02  1 11  3 47 30.0000000  0  8G 8G 1G27G13G22G 3G 2G31
  -7567774.62248  -5896976.32845  23500092.952    23500098.781
 -21483541.97849 -16740437.34747  21016636.524    21016642.724
 -14880024.09349 -11594839.51946  21737533.137    21737537.589
 -25172524.98449 -19614963.74347  20302761.582    20302764.452
  -7697386.77848                  23406285.846
   -602753.56249   -469679.09346  21969230.274    21969238.465
 -11915858.70449  -9285089.89446  21723734.295    21723740.427
  -8324181.59949  -6486369.40446  22179863.470    22179872.654
 02  1 11  3 48  0.0000000  0  8G 8G 1G27G13G22G 3G 2G31
  -7656745.25848  -5966304.20345  23483161.257    23483169.448
 -21421576.74149 -16692152.92547  21028427.792    21028434.596
 -14938824.89549 -11640658.41146  21726344.126    21726348.275
 -25173415.92649 -19615658.06847  20302592.116    20302595.134
  -7589925.35248  -5914265.45545  23426736.748    23426748.166
   -615937.55749   -479952.39046  21966721.367    21966729.558
 -11969373.98049  -9326790.14046  21713550.732    21713556.869
  -8408635.93449  -6552177.94846  22163792.770    22163801.954
 02  1 11  3 48 30.0000000  0  8G 8G 1G27G13G22G 3G 2G31
  -7745636.57748  -6035570.24245  23466246.868    23466254.435
 -21359159.76949 -16643516.49647  21040305.862    21040312.213
 -14997465.10749 -11686352.16446  21715185.329    21715189.441
 -25173752.85749 -19615920.69947  20302528.121    20302531.149
  -7482349.30848                  23447206.977
   -628524.90649   -489760.76046  21964325.783    21964333.974
 -12022559.37449  -9368233.33746  21703429.949    21703435.879
  -8492699.88649  -6617682.27946  22147795.550    22147805.479
 02  1 11  3 49  0.0000000  0  8G 8G 1G27G13G22G 3G 2G31
  -7834450.63348  -6104776.07745  23449345.802    23449353.993
 -21296294.64449 -16594530.85547  21052268.400    21052275.088
 -15055946.61449 -11731922.25346  21704056.248    21704060.658
 -25173537.90749 -19615753.29447  20302569.428    20302572.338
  -7374663.37048                  23467700.273
   -640517.27649   -499105.50746  21962043.684    21962052.124
 -12075417.42249  -9409421.46346  21693371.722    21693377.779
  -8576372.74249  -6682881.86546  22131873.012    22131882.941
 02  1 11  3 49 30.0000000  0  8G 8G 1G27G13G22G 3G 2G31
  -7923193.83548  -6173926.70145  23432457.866    23432464.290
 -21232989.36749 -16545202.23847  21064315.064    21064321.653
 -15114275.73849 -11777373.58746  21692956.852    21692960.953
 -25172777.18449 -19615160.61647  20302714.292    20302717.237
  -7266876.73048                  23488210.651
   -651921.06849   -507991.63246  21959873.967    21959882.903
 -12127954.66849  -9450359.61246  21683373.651    21683379.771
  -8659658.24549  -6747779.60446  22116025.042    22116033.730
 02  1 11  3 50  0.0000000  0  8G 8G 1G27G13G22G 3G 2G31
  -8011872.94548  -6243027.40545  23415583.936    23415589.689
 -21169252.62649 -16495537.40747  21076444.318    21076450.657
 -15172459.25249 -11822711.46046  21681885.426    21681889.405
 -25171477.25449 -19614147.77647  20302961.625    20302964.552
  -7158999.22648                  23508739.803
   -662742.98849   -516424.33846  21957814.529    21957822.968
 -12180178.22149  -9491053.32046  21673436.478    21673442.267
  -8742560.94149  -6812379.05946  22100248.561    22100257.993
 02  1 11  3 50 30.0000000  0  8G 8G 1G27G13G22G 3G 2G31
  -8100478.83048  -6312071.04245  23398721.996    23398730.187
 -21105076.76149 -16445530.39947  21088656.585    21088663.281
 -15230487.57749 -11867928.39846  21670842.960    21670847.468
 -25169628.99949 -19612707.66847  20303313.571    20303316.541
  -7051024.16748                  23529286.800
   -672973.48749   -524396.21946  21955867.796    21955876.483
 -12232079.17949  -9531495.65646  21663560.324    21663566.175
  -8825069.03749  -6876671.03046  22084547.733    22084557.661
 02  1 11  3 51  0.0000000  0  8G 8G 1G27G13G22G 3G 2G31
  -8189023.64448  -6381067.09545  23381873.130    23381880.435
 -21040476.02149 -16395192.31847  21100949.812    21100956.494
 -15288373.06749 -11913034.03746  21659827.178    21659831.666
 -25167244.64149 -19610849.81947  20303767.415    20303770.432
  -6942966.72648                  23549849.815
   -682624.98849   -531916.92146  21954031.650    21954039.841
 -12283670.40149  -9571696.63646  21653742.026    21653748.403
  -8907192.53249  -6940663.30246  22068920.662    22068929.350
 02  1 11  3 51 30.0000000  0  8G 8G 1G27G13G22G 3G 2G31
  -8277499.15448  -6450009.17045  23365036.522    23365042.285
 -20975443.55749 -16344517.82647  21113325.398    21113332.280
 -15346107.05049 -11958021.62746  21648840.750    21648845.165
 -25164316.02649 -19608567.87747  20304324.826    20304327.839
  -6834821.29548                  23570430.020
   -691689.02449   -538979.86246  21952306.386    21952314.826
 -12334943.72949  -9611649.90547  21643985.429    21643991.425
  -8988920.54849  -7004347.40946  22053367.617    22053377.298
 02  1 11  3 52  0.0000000  0  8G 8G 1G27G13G22G 3G 2G31
  -8365908.15948  -6518899.40645  23348212.870    23348222.054
 -20909983.96849 -16293510.51047  21125781.637    21125788.777
 -15403692.16749 -12002893.22446  21637883.024    21637887.481
 -25160845.86449 -19605863.94947  20304985.153    20304988.197
  -6726593.14448                  23591024.417
   -700168.46949   -545587.27046  21950693.150    21950701.589
 -12385902.23049  -9651357.85647  21634288.764    21634294.642
  -9070253.18749  -7067723.42146  22037890.448    22037899.632
 02  1 11  3 52 30.0000000  0  8G 8G 1G27G13G22G 3G 2G31
  -8454242.36948  -6587731.34945  23331402.762    23331410.249
 -20844090.97649 -16242165.47847  21138321.047    21138328.227
 -15461120.27049 -12047642.47446  21626955.036    21626959.334
 -25156826.20949 -19602731.85047  20305750.090    20305753.180
  -6618277.17548                  23611637.333
   -708055.25149   -551732.86046  21949192.281    21949199.912
 -12436538.44949  -9690814.67647  21624652.109    21624658.346
  -9151179.89649  -7130783.13746  22022491.071    22022499.758
 02  1 11  3 53  0.0000000  0  8G 8G 1G27G13G22G 3G 2G31
  -8542504.04748  -6656506.81645  23314607.875    23314614.514
 -20777768.61849 -16190485.87647  21150942.002    21150948.962
 -15518393.40649 -12092270.97346  21616056.015    21616060.779
 -25152259.10349 -19599173.16447  20306619.172    20306622.266
  -6509878.06748                  23632265.353
   -715351.81149   -557418.54346  21947804.253    21947812.091
 -12486854.74949  -9730022.20646  21615077.520    21615084.095
  -9231700.66749  -7193526.54246  22007167.921    22007177.353
 02  1 11  3 53 30.0000000  0  8G 8G 1G27G13G22G 3G 2G31
  -8630687.55348  -6725221.37845  23297829.422    23297835.945
 -20711012.92549 -16138468.61447  21163644.875    21163652.243
 -15575505.79649 -12136774.21546  21605187.924    21605192.612
 -25147139.04249 -19595183.60347  20307593.542    20307596.656
  -6401393.00448                  23652909.347
   -722052.40549   -562639.84646  21946528.909    21946536.831
 -12536846.05749  -9768976.49846  21605564.623    21605571.059
  -9311807.18549  -7255947.15046  21991924.319    21991932.758
 02  1 11  3 54  0.0000000  0  8G 8G 1G27G13G22G 3G 2G31
  -8718801.40648  -6793881.64845  23281059.827    23281067.260
 -20643834.55949 -16086121.99747  21176429.139    21176435.749
 -15632466.01649 -12181158.87846  21594348.918    21594353.766
 -25141474.92749 -19590770.10347  20308671.426    20308674.517
  -6292833.48248                  23673567.864
   -728165.84649   -567403.62646  21945365.640    21945373.831
 -12586521.58049  -9807684.72447  21596111.723    21596117.919
  -9391505.81949  -7318049.93246  21976758.417    21976767.850
 02  1 11  3 54 30.0000000  0  8G 8G 1G27G13G22G 3G 2G31
  -8806837.61548  -6862481.42745  23264307.042    23264313.885
 -20576227.13249 -16033441.04847  21189294.236    21189301.259
 -15689265.58849 -12225418.35846  21583540.364    21583545.047
 -25135258.61149 -19585926.31447  20309854.344    20309857.501
  -6184193.97648                  23694241.013
   -733683.78749   -571703.37946  21944315.802    21944324.241
 -12635873.30749  -9846140.63747  21586720.299    21586726.653
  -9470786.00049  -7379826.64546  21961671.284    21961680.468
 02  1 11  3 55  0.0000000  0  8G 8G 1G27G13G22G 3G 2G31
  -8894802.45848  -6931025.55445  23247569.237    23247574.213
 -20508199.16849 -15980432.40247  21202239.888    21202246.635
 -15745910.84649 -12269557.59046  21572761.323    21572766.188
 -25128496.69849 -19580657.38847  20311141.302    20311144.453
  -6075483.62748  -4734186.53845  23714928.953    23714938.137
   -738612.96449   -575544.36846  21943377.992    21943385.811
 -12684908.32449  -9884349.76247  21577389.666    21577395.676
  -9549651.97749  -7441280.60946  21946663.976    21946673.160
 02  1 11  3 55 30.0000000  0  8G 8G 1G27G13G22G 3G 2G31
  -8982693.88948  -6999512.47645  23230842.788    23230850.028
 -20439750.41449 -15927095.87947  21215265.299    21215272.272
 -15802399.50249 -12313574.79646  21562011.807    21562016.616
 -25121187.42549 -19574961.94847  20312532.347    20312535.535
  -5966703.04448                  23735629.266
   -742951.76849   -578925.34446  21942552.102    21942559.904
 -12733624.85949  -9922310.72447  21568118.699    21568125.048
  -9628099.05749  -7502408.16146  21931735.696    21931745.128
 02  1 11  3 56  0.0000000  0  8G 8G 1G27G13G22G 3G 2G31
  -9070500.77948  -7067933.49245  23214134.750    23214141.076
 -20370871.66849 -15873424.29147  21228372.470    21228379.905
 -15858720.30349 -12357461.21046  21551294.769    21551299.582
 -25113319.88949 -19568831.49547  20314029.237    20314032.420
  -5857843.73548                  23756344.991
   -746689.28349   -581837.76846  21941841.026    21941849.465
 -12782012.54049  -9960015.43147  21558910.504    21558917.089
  -9706113.61249  -7563198.68346  21916890.290    21916899.722
 02  1 11  3 56 30.0000000  0  8G 8G 1G27G13G22G 3G 2G31
  -9158216.10148  -7136283.17745  23197441.934    23197450.373
 -20301557.87949 -15819413.71547  21241562.991    21241569.703
 -15914866.17549 -12401211.32546  21540610.136    21540614.907
 -25104887.36249 -19562260.79047  20315634.188    20315637.354
  -5748901.51148                  23777076.298
   -749818.66849   -584276.33946  21941245.582    21941253.773
 -12830064.84649  -9997458.82347  21549767.597    21549773.429
  -9783686.34349  -7623644.93746  21902128.913    21902137.353
 02  1 11  3 57  0.0000000  0  8G 8G 1G27G13G22G 3G 2G31
  -9245847.90048  -7204567.75045  23180767.126    23180774.876
 -20231819.13649 -15765071.99747  21254833.593    21254840.892
 -15970844.98049 -12444831.26646  21529957.812    21529962.688
 -25095897.89249 -19555256.10247  20317344.996    20317348.113
  -5639887.01848                  23797821.760
   -752347.96349   -586247.29446  21940764.443    21940772.262
 -12877790.33849 -10034647.54147  21540685.185    21540691.481
  -9860823.25149  -7683751.58946  21887449.834    21887459.018
 02  1 11  3 57 30.0000000  0  8G 8G 1G27G13G22G 3G 2G31
  -9333402.42248  -7272792.10445  23164106.384    23164113.617
 -20161663.46549 -15710405.40847  21268183.754    21268191.272
 -16026662.75449 -12488325.73146  21519336.409    21519341.311
 -25086358.15349 -19547822.63347  20319160.576    20319163.671
  -5530809.21848                  23818578.646
   -754284.00849   -587755.99446  21940395.992    21940403.622
 -12925195.71849 -10071586.82347  21531663.817    21531670.555
  -9937528.17349  -7743521.62046  21872853.388    21872862.076
 02  1 11  3 58  0.0000000  0  8G 8G 1G27G13G22G 3G 2G31
  -9420878.85248  -7340955.59845  23147459.419    23147466.660
 -20091092.52549 -15655415.23047  21281613.539    21281620.644
 -16082318.88649 -12531694.25146  21508745.638    21508750.421
 -25076268.00049 -19539960.26947  20321080.560    20321083.684
  -5421670.13448                  23839347.855
   -755626.57749   -588802.23846  21940140.573    21940149.012
 -12972280.95849 -10108276.65147  21522704.208    21522710.506
 -10013798.26149  -7802952.83346  21858340.155    21858349.091
 02  1 11  3 58 30.0000000  0  8G 8G 1G27G13G22G 3G 2G31
  -9508287.36048  -7409066.14545  23130826.484    23130832.839
 -20020118.03749 -15600110.59447  21295118.860    21295126.667
 -16137822.85249 -12574944.20546  21498183.135    21498188.175
 -25065637.25749 -19531676.66947  20323103.698    20323106.877
  -5312482.23348                  23860124.961
   -756385.90649   -589394.01846  21939996.377    21940004.816
 -13019056.33349 -10144725.02447  21513803.252    21513809.328
 -10089640.87349  -7862050.93046  21843906.867    21843916.548
 02  1 11  3 59  0.0000000  0  8G 8G 1G27G13G22G 3G 2G31
  -9595609.01248  -7477109.05445  23114209.863    23114217.657
 -19948723.34549 -15544478.53447  21308705.543    21308712.967
 -16193155.84249 -12618060.92847  21487653.828    21487658.646
 -25054447.82449 -19522957.72847  20325233.292    20325236.468
  -5203229.40948                  23880916.405
   -756543.57949   -589516.96646  21939966.231    21939974.670
 -13065503.77149 -10180917.84847  21504964.330    21504970.905
 -10165035.05149  -7920799.60446  21829560.618    21829568.809
 02  1 11  3 59 30.0000000  0  8G 8G 1G27G13G22G 3G 2G31
  -9682845.78648  -7545085.80845  23097610.129    23097616.721
 -19876912.13349 -15488521.90947  21322370.840    21322378.301
 -16248319.55049 -12661045.73546  21477156.805    21477161.814
 -25042701.87149 -19513805.13847  20327468.540    20327471.639
  -5093916.08848                  23901717.399
   -756102.01849   -589172.97946  21940050.200    21940058.887
 -13111625.53949 -10216856.90447  21496188.282    21496194.331
 -10239980.45749  -7979198.58146  21815298.606    21815308.038
 02  1 11  4  0  0.0000000  0  7G 8G 1G27G13G22G 2G31
  -9769991.69248  -7612991.74345  23081026.860    23081033.633
 -19804680.98049 -15432238.05147  21336116.132    21336123.299
 -16303308.24749 -12703894.17147  21466693.030    21466698.001
 -25030394.27049 -19504214.89647  20329810.664    20329813.822
  -4984539.46648                  23922532.036
 -13157416.82149 -10252538.43347  21487474.442    21487480.767
 -10314469.27249  -8037241.74646  21801123.703    21801132.390
 02  1 11  4  0 30.0000000  0  7G 8G 1G27G13G22G 2G31
  -9857069.76948  -7680844.83745  23064455.799    23064463.717
 -19732054.55049 -15375646.18846  21349936.522    21349944.298
 -16358144.28749 -12746623.64447  21456258.166    21456263.209
 -25017548.26249 -19494205.11747  20332254.927    20332258.144
  -4875124.80148                  23943352.415
 -13202900.86149 -10287980.54647  21478818.686    21478824.923
 -10388521.83249  -8094944.98846  21787032.266    21787040.706
 02  1 11  4  1  0.0000000  0  7G 8G 1G27G13G22G 2G31
  -9944065.45448  -7748633.74845  23047900.877    23047908.162
 -19659020.65649 -15318736.82546  21363834.987    21363842.406
 -16412813.24449 -12789222.91347  21445855.012    21445859.998
 -25004149.72049 -19483764.79047  20334804.711    20334807.934
  -4765660.55148                  23964184.233
 -13248063.94949 -10323172.56547  21470224.778    21470230.786
 -10462121.75949  -8152295.52546  21773025.656    21773035.584
 02  1 11  4  1 30.0000000  0  7G 8G 1G27G13G22G 2G31
 -10030964.35848  -7816347.21345  23031365.007    23031371.685
 -19585567.13149 -15261500.47246  21377812.471    21377819.620
 -16467300.66349 -12831680.72947  21435486.244    21435491.184
 -24990184.69449 -19472883.04947  20337462.309    20337465.506
  -4656134.92048                  23985025.067
 -13292892.34549 -10358103.78447  21461694.175    21461700.397
 -10535252.39549  -8209280.37946  21759110.630    21759118.821
 02  1 11  4  2  0.0000000  0  7G 8G 1G27G13G22G 2G31
 -10117787.51348  -7884001.68345  23014843.401    23014849.197
 -19511717.10649 -15203955.16646  21391865.718    21391873.377
 -16521627.28249 -12874013.23347  21425148.320    21425153.510
 -24975674.75649 -19461576.69847  20340223.571    20340226.752
  -4546571.44648                  24005875.547
 -13337407.58749 -10392790.99447  21453223.208    21453229.240
 -10607932.58949  -8265914.24146  21745279.503    21745288.687
 02  1 11  4  2 30.0000000  0  8G 8G 1G27G13G22G28G 2G31
 -10204536.68048  -7951598.51645  22998335.249    22998341.911
 -19437474.43949 -15146103.90246  21405993.760    21406001.438
 -16575794.61449 -12916221.61447  21414840.704    21414845.757
 -24960622.36949 -19449847.65747  20343087.992    20343091.229
  -4436974.44148                  24026731.107
         -.50358                  25347932.773
 -13381612.03349 -10427236.02347  21444811.265    21444817.459
 -10680162.06849  -8322196.90446  21731534.094    21731543.278
 02  1 11  4  3  0.0000000  0  7G 8G 1G27G13G22G 2G31
 -10291194.63848  -8019124.26045  22981844.720    22981850.623
 -19362824.26249 -15087935.10146  21420199.313    21420207.020
 -16629785.37249 -12958292.39047  21404566.771    21404571.887
 -24945010.71449 -19437682.82147  20346058.758    20346062.047
  -4327329.46748  -3371994.93244  24047595.840    24047604.031
 -13425489.27049 -10461426.08947  21436461.860    21436468.087
 -10751921.47949  -8378113.27946  21717879.318    21717887.757
 02  1 11  4  3 30.0000000  0  8G 8G 1G27G13G22G28G 2G31
 -10377749.83848  -8086569.92645  22965374.034    22965381.295
 -19287757.45149 -15029441.64046  21434484.198    21434492.094
 -16683588.05749 -13000216.60847  21394328.542    21394333.585
 -24928829.02549 -19425073.79847  20349138.162    20349141.373
  -4217627.50448                  24068472.304
         -.68558                  25309481.549
 -13469028.61349 -10495352.86747  21428176.553    21428182.770
 -10823197.35449  -8433652.86946  21704315.757    21704324.693
 02  1 11  4  4  0.0000000  0  8G 8G 1G27G13G22G28G 2G31
 -10464226.51548  -8153954.41145  22948918.016    22948925.240
 -19212300.06549 -14970643.84246  21448843.252    21448851.444
 -16737226.49349 -13042012.83747  21384121.441    21384126.146
 -24912101.75949 -19412039.64747  20352321.725    20352324.955
  -4107895.46748                  24089354.295
   -100905.81348                  25290280.029
 -13512254.79149 -10529035.62447  21419950.492    21419956.976
 -10894011.53249  -8488832.70346  21690839.950    21690848.886
 02  1 11  4  4 30.0000000  0  8G 8G 1G27G13G22G28G 2G31
 -10550603.40348  -8221261.12845  22932480.434    22932487.947
 -19136433.13349 -14911526.91146  21463280.354    21463288.793
 -16790679.39549 -13083664.49647  21373949.846    21373954.910
 -24894808.72349 -19398564.63747  20355612.456    20355615.652
  -3998114.53348                  24110244.116
   -201712.70348                  25271096.710
 -13555147.26149 -10562458.36147  21411788.769    21411794.947
 -10964340.94349  -8543634.79746  21677457.402    21677465.593
 02  1 11  4  5  0.0000000  0  8G 8G 1G27G13G22G28G 2G31
 -10636880.50348  -8288490.07845  22916063.005    22916070.012
 -19060159.18149 -14852092.82346  21477795.065    21477802.942
 -16843946.92949 -13125171.71347  21363813.132    21363818.456
 -24876950.90649 -19384649.53647  20359010.314    20359013.657
  -3888287.70348                  24131144.995
   -302421.18548                  25251933.035
 -13597707.03849 -10595621.85747  21403689.303    21403696.077
 -11034183.51249  -8598057.53846  21664166.272    21664174.712
 02  1 11  4  5 30.0000000  0  8G 8G 1G27G13G22G28G 2G31
 -10723065.77048  -8355647.48545  22899662.607    22899669.407
 -18983488.25949 -14792349.41346  21492385.473    21492393.665
 -16897036.62149 -13166540.35847  21353710.466    21353715.805
 -24858536.63349 -19370300.83747  20362514.491    20362517.751
  -3778425.32048                  24152049.958
   -403038.58748                  25232786.753
 -13639942.52549 -10628532.67047  21395652.474    21395658.857
 -11103545.12449  -8652105.48946  21650967.171    21650976.107
 02  1 11  4  6  0.0000000  0  8G 8G 1G27G13G22G28G 2G31
 -10809179.23448  -8422748.94545  22883275.929    22883282.687
 -18906442.62849 -14732314.01546  21507046.400    21507055.087
 -16949968.38349 -13207785.94147  21343638.250    21343643.506
 -24839586.38249 -19355534.49447  20366120.861    20366124.214
  -3668550.11748                  24172960.981
   -503730.33548                  25213651.230
 -13681874.65549 -10661207.09747  21387672.784    21387679.784
 -11172443.70149  -8705792.63846  21637856.587    21637864.778
 02  1 11  4  6 30.0000000  0  8G 8G 1G27G13G22G28G 2G31
 -10895197.79948  -8489776.44245  22866906.823    22866913.541
 -18829001.42049 -14671970.38046  21521783.517    21521790.931
 -17002718.86349 -13248890.26447  21333600.022    21333605.214
 -24820078.02249 -19340333.26047  20369833.012    20369836.509
  -3558641.38348                  24193874.485
   -604180.97848                  25194538.302
 -13723481.16649 -10693627.80047  21379755.625    21379762.198
 -11240854.09749  -8759099.38046  21624837.768    21624846.455
 02  1 11  4  7  0.0000000  0  7G 8G 1G27G13G22G 2G31
 -10981118.75448  -8556727.86645  22850557.612    22850564.580
 -18751164.55849 -14611318.44846  21536594.988    21536603.676
 -17055285.13449 -13289851.04147  21323597.024    21323602.268
 -24800009.72249 -19324695.70847  20373651.669    20373655.457
  -3448699.19948                  24214796.139
 -13764760.22949 -10725793.34547  21371901.040    21371907.325
 -11308771.79849  -8812022.18946  21611913.885    21611922.572
 02  1 11  4  7 30.0000000  0  7G 8G 1G27G13G22G 2G31
 -11066935.92048  -8623598.43545  22834226.132    22834233.416
 -18672928.06449 -14550355.10846  21551483.560    21551491.390
 -17107660.82149 -13330663.30647  21313630.198    21313635.372
 -24779376.24049 -19308617.75747  20377578.143    20377581.586
  -3338719.84248                  24235725.883
 -13805706.36149 -10757699.45747  21364109.061    21364115.287
 -11376188.55749  -8864554.66246  21599084.866    21599093.305
 02  1 11  4  8  0.0000000  0  8G 8G 1G27G13G22G28G 2G31
 -11152664.41248  -8690399.88745  22817913.185    22817920.493
 -18594309.54649 -14489094.08946  21566443.938    21566452.377
 -17159861.07949 -13371338.87347  21303696.738    21303702.006
 -24758193.41449 -19292111.74847  20381609.494    20381612.992
  -3228720.97148                  24256656.956
         -.25258                  25137305.516
 -13846335.49349 -10789358.55347  21356377.626    21356384.298
 -11443117.79449  -8916707.23646  21586348.477    21586356.668
 02  1 11  4  8 30.0000000  0  8G 8G 1G27G13G22G28G 2G31
 -11238291.32048  -8757122.21345  22801619.144    22801625.094
 -18515298.45249 -14427527.17046  21581479.598    21581487.789
 -17211872.83249 -13411867.55447  21293799.470    21293804.612
 -24736448.94849 -19275168.09447  20385747.301    20385751.038
  -3118692.43748                  24277596.129
   -100054.22248                  25118266.279
 -13886635.51649 -10820761.20047  21348708.486    21348715.039
 -11509544.63649  -8968468.33346  21573707.790    21573716.477
 02  1 11  4  9  0.0000000  0  8G 8G 1G27G13G22G28G 2G31
 -11323819.94748  -8823767.95245  22785343.011    22785350.676
 -18435900.26849 -14365658.62046  21596588.310    21596596.749
 -17263699.20949 -13452251.78647  21283937.439    21283942.636
 -24714147.06749 -19257790.09147  20389991.211    20389994.690
  -3008639.95948                  24298537.673
   -200007.49748                  25099245.016
 -13926610.60949 -10851910.64747  21341101.668    21341108.301
 -11575470.35249  -9019838.94146  21561162.587    21561170.778
 02  1 11  4  9 30.0000000  0  8G 8G 1G27G13G22G28G 2G31
 -11409247.34648  -8890334.83745  22769087.951    22769093.316
 -18356114.85049 -14303488.33446  21611771.302    21611779.741
 -17315337.42449 -13492489.40547  21274111.089    21274116.002
 -24691286.10449 -19239976.43847  20394341.546    20394345.166
  -2898563.21148                  24319486.296
   -299857.09648                  25080243.690
 -13966258.77149 -10882805.34347  21333557.018    21333563.455
 -11640890.28949  -9070815.41346  21548713.532    21548721.438
 02  1 11  4 10  0.0000000  0  8G 8G 1G27G13G22G28G 2G31
 -11494587.84948  -8956834.02845  22752847.087    22752854.080
 -18275958.69149 -14241029.15646  21627024.536    21627033.224
 -17366801.36549 -13532591.23247  21264317.666    21264323.084
 -24667881.24349 -19221738.96647  20398795.330    20398798.958
  -2788479.23548                  24340434.015
   -399616.69148                  25061261.000
 -14005595.11349 -10913457.06247  21326071.973    21326077.892
 -11705817.06949  -9121407.61646  21536358.226    21536366.913
 02  1 11  4 10 30.0000000  0  8G 8G 1G27G13G22G28G 2G31
 -11579835.15148  -9023260.56345  22736624.955    22736631.581
 -18195427.92349 -14178278.07946  21642349.181    21642357.868
 -17418084.27849 -13572551.99447  21254558.957    21254564.444
 -24643926.79449 -19203073.24447  20403353.795    20403357.415
  -2678383.87748                  24361385.078
   -499279.41448                  25042295.429
 -14044614.37749 -10943861.70147  21318646.191    21318652.687
 -11770242.43649  -9171609.10746  21524098.601    21524106.328
 02  1 11  4 11  0.0000000  0  8G 8G 1G27G13G22G28G 2G31
 -11664977.93648  -9089605.65845  22720423.263    22720430.226
 -18114513.86349 -14115228.31846  21657746.971    21657755.658
 -17469175.03149 -13612363.01747  21244836.362    21244842.090
 -24619412.92649 -19183971.60747  20408018.895    20408022.504
  -2568268.89248                  24382339.943
   -598833.95748                  25023351.026
 -14083306.20549 -10974011.18947  21311283.632    21311290.302
 -11834153.59549  -9221409.91346  21511936.467    21511944.328
 02  1 11  4 11 30.0000000  0  8G 8G 1G27G13G22G28G 2G31
 -11750021.62248  -9155873.50645  22704239.828    22704248.019
 -18033224.39549 -14051886.04046  21673215.904    21673224.343
 -17520078.79749 -13652028.33547  21235149.650    21235155.497
 -24594345.92649 -19164438.95947  20412788.970    20412792.692
  -2458141.83248                  24403295.829
   -698285.26348                  25004426.564
 -14121676.65749 -11003910.25347  21303982.316    21303988.695
 -11897553.99449  -9270812.72846  21499871.765    21499879.634
 02  1 11  4 12  0.0000000  0  8G 8G 1G27G13G22G28G 2G31
 -11834961.78648  -9222060.69345  22688077.192    22688083.539
 -17951557.65149 -13988249.77846  21688756.680    21688765.864
 -17570791.07549 -13691544.43347  21225499.600    21225505.366
 -24568722.48649 -19144472.72147  20417665.075    20417668.825
  -2348001.11648                  24424256.020
   -797628.70248                  24985521.134
 -14159722.31549 -11033556.23147  21296742.383    21296748.681
 -11960437.40849  -9319812.70846  21487905.489    21487913.680
 02  1 11  4 12 30.0000000  0  8G 8G 1G27G13G22G28G 2G31
 -11919798.90948  -9288167.59445  22671933.264    22671939.791
 -17869516.64849 -13924321.88946  21704368.704    21704377.640
 -17621312.32949 -13730911.68047  21215885.777    21215891.505
 -24542543.99249 -19124073.97247  20422646.721    20422650.349
  -2237849.59348                  24445216.652
   -896864.39248                  24966636.862
 -14197444.58449 -11062950.21847  21289563.790    21289570.189
 -12022802.60149  -9368408.87846  21476037.203    21476045.394
 02  1 11  4 13  0.0000000  0  8G 8G 1G27G13G22G28G 2G31
 -12004528.41948  -9354190.60245  22655808.505    22655817.192
 -17787099.36349 -13860100.78946  21720052.131    21720061.315
 -17671637.77049 -13770126.33947  21206308.861    21206314.515
 -24515806.85849 -19103239.92247  20427734.504    20427738.154
  -2127685.36948                  24466181.093
   -995987.24148                  24947775.120
 -14234839.94949 -11092089.47447  21282447.867    21282454.501
 -12084643.21549  -9416596.29646  21464269.814    21464278.005
 02  1 11  4 13 30.0000000  0  8G 8G 1G27G13G22G28G 2G31
 -12089151.64349  -9420130.80445  22639707.135    22639713.069
 -17704309.63549 -13795589.47646  21735806.696    21735816.128
 -17721768.45049 -13809189.22747  21196769.583    21196775.201
 -24488514.04749 -19081972.87747  20432928.129    20432931.903
  -2017512.24948                  24487145.914
  -1094998.35148                  24928933.305
 -14271910.68349 -11120975.77447  21275393.433    21275399.797
 -12145959.19949  -9464374.91946  21452601.882    21452609.128
 02  1 11  4 14  0.0000000  0  8G 8G 1G27G13G22G28G 2G31
 -12173670.53848  -9485989.72745  22623622.081    22623629.382
 -17621152.07249 -13730791.55046  21751631.183    21751640.367
 -17771706.25849 -13848101.82547  21187266.318    21187272.223
 -24460668.29149 -19060274.96647  20438227.278    20438231.344
  -1907334.73848                  24508112.821
  -1193899.54848                  24910113.378
 -14308659.80149 -11149611.46347  21268400.409    21268406.814
 -12206750.98749  -9511745.08546  21441033.131    21441041.322
 02  1 11  4 14 30.0000000  0  8G 8G 1G27G13G22G28G 2G31
 -12258089.46748  -9551770.72845  22607557.927    22607565.626
 -17537633.27849 -13665712.13746  21767524.220    21767533.156
 -17821455.20749 -13886867.25647  21177799.576    21177805.515
 -24432274.83649 -19038150.27647  20443630.326    20443634.137
  -1797159.39648                  24529078.627
  -1292694.35948                  24891312.778
 -14345092.47949 -11178000.57947  21261467.239    21261473.767
 -12267020.96349  -9558708.64546  21429563.968    21429572.407
 02  1 11  4 15  0.0000000  0  8G 8G 1G27G13G22G28G 2G31
 -12342395.24948  -9617463.58546  22591516.097    22591521.594
 -17453743.06049 -13600343.30846  21783488.076    21783497.260
 -17871002.37549 -13925475.45647  21168371.426    21168377.076
 -24403322.34149 -19015589.97047  20449140.308    20449143.888
  -1686975.88748                  24550045.951
  -1391369.81748                  24872535.070
 -14381196.81649 -11206133.84647  21254596.954    21254603.505
 -12326754.67049  -9605254.35246  21418197.420    21418205.611
 02  1 11  4 15 30.0000000  0  8G 8G 1G27G13G22G28G 2G31
 -12426598.32148  -9683076.38145  22575490.967    22575500.151
 -17369494.50149 -13534695.24446  21799520.673    21799529.609
 -17920357.80949 -13963934.24147  21158979.466    21158985.404
 -24373822.43549 -18992603.10847  20454753.672    20454757.423
  -1576797.15348                  24571013.053
  -1489936.00448                  24853779.543
 -14416983.99549 -11234019.97947  21247787.293    21247793.871
 -12385960.56949  -9651388.78646  21406930.548    21406938.739
 02  1 11  4 16  0.0000000  0  8G 8G 1G27G13G22G28G 2G31
 -12510684.05148  -9748597.77745  22559492.240    22559498.693
 -17284875.40949 -13468758.47046  21815622.774    21815632.702
 -17969506.53849 -14002231.96847  21149626.700    21149632.354
 -24343761.42649 -18969179.02747  20460473.945    20460477.861
  -1466610.89648                  24591980.676
  -1588377.81848                  24835046.775
 -14452440.39449 -11261648.35747  21241039.636    21241046.138
 -12444622.58249  -9697099.42046  21395767.433    21395775.624
 02  1 11  4 16 30.0000000  0  8G 8G 1G27G13G22G28G 2G31
 -12594660.93148  -9814034.35145  22543510.241    22543519.673
 -17199897.02649 -13402541.72546  21831794.485    21831803.421
 -18018457.17749 -14040375.33547  21140311.850    21140317.686
 -24313149.00949 -18945325.27447  20466299.673    20466303.592
  -1356428.27248                  24612947.488
  -1686703.49948                  24816334.480
 -14487575.83149 -11289026.64347  21234353.621    21234360.289
 -12502748.10849  -9742392.02346  21384706.645    21384714.434
 02  1 11  4 17  0.0000000  0  8G 8G 1G27G13G22G28G 2G31
 -12678529.34648  -9879386.38445  22527550.707    22527558.456
 -17114562.41949 -13336047.40646  21848032.816    21848042.496
 -18067209.93849 -14078364.50947  21131034.422    21131040.102
 -24281987.25149 -18921043.46447  20472229.769    20472233.748
  -1246252.28148                  24633915.154
  -1784913.39548                  24797646.068
 -14522391.74149 -11316155.94647  21227728.681    21227735.255
 -12560335.83349  -9787265.56446  21373748.176    21373755.963
 02  1 11  4 17 30.0000000  0  8G 8G 1G27G13G22G28G 2G31
 -12762287.03248  -9944652.15845  22511614.220    22511618.974
 -17028871.93749 -13269275.79046  21864339.191    21864348.623
 -18115762.19449 -14116197.46147  21121795.205    21121800.937
 -24250275.12849 -18896332.80447  20478264.482    20478268.457
  -1136082.77048                  24654877.926
  -1883004.79348                  24778980.561
 -14556886.74249 -11343035.19847  21221164.246    21221170.669
 -12617381.67449  -9831716.86746  21362892.816    21362901.007
 02  1 11  4 18  0.0000000  0  8G 8G 1G27G13G22G28G 2G31
 -12845938.15748 -10009834.87845  22495693.541    22495702.228
 -16942832.52449 -13202232.27646  21880712.065    21880720.753
 -18164118.23549 -14153877.52347  21112593.532    21112599.452
 -24218018.27949 -18871197.67947  20484402.779    20484406.841
  -1025926.76448                  24675841.933
  -1980981.95048                  24760335.144
 -14591066.22549 -11369668.59447  21214660.381    21214666.754
 -12673888.70149  -9875748.30646  21352139.329    21352147.520
 02  1 11  4 18 30.0000000  0  8G 8G 1G27G13G22G28G 2G31
 -12929485.98848 -10074937.10245  22479795.856    22479802.584
 -16856450.02849 -13134921.43146  21897150.481    21897160.162
 -18212281.09449 -14191407.06747  21103428.208    21103433.958
 -24185221.10849 -18845641.53247  20490643.551    20490647.707
   -915789.76448                  24696799.569
  -2078847.77948                  24741712.374
 -14624934.32549 -11396059.35347  21208215.560    21208222.052
 -12729858.70549  -9919361.28846  21341489.154    21341497.088
 02  1 11  4 19  0.0000000  0  8G 8G 1G27G13G22G28G 2G31
 -13012915.80948 -10139947.37745  22463920.339    22463926.197
 -16769712.59649 -13067334.01546  21913655.787    21913665.716
 -18260236.00949 -14228774.57647  21094302.928    21094308.868
 -24151870.47349 -18819654.11747  20496989.874    20496993.919
   -805659.58648                  24717757.399
  -2176587.42748                  24723112.749
 -14658477.72849 -11422197.10347  21201832.276    21201838.698
 -12785275.55149  -9962543.24046  21330943.505    21330951.696
 02  1 11  4 19 30.0000000  0  8G 8G 1G27G13G22G28G 2G31
 -13096232.76948 -10204869.68445  22448064.379    22448073.563
 -16682628.29149 -12999476.31046  21930228.015    21930237.199
 -18307987.82349 -14265983.82647  21085216.188    21085222.020
 -24117973.01449 -18793240.60947  20503440.770    20503444.942
   -695543.98148                  24738712.031
  -2274205.71748                  24704536.193
 -14691702.71549 -11448086.73147  21195509.562    21195516.225
 -12840142.92249 -10005297.02246  21320502.724    21320510.915
 02  1 11  4 20  0.0000000  0  8G 8G 1G27G13G22G28G 2G31
 -13179421.42348 -10269692.02445  22432235.077    22432242.462
 -16595184.38049 -12931338.38646  21946867.549    21946877.726
 -18355520.97949 -14303022.69147  21076170.688    21076176.336
 -24083514.68849 -18766390.06047  20509998.087    20510002.128
   -585429.73848                  24759665.974
  -2371686.98748                  24685986.189
 -14724594.86349 -11473717.00847  21189250.548    21189257.161
 -12894443.97749 -10047609.52146  21310169.428    21310177.230
 02  1 11  4 20 30.0000000  0  8G 8G 1G27G13G22G28G 2G31
 -13262481.84448 -10334414.43845  22416428.603    22416435.600
 -16507383.81049 -12862922.55246  21963576.134    21963585.318
 -18402835.52949 -14339891.20947  21067167.289    21067173.183
 -24048497.04049 -18739103.68147  20516661.364    20516665.706
   -475319.73748                  24780620.413
  -2469031.31248                  24667462.569
 -14757155.31749 -11499088.81847  21183054.978    21183061.272
 -12948177.64249 -10089479.89246  21299943.856    21299952.047
 02  1 11  4 21  0.0000000  0  8G 8G 1G27G13G22G28G 2G31
 -13345448.47448 -10399063.76145  22400639.396    22400648.828
 -16419263.64549 -12794257.68546  21980344.896    21980355.073
 -18449965.61349 -14376615.98147  21058198.835    21058204.682
 -24012955.97549 -18711409.44047  20523425.093    20523428.996
   -365250.72848                  24801564.985
  -2566272.72348                  24648957.857
 -14789419.58749 -11524229.83947  21176915.231    21176921.662
 -13001376.92549 -10130933.85946  21289820.564    21289828.755
 02  1 11  4 21 30.0000000  0  8G 8G 1G27G13G22G28G 2G31
 -13428293.62049 -10463618.45446  22384877.343    22384883.635
 -16330799.06549 -12725324.44046  21997179.202    21997189.875
 -18496883.41149 -14413175.33547  21049270.441    21049276.325
 -23976865.51149 -18683287.09847  20530293.237    20530297.458
   -255197.34648                  24822508.603
  -2663383.60048                  24630477.673
 -14821361.37549 -11549119.57847  21170836.711    21170843.312
 -13054012.81049 -10171948.81646  21279804.371    21279811.932
 02  1 11  4 22  0.0000000  0  8G 8G 1G27G13G22G28G 2G31
 -13511009.40448 -10528072.35146  22369135.045    22369143.732
 -16241984.96049 -12656118.85546  22014080.217    22014089.650
 -18543580.93449 -14449563.05147  21040384.382    21040389.948
 -23940219.42149 -18654731.79947  20537266.179    20537270.521
   -145154.39748                  24843449.980
  -2760355.89048                  24612025.217
 -14852974.11349 -11573752.90747  21164821.145    21164827.488
 -13106076.57449 -10212517.96346  21269896.578    21269904.769
 02  1 11  4 22 30.0000000  0  8G 8G 1G27G13G22G28G 2G31
 -13593599.22248 -10592428.10446  22353419.215    22353427.406
 -16152827.54249 -12586645.73646  22031046.325    22031056.502
 -18590061.27949 -14485781.54847  21031539.507    21031544.974
 -23903022.41849 -18625747.21847  20544344.712    20544349.276
    -35127.35148                  24864386.537
  -2857192.63648                  24593596.967
 -14884262.05649 -11598133.15247  21158867.038    21158873.433
 -13157570.13649 -10252642.78046  21260097.736    21260106.175
 02  1 11  4 23  0.0000000  0  8G 8G 1G27G13G22G28G 2G31
 -13676067.55149 -10656689.22046  22337727.273    22337733.611
 -16063334.40849 -12516911.03946  22048076.430    22048086.359
 -18636329.11849 -14521834.44847  21022735.152    21022740.463
 -23865280.85249 -18596338.30547  20551527.021    20551531.132
     74876.52948                  24885320.805
  -2953898.37448                  24575194.774
 -14915231.19849 -11622264.97747  21152974.110    21152980.494
 -13208496.97049 -10292325.99446  21250406.763    21250414.454
 02  1 11  4 23 30.0000000  0  8G 8G 1G27G13G22G28G 2G31
 -13758405.41248 -10720848.66446  22322057.373    22322065.564
 -15973499.37149 -12446909.92046  22065172.130    22065181.811
 -18682375.17149 -14557714.53747  21013972.843    21013978.330
 -23826987.59949 -18566499.50547  20558814.106    20558818.404
    184863.78748                  24906250.687
  -3050463.89048                  24556819.169
 -14945873.71649 -11646142.29047  21147143.439    21147149.483
 -13258846.78849 -10331559.59046  21240825.767    21240833.342
 02  1 11  4 24  0.0000000  0  8G 8G 1G27G13G22G28G 2G31
 -13840636.31749 -10784924.75846  22306410.440    22306417.493
 -15883348.78849 -12376662.93346  22082326.733    22082337.654
 -18728222.84949 -14593440.04447  21005248.792    21005254.045
 -23788167.63549 -18536250.28347  20566201.174    20566205.358
    294808.63548                  24927172.477
  -3146912.79448                  24538465.273
 -14976214.67449 -11669784.62147  21141369.635    21141376.283
 -13308641.90649 -10370360.94146  21231350.024    21231357.643
 02  1 11  4 24 30.0000000  0  8G 8G 1G27G13G22G28G 2G31
 -13922740.44649 -10848902.06646  22290785.934    22290793.264
 -15792865.82149 -12306156.93746  22099545.548    22099556.221
 -18773852.13849 -14628995.37947  20996565.514    20996571.317
 -23748802.93749 -18505576.58747  20573692.385    20573696.506
    404728.31648                  24948091.398
  -3243225.02948                  24520137.398
 -15006235.06749 -11693177.15547  21135656.271    21135662.883
 -13357861.42149 -10408713.76746  21221983.618    21221991.809
 02  1 11  4 25  0.0000000  0  7G 8G 1G28G 2G27G13G31
 -14004726.91149 -10912787.66146  22275184.543    22275192.229
 -15702062.39949 -12235401.25446  22116825.136    22116835.561
  -3339409.57048                  24501834.421
 -15035945.21649 -11716327.93747  21130002.972    21130009.514
 -18819271.99149 -14664387.52747  20987922.432    20987928.006
 -23708904.35349 -18474486.88047  20581284.471    20581289.038
 -13406513.33449 -10446624.30946  21212725.350    21212733.789
 02  1 11  4 25 30.0000000  0  7G 8G 1G27G13G28G 2G31
 -14086586.18949 -10976574.15746  22259607.410    22259614.690
 -15610932.01249 -12164390.78946  22134166.805    22134176.982
 -18864473.06149 -14699609.20347  20979321.065    20979326.615
 -23668464.12949 -18442975.11847  20588980.688    20588984.907
  -3435457.13348                  24483556.513
 -15065337.14849 -11739230.75947  21124409.839    21124416.433
 -13454587.52649 -10484084.67346  21203577.206    21203585.012
 02  1 11  4 26  0.0000000  0  8G 8G 1G27G13G10G28G 2G31
 -14168330.19848 -11040270.81946  22244051.466    22244059.657
 -15519489.50049 -12093137.10446  22151567.818    22151577.499
 -18909467.03049 -14734669.50647  20970758.890    20970764.675
 -23627495.87049 -18411051.90447  20596776.829    20596781.001
         -.44358         -.00454  24353937.768    24353942.058
  -3531379.28848                  24465303.867
 -15094424.05249 -11761895.89247  21118874.615    21118881.216
 -13502094.66549 -10521103.18046  21194537.212    21194544.643
 02  1 11  4 26 30.0000000  0  8G 8G 1G27G13G10G28G 2G31
 -14249949.39148 -11103870.21246  22228519.822    22228528.758
 -15427728.54949 -12021635.30146  22169029.708    22169039.389
 -18954244.26149 -14769560.93247  20962238.143    20962243.980
 -23585992.21549 -18378711.49847  20604674.318    20604678.808
    -19662.01148    -15320.81744  24350195.253    24350205.430
  -3627166.60048  -2826359.88744  24447075.805    24447080.310
 -15123197.62549 -11784316.87047  21113399.536    21113406.061
 -13549024.21449 -10557671.61446  21185606.432    21185614.314
 02  1 11  4 27  0.0000000  0  8G 8G 1G27G13G10G28G 2G31
 -14331426.60449 -11167358.97646  22213015.760    22213023.149
 -15335634.69349 -11949874.08346  22186554.660    22186565.085
 -18998787.32049 -14804269.88447  20953761.691    20953767.395
 -23543937.51649 -18345941.71147  20612676.825    20612681.441
    -38756.17048    -30199.44444  24346561.293    24346570.229
  -3722801.79048                  24428877.229
 -15151642.02149 -11806481.34147  21107986.884    21107993.321
 -13595358.05149 -10593775.85046  21176789.290    21176797.193
 02  1 11  4 27 30.0000000  0  8G 8G 1G27G13G10G28G 2G31
 -14412774.97349 -11230747.33446  22197535.514    22197543.339
 -15243224.15049 -11877866.11146  22204139.795    22204149.476
 -19043109.27249 -14838806.53947  20945327.484    20945333.537
 -23501346.85549 -18312754.28747  20620782.176    20620786.421
    -57296.73648                  24343033.231
  -3818297.95548                  24410704.589
 -15179771.66749 -11828400.54847  21102633.665    21102640.328
 -13641108.38549 -10629425.41146  21168083.480    21168091.235
 02  1 11  4 28  0.0000000  0  8G 8G 1G27G13G10G28G 2G31
 -14493987.40448 -11294029.75946  22182081.350    22182089.541
 -15150492.62449 -11805608.00446  22221786.057    22221796.978
 -19087202.66649 -14873165.08947  20936936.932    20936942.987
 -23458215.16049 -18279145.27747  20628989.805    20628993.832
    -75277.14048    -58657.56245  24339612.210    24339622.139
  -3913647.78248  -3049591.79744  24392560.378    24392571.300
 -15207580.66049 -11850069.89147  21097342.060    21097348.535
 -13686267.01049 -10664613.89846  21159489.815    21159498.006
 02  1 11  4 28 30.0000000  0  8G 8G 1G27G13G10G28G 2G31
 -14575062.34349 -11357205.06346  22166653.580    22166661.044
 -15057441.90149 -11733101.18846  22239493.796    22239503.973
 -19131066.08249 -14907344.41647  20928590.025    20928596.100
 -23414542.60149 -18245114.81547  20637300.210    20637304.937
    -92696.89848    -72231.51644  24336298.710    24336305.056
  -4008849.99948  -3123775.22444  24374443.503    24374453.432
 -15235069.18549 -11871489.52247  21092111.205    21092117.644
 -13730831.69549 -10699339.58646  21151009.339    21151016.704
 02  1 11  4 29  0.0000000  0  8G 8G 1G27G13G10G28G 2G31
 -14655995.22249 -11420269.69346  22151252.436    22151260.875
 -14964070.22249                  22257261.203
 -19174694.46849 -14941340.59647  20920287.566    20920293.915
 -23370326.40949 -18210660.74347  20645714.806    20645719.017
   -109551.86048    -85365.40645  24333091.778    24333098.738
  -4103899.63348                  24356357.019
 -15262233.68549 -11892656.66147  21086942.054    21086948.254
 -13774796.76949 -10733598.04247  21142643.782    21142650.873
 02  1 11  4 29 30.0000000  0  8G 8G 1G27G13G10G28G 2G31
 -14736804.68349 -11483238.13846  22135875.300    22135882.365
 -14870399.38149 -11587354.23345  22275086.860    22275097.285
 -19218106.55149 -14975168.21547  20912026.793    20912033.137
 -23325587.50349 -18175799.35247  20654228.545    20654232.782
   -125861.49248    -98074.35045  24329987.879    24329994.547
  -4198815.68848  -3271800.32544  24338293.963    24338305.380
 -15289094.29949 -11913587.01647  21081830.208    21081836.933
 -13818180.02349 -10767403.13346  21134387.710    21134395.082
 02  1 11  4 30  0.0000000  0  8G 8G 1G27G13G10G28G 2G31
 -14817479.04749 -11546101.33846  22120523.262    22120531.453
 -14776421.06849                  22292969.902
 -19261290.92349 -15008818.37747  20903808.981    20903815.047
 -23280316.38249 -18140523.25247  20662842.965    20662847.686
   -141615.48148   -110350.34944  24326989.052    24326996.329
  -4293586.83548                  24320260.610
 -15315640.92049 -11934272.70047  21076778.540    21076785.324
 -13860969.39549 -10800745.47046  21126244.747    21126252.618
 02  1 11  4 30 30.0000000  0  8G 8G 1G27G13G10G28G 2G31
 -14898015.27349 -11608856.89746  22105197.628    22105206.564
 -14682135.18449 -11440655.34545  22310913.136    22310922.569
 -19304244.17649 -15042288.44547  20895635.448    20895641.453
 -23234511.89949 -18104831.54847  20671559.890    20671564.390
   -156811.26248   -122191.36144  24324096.933    24324105.620
  -4388209.82748                  24302253.345
 -15341871.67749 -11954712.25747  21071787.250    21071793.805
 -13903160.86049 -10833621.91946  21118216.086    21118223.620
 02  1 11  4 31  0.0000000  0  8G 8G 1G27G13G10G28G 2G31
 -14978402.99649 -11671496.74246  22089901.043    22089907.815
 -14587534.28849                  22328914.405
 -19346955.74349 -15075570.17947  20887508.034    20887513.993
 -23188165.61849 -18068717.66347  20680378.793    20680383.670
   -171439.34248   -133590.03044  24321312.899    24321323.572
  -4482674.19248  -3492988.65244  24284278.138    24284289.059
 -15367777.69349 -11974898.77647  21066857.420    21066864.078
 -13944743.43649 -10866023.90746  21110303.140    21110310.855
 02  1 11  4 31 30.0000000  0  8G 8G 1G27G13G10G28G 2G31
 -15058655.12049 -11734030.93546  22074628.733    22074636.924
 -14492634.42349 -11292992.89145  22346973.895    22346985.313
 -19389438.39049 -15108673.53847  20879423.872    20879429.983
 -23141292.59549 -18032193.33547  20689298.399    20689303.455
   -185513.32148   -144556.91345  24318635.597    24318642.411
  -4576992.85048  -3566483.65944  24266329.763    24266341.429
 -15393373.25949 -11994843.39147  21061987.065    21061993.764
 -13985729.26949 -10897960.91446  21102503.995    21102511.779
 02  1 11  4 32  0.0000000  0  8G 8G 1G27G13G10G28G 2G31
 -15138772.41049 -11796460.07246  22059383.075    22059392.259
 -14397439.77249 -11218815.53546  22365089.077    22365099.750
 -19431693.03349 -15141599.24347  20871383.198    20871389.093
 -23093895.98449 -17995261.06447  20698318.269    20698322.932
   -199035.37948   -155093.75545  24316063.423    24316071.614
  -4671166.93448  -3639866.12944  24248408.838    24248418.519
 -15418660.77149 -12014548.00547  21057174.864    21057181.532
 -14026118.88149 -10929433.34846  21094818.084    21094825.924
 02  1 11  4 32 30.0000000  0  8G 8G 1G27G13G10G28G 2G31
 -15218754.24949 -11858783.63146  22044163.637    22044170.214
 -14301952.69449 -11144410.26546  22383259.737    22383271.403
 -19473718.72449 -15174346.53747  20863385.761    20863391.675
 -23045976.93849 -17957921.66247  20707436.522    20707441.912
   -212005.71148   -165200.66245  24313595.773    24313605.701
  -4765195.69448                  24230516.010
 -15443640.93049 -12034013.09047  21052421.157    21052427.884
 -14065910.72749 -10960439.99647  21087246.048    21087253.555
 02  1 11  4 33  0.0000000  0  8G 8G 1G27G13G10G28G 2G31
 -15298591.33249 -11920994.39446  22028970.653    22028977.671
 -14206167.01649 -11069772.32246  22401487.261    22401498.927
 -19515506.12549 -15206908.16247  20855433.885    20855439.856
 -22997528.39549 -17920169.67347  20716656.133    20716661.605
   -224415.75648   -174870.97245  24311234.539    24311241.859
  -4859069.94448  -3786284.10744  24212652.439    24212660.222
 -15468305.76049 -12053232.46947  21047727.530    21047734.236
 -14105094.80549 -10990973.05147  21079789.425    21079797.081
 02  1 11  4 33 30.0000000  0  8G 8G 1G27G13G10G28G 2G31
 -15378292.51949 -11983099.25346  22013804.070    22013811.501
 -14110094.75749                  22419769.479
 -19557063.97049 -15239290.91347  20847525.543    20847531.382
 -22948561.39149 -17882013.68047  20725974.803    20725979.805
   -236275.47448   -184112.45145  24308977.478    24308984.152
  -4952798.73148  -3859319.58044  24194816.104    24194827.026
 -15492665.75149 -12072214.31247  21043092.194    21043098.852
 -14143679.32949 -11021038.92747  21072447.311    21072455.025
 02  1 11  4 34  0.0000000  0  8G 8G 1G10G27G13G28G 2G31
 -15457849.72249 -12045091.90946  21998665.242    21998672.465
 -14013731.05549 -10919822.76346  22438107.163    22438118.829
   -247578.10648   -192919.81744  24306825.995    24306836.668
 -19598384.16549 -15271488.48847  20839662.854    20839668.766
 -22899070.22149 -17843449.25147  20735391.976    20735397.404
  -5046374.02348                  24177009.358
 -15516714.43149 -12090953.58047  21038516.267    21038522.783
 -14181656.03149 -11050631.18747  21065220.358    21065228.797
 02  1 11  4 34 30.0000000  0  8G 8G 1G10G27G13G28G 2G31
 -15537265.87049 -12106974.66046  21983552.189    21983559.892
 -13917081.88449                  22456498.641
   -258327.25448   -201295.85644  24304779.919    24304790.344
 -19639469.39649 -15303502.99047  20831844.648    20831850.080
 -22849059.86849 -17804480.26047  20744908.842    20744914.205
  -5139798.72548                  24159231.577
 -15540455.99849 -12109453.54547  21033998.199    21034004.959
 -14219027.16249 -11079751.56947  21058108.748    21058116.939
 02  1 11  4 35  0.0000000  0  8G 8G 1G10G27G13G28G 2G31
 -15616527.57949 -12168737.06646  21968469.645    21968477.527
 -13820137.34349                  22474947.047
   -268510.99948   -209231.31144  24302841.766    24302849.231
 -19680306.48249 -15335324.14447  20824073.469    20824079.253
 -22798519.50349 -17765098.27547  20754527.256    20754531.838
  -5233059.98148  -4077705.04344  24141483.906    24141494.580
 -15563878.90749 -12127705.20347  21029540.775    21029547.603
 -14255779.13049 -11108389.50347  21051115.744    21051123.495
 02  1 11  4 35 30.0000000  0  8G 8G 1G10G27G13G28G 2G31
 -15695629.76149 -12230375.17946  21953416.926    21953424.762
 -13722895.47749                  22493451.970
   -278125.36948   -216723.07345  24301012.501    24301021.685
 -19720890.05349 -15366947.76147  20816350.896    20816356.627
 -22747446.01949 -17725300.86847  20764245.833    20764250.922
  -5326152.48748                  24123769.957
 -15586979.36249 -12145705.59847  21025145.112    21025151.987
 -14291906.26249 -11136540.54247  21044240.893    21044248.665
 02  1 11  4 36  0.0000000  0  8G 8G 1G10G27G13G28G 2G31
 -15774592.42749 -12291904.58046  21938390.718    21938399.157
 -13625379.49649 -10617212.25446  22512008.857    22512020.523
   -287191.49948   -223787.70245  24299287.977    24299299.643
 -19761239.97449 -15398389.31947  20808673.021    20808678.451
 -22695861.91049 -17685105.57447  20774061.708    20774067.404
  -5419096.34248                  24106082.466
 -15609778.66649 -12163471.32947  21020806.626    21020813.342
 -14327427.84149 -11164219.72147  21037480.977    21037489.168
 02  1 11  4 36 30.0000000  0  8G 8G 1G10G27G13G28G 2G31
 -15853404.41249 -12353316.55346  21923394.234    21923401.448
 -13527581.56249                  22530619.294
   -295699.67248   -230417.56845  24297669.254    24297678.438
 -19801345.14849 -15429640.16447  20801041.004    20801046.762
 -22643758.30649 -17644505.47447  20783977.603    20783982.337
  -5511880.96848                  24088426.236
 -15632267.38749 -12180995.04547  21016527.008    21016533.905
 -14362332.63949 -11191418.28747  21030838.783    21030846.532
 02  1 11  4 37  0.0000000  0  8G 8G 1G10G27G13G28G 2G31
 -15932065.60549 -12414611.02546  21908424.718    21908432.480
 -13429504.81549 -10464583.20446  22549283.113    22549294.779
   -303650.98348   -236613.52345  24296156.343    24296163.009
 -19841205.31749 -15460700.09747  20793455.835    20793461.542
 -22591137.64049 -17603502.47247  20793990.987    20793996.183
  -5604506.26648                  24070800.630
 -15654447.15749 -12198278.01947  21012306.597    21012313.324
 -14396620.25649 -11218135.92747  21024313.985    21024321.722
 02  1 11  4 37 30.0000000  0  8G 8G 1G10G27G13G28G 2G31
 -16010571.55549 -12475784.52346  21893485.595    21893493.786
 -13331148.05349                  22567999.474
   -311041.93948   -242372.83945  24294750.645    24294758.836
 -19880815.86749 -15491565.52047  20785918.246    20785924.023
 -22537997.61949 -17562094.77847  20804102.822    20804108.546
  -5696967.73848                  24053205.433
 -15676314.91349 -12215317.86247  21008145.298    21008152.001
 -14430285.52749 -11244368.62047  21017908.121    21017915.813
