     2.10           OBSERVATION DATA    G (GPS)             RINEX VERSION / TYPE
teqc  2004Apr5                          20041208 15:58:17UTCPGM / RUN BY / DATE
OBSERVATION MODE: Permanent                                 COMMENT
CHUM Chumysh (CHUM)                                         MARKER NAME
25601M001                                                   MARKER NUMBER
T136                ROGUE SNR-8000       3.20               REC # / TYPE / VERS
113                 AOAD/M_T        NONE                    ANT # / TYPE
        0.0900        0.0000        0.0000                  ANTENNA: DELTA H/E/N
  1228950.8675  4508079.8886  4327868.4896                  APPROX POSITION XYZ
  74.75109757  42.99850108  716.3216  LonLatAlt  S/W        COMMENT
Linux 2.0.36|Pentium II|gcc -static|Linux|486/DX+           COMMENT
BIT 2 OF LLI FLAGS DATA COLLECTED UNDER A/S CONDITION       COMMENT
Konovalov           IVTAN                                   OBSERVER / AGENCY
     1     1                                                WAVELENGTH FACT L1/2
     5    L1    L2    C1    P2    P1                        # / TYPES OF OBSERV
    30.0000                                                 INTERVAL
    P1 =    P1  TurboRogue; =    Y1  Benchmark              COMMENT
    L1 = L1(P1) TurboRogue; = L1(Y1) Benchmark              COMMENT
    P2 =    P2  TurboRogue; =    Y2  Benchmark              COMMENT
    L2 = L2(P2) TurboRogue; = L2(Y2) Benchmark              COMMENT
 SNR is mapped to RINEX snr flag value [1,4-9]              COMMENT
    SNR:  >=316 >=100 >=31.6 >=10 >=3.2    >0 bad=0         COMMENT
L1 & L2:      9     8     7     6     5     4     1         COMMENT
  2002     1     7     0     0    0.0000000     GPS         TIME OF FIRST OBS
  2002     1     7    23    59   30.0000000     GPS         TIME OF LAST OBS
                                                            END OF HEADER
 02  1  7  0  0  0.0000000  0  8G30G11G25G 1G20G22G29G14
   1098267.73148    855793.71045  23738199.901    23738203.114
 -11734756.21448  -9143969.16344  23121630.300    23121630.864
 -23696452.20549 -18464762.42947  20556858.565    20556858.567
  -7113798.95948  -5543216.04145  23741040.106    23741043.644
 -19882662.85749 -15492980.54846  21570661.031    21570660.802
  -8817218.03948  -6870559.32245  23085845.383    23085847.274
 -11525257.47249  -8980714.07046  21608753.844    21608754.126
  -3140387.60049  -2447050.28845  23010714.977    23010715.067
 02  1  7  0  0 30.0000000  0  8G30G11G25G 1G20G22G29G14
   1156240.31448    900967.13144  23749232.084    23749230.869
 -11666763.48648  -9090987.84045  23134570.537    23134569.685
 -23674799.61949 -18447890.27847  20560978.537    20560978.484
  -7193892.19348  -5605626.33745  23725800.958    23725802.275
 -19952146.04249 -15547123.29846  21557439.165    21557438.846
  -8927677.16748  -6956631.36445  23064825.438    23064825.962
 -11470751.62349  -8938241.99646  21619126.109    21619126.254
  -3064295.38849  -2387757.66945  23025194.852    23025194.242
 02  1  7  0  1  0.0000000  0  8G30G11G25G 1G20G22G29G14
   1214714.71948    946531.63845  23760358.274    23760358.328
 -11598450.43848  -9037756.95244  23147568.742    23147570.290
 -23652737.42649 -18430698.95147  20565176.705    20565176.485
  -7273917.47148  -5667983.70245  23710571.090    23710573.203
 -20021247.76749 -15600968.80446  21544289.012    21544289.204
  -9037987.97048  -7042587.84445  23043833.725    23043836.810
 -11416049.87049  -8895617.26846  21629535.344    21629535.471
  -2988078.82549  -2328368.15945  23039698.233    23039697.841
 02  1  7  0  1 30.0000000  0  8G30G11G25G 1G20G22G29G14
   1273689.65148    992486.12644  23771581.731    23771581.270
 -11529818.85748  -8984277.81144  23160628.819    23160628.122
 -23630266.45749 -18413189.09947  20569453.000    20569452.688
  -7353873.52948  -5730287.10745  23695356.046    23695358.588
 -20089964.79649 -15654514.55446  21531212.833    21531212.897
  -9148146.23548  -7128425.44845  23022871.270    23022873.142
 -11361151.72849  -8852839.51146  21639982.274    21639982.210
  -2911737.17749  -2268881.18045  23054225.554    23054225.919
 02  1  7  0  2  0.0000000  0  8G30G11G25G 1G20G22G29G14
   1333164.97348   1038830.52544  23782899.496    23782901.733
 -11460869.92148  -8930551.40645  23173749.698    23173752.126
 -23607386.05349 -18395360.20847  20573807.017    20573806.714
  -7433758.28848  -5792534.94945  23680155.135    23680156.398
 -20158293.16749 -15707757.44846  21518210.206    21518210.322
  -9258147.37448  -7214140.63445  23001939.307    23001940.296
 -11306055.63749  -8809907.50246  21650466.661    21650466.990
  -2835269.24049  -2209295.78945  23068777.282    23068776.047
 02  1  7  0  2 30.0000000  0  8G30G11G25G 1G20G22G29G14
   1393142.74348   1085566.41444  23794312.648    23794313.287
 -11391602.65948  -8876576.93744  23186931.308    23186931.357
 -23584093.50149 -18377210.16747  20578239.175    20578239.100
  -7513567.43148  -5854723.84045  23664966.339    23664969.514
 -20226226.24049 -15760692.31846  21505283.114    21505283.269
  -9367983.84748  -7299727.51045  22981038.107    22981039.823
 -11250757.77349  -8766818.26746  21660989.292    21660989.497
  -2758671.48148  -2149609.23945  23083352.847    23083353.029
 02  1  7  0  3  0.0000000  0  8G30G11G25G 1G20G22G29G14
   1453615.68748   1132688.19944  23805820.012    23805820.130
 -11322025.09948  -8822360.67944  23200170.675    23200172.216
 -23560395.75149 -18358744.38347  20582748.762    20582748.697
  -7593305.97448  -5916857.75045  23649794.743    23649794.658
 -20293767.39149 -15813321.79146  21492430.661    21492430.191
  -9477657.84848  -7385187.78445  22960167.925    22960169.539
 -11195263.79249  -8723576.21846  21671549.921    21671549.883
  -2681949.56149  -2089825.94045  23097952.871    23097952.766
 02  1  7  0  3 30.0000000  0  8G30G11G25G 1G20G22G29G14
   1514597.50148   1180206.50044  23817424.380    23817425.999
 -11252124.55848  -8767892.76244  23213472.528    23213475.319
 -23536278.70249 -18339951.87647  20587338.375    20587338.221
  -7672957.98048  -5978924.25045  23634635.227    23634638.451
 -20360898.48049 -15865631.74446  21479655.610    21479655.369
  -9587150.60848  -7470506.81545  22939331.894    22939333.440
 -11139558.34349  -8680169.38746  21682150.151    21682150.321
  -2605088.41249  -2029934.15345  23112579.641    23112578.816
 02  1  7  0  4  0.0000000  0  8G30G11G25G 1G20G22G29G14
   1576069.18948   1228106.51744  23829123.033    23829122.136
 -11181920.40948  -8713188.25544  23226832.505    23226833.675
 -23511760.10049 -18320846.47047  20592004.123    20592003.851
  -7752539.95648  -6040936.17345  23619491.511    23619494.716
 -20427633.93549 -15917633.40846  21466956.964    21466956.745
  -9696475.63048  -7555695.16545  22918527.993    22918529.943
 -11083658.18949  -8636610.83746  21692787.525    21692787.590
  -2528105.11048  -1969947.17945  23127227.842    23127227.531
 02  1  7  0  4 30.0000000  0  8G30G11G25G 1G20G22G29G14
   1638036.96348   1276393.06744  23840914.432    23840915.736
 -11111407.39148  -8658243.05944  23240250.349    23240249.037
 -23486833.41849 -18301423.08047  20596747.398    20596747.346
  -7832043.47548  -6102886.97345  23604362.305    23604365.460
 -20493963.27449 -15969318.61846  21454334.916    21454334.408
  -9805621.51048  -7640743.90345  22897758.242    22897759.686
 -11027555.64449  -8592894.57946  21703463.611    21703463.555
  -2450991.91048  -1909859.00845  23141902.887    23141902.372
 02  1  7  0  5  0.0000000  0  8G30G11G25G 1G20G22G29G14
   1700488.26148   1325056.39844  23852798.315    23852798.654
 -11040599.11548  -8603067.81144  23253724.233    23253724.933
 -23461510.43949 -18281690.88647  20601566.253    20601565.935
  -7911478.74448  -6164784.56245  23589247.076    23589250.104
 -20559894.59049 -16020693.68146  21441788.070    21441788.190
  -9914595.58248  -7725658.76245  22877021.670    22877024.839
 -10971261.42049  -8549028.96646  21714175.873    21714175.902
  -2373760.13948  -1849678.40945  23156599.473    23156598.982
 02  1  7  0  5 30.0000000  0  8G30G11G25G 1G20G22G29G14
   1763420.14548   1374094.22344  23864774.400    23864773.344
 -10969499.18648  -8547665.30644  23267254.516    23267253.404
 -23435793.47949 -18261651.69847  20606460.101    20606459.786
  -7990846.08948  -6226629.22145  23574144.972    23574145.708
 -20625426.77349 -16071757.72546  21429317.787    21429317.564
 -10023395.31148  -7810437.76645  22856317.340    22856318.943
 -10914776.53149  -8505014.78146  21724924.371    21724924.689
  -2296410.70248  -1789406.13045  23171317.774    23171318.056
 02  1  7  0  6  0.0000000  0  8G30G11G25G 1G20G22G29G14
   1826835.14948   1423508.51644  23876841.977    23876844.945
 -10898106.13448  -8492034.40344  23280840.462    23280840.038
 -23409679.25049 -18241302.94947  20611429.304    20611428.933
  -8070140.69048  -6288417.19545  23559053.497    23559056.672
 -20690552.68149 -16122505.19446  21416924.845    21416924.542
 -10132013.19248  -7895075.07545  22835648.114    22835648.744
 -10858096.78249  -8460848.76046  21735710.372    21735710.503
  -2218939.64848  -1729039.09745  23186061.018    23186061.158
 02  1  7  0  6 30.0000000  0  8G30G11G25G 1G20G22G29G14
   1890740.32648   1473304.77944  23889002.626    23889003.801
 -10826413.19048  -8436169.82744  23294482.508    23294482.543
 -23383160.15349 -18220638.72047  20616475.832    20616475.433
  -8149352.93548  -6350140.95945  23543980.839    23543984.034
 -20755260.80249 -16172927.11646  21404611.210    21404611.087
 -10240436.55248  -7979560.78045  22815016.135    22815017.610
 -10801212.93949  -8416523.70046  21746535.113    21746535.069
  -2141338.06648  -1668570.34945  23200827.972    23200827.034
 02  1  7  0  7  0.0000000  0  8G30G11G25G 1G20G22G29G14
   1955121.92148   1523472.20744  23901253.463    23901255.804
 -10754435.27348  -8380083.22044  23308180.022    23308182.054
 -23356249.46449 -18199669.35347  20621596.797    20621596.390
  -8228494.30848  -6411809.52745  23528921.962    23528923.616
 -20819560.74849 -16223030.97946  21392375.370    21392375.665
 -10348673.72248  -8063901.43645  22794418.974    22794420.717
 -10744137.05549  -8372048.99746  21757396.275    21757396.824
  -2063618.00748  -1608009.28445  23215617.094    23215617.455
 02  1  7  0  7 30.0000000  0  8G30G11G25G 1G20G22G29G14
   2019984.43848   1574014.43744  23913596.950    23913596.321
 -10682168.72848  -8323771.68144  23321932.648    23321934.171
 -23328942.03149 -18178390.83847  20626793.327    20626792.945
  -8307557.88148  -6473417.46345  23513875.502    23513878.545
 -20883443.44049 -16272809.70346  21380218.875    21380218.704
 -10456715.18048  -8148089.56945  22773859.186    22773860.259
 -10686862.74149  -8327419.67046  21768295.227    21768295.571
  -1985773.36248  -1547351.13145  23230431.357    23230431.293
 02  1  7  0  8  0.0000000  0  8G30G11G25G 1G20G22G29G14
   2085299.35148   1624909.14244  23926025.826    23926028.638
 -10609642.61048  -8267257.84644  23335733.065    23335732.497
 -23301265.19549 -18156824.47547  20632059.772    20632059.478
  -8386569.46848  -6534984.89045  23498841.100    23498841.551
 -20946932.80949 -16322281.95246  21368137.218    21368137.606
 -10564583.67048  -8232142.93445  22753332.935    22753333.375
 -10629416.50749  -8282656.39546  21779226.887    21779226.706
  -1907830.80548  -1486616.68045  23245262.803    23245261.486
 02  1  7  0  8 30.0000000  0  8G30G11G25G 1G20G22G29G14
   2151070.86848   1676159.72644  23938541.623    23938542.888
 -10536853.33548  -8210538.95344  23349585.298    23349585.112
 -23273214.54549 -18134966.83147  20637397.752    20637397.439
  -8465522.69348  -6596506.83745  23483816.161    23483819.014
 -21010020.41649 -16371441.13046  21356132.386    21356132.373
 -10672270.06748  -8316054.38645  22732840.532    22732842.831
 -10571792.44849  -8237754.54946  21790192.044    21790192.215
  -1829784.39548  -1425801.32645  23260114.884    23260114.152
 02  1  7  0  9  0.0000000  0  8G30G11G25G 1G20G22G29G14
   2217322.23948   1727784.13344  23951148.401    23951148.774
 -10463778.21848  -8153597.34744  23363491.125    23363489.771
 -23244765.71249 -18112798.91447  20642811.624    20642811.153
  -8544391.51648  -6657963.00645  23468807.939    23468810.575
 -21072678.39749 -16420265.53646  21344209.080    21344209.196
 -10779745.27548  -8399801.31745  22712388.866    22712389.939
 -10513965.09349  -8192694.29246  21801196.536    21801196.651
  -1751609.17748  -1364885.57045  23274991.048    23274990.797
 02  1  7  0  9 30.0000000  0  8G30G11G25G 1G20G22G29G14
   2284056.88848   1779785.14344  23963847.751    23963849.540
 -10390414.93948  -8096431.16544  23377450.926    23377451.392
 -23215914.75849 -18090317.65347  20648301.697    20648301.322
  -8623170.09048  -6719348.86845  23453817.283    23453819.654
 -21134898.95349 -16468749.09146  21332368.280    21332368.186
 -10887000.65348  -8483376.92545  22691978.637    22691980.829
 -10455929.23149  -8147471.54746  21812240.174    21812240.364
  -1673300.03848  -1303865.49345  23289892.314    23289891.476
 02  1  7  0 10  0.0000000  0  8G30G11G25G 1G20G22G29G14
   2351251.52148   1832144.63044  23976634.652    23976634.957
 -10316787.73448  -8039059.33344  23391461.616    23391461.224
 -23186684.30049 -18067540.67847  20653864.240    20653863.775
  -8701879.16248  -6780680.56945  23438839.079    23438840.268
 -21196700.89749 -16516906.45046  21320608.031    21320608.065
 -10994054.04448  -8566795.12745  22671607.183    22671607.593
 -10397705.96249  -8102102.78246  21823319.913    21823319.879
  -1594878.46648  -1242757.79345  23304816.038    23304815.602
 02  1  7  0 10 30.0000000  0  8G30G11G25G 1G20G22G29G14
   2418922.89648   1884875.53644  23989512.049    23989514.743
 -10242880.18748  -7981469.03844  23405526.468    23405526.706
 -23157057.21649 -18044454.64247  20659502.162    20659501.783
  -8780499.38648  -6841943.02245  23423877.918    23423880.662
 -21258063.11149 -16564721.16346  21308931.539    21308931.764
 -11100883.24648  -8650038.64845  22651278.431    22651279.315
 -10339276.88649  -8056573.64846  21834438.783    21834438.626
  -1516325.83548  -1181547.94945  23319764.274    23319763.013
 02  1  7  0 11  0.0000000  0  8G30G11G25G 1G20G22G29G14
   2487074.15348   1937980.43144  24002480.647    24002481.567
 -10168689.97348  -7923658.53944  23419644.285    23419643.631
 -23127029.06249 -18021056.08547  20665216.102    20665215.723
  -8859024.88248  -6903131.69345  23408935.746    23408937.222
 -21318978.01849 -16612187.33046  21297339.232    21297339.032
 -11207479.49448  -8733100.65745  22630992.771    22630994.661
 -10280636.52149  -8010879.87646  21845597.460    21845597.638
  -1437637.07848  -1120232.05445  23334737.512    23334737.985
 02  1  7  0 11 30.0000000  0  8G30G11G25G 1G20G22G29G14
   2555689.51848   1991446.92444  24015537.474    24015537.356
 -10094233.83148  -7865640.80744  23433812.233    23433812.656
 -23096615.37049 -17997357.10847  20671003.691    20671003.403
  -8937469.08448  -6964256.99545  23394008.120    23394010.100
 -21379456.82049 -16659313.67247  21285830.678    21285830.544
 -11313853.33448  -8815989.36045  22610751.452    22610753.593
 -10221798.95649  -7965032.44246  21856793.965    21856794.500
  -1358826.49648  -1058821.22545  23349735.153    23349735.321
 02  1  7  0 12  0.0000000  0  8G30G11G25G 1G20G22G29G14
   2624763.32448   2045270.68044  24028683.041    24028685.412
 -10019517.90848  -7807420.63444  23448030.584    23448030.167
 -23065820.62549 -17973361.20747  20676863.836    20676863.399
  -9015834.68548  -7025321.06545  23379095.476    23379097.327
 -21439500.68449 -16706101.10347  21274405.004    21274405.150
 -11420004.52248  -8898704.56845  22590551.325    22590553.909
 -10162767.34149  -7919033.80946  21868027.473    21868027.817
  -1279897.60848   -997318.22445  23364755.199    23364754.239
 02  1  7  0 12 30.0000000  0  8G30G11G25G 1G20G22G29G14
   2694275.59948   2099436.06144  24041908.677    24041911.472
  -9944562.75048  -7749014.05444  23462294.061    23462298.245
 -23034664.12049 -17949083.41247  20682792.632    20682792.341
  -9094139.11048  -7086337.44345  23364194.447    23364195.980
 -21499124.95649 -16752561.57147  21263058.883    21263058.812
 -11525947.72448  -8981257.71945  22570391.049    22570394.014
 -10103560.07649  -7872898.28846  21879294.279    21879294.387
  -1200868.54648   -935737.13145  23379793.462    23379791.948
 02  1  7  0 13  0.0000000  0  8G30G11G25G 1G20G22G29G14
   2764227.92148   2153944.33944  24055221.418    24055222.630
  -9869367.13348  -7690420.07844  23476603.548    23476606.728
 -23003143.54349 -17924521.92947  20688790.682    20688790.499
  -9172378.19248  -7147302.94545  23349305.647    23349307.624
 -21558323.75749 -16798690.50847  21251793.562    21251793.446
 -11631675.86749  -9063643.28445  22550272.391    22550272.252
 -10044173.27649  -7826622.87546  21890595.177    21890595.045
  -1121735.82948   -874075.28845  23394851.921    23394852.192
 02  1  7  0 13 30.0000000  0  8G30G11G25G 1G20G22G29G14
   2834620.86948   2208796.03044  24068616.618    24068616.924
  -9793931.39348  -7631639.00844  23490958.234    23490959.781
 -22971257.49449 -17899675.65747  20694858.311    20694858.244
  -9250548.56848  -7208214.89145  23334430.615    23334433.349
 -21617091.89349 -16844483.86047  21240610.184    21240610.270
 -11737182.79348  -9145856.46245  22530194.531    22530196.231
  -9984604.21449  -7780205.44246  21901930.903    21901931.152
  -1042497.01248   -812330.79145  23409930.831    23409930.338
 02  1  7  0 14  0.0000000  0  8G30G11G25G 1G20G22G29G14
   2905470.23248   2264003.30144  24082099.421    24082099.961
  -9718240.63148  -7572659.19944  23505362.444    23505365.128
 -22938989.49149 -17874531.76247  20700998.750    20700998.598
  -9328631.77748  -7269058.90845  23319572.087    23319573.486
 -21675409.10949 -16889925.84547  21229512.942    21229513.036
 -11842447.15948  -9227880.62645  22510163.178    22510165.167
  -9924835.27349  -7733632.26246  21913304.568    21913304.259
   -963134.39748   -750489.81045  23425032.739    23425032.003
 02  1  7  0 14 30.0000000  0  8G30G11G25G 1G20G22G29G14
   2976768.79548   2319560.62644  24095667.269    24095667.133
  -9642302.65548                  23519811.516
 -22906345.87049 -17849095.17447  20707210.580    20707210.610
  -9406632.24948  -7329838.45845  23304728.312    23304730.439
 -21733277.88749 -16935018.40047  21218501.004    21218500.967
 -11947470.44349  -9309716.96545  22490178.253    22490178.809
  -9864871.32249  -7686907.11646  21924714.977    21924715.009
   -883653.33348   -688556.54045  23440157.659    23440156.532
 02  1  7  0 15  0.0000000  0  8G30G11G25G 1G20G22G29G14
   3048521.73448   2375472.00644  24109320.077    24109320.352
  -9566112.85148  -7454118.18444  23534310.740    23534310.030
 -22873320.89949 -17823361.43147  20713495.104    20713494.966
  -9484542.43548  -7390547.64345  23289902.851    23289906.075
 -21790688.90649 -16979754.26447  21207575.920    21207576.149
 -12052242.21948  -9391357.30445  22470240.330    22470241.871
  -9804705.29549  -7640024.52046  21936164.465    21936164.355
   -804046.91648   -626525.57845  23455305.749    23455305.638
 02  1  7  0 15 30.0000000  0  8G30G11G25G 1G20G22G29G14
   3120716.42748                  24123058.641
  -9489684.57248                  23548853.647
 -22839926.30349 -17797339.66847  20719849.967    20719849.733
  -9562371.82848  -7451193.87045  23275092.627    23275094.302
 -21847650.13749 -17024139.64047  21196736.524    21196736.524
 -12156769.26849  -9472806.94645  22450349.647    22450352.541
  -9744347.44249  -7592992.44346  21947650.544    21947650.278
   -724325.57748   -564405.08045  23470477.451    23470476.975
 02  1  7  0 16  0.0000000  0  8G30G11G25G 1G20G22G29G14
   3193354.34948   2488328.60944  24136880.883    24136880.523
  -9413016.91148  -7334822.75444  23563444.494    23563447.453
 -22806159.94349 -17771028.22047  20726275.010    20726275.108
  -9640116.32348  -7511773.96045  23260298.196    23260299.032
 -21904155.72149 -17068169.96847  21185984.099    21185984.310
 -12261044.65549  -9554060.49345  22430507.033    22430508.211
  -9683794.45349  -7545808.31346  21959172.864    21959173.279
   -644486.11448   -502192.53045  23485669.386    23485668.916
 02  1  7  0 16 30.0000000  0  8G30G11G25G 1G20G22G29G14
   3266427.06148   2545268.36344  24150786.510    24150789.415
  -9336118.93348                  23578076.739
 -22772028.94849 -17744432.63647  20732769.813    20732770.054
  -9717781.43648  -7572292.19345  23245518.547    23245520.439
 -21960209.24949 -17111848.04547  21175317.246    21175317.270
 -12365071.07749  -9635120.01545  22410711.146    22410711.813
  -9623052.41749  -7498476.87246  21970731.685    21970732.100
   -564534.93648   -439892.93445  23500884.049    23500883.957
 02  1  7  0 17  0.0000000  0  8G30G11G25G 1G20G22G29G14
   3339933.98748   2602546.49644  24164774.294    24164774.824
  -9258991.18348                  23592753.225
 -22737533.17549 -17717552.81047  20739334.604    20739334.455
  -9795365.06848  -7632746.90745  23230754.759    23230756.885
 -22015806.93349 -17155170.91847  21164737.368    21164737.597
 -12468843.40049  -9715981.57745  22390963.996    22390964.629
  -9562119.74549  -7450996.87746  21982327.431    21982327.528
   -484470.18148   -377504.84045  23516119.873    23516119.334
 02  1  7  0 17 30.0000000  0  8G30G11G25G 1G20G22G29G14
   3413860.17548   2660151.31344  24178841.853    24178844.968
  -9181649.79548                  23607470.374
 -22702687.15549 -17690400.06347  20745965.567    20745965.602
  -9872879.24348  -7693147.49545  23216004.901    23216006.091
 -22070959.09249 -17198146.62847  21154242.240    21154242.385
 -12572371.05149  -9796652.45845  22371263.273    22371264.768
  -9501009.27549  -7403378.34746  21993955.969    21993956.293
   -404305.25248   -315038.67445  23531374.419    23531373.603
 02  1  7  0 18  0.0000000  0  8G30G11G25G 1G20G22G29G14
   3488221.80648   2718095.45144  24192993.632    24192993.226
  -9104079.40547                  23622230.748
 -22667473.66749 -17662960.97747  20752666.356    20752666.369
  -9950305.30948  -7753479.42045  23201271.332    23201272.678
 -22125645.07149 -17240759.07647  21143835.938    21143835.881
 -12675632.26649  -9877115.72945  22351613.264    22351615.445
  -9439702.73149  -7355607.03646  22005621.893    22005622.367
   -324022.21848   -252480.49945  23546652.458    23546651.407
 02  1  7  0 18 30.0000000  0  8G30G11G25G 1G20G22G29G14
   3563023.58548   2776382.51944  24207226.150    24207229.574
  -9026275.42248  -7033466.08344  23637038.756    23637041.809
 -22631887.02249 -17635231.12347  20759438.426    20759438.357
 -10027635.68748  -7813736.79945  23186555.385    23186558.547
 -22179855.52049 -17283000.98547  21133520.123    21133520.156
 -12778616.49149  -9957363.15345  22332015.979    22332017.965
  -9378193.05049  -7307677.42946  22017327.340    22017327.750
   -243613.70348   -189824.52345  23561953.188    23561953.403
 02  1  7  0 19  0.0000000  0  8G30G11G25G 1G20G22G29G14
   3638257.69948   2835006.55744  24221543.783    24221544.670
  -8948246.41548                  23651886.642
 -22595934.26149 -17607215.97847  20766280.227    20766280.217
 -10104875.39248  -7873923.51345  23171857.569    23171858.206
 -22233593.92549 -17324875.06347  21123293.910    21123294.217
 -12881326.09149 -10037396.59745  22312470.999    22312472.483
  -9316485.88749  -7259593.94346  22029069.642    22029070.175
   -163085.73548   -127075.46845  23577277.702    23577277.980
 02  1  7  0 19 30.0000000  0  8G30G11G25G 1G20G22G29G14
   3713914.97548   2893960.23444  24235940.884    24235942.410
  -8870001.84448                  23666776.712
 -22559623.57149 -17578921.93047  20773189.591    20773189.610
 -10182030.48048  -7934044.28945  23157175.271    23157177.359
 -22286864.68849 -17366384.74647  21113157.071    21113157.048
 -12983764.29449 -10117218.56945  22292977.995    22292978.966
  -9254588.17349  -7211361.97246  22040848.021    22040847.991
    -82445.58748    -64239.01245  23592622.435    23592622.921
 02  1  7  0 20  0.0000000  0  8G20G30G11G25G 1G22G29G14
 -22339686.85749 -17407544.87547  21103105.362    21103105.459
   3789971.96648   2953225.39544  24250414.867    24250413.714
  -8791565.92348                  23681701.468
 -22522978.04249 -17550366.96847  20780163.200    20780163.253
 -10259121.59048  -7994115.21945  23142504.692    23142505.985
 -13085949.04649 -10196843.03545  22273532.208    22273534.336
  -9192521.25049  -7162998.15346  22052659.214    22052659.380
     -1714.57748     -1331.77045  23607985.004    23607986.198
 02  1  7  0 20 30.0000000  0  8G20G30G11G25G 1G22G29G14
 -22392031.25049 -17448332.71447  21093144.248    21093144.332
   3866453.44348   3012821.36444  24264969.006    24264968.972
  -8712914.56948                  23696669.476
 -22485971.77849 -17521530.91047  20787205.229    20787205.217
 -10336121.05348  -8054114.75545  23127852.871    23127854.305
 -13187849.83449 -10276246.23845  22254141.466    22254143.038
  -9130258.03249  -7114481.37446  22064507.608    22064507.610
     79134.02348     61667.12545  23623370.734    23623369.913
 02  1  7  0 21  0.0000000  0  8G20G30G11G25G 1G22G29G14
 -22443887.37049 -17488740.08047  21083276.290    21083276.170
   3943365.34348   3072752.70644  24279603.779    24279605.485
  -8634042.31148                  23711678.753
 -22448597.81049 -17492408.33247  20794317.291    20794317.221
 -10413019.98948  -8114035.95845  23113219.127    23113219.828
 -13289455.11149 -10355419.16245  22234806.386    22234807.326
  -9067790.37649  -7065805.29546  22076394.859    22076395.199
    160108.27348    124763.94545  23638778.850    23638780.062
 02  1  7  0 21 30.0000000  0  8G20G30G11G25G 1G22G29G14
 -22495264.07049 -17528773.87247  21073499.655    21073499.574
   4020694.00448   3133008.79644  24294320.146    24294322.181
  -8554963.09848                  23726726.982
 -22410868.73349 -17463009.04847  20801496.980    20801496.866
 -10489828.97248  -8173887.08045  23098602.821    23098603.567
 -13390772.69549 -10434367.92845  22215526.636    22215527.874
  -9005129.70249  -7016978.80846  22088318.724    22088318.927
    241196.65448    187949.64645  23654209.682    23654208.929
 02  1  7  0 22  0.0000000  0  8G20G30G11G25G 1G22G29G14
 -22546167.81049 -17568439.12847  21063813.146    21063813.078
   4098428.55048   3193581.20344  24309111.742    24309112.170
  -8475688.65148                  23741811.327
 -22372795.08449 -17433341.26747  20808742.006    20808742.015
 -10566556.14749  -8233674.44545  23084002.506    23084004.370
 -13491807.68949 -10513096.47845  22196300.176    22196302.483
  -8942284.60049  -6968008.62046  22100277.751    22100277.890
    322390.35848    251217.45645  23669660.872    23669659.724
 02  1  7  0 22 30.0000000  0  8G20G30G11G25G 1G22G29G14
 -22596583.62749 -17607724.18747  21054219.050    21054219.262
   4176579.43448   3254477.95744  24323983.817    24323982.166
  -8396208.96748                  23756936.646
 -22334365.01849 -17403395.75847  20816054.865    20816054.961
 -10643188.04948  -8293387.56845  23069418.878    23069420.981
 -13592544.03949 -10591592.31846  22177130.904    22177132.787
  -8879242.30049  -6918884.76646  22112274.210    22112275.129
    403701.94048    314577.11245  23685133.166    23685132.455
 02  1  7  0 23  0.0000000  0  8G20G30G11G25G 1G22G29G14
 -22646514.46849 -17646631.33647  21044717.732    21044718.073
   4255139.22848   3315693.40644  24338933.265    24338932.360
  -8316531.81348                  23772100.109
 -22295584.97749 -17373177.53947  20823434.251    20823434.463
 -10719729.09648  -8353029.90645  23054853.849    23054854.628
 -13692983.24549 -10669856.61946  22158018.081    22158019.219
  -8816007.90249  -6869611.22446  22124307.723    22124307.394
    485126.06748    378024.44945  23700627.459    23700627.833
 02  1  7  0 23 30.0000000  0  8G20G30G11G25G 1G22G29G14
 -22695962.13449 -17685161.98947  21035308.354    21035308.457
   4334101.64748   3377222.53944  24353958.002    24353958.994
  -8236663.93948                  23787296.410
 -22256460.76049 -17342691.13447  20830879.590    20830879.640
 -10796182.65149  -8412604.07645  23040305.564    23040307.645
 -13793126.13049 -10747890.01846  22138961.433    22138962.267
  -8752585.71749  -6820191.35646  22136376.201    22136376.785
    566658.37148    441556.10545  23716143.512    23716141.900
 02  1  7  0 24  0.0000000  0  8G20G30G11G25G 1G22G29G14
 -22744934.56449 -17723322.32947  21025988.790    21025988.824
   4413454.11548   3439055.61944  24369059.666    24369059.248
  -8156618.25248                  23802530.141
 -22217003.89849 -17311945.52547  20838388.019    20838388.040
 -10872558.10548  -8472117.37045  23025771.422    23025773.783
 -13892979.24749 -10825697.63646  22119959.514    22119960.940
  -8688985.62149  -6770632.86646  22148479.062    22148479.375
    648288.60648    505164.05745  23731677.160    23731675.998
 02  1  7  0 24 30.0000000  0  8G20G30G11G25G 1G22G29G14
 -22793416.74249 -17761100.64747  21016763.146    21016763.276
   4493207.10848   3501200.81544  24384235.885    24384237.212
  -8076385.10148                  23817797.344
 -22177203.09249 -17280931.91047  20845961.485    20845961.488
 -10948842.23349  -8531559.49945  23011256.268    23011256.881
 -13992526.56749 -10903266.95146  22101016.473    22101017.881
  -8625195.10649  -6720925.99146  22160617.966    22160617.352
    730029.26648    568858.06145  23747231.371    23747232.753
 02  1  7  0 25  0.0000000  0  8G20G30G11G25G 1G22G29G14
 -22841417.66549 -17798503.96247  21007629.121    21007629.255
   4573347.03648   3563647.48144  24399486.411    24399486.918
  -7995978.33648                  23833099.188
 -22137070.80249 -17249659.99747  20853598.604    20853598.567
 -11025045.37248  -8590938.56745  22996754.363    22996755.808
 -14091775.77849 -10980603.96846  22082130.054    22082131.435
  -8561225.24349  -6671079.37046  22172791.196    22172791.109
    811869.07748    632629.31645  23762805.594    23762805.544
 02  1  7  0 25 30.0000000  0  8G20G30G11G25G 1G22G29G14
 -22888925.38249 -17835522.96247  20998588.685    20998588.930
   4653881.20348   3626401.43144  24414810.909    24414811.096
  -7915391.15048                  23848433.013
 -22096598.91149 -17218123.45647  20861300.156    20861300.083
 -11101157.40448  -8650246.63345  22982270.567    22982272.342
 -14190713.76249 -11057698.48446  22063302.863    22063304.031
  -8497066.40149  -6621085.48046  22184999.963    22185001.175
    893817.72248    696485.38645  23778399.323    23778398.355
 02  1  7  0 26  0.0000000  0  8G30G11G25G 1G20G22G29G14
   4734804.85648   3689458.74644  24430210.134    24430209.863
  -7834628.86548                  23863802.177
 -22055791.20649 -17186325.24547  20869065.587    20869065.488
 -11177180.01749  -8709485.03845  22967805.072    22967805.238
 -22935940.36549 -17872158.01247  20989641.881    20989642.012
 -14289339.51649 -11134549.68746  22044535.021    22044536.640
  -8432721.10449  -6570946.32546  22197244.610    22197244.710
    975872.20148    760423.92945  23794014.096    23794012.757
 02  1  7  0 26 30.0000000  0  8G30G11G25G 1G20G22G29G14
   4816124.84848   3752824.97544  24445685.483    24445683.690
  -7753684.98748                  23879204.730
 -22014639.83649 -17154259.24547  20876896.616    20876896.472
 -11253103.11448  -8768645.90045  22953355.479    22953357.314
 -22982451.26549 -17908400.27047  20980791.198    20980791.225
 -14387640.49149 -11211147.82046  22025829.112    22025830.583
  -8368180.21049  -6520654.73446  22209526.589    22209526.499
   1058041.65848    824452.03245  23809650.944    23809649.889
 02  1  7  0 27  0.0000000  0  8G30G11G25G 1G20G22G29G14
   4897829.12248   3816490.66544  24461232.236    24461230.425
  -7672571.69247                  23894639.671
 -21973155.90049 -17121934.10247  20884790.786    20884790.783
 -11328935.64949  -8827736.17545  22938926.298    22938927.826
 -23028465.56049 -17944255.55847  20972035.055    20972035.134
 -14485622.82249 -11287497.66146  22007183.568    22007185.512
  -8303453.33649  -6470218.22646  22221843.671    22221844.071
   1140316.37648    888562.19045  23825306.861    23825307.261
 02  1  7  0 27 30.0000000  0  8G30G11G25G 1G20G22G29G14
   4979916.53048   3880454.85444  24476853.394    24476854.608
  -7591291.03248                  23910108.010
 -21931339.61849 -17089349.98747  20892748.243    20892747.883
 -11404675.80148  -8886754.46845  22924513.525    22924514.471
 -23073979.84849 -17979721.22847  20963373.842    20963374.017
 -14583282.12549 -11363595.79146  21988599.069    21988601.163
  -8238539.31749  -6419635.90346  22234196.262    22234196.159
   1222697.04548    952754.89745  23840983.292    23840982.020
 02  1  7  0 28  0.0000000  0  8G30G11G25G 1G20G22G29G14
   5062389.31748   3944719.41144  24492548.075    24492547.044
  -7509840.94947                  23925606.501
 -21889187.86549 -17056504.47147  20900769.529    20900769.382
 -11480318.40148  -8945696.75045  22910118.089    22910119.924
 -23118987.49649 -18014792.12147  20954809.284    20954809.230
 -14680610.26649 -11439435.88646  21970078.785    21970080.249
  -8173433.70649  -6368904.28046  22246585.482    22246585.360
   1305188.07548   1017033.60045  23856681.037    23856680.339
 02  1  7  0 28 30.0000000  0  8G30G11G25G 1G20G22G29G14
   5145248.79848   4009285.21044  24508315.492    24508316.819
  -7428220.68447                  23941137.712
 -21846698.27149 -17023395.69947  20908854.834    20908854.660
 -11555858.70349  -9004559.32345  22895745.305    22895745.853
 -23163482.66649 -18049463.67747  20946341.958    20946342.260
 -14777599.99649 -11515012.27646  21951621.503    21951623.109
  -8108132.55849  -6318020.29246  22259012.121    22259011.998
   1387793.30748   1081401.30245  23872400.300    23872399.830
 02  1  7  0 29  0.0000000  0  8G30G11G25G 1G20G22G29G14
   5228494.81748   4074152.26844  24524156.842    24524154.456
  -7346430.40547                  23956701.709
 -21803870.06949 -16990023.07647  20917004.798    20917004.631
 -11631293.90948  -9063339.96646  22881388.455    22881391.163
 -23207460.94449 -18083732.46347  20937973.011    20937973.089
 -14874245.79149 -11590320.65946  21933230.914    21933231.692
  -8042633.57149  -6266982.14646  22271475.598    22271476.179
   1470514.75348   1145859.52845  23888141.164    23888141.590
 02  1  7  0 29 30.0000000  0  7G30G 1G22G25G20G29G14
   5312098.16948   4139297.70444  24540065.319    24540064.205
 -11706650.04148  -9122059.03445  22867048.838    22867050.107
 -14970570.88349 -11665379.16246  21914900.226    21914902.134
 -21760731.38649 -16956408.52147  20925213.888    20925213.885
 -23250946.93449 -18117617.64947  20929698.160    20929698.258
  -7976964.00549  -6215811.07746  22283972.437    22283972.743
   1553325.56348   1210387.41245  23903899.957    23903898.291
 02  1  7  0 30  0.0000000  0  7G30G 1G22G25G20G29G14
   5396074.64048   4204733.90744  24556046.075    24556044.593
 -11781908.28949  -9180701.81145  22852729.427    22852729.853
 -15066553.97049 -11740171.15346  21896635.870    21896636.897
 -21717265.65449 -16922539.12547  20933485.305    20933485.303
 -23293920.61749 -18151103.63747  20921520.426    20921520.433
  -7911105.36449  -6164492.67446  22296505.063    22296504.809
   1636243.27148   1274998.57645  23919678.839    23919676.651
 02  1  7  0 30 30.0000000  0  7G30G25G 1G20G22G29G14
   5480418.09548   4270456.07644  24572095.817    24572095.175
 -21673477.87449 -16888418.78347  20941817.769    20941817.693
 -11857071.41648  -9239270.46345  22838424.162    22838425.830
 -23336383.52249 -18184191.61647  20913440.304    20913440.304
 -15162195.00849 -11814696.61946  21878435.698    21878437.463
  -7845061.43049  -6113029.89446  22309072.365    22309072.634
   1719264.43048   1339690.37445  23935476.353    23935476.714
 02  1  7  0 31  0.0000000  0  7G30G 1G22G29G25G20G14
   5565128.31048   4336464.02144  24588214.942    24588215.747
 -11932136.55649  -9297762.76145  22824140.885    22824142.030
 -15257488.79649 -11888951.48646  21860302.099    21860303.484
  -7778830.05049  -6061421.04946  22321676.644    22321676.642
 -21629367.27149 -16854046.89147  20950211.412    20950211.333
 -23378331.50549 -18216878.35747  20905457.830    20905457.893
   1802390.80348   1404464.13845  23951296.485    23951296.268
 02  1  7  0 31 30.0000000  0  7G30G25G 1G20G22G29G14
   5650209.72548   4402761.24644  24604406.212    24604406.120
 -21584928.56349 -16819419.32947  20958667.868    20958667.864
 -12007096.04749  -9356172.72446  22809876.964    22809877.661
 -23419755.59049 -18249156.86647  20897574.970    20897575.048
 -15352425.01649 -11962927.74746  21842236.087    21842238.122
  -7712404.42049  -6009660.84246  22334316.463    22334316.872
   1885629.17148   1469325.14545  23967135.444    23967136.554
 02  1  7  0 32  0.0000000  0  8G30G11G25G 1G20G22G29G14
   5735658.66348   4469344.81444  24620666.522    24620667.455
         -.21658                  24050680.454
 -21540164.30849 -16784538.09747  20967186.331    20967186.195
 -12081950.30248  -9414500.69046  22795631.174    22795633.115
 -23460654.97649 -18281026.51447  20889791.997    20889792.185
 -15447001.36449 -12036623.57746  21824238.979    21824240.019
  -7645785.80549  -5957750.25546  22346993.739    22346994.166
   1968978.00448   1534272.28645  23982996.006    23982996.138
 02  1  7  0 32 30.0000000  0  8G30G11G25G 1G20G22G29G14
   5821458.47448   4536201.79744  24636993.204    24636990.967
     82815.45848                  24066440.349
 -21495090.08249 -16749415.32847  20975763.707    20975763.815
 -12156712.97049  -9472757.28146  22781405.670    22781407.043
 -23501041.92949 -18312496.86947  20882106.379    20882106.687
 -15541228.80349 -12110047.53246  21806308.118    21806309.388
  -7578988.43249  -5905700.37546  22359704.684    22359705.211
   2052422.85448   1599294.18945  23998874.889    23998875.676
 02  1  7  0 33  0.0000000  0  8G30G11G25G 1G20G22G29G14
   5907618.99748   4603339.89144  24653389.749    24653386.992
    165771.99048                  24082226.252
 -21449694.94049 -16714042.49447  20984401.835    20984401.925
 -12231370.81749  -9530932.22846  22767198.192    22767199.252
 -23540902.30949 -18343556.90747  20874521.431    20874521.534
 -15635091.62949 -12183187.37746  21788446.356    21788448.319
  -7512000.02049  -5853501.63946  22372452.560    22372452.667
   2135975.94848   1664400.48144  24014775.215    24014773.054
 02  1  7  0 33 30.0000000  0  8G30G11G25G 1G20G22G29G14
   5994128.51048   4670749.91144  24669850.943    24669851.946
    248857.40748                  24098036.183
 -21403989.83349 -16678428.13147  20993099.279    20993099.143
 -12305932.53848  -9589032.25545  22753007.949    22753009.979
 -23580243.26849 -18374212.20147  20867035.241    20867035.288
 -15728595.77749 -12256047.73046  21770653.575    21770655.039
  -7444829.94049  -5801161.32946  22385234.383    22385235.452
   2219627.91448   1729583.76944  24030693.255    24030692.972
 02  1  7  0 34  0.0000000  0  8G30G11G25G 1G20G22G29G14
   6080980.14348   4738426.50844  24686378.939    24686378.501
    332064.45048                  24113870.188
 -21357980.90149 -16642577.01947  21001854.537    21001854.522
 -12380401.63949  -9647060.11346  22738839.880    22738840.394
 -23619067.23849 -18404464.64247  20859647.193    20859647.230
 -15821742.28949 -12328629.40946  21752927.894    21752929.746
  -7377482.48549  -5748682.82046  22398049.844    22398050.441
   2303373.95948   1794840.41544  24046628.824    24046627.350
 02  1  7  0 34 30.0000000  0  8G30G11G25G 1G20G22G29G14
   6168188.34048   4806380.92844  24702973.873    24702976.897
    415407.36348                  24129731.731
 -21311652.01649 -16606476.59447  21010670.605    21010670.578
 -12454760.44449  -9705002.02546  22724687.776    22724689.751
 -23657355.40249 -18434299.56947  20852360.979    20852361.315
 -15914510.84849 -12400916.56946  21735275.158    21735276.215
  -7309940.72149  -5696052.89646  22410903.111    22410903.577
   2387230.99848   1860183.52145  24062587.183    24062587.381
 02  1  7  0 35  0.0000000  0  8G30G11G25G 1G20G22G29G14
   6255741.30348   4874604.00844  24719634.422    24719633.786
    498873.92648                  24145612.268
 -21265013.86149 -16570135.17847  21019545.705    21019545.463
 -12529017.53749  -9762864.67446  22710557.436    22710559.106
 -23695115.19849 -18463722.78547  20845175.719    20845175.719
 -16006907.49349 -12472913.94046  21717692.134    21717693.857
  -7242214.41149  -5643279.16746  22423791.101    22423791.526
   2471189.42448   1925605.62445  24078563.958    24078564.801
 02  1  7  0 35 30.0000000  0  8G30G11G25G 1G20G22G29G14
   6343640.69748   4943097.04144  24736361.243    24736362.577
    582465.68048    453869.51844  24161520.948    24161522.417
 -21218064.22149 -16533551.04547  21028480.212    21028479.763
 -12603167.83049  -9820644.09946  22696448.403    22696449.088
 -23732340.65249 -18492729.63347  20838091.907    20838092.052
 -16098924.87149 -12544615.77646  21700182.025    21700183.856
  -7174299.06249  -5590358.13246  22436714.701    22436715.345
   2555253.14348   1991109.79445  24094560.121    24094560.312
 02  1  7  0 36  0.0000000  0  8G30G11G25G 1G20G22G29G14
   6431876.69948   5011852.37344  24753151.707    24753159.613
    666172.35848                  24177448.542
 -21170811.97549 -16496731.11647  21037471.864    21037471.699
 -12677218.02649  -9878345.52746  22682355.471    22682358.029
 -23769037.30949 -18521324.43147  20831108.719    20831108.551
 -16190567.01349 -12616025.21246  21682743.147    21682744.430
  -7106202.32349  -5537295.76246  22449673.087    22449674.056
   2639414.53748   2056690.05744  24110576.071    24110574.137
 02  1  7  0 36 30.0000000  0  8G30G11G25G 1G20G22G29G14
   6520454.92948   5080874.35044  24770008.262    24770008.282
    749999.19648                  24193401.894
 -21123250.23849 -16459670.02647  21046522.532    21046522.049
 -12751159.20549  -9935962.00146  22668286.038    22668286.616
 -23805194.85349 -18549499.14647  20824228.048    20824228.163
 -16281822.32649 -12687133.22746  21665377.748    21665379.317
  -7037915.98049  -5484085.64046  22462667.868    22462668.304
   2723681.54448   2122352.61945  24126611.797    24126610.865
 02  1  7  0 37  0.0000000  0  7G30G25G 1G20G22G29G14
   6609370.36748   5150159.17444  24786928.068    24786929.354
 -21075382.60249 -16422370.57247  21055631.395    21055631.053
 -12824992.68349  -9993494.57046  22654235.788    22654237.119
 -23840813.92849 -18577254.27047  20817449.872    20817449.845
 -16372689.91349 -12757939.12746  21648085.986    21648087.715
  -6969442.39349  -5430729.61445  22475697.252    22475697.735
   2808051.77048   2188095.61844  24142666.127    24142666.741
 02  1  7  0 37 30.0000000  0  8G30G 4G25G 1G20G22G29G14
   6698631.97748   5219713.55944  24803912.901    24803913.434
         -.50458                  25329165.368
 -21027199.80549 -16384825.53647  21064800.172    21064799.969
 -12898706.80749 -10050934.14246  22640207.867    22640210.268
 -23875881.85049 -18604579.92447  20810776.864    20810776.915
 -16463155.36149 -12828431.66346  21630871.509    21630872.863
  -6900770.63149  -5377219.18346  22488765.167    22488766.021
   2892536.05348   2253927.48144  24158743.919    24158743.645
 02  1  7  0 38  0.0000000  0  8G30G 4G25G 1G20G22G29G14
   6788198.17548   5289505.42744  24820958.448    24820957.254
    -53437.04048                  25318996.208
 -20978742.01849 -16347066.22747  21074021.399    21074021.041
 -12972339.49049 -10108310.24046  22626196.934    22626197.960
 -23910435.41649 -18631504.77947  20804201.632    20804201.659
 -16553254.26249 -12898638.58946  21613725.594    21613727.117
  -6831939.48349  -5323584.53245  22501864.085    22501863.687
   2977095.18248   2319817.66644  24174834.274    24174834.978
 02  1  7  0 38 30.0000000  0  8G30G 4G25G 1G20G22G29G14
   6878092.97748   5359553.40144  24838064.157    24838067.554
   -106417.88748                  25308914.866
 -20929984.31049 -16309073.20947  21083299.704    21083299.296
 -13045863.48149 -10165601.63646  22612205.172    22612206.793
 -23944446.39249 -18658006.83947  20797729.573    20797729.559
 -16642956.94549 -12968536.75646  21596655.962    21596657.394
  -6762922.83549  -5269805.33245  22514996.643    22514997.019
   3061755.59548   2385786.78044  24190944.737    24190944.391
 02  1  7  0 39  0.0000000  0  8G30G 4G25G 1G20G22G29G14
   6968300.31548   5429844.76144  24855230.439    24855233.615
   -158954.66648                  25298918.033
 -20880941.60449 -16270858.11947  21092632.209    21092631.997
 -13119291.29949 -10222818.09046  22598231.494    22598233.594
 -23977926.42749 -18684095.17847  20791358.284    20791358.562
 -16732273.52849 -13038134.07946  21579659.400    21579661.001
  -6693733.73749  -5215891.76346  22528163.539    22528164.319
   3146503.56848   2451824.12044  24207072.283    24207071.753
 02  1  7  0 39 30.0000000  0  8G30G 4G25G 1G20G22G29G14
   7058827.85548                  24872457.237
   -211035.50748                  25289006.907
 -20831605.08349 -16232414.08247  21102020.685    21102020.345
 -13192612.00049 -10279951.08446  22584280.190    22584281.287
 -24010863.65849 -18709760.55347  20785090.684    20785090.774
 -16821190.68049 -13107420.15146  21562739.130    21562741.101
  -6624362.30749  -5161836.11445  22541364.472    22541364.333
   3231348.93648   2517937.35444  24223217.239    24223217.826
 02  1  7  0 40  0.0000000  0  8G30G 4G25G 1G20G22G29G14
   7149678.28748   5571178.30044  24889744.977    24889745.002
   -262653.46148                  25279184.086
 -20781970.63149 -16193737.88647  21111465.904    21111465.557
 -13265819.71049 -10336996.03546  22570348.628    22570349.643
 -24043251.17249 -18734997.57347  20778927.835    20778927.946
 -16909699.77749 -13176388.26146  21545896.679    21545898.125
  -6554803.59649  -5107634.53045  22554600.681    22554601.766
   3316296.87648   2584130.50244  24239382.970    24239381.999
 02  1  7  0 40 30.0000000  0  8G30G 4G25G 1G20G22G29G14
   7240859.64948   5642228.62044  24907096.533    24907095.161
   -313795.98148                  25269452.837
 -20732029.39049 -16154822.63647  21120969.095    21120969.138
 -13338902.94349 -10393943.98846  22556441.252    22556443.077
 -24075076.62649 -18759796.62847  20772871.782    20772871.482
 -16997787.29649 -13245027.86646  21529133.503    21529135.135
  -6485046.89149  -5053278.69145  22567875.094    22567875.536
   3401357.59348   2650411.53244  24255568.776    24255569.386
 02  1  7  0 41  0.0000000  0  8G30G 4G25G 1G20G22G29G14
   7332350.54548   5713520.28544  24924506.986    24924509.221
   -364480.23348                  25259808.338
 -20681801.87549 -16115684.31947  21130527.023    21130526.796
 -13411879.63249 -10450808.92846  22542554.868    22542555.248
 -24106356.92549 -18784170.88347  20766919.194    20766919.051
 -17085468.60049 -13313350.93546  21512448.877    21512450.344
  -6415111.08849  -4998783.27945  22581183.524    22581183.520
   3486512.24048   2716765.76644  24271773.313    24271771.599
 02  1  7  0 41 30.0000000  0  8G30G 4G25G 1G20G22G29G14
   7424157.21748   5785057.98044  24941977.149    24941974.075
   -414695.76848                  25250252.224
 -20631280.48649 -16076317.00347  21140141.466    21140141.249
 -13484740.27049 -10507583.42246  22528689.279    22528690.774
 -24137081.84949 -18808112.38147  20761072.207    20761072.188
 -17172731.78249 -13381348.19446  21495842.707    21495844.755
  -6344987.61949  -4944141.62145  22594527.446    22594527.823
   3571769.06448   2783199.58044  24287997.582    24287998.734
 02  1  7  0 42  0.0000000  0  8G30G 4G25G 1G20G22G29G14
   7516263.77048   5856829.25944  24959504.764    24959504.273
   -464454.53748                  25240782.702
 -20580480.29149 -16036732.43447  21149807.980    21149808.022
 -13557497.31949 -10564277.18646  22514844.355    22514845.655
 -24167263.32649 -18831630.41347  20755328.896    20755328.790
 -17259587.11849 -13449027.65146  21479315.170    21479316.643
  -6274690.04349  -4889364.30245  22607904.539    22607905.430
   3657114.61048   2849702.56644  24304238.285    24304240.872
 02  1  7  0 42 30.0000000  0  8G30G 4G25G 1G20G22G29G14
   7608683.73748   5928844.84444  24977091.768    24977090.051
   -513738.38348                  25231405.258
 -20529386.75349 -15996919.29447  21159530.789    21159530.767
 -13630133.73549 -10620876.94846  22501022.674    22501022.978
 -24196883.18849 -18854710.82247  20749692.278    20749692.390
 -17346015.01349 -13516374.03846  21462868.087    21462869.893
  -6204202.13049  -4834438.68145  22621318.220    22621319.586
   3742564.87448   2916287.12244  24320498.971    24320500.679
 02  1  7  0 43  0.0000000  0  8G30G 4G25G 1G20G22G29G14
   7701410.65648   6001099.59444  24994736.665    24994737.494
   -562549.81348                  25222116.454
 -20478005.00249 -15956881.56447  21169308.465    21169308.387
 -13702652.86949 -10677385.33946  22487221.429    22487222.671
 -24225944.05149 -18877355.64947  20744162.480    20744162.382
 -17432016.56549 -13583388.20346  21446503.053    21446504.321
  -6133527.98948  -4779367.94045  22634767.021    22634767.579
   3828115.36648   2982949.79244  24336778.363    24336779.204
 02  1  7  0 43 30.0000000  0  8G30G 4G25G 1G20G22G29G14
   7794434.31548                  25012438.420
   -610894.53448                  25212915.896
 -20426344.40749 -15916626.55347  21179138.881    21179139.014
 -13775061.30849 -10733807.47246  22473443.469    22473444.789
 -24254451.83449 -18899569.50547  20738737.675    20738737.618
 -17517596.15649 -13650073.57546  21430217.598    21430219.329
  -6062675.35548  -4724158.10945  22648249.794    22648250.355
   3913758.50248   3049684.65844  24353076.135    24353074.882
 02  1  7  0 44  0.0000000  0  8G30G 4G25G 1G20G22G29G14
   7887756.17048                  25030197.168
   -658767.03348                  25203806.340
 -20374401.95649 -15876151.91847  21189023.158    21189023.417
 -13847354.11749 -10790139.51846  22459686.748    22459687.474
 -24282400.92749 -18921348.02047  20733418.992    20733418.764
 -17602746.50549 -13716424.46146  21414013.823    21414015.351
  -5991640.08748  -4668805.97845  22661767.158    22661767.916
   3999498.11648   3116494.69444  24369392.003    24369391.983
 02  1  7  0 44 30.0000000  0  8G30G 4G25G 1G20G22G29G14
   7981371.59648   6219250.94944  25048011.827    25048011.381
   -706167.97848                  25194787.391
 -20322181.43849 -15835460.60947  21198960.399    21198960.515
 -13919532.60749 -10846382.48546  22445950.965    22445952.590
 -24309792.05549 -18942691.76047  20728206.675    20728206.531
 -17687466.53349 -13782440.03446  21397892.185    21397892.939
  -5920424.60948  -4613313.42645  22675319.436    22675320.035
   4085331.75948   3183377.95844  24385724.693    24385727.135
 02  1  7  0 45  0.0000000  0  8G30G 4G25G 1G20G22G29G14
   8075280.26848   6292426.51744  25065882.108    25065882.906
   -753093.23648                  25185856.760
 -20269681.95849 -15794551.92147  21208950.897    21208951.105
 -13991593.73149 -10902533.99546  22432238.306    22432239.838
 -24336621.09049 -18963597.50247  20723101.197    20723101.256
 -17771750.82749 -13848116.07146  21381853.532    21381854.899
  -5849026.69648  -4557678.70845  22688905.708    22688906.502
   4171261.46548   3250336.07444  24402077.591    24402076.422
 02  1  7  0 45 30.0000000  0  8G30G 4G25G 1G20G22G29G14
   8169480.23648   6365829.06744  25083807.718    25083806.898
   -799540.62948                  25177018.603
 -20216904.55449 -15753426.67247  21218994.092    21218993.963
 -14063535.93849 -10958592.83946  22418548.943    22418549.994
 -24362885.87049 -18984063.56347  20718103.012    20718103.251
 -17855595.81049 -13913449.78946  21365898.174    21365899.426
  -5777445.78948  -4501901.38845  22702527.192    22702527.348
   4257287.45148   3317369.25744  24418447.470    24418446.221
 02  1  7  0 46  0.0000000  0  8G30G 4G25G 1G20G22G29G14
   8263969.38748                  25101788.487
   -845508.29948                  25168271.219
 -20163850.22349 -15712085.63847  21229090.091    21229090.044
 -14135357.90849 -11014557.99646  22404880.574    22404881.919
 -24388584.59849 -19004088.54747  20713212.542    20713212.787
 -17938997.77649 -13978438.30346  21350027.166    21350028.133
  -5705681.45348  -4445981.16145  22716183.669    22716184.264
   4343410.22248   3384477.84844  24434835.899    24434835.540
 02  1  7  0 46 30.0000000  0  8G30G 4G25G 1G20G22G29G14
   8358734.07448                  25119821.280
   -891005.84148   -694290.78044  25159613.295    25159616.697
 -20110531.48749 -15670538.57347  21239236.350    21239236.444
 -14207070.07649 -11070437.58946  22391234.636    22391235.458
 -24413726.87849 -19023679.93347  20708428.131    20708428.377
 -18021964.81649 -14043087.91246  21334239.308    21334240.540
  -5633745.12848  -4389926.90145  22729872.851    22729874.020
   4429618.18248   3451652.84844  24451240.893    24451242.161
 02  1  7  0 47  0.0000000  0  8G30G 4G25G 1G20G22G29G14
   8453777.66247                  25137907.492
   -936025.76448                  25151046.096
 -20056943.86949 -15628781.98547  21249433.643    21249433.632
 -14278665.46449 -11126226.18846  22377610.827    22377611.596
 -24438305.38049 -19042832.01047  20703751.116    20703751.420
 -18104487.95949 -14107391.62746  21318535.406    21318536.552
  -5561630.98048  -4333734.09145  22743595.159    22743594.795
   4515916.99948   3518898.62244  24467663.864    24467662.943
 02  1  7  0 47 30.0000000  0  7G 4G25G 1G20G22G29G14
   -980563.90248                  25142570.105
 -20003085.96049 -15586814.78347  21259682.737    21259682.659
 -14350140.26449 -11181920.81346  22364008.599    22364010.100
 -24462315.82049 -19061541.44447  20699182.102    20699182.285
 -18186561.43749 -14171344.95246  21302917.277    21302918.906
  -5489336.13548  -4277400.47745  22757352.802    22757353.734
   4602309.42548   3586217.28644  24484102.303    24484102.030
 02  1  7  0 48  0.0000000  0  7G 4G25G 1G20G22G29G14
  -1024614.36048                  25134188.452
 -19948955.23749 -15544634.99847  21269983.232    21269983.254
 -14421489.36249 -11237517.50846  22350431.822    22350432.536
 -24485752.78049 -19079804.00947  20694722.383    20694722.732
 -18268177.74249 -14234942.04846  21287386.567    21287387.987
  -5416856.86148  -4220923.12945  22771145.019    22771146.764
   4688799.12148   3653611.76644  24500562.432    24500562.072
 02  1  7  0 48 30.0000000  0  7G 4G25G 1G20G22G29G14
  -1068177.55748                  25125898.455
 -19894554.81949 -15502245.06547  21280335.302    21280335.305
 -14492713.78849 -11293017.05046  22336878.311    22336879.111
 -24508616.51249 -19097619.90447  20690371.611    20690371.897
 -18349335.79749 -14298182.05246  21271942.606    21271943.900
  -5344194.83148  -4164303.41845  22784971.707    22784973.332
   4775384.06448   3721080.51544  24517038.899    24517038.462
 02  1  7  0 49  0.0000000  0  7G 4G25G 1G20G22G29G14
  -1111249.93648                  25117701.480
 -19839884.16649 -15459644.55547  21290738.831    21290738.659
 -14563810.35049 -11348416.95446  22323348.483    22323350.293
 -24530903.44949 -19114986.34847  20686130.351    20686130.671
 -18430030.24149 -14361060.80846  21256586.734    21256587.977
  -5271348.12948  -4107539.76445  22798834.634    22798834.562
   4862066.36748   3788625.08544  24533532.404    24533535.569
 02  1  7  0 49 30.0000000  0  7G 4G25G 1G20G22G29G14
  -1153843.60848                  25109596.387
 -19784957.91649 -15416844.88247  21301190.989    21301190.980
 -14634791.66949 -11403727.03946  22309842.286    22309843.592
 -24552625.62849 -19131912.72347  20681996.780    20681997.133
 -18510271.58849 -14423586.49946  21241317.509    21241318.774
  -5198330.31248  -4050642.80045  22812729.695    22812730.255
   4948832.21148   3856234.71944  24550044.459    24550046.043
 02  1  7  0 50  0.0000000  0  7G 4G25G 1G20G22G29G14
  -1195946.33848                  25101584.928
 -19729766.69849 -15373838.73847  21311693.376    21311693.124
 -14705645.91149 -11458938.10746  22296358.864    22296359.585
 -24573770.99149 -19148389.62847  20677973.135    20677973.429
 -18590046.13249 -14485748.44046  21226136.638    21226137.694
  -5125130.60248  -3993604.08645  22826658.699    22826660.542
   5035692.10248   3923917.64944  24566573.471    24566570.356
 02  1  7  0 50 30.0000000  0  7G 4G25G 1G20G22G29G14
  -1237553.73748                  25093666.673
 -19674309.40349 -15330625.26347  21322246.844    21322246.595
 -14776369.30049 -11514047.21946  22282900.099    22282901.484
 -24594335.18249 -19164413.67347  20674060.086    20674060.311
 -18669347.96449 -14547542.03946  21211046.273    21211047.570
  -5051746.38948  -3936421.60645  22840623.362    22840624.178
   5122648.58048   3991675.93144  24583120.715    24583121.474
 02  1  7  0 51  0.0000000  0  8G13G 4G25G 1G20G22G29G14
         -.45057                  25183778.163
  -1278679.84348                  25085841.003
 -19618602.60649 -15287217.37147  21332847.365    21332847.311
 -14846976.39949 -11569065.70446  22269464.686    22269465.944
 -24614332.32449 -19179995.86447  20670254.597    20670254.891
 -18748189.37749 -14608976.86946  21196042.819    21196044.060
  -4978192.93048  -3879107.24745  22854620.402    22854621.011
   5209685.94348   4059497.14244  24599683.824    24599684.454
 02  1  7  0 51 30.0000000  0  7G 4G25G 1G20G22G29G14
  -1319322.50448                  25078106.354
 -19562647.13749 -15243615.71047  21343495.371    21343495.648
 -14917465.38749 -11623992.15746  22256050.974    22256052.120
 -24633760.55449 -19195134.74547  20666557.083    20666557.261
 -18826566.57849 -14670049.97946  21181128.724    21181129.942
  -4904469.81248  -3821660.68845  22868648.816    22868649.842
   5296805.01548                  24616261.501
 02  1  7  0 52  0.0000000  0  7G 4G25G 1G20G22G29G14
  -1359472.66048                  25070466.445
 -19506436.75349 -15199815.41347  21354192.045    21354192.231
 -14987827.67349 -11678819.89146  22242660.865    22242662.160
 -24652610.64749 -19209823.13147  20662970.185    20662970.469
 -18904468.98349 -14730753.11646  21166303.473    21166305.353
  -4830569.32948  -3764075.93345  22882711.835    22882713.970
   5384013.49648   4195336.59844  24632856.728    24632856.196
 02  1  7  0 52 30.0000000  0  7G 4G25G 1G20G22G29G14
  -1399137.17248                  25062919.018
 -19449980.63449 -15155823.63547  21364934.814    21364935.037
 -15058070.29249 -11733554.38246  22229295.073    22229295.586
 -24670889.47949 -19224066.37647  20659492.170    20659492.271
 -18981901.64349 -14791090.21546  21151569.171    21151570.164
  -4756499.81048  -3706359.44945  22896807.199    22896808.809
   5471302.64848   4263354.00544  24649468.499    24649465.827
 02  1  7  0 53  0.0000000  0  7G 4G25G 1G20G22G29G14
  -1438297.20448                  25055467.337
 -19393262.55549 -15111627.73247  21375728.028    21375728.273
 -15128174.75549 -11788181.20846  22215953.771    22215955.117
 -24688578.21649 -19237849.80547  20656125.840    20656126.137
 -19058844.16449 -14851045.39446  21136927.014    21136928.530
  -4682243.77548  -3648497.63145  22910937.336    22910937.856
   5558689.65148   4331447.68044  24666097.203    24666097.711
 02  1  7  0 53 30.0000000  0  7G25G 4G 1G20G22G29G14
 -19336270.15149 -15067218.07147  21386573.538    21386573.594
  -1476937.17048                  25048113.170
 -15198125.97249 -11842688.61846  22202642.314    22202643.773
 -24705661.76049 -19251161.66147  20652874.688    20652874.934
 -19135279.44549 -14910605.31946  21122382.083    21122383.394
  -4607787.19448  -3590479.53045  22925106.466    22925105.892
   5646188.60448   4399628.57544  24682747.867    24682746.733
 02  1  7  0 54  0.0000000  0  8G13G 4G25G 1G20G22G29G14
          .20157                  25078956.575
  -1515075.95348                  25040855.901
 -19279024.71049 -15022611.23747  21397466.753    21397466.888
 -15267943.01549 -11897091.47846  22189357.065    22189357.801
 -24722158.86549 -19264016.54747  20649735.310    20649735.713
 -19211224.42149 -14969783.19846  21107930.353    21107931.532
  -4533150.25448  -3532320.90645  22939309.145    22939308.839
   5733779.08148   4467880.79244  24699415.815    24699417.009
 02  1  7  0 54 30.0000000  0  8G25G13G 4G 1G20G22G29G14
 -19221532.69349 -14977812.26547  21408407.087    21408407.285
    -91834.63448                  25061481.784
  -1552717.26348  -1209910.36644  25033693.566    25033694.029
 -15337629.94049 -11951392.95146  22176095.534    22176097.095
 -24738073.03249 -19276417.19647  20646707.253    20646707.462
 -19286681.35649 -15028580.78046  21093570.892    21093572.242
  -4458338.03848  -3474025.69445  22953545.214    22953546.597
   5821455.82748   4536200.22744  24716099.775    24716100.605
 02  1  7  0 55  0.0000000  0  8G25G13G 4G 1G20G22G29G14
 -19163794.93249 -14932821.80447  21419394.515    21419394.495
   -183681.98248                  25044003.649
  -1589859.03648                  25026626.063
 -15407184.75149 -12005591.47446  22162859.736    22162860.868
 -24753402.63649 -19288362.34447  20643790.140    20643790.319
 -19361646.60749 -15086995.24146  21079306.057    21079306.962
  -4383349.95848  -3415593.45245  22967815.479    22967815.147
   5909219.48748   4604587.41544  24732801.051    24732802.529
 02  1  7  0 55 30.0000000  0  8G25G13G 4G 1G20G22G29G14
 -19105811.73849 -14887640.09547  21430428.108    21430428.234
   -275539.84548                  25026523.544
  -1626498.83048                  25019653.139
 -15476605.36949 -12059685.43846  22149650.549    22149651.069
 -24768145.35449 -19299850.17547  20640984.937    20640985.199
 -19436116.07949 -15145023.37246  21065134.835    21065136.076
  -4308185.04248  -3357023.41745  22982118.734    22982120.475
   5997070.82848   4673042.84944  24749518.587    24749520.535
 02  1  7  0 56  0.0000000  0  8G25G13G 4G 1G20G22G29G14
 -19047602.54149 -14842282.28247  21441505.034    21441504.819
   -367426.07448                  25009038.687
  -1662653.79148                  25012773.198
 -15545908.97049 -12113688.22546  22136461.309    22136462.103
 -24782318.32449 -19310894.04847  20638287.742    20638288.096
 -19510105.04349 -15202677.08446  21051055.135    21051055.766
  -4232861.64748  -3298329.90345  22996452.257    22996453.499
   6084991.62948   4741552.47044  24766249.452    24766248.595
 02  1  7  0 56 30.0000000  0  8G25G13G 4G 1G20G22G29G14
 -18989149.83949 -14796734.72447  21452628.414    21452628.057
   -459321.05648                  24991550.850
  -1698303.98748                  25005990.359
 -15615075.82549 -12167584.45346  22123299.334    22123300.302
 -24795901.63849 -19321478.44747  20635703.159    20635703.378
 -19583591.96849 -15259939.59946  21037070.626    21037071.723
  -4157361.03148  -3239498.27445  23010819.662    23010820.383
   6173000.12448   4810130.41844  24782996.889    24782993.823
 02  1  7  0 57  0.0000000  0  8G25G13G 4G 1G20G22G29G14
 -18930452.25549 -14750996.34647  21463798.181    21463798.015
   -551221.03048                  24974062.721
  -1733445.52148                  24999302.775
 -15684102.11149 -12221371.15046  22110165.231    22110165.596
 -24808891.50149 -19331600.41747  20633231.147    20633231.391
 -19656571.33049 -15316806.60746  21023183.725    21023184.508
  -4081680.54848  -3180526.49145  23025220.840    23025221.261
   6261098.98148                  24799761.361
 02  1  7  0 57 30.0000000  0  8G25G13G 4G 1G20G22G29G14
 -18871501.35049 -14705060.58047  21475016.011    21475015.926
   -643115.92348                  24956577.075
  -1768067.35648  -1377715.76844  24992713.830    24992714.925
 -15752976.89349 -12275039.78646  22097057.778    22097058.937
 -24821276.83749 -19341251.32647  20630874.088    20630874.356
 -19729030.19749 -15373268.03846  21009394.520    21009395.620
  -4005810.47648  -3121406.98245  23039658.908    23039660.559
   6349297.84048   4947505.04744  24816545.849    24816547.890
 02  1  7  0 58  0.0000000  0  8G25G 1G13G 4G20G22G29G14
 -18812315.19249 -14658941.49447  21486278.802    21486278.740
 -15821715.63349 -12328602.42646  22083976.516    22083977.710
   -735021.21248                  24939087.077
  -1802184.73848                  24986221.611
 -24833073.24749 -19350443.33647  20628629.066    20628629.344
 -19800982.35849 -15429334.62846  20995702.431    20995704.035
  -3929767.50148  -3062152.75045  23054128.957    23054130.706
   6437579.79948   5016296.06644  24833345.597    24833347.154
 02  1  7  0 58 30.0000000  0  8G25G 1G29G13G 4G20G22G14
 -18752916.87849 -14612657.09547  21497581.779    21497582.042
 -15890339.39849 -12382075.46346  22070919.330    22070920.133
  -3853573.95848  -3002781.21445  23068628.070    23068628.273
   -826958.27748                  24921591.339
  -1835818.76148  -1430509.15144  24979820.267    24979824.151
 -24844301.72849 -19359192.80047  20626492.449    20626492.698
 -19872447.21649 -15485021.50646  20982103.625    20982104.741
   6525922.63548   5085134.54444  24850156.450    24850153.348
 02  1  7  0 59  0.0000000  0  8G25G 1G29G13G 4G20G22G14
 -18693291.12049 -14566195.46447  21508928.209    21508928.438
 -15958830.37149 -12435445.03546  22057885.635    22057886.860
  -3777212.98148  -2943279.19445  23083159.941    23083160.496
   -918909.59948                  24904093.685
  -1868951.46848                  24973515.783
 -24854944.51149 -19367485.88147  20624467.469    20624467.836
 -19943404.96349 -15540313.22946  20968600.565    20968601.682
   6614342.84848   5154033.28244  24866982.419    24866984.003
 02  1  7  0 59 30.0000000  0  8G25G 1G29G13G 4G20G22G14
 -18633413.23149 -14519537.36947  21520322.632    21520322.861
 -16027161.50649 -12488690.05346  22044881.431    22044882.983
  -3700658.74448  -2883626.55745  23097727.203    23097727.741
  -1010848.25148                  24886598.788
  -1901555.83648                  24967312.754
 -24864974.58849 -19375301.52947  20622558.524    20622558.918
 -20013826.98849 -15595187.50446  20955199.795    20955201.109
   6702866.12248   5223012.25444  24883828.216    24883826.218
 02  1  7  1  0  0.0000000  0  8G25G 1G29G13G 4G20G22G14
 -18573294.67849 -14472691.74547  21531762.788    21531763.116
 -16095341.65149 -12541817.41746  22031908.335    22031909.082
  -3623921.31748  -2823831.21045  23112329.666    23112331.400
  -1102783.32348                  24869104.882
  -1933640.69848                  24961205.868
 -24874401.05149 -19382646.82547  20620764.607    20620764.912
 -20083720.35349 -15649649.84346  20941899.410    20941900.856
   6791482.54148   5292063.90344  24900691.283    24900694.227
 02  1  7  1  0 30.0000000  0  8G25G 1G29G13G 4G20G22G14
 -18512965.35049 -14425681.88047  21543242.883    21543243.213
 -16163398.54349 -12594848.74246  22018957.906    22018958.673
  -3547029.88548  -2763915.85245  23126962.277    23126961.727
  -1194743.64148                  24851603.973
  -1965233.97248                  24955194.202
 -24883251.89049 -19389543.58547  20619080.546    20619080.880
 -20153111.35349 -15703720.72746  20928695.046    20928696.411
   6880162.57548   5361165.11744  24917566.473    24917567.081
 02  1  7  1  1  0.0000000  0  8G25G 1G29G13G 4G20G22G14
 -18452409.27449 -14378495.33047  21554766.411    21554766.406
 -16231313.15649 -12647769.19546  22006033.074    22006034.493
  -3469966.65048  -2703866.60045  23141626.217    23141628.022
  -1286709.60448                  24834105.470
  -1996316.70948                  24949279.143
 -24891508.25449 -19395977.11947  20617509.499    20617509.713
 -20221979.30549 -15757384.04346  20915589.458    20915590.509
   6968924.05348   5430329.73644  24934457.643    24934457.365
 02  1  7  1  1 30.0000000  0  8G25G 1G29G13G 4G20G22G14
 -18391609.01749 -14331118.50647  21566336.374    21566336.452
 -16299066.10449 -12700563.66646  21993140.469    21993141.215
  -3392713.57348  -2643669.45145  23156327.154    23156329.328
  -1378662.63548                  24816605.219
  -2026869.72448  -1579380.15944  24943465.891    24943467.668
 -24899151.15649 -19401932.62747  20616055.255    20616055.463
 -20290303.36249 -15810623.55246  20902588.336    20902588.952
   7057784.80648   5499571.76744  24951367.211    24951368.376
 02  1  7  1  2  0.0000000  0  8G25G 1G29G13G 4G20G22G14
 -18330576.96249 -14283561.05747  21577950.328    21577950.648
 -16366667.07649 -12753239.74746  21980277.075    21980277.121
  -3315281.49348  -2583332.81145  23171062.412    23171063.336
  -1470612.82648                  24799108.430
  -2056902.73748  -1602782.57644  24937751.485    24937748.221
 -24906190.31949 -19407417.69047  20614715.844    20614716.177
 -20358091.40149 -15863445.37446  20889687.961    20889689.594
   7146734.02248                  24968293.588
 02  1  7  1  2 30.0000000  0  8G25G 1G29G13G 4G20G22G14
 -18269318.98549 -14235827.56847  21589607.194    21589607.186
 -16434119.65049 -12805800.16546  21967440.417    21967441.407
  -3237675.14348  -2522860.36645  23185829.797    23185831.273
  -1562563.86748  -1217580.75344  24781610.913    24781611.754
  -2086419.55348  -1625782.65044  24932133.778    24932135.013
 -24912629.36449 -19412435.13047  20613490.451    20613490.696
 -20425345.41349 -15915851.08146  20876890.383    20876891.535
   7235766.78448   5638258.67944  24985236.203    24985235.606
 02  1  7  1  3  0.0000000  0  8G25G 1G29G13G 4G20G22G14
 -18207849.35049 -14187929.14947  21601304.779    21601304.938
 -16501435.34249 -12858253.92646  21954630.531    21954631.903
  -3159907.31148  -2462262.10045  23200628.730    23200629.622
  -1654527.55648                  24764108.903
  -2115431.68348                  24926612.507
 -24918480.44749 -19416994.41647  20612376.822    20612377.158
 -20492075.30749 -15967848.38047  20864192.094    20864193.305
   7324870.13048                  25002192.472
 02  1  7  1  3 30.0000000  0  8G25G 1G29G13G 4G20G22G14
 -18146171.87749 -14139868.78247  21613041.769    21613041.933
 -16568615.46349 -12910602.04046  21941846.854    21941847.496
  -3081980.71748  -2401540.12445  23215458.047    23215460.194
  -1746505.54448                  24746608.591
  -2143940.72448                  24921187.461
 -24923744.99949 -19421096.66647  20611374.857    20611375.411
 -20558281.02849 -16019437.23146  20851592.941    20851594.435
   7414041.39048                  25019160.732
 02  1  7  1  4  0.0000000  0  8G25G 1G29G13G 4G20G22G14
 -18084265.53749 -14091630.07447  21624822.077    21624822.074
 -16635637.34549 -12962826.86846  21929093.121    21929093.861
  -3003873.94048  -2340677.76645  23230320.729    23230321.596
  -1838475.40248                  24729106.049
  -2171924.22048                  24915862.596
 -24928400.77449 -19424724.54747  20610488.862    20610489.284
 -20623938.49549 -16070598.86847  20839099.672    20839100.622
   7503301.80248   5846727.04144  25036146.516    25036150.214
 02  1  7  1  4 30.0000000  0  8G25G 1G29G13G 4G20G22G14
 -18022138.70749 -14043219.56247  21636644.433    21636644.468
 -16702506.48349 -13014932.66946  21916368.018    21916368.633
  -2925593.88448  -2279680.34245  23245217.569    23245216.885
  -1930443.03748                  24711605.613
  -2199388.24348  -1713810.31544  24910637.521    24910635.882
 -24932453.71849 -19427882.68847  20609717.887    20609718.204
 -20689051.70949 -16121336.41747  20826708.423    20826709.600
   7592644.36448                  25053148.202
 02  1  7  1  5  0.0000000  0  8G25G 1G13G 4G20G22G29G14
 -17959787.26149 -13994634.02347  21648509.387    21648509.481
 -16769216.08949 -13066914.15946  21903673.218    21903674.318
  -2022401.38948                  24694106.901
  -2226326.06248  -1734800.88544  24905511.779    24905508.579
 -24935897.49549 -19430566.15647  20609062.393    20609062.702
 -20753612.46949 -16171643.47447  20814422.824    20814424.332
  -2847135.06248  -2218543.64145  23260146.780    23260149.341
   7682074.48448                  25070166.496
 02  1  7  1  5 30.0000000  0  8G25G 1G13G 4G20G22G29G14
 -17897224.62449 -13945883.92046  21660414.755    21660414.729
 -16835777.43249 -13118780.11646  21891007.903    21891008.719
  -2114363.23548                  24676606.491
  -2252749.25648  -1755390.35944  24900481.948    24900480.272
 -24938743.86849 -19432784.11247  20608520.715    20608521.109
 -20817630.68249 -16221527.77647  20802241.093    20802241.929
  -2768509.94848  -2157277.37145  23275109.713    23275110.448
   7771579.40148   6055773.96944  25087198.385    25087197.721
 02  1  7  1  6  0.0000000  0  8G25G 1G13G 4G20G22G29G14
 -17834463.96049 -13896979.50846  21672357.650    21672357.620
 -16902200.72349 -13170538.50046  21878367.277    21878368.564
  -2206338.73148                  24659104.159
  -2278668.81948  -1775587.45244  24895549.113    24895548.068
 -24941003.58949 -19434544.93747  20608090.863    20608091.190
 -20881115.17449 -16270996.19047  20790160.038    20790160.893
  -2689730.28148  -2095890.68344  23290100.156    23290100.411
   7861147.52548                  25104243.143
 02  1  7  1  6 30.0000000  0  8G25G 1G13G 4G20G22G29G14
 -17771497.32949 -13847914.60546  21684339.863    21684339.802
 -16968475.81249 -13222181.40246  21865755.820    21865756.983
  -2298317.37348  -1790894.73444  24641600.597    24641600.490
  -2304074.63148                  24890716.158
 -24942666.89949 -19435841.02747  20607774.227    20607774.601
 -20944054.21249 -16320039.56947  20778182.995    20778183.640
  -2610787.02048  -2034376.51245  23305122.858    23305123.746
   7950787.61048   6195416.26244  25121301.537    25121301.013
 02  1  7  1  7  0.0000000  0  8G25G 1G13G 4G20G22G29G14
 -17708322.05149 -13798687.11446  21696361.609    21696361.550
 -17034597.41349 -13273704.70346  21853173.094    21853174.261
  -2390294.72948  -1862565.36644  24624099.087    24624098.282
  -2328961.50348  -1814776.60844  24885981.826    24885977.903
 -24943729.03449 -19436668.66947  20607571.982    20607572.384
 -21006441.25249 -16368652.81747  20766311.436    20766312.172
  -2531676.25048  -1972731.80345  23320177.519    23320178.900
   8040503.50748                  25138373.126
 02  1  7  1  7 30.0000000  0  8G25G13G 4G 1G20G22G29G14
 -17644927.04249 -13749288.41246  21708425.291    21708425.464
  -2482257.20148                  24606597.818
  -2353316.66448                  24881346.864
 -17100551.95149 -13325097.82446  21840622.758    21840623.343
 -24944176.96149 -19437017.70947  20607486.411    20607486.889
 -21068261.52749 -16416824.43847  20754547.334    20754548.157
  -2452386.08648  -1910947.30744  23335266.017    23335267.487
   8130307.17048                  25155462.970
 02  1  7  1  8  0.0000000  0  8G25G13G 4G 1G20G22G29G14
 -17581321.71649 -13699725.82546  21720529.166    21720529.011
  -2574213.01748                  24589100.046
  -2377147.68048  -1852324.35744  24876810.946    24876809.532
 -17166346.86749 -13376366.56346  21828101.544    21828102.926
 -24944018.60049 -19436894.31747  20607516.813    20607517.349
 -21129521.06349 -16464559.11747  20742889.541    20742890.535
  -2372924.86748  -1849029.50344  23350386.863    23350388.139
   8220189.96548                  25172567.789
 02  1  7  1  8 30.0000000  0  8G25G13G 4G 1G20G22G29G14
 -17517514.78049 -13650006.13646  21732670.735    21732670.838
  -2666168.12948                  24571601.702
  -2400461.37748                  24872372.326
 -17231988.00449 -13427515.46846  21815611.220    21815611.827
 -24943260.67549 -19436303.73147  20607661.281    20607661.688
 -21190224.53749 -16511860.50547  20731338.696    20731339.417
  -2293300.28948  -1786984.41645  23365538.880    23365540.431
   8310144.45748                  25189684.368
 02  1  7  1  9  0.0000000  0  8G25G13G 4G 1G20G22G29G14
 -17453506.40249 -13600129.48246  21744851.329    21744851.296
  -2758120.80148  -2149182.76444  24554103.235    24554105.632
  -2423256.03248                  24868034.939
 -17297473.39949 -13478543.02946  21803150.015    21803150.608
 -24941901.81849 -19435244.88447  20607920.084    20607920.403
 -21250368.65849 -16558726.03247  20719893.382    20719894.457
  -2213511.38548  -1724811.31144  23380722.326    23380724.756
   8399809.39247                  25206813.563
 02  1  7  1  9 30.0000000  0  7G25G13G 4G 1G20G22G29
 -17389284.59649 -13550086.51846  21757072.505    21757072.317
  -2850056.58648  -2220820.98244  24536608.654    24536609.904
  -2445517.42948                  24863799.830
 -17362788.54249 -13529437.92446  21790720.383    21790721.478
 -24939928.27049 -19433707.05947  20608295.493    20608295.906
 -21309937.57949 -16605143.35347  20708557.757    20708558.786
  -2133545.07148  -1662499.94444  23395939.599    23395941.091
 02  1  7  1 10  0.0000000  0  7G13G 4G25G 1G20G22G29
  -2941967.11948  -2292439.47044  24519117.663    24519117.126
  -2467237.73148  -1922524.43144  24859669.266    24859667.124
 -17324843.01549 -13499872.30546  21769335.252    21769335.427
 -17427924.74849 -13580193.38746  21778325.459    21778326.680
 -24937331.93349 -19431683.94347  20608789.434    20608789.688
 -21368921.57149 -16651104.88747  20697333.718    20697334.432
  -2053394.29248  -1600044.84044  23411191.983    23411190.687
 02  1  7  1 10 30.0000000  0  7G25G13G 4G 1G20G22G29
 -17260203.62249 -13449503.95146  21781635.418    21781635.525
  -3033872.17248  -2364053.74344  24501630.174    24501633.060
  -2488436.53248  -1939042.99344  24855634.762    24855635.515
 -17492901.06149 -13630824.26546  21765961.006    21765961.602
 -24934132.53149 -19429190.90747  20609398.039    20609398.541
 -21427338.58449 -16696624.62047  20686217.417    20686218.381
  -1973079.40048  -1537461.89044  23426475.336    23426477.784
 02  1  7  1 11  0.0000000  0  8G13G 4G25G 1G20G22G29G14
  -3125780.95348  -2435670.90244  24484139.393    24484144.128
  -2509123.68048  -1955162.88444  24851696.669    24851700.711
 -17195377.73649 -13398990.27546  21793971.739    21793971.811
 -17557726.60849 -13681337.66946  21753625.278    21753625.759
 -24930340.17749 -19426235.82847  20610119.901    20610120.233
 -21485196.64649 -16741708.80447  20675207.227    20675208.578
  -1892611.03548  -1474759.31344  23441788.330    23441789.493
         -.49858                  25275501.000
 02  1  7  1 11 30.0000000  0  8G25G13G 4G 1G20G22G29G14
 -17130354.30249 -13348322.66946  21806345.219    21806345.375
  -3217680.04148  -2507280.54344  24466651.399    24466654.692
  -2529286.13748                  24847857.883
 -17622387.47549 -13731722.73546  21741320.497    21741321.211
 -24925941.83649 -19422808.55547  20610957.144    20610957.559
 -21542480.86649 -16786345.83847  20664306.113    20664307.511
  -1811976.57648  -1411927.33445  23457132.403    23457133.157
     90410.67048                  25292704.844
 02  1  7  1 12  0.0000000  0  8G13G 4G25G 1G20G22G29G14
  -3309568.52248  -2578881.90644  24449167.315    24449167.095
  -2548923.23248                  24844121.048
 -17065134.32349 -13297501.90346  21818756.223    21818756.441
 -17686882.49249 -13781978.56646  21729047.525    21729048.363
 -24920937.12449 -19418908.78147  20611909.527    20611909.878
 -21599188.79349 -16830533.81247  20653515.063    20653515.759
  -1731176.44048  -1348966.24244  23472507.970    23472509.353
    180895.12648                  25309923.549
 02  1  7  1 12 30.0000000  0  8G13G 4G25G 1G20G22G29G14
  -3401434.67248  -2650465.86444  24431683.960    24431686.240
  -2568023.62848                  24840488.214
 -16999708.79449 -13246520.98246  21831206.463    21831206.340
 -17751199.96749 -13832096.04346  21716808.561    21716809.346
 -24915315.07149 -19414527.96647  20612979.341    20612979.667
 -21655307.66449 -16874262.78347  20642835.902    20642836.711
  -1650200.36148  -1285868.06745  23487917.159    23487918.888
    271462.87748    211529.78444  25327159.047    25327160.567
 02  1  7  1 13  0.0000000  0  8G13G 4G25G 1G20G22G29G14
  -3493289.46848  -2722040.95944  24414205.121    24414203.247
  -2586599.07648                  24836954.869
 -16934090.76749 -13195390.05546  21843692.554    21843692.842
 -17815350.56749 -13882083.49346  21704601.100    21704601.636
 -24909087.21449 -19409675.09747  20614164.347    20614164.543
 -21710847.10249 -16917540.24947  20632267.080    20632268.286
  -1569060.31748  -1222642.11944  23503357.362    23503359.461
    362101.87648                  25344406.419
 02  1  7  1 13 30.0000000  0  8G25G13G 4G 1G20G22G29G14
 -16868280.99649 -13144109.71546  21856216.060    21856216.134
  -3585131.92948                  24396728.297
  -2604648.55448                  24833520.022
 -17879332.68349 -13931939.66146  21692425.236    21692425.792
 -24902253.09849 -19404349.81647  20615464.890    20615465.117
 -21765804.60149 -16960364.25647  20621809.432    20621810.512
  -1487756.14248  -1159288.29544  23518830.059    23518832.237
    452812.09348    352840.36044  25361669.331    25361664.907
 02  1  7  1 14  0.0000000  0  8G13G 4G25G 1G20G22G29G14
  -3676964.16048                  24379252.689
  -2622174.84348                  24830184.323
 -16802283.83249 -13092683.35946  21868774.950    21868775.149
 -17943148.19549 -13981666.01646  21680281.918    21680282.485
 -24894815.49049 -19398554.28347  20616880.160    20616880.239
 -21820180.97549 -17002735.43547  20611461.187    20611462.122
  -1406291.50048  -1095809.42944  23534331.840    23534333.953
    543590.18248                  25378943.261
 02  1  7  1 14 30.0000000  0  8G13G 4G25G 1G20G22G29G14
  -3768794.71248  -2936720.25044  24361778.290    24361775.165
  -2639187.06348                  24826945.628
 -16736110.42549 -13041119.67146  21881367.427    21881367.615
 -18006805.48049 -14031269.07846  21668168.343    21668168.987
 -24886783.69649 -19392295.74747  20618408.473    20618408.766
 -21873983.80849 -17044659.70447  20601223.025    20601223.721
  -1324675.97548  -1032213.00944  23549862.050    23549865.323
    634426.23648                  25396228.572
 02  1  7  1 15  0.0000000  0  8G25G13G 4G 1G20G22G29G14
 -16669755.22049 -12989414.32346  21893994.539    21893994.468
  -3860616.09048  -3008269.28944  24344304.634    24344305.728
  -2655678.43548                  24823806.477
 -18070296.70049 -14080742.73746  21656085.908    21656086.547
 -24878150.86249 -19385568.86847  20620051.639    20620051.674
 -21927204.34449 -17086130.23147  20591095.910    20591096.486
  -1242903.41648   -968494.18944  23565423.997    23565425.758
    725326.45748                  25413527.501
 02  1  7  1 15 30.0000000  0  8G25G13G 4G 1G20G22G29G14
 -16603207.40449 -12937558.88946  21906657.973    21906658.182
  -3952415.88148  -3079801.55144  24326836.066    24326836.884
  -2671636.79748                  24820770.211
 -18133608.98849 -14130076.96846  21644038.512    21644039.068
 -24868905.47149 -19378364.67347  20621810.879    20621811.093
 -21979828.77349 -17127136.26147  20581081.678    20581082.344
  -1160962.44048   -904644.17144  23581016.383    23581019.277
    816302.15548                  25430839.473
 02  1  7  1 16  0.0000000  0  8G25G13G 4G 1G20G22G29G14
 -16536461.59649 -12885549.17846  21919359.327    21919359.109
  -4044185.83348  -3151310.49844  24309372.909    24309376.071
  -2687054.60348                  24817838.095
 -18196733.89249 -14179265.18546  21632026.490    21632026.971
 -24859039.93149 -19370677.24147  20623687.951    20623688.264
 -22031847.96449 -17167670.67747  20571182.696    20571183.499
  -1078846.15548   -840657.53044  23596642.609    23596643.946
    907360.26748                  25448167.329
 02  1  7  1 16 30.0000000  0  8G25G13G 4G 1G20G22G29G14
 -16469524.98749 -12833390.78746  21932096.874    21932097.360
  -4135930.89748  -3222800.11944  24291914.416    24291913.051
  -2701937.53248                  24815006.028
 -18259676.04449 -14228311.00346  21620047.966    21620048.610
 -24848560.26049 -19362511.27147  20625682.433    20625682.744
 -22083265.65549 -17207736.39147  20561398.311    20561398.935
   -996560.80648   -776539.14344  23612302.116    23612303.119
    998494.18248                  25465510.624
 02  1  7  1 17  0.0000000  0  8G25G 1G13G 4G20G22G29G14
 -16402408.70649 -12781092.38946  21944868.396    21944868.509
 -18322444.35249 -14277221.35546  21608103.452    21608104.356
  -4227660.05048  -3294277.27944  24274458.146    24274456.519
  -2716295.52448  -2116595.60544  24812274.368    24812271.401
 -24837476.16749 -19353874.32047  20627791.881    20627792.000
 -22134090.03649 -17247339.78647  20551727.380    20551727.824
   -914116.65148   -712297.04744  23627989.230    23627992.554
   1089693.67948                  25482864.711
 02  1  7  1 17 30.0000000  0  8G25G 1G13G 4G20G22G29G14
 -16335125.50349 -12728663.92046  21957671.947    21957672.223
 -18385048.72449 -14326003.96946  21596191.248    21596191.768
  -4319383.80848  -3365750.29144  24257004.584    24257004.071
  -2730139.40848  -2127383.04744  24809639.507    24809639.189
 -24825799.06049 -19344775.28047  20630013.698    20630013.969
 -22184330.12449 -17286487.88947  20542166.655    20542167.019
   -831525.33648   -647940.26444  23643706.788    23643707.685
   1180947.01748                  25500229.473
 02  1  7  1 18  0.0000000  0  8G25G 1G13G 4G20G22G29G14
 -16267658.44749 -12676092.19746  21970510.996    21970511.357
 -18447469.98949 -14374643.90546  21584312.423    21584313.012
  -4411083.39448  -3437204.43844  24239553.781    24239555.365
  -2743451.26948                  24807105.727
 -24813510.98849 -19335200.16147  20632352.114    20632352.172
 -22233966.23549 -17325165.36147  20532720.833    20532721.349
   -748769.27048   -583455.11844  23659455.176    23659453.585
   1272271.78448                  25517608.087
 02  1  7  1 18 30.0000000  0  7G25G 1G13G 4G20G22G29
 -16200004.88849 -12623375.14646  21983384.660    21983385.014
 -18509703.07349 -14423137.20246  21572469.502    21572470.356
  -4502753.73148  -3508635.81844  24222109.798    24222108.466
  -2756226.76648                  24804673.346
 -24800608.01149 -19325145.89847  20634807.619    20634807.669
 -22282992.34349 -17363367.50747  20523391.523    20523392.086
   -665844.80248   -518838.71944  23675234.179    23675235.673
 02  1  7  1 19  0.0000000  0  8G25G 1G13G 4G20G22G29G14
 -16132170.63749 -12570517.29346  21996293.561    21996293.693
 -18571751.49749 -14471486.60146  21560662.592    21560663.177
  -4594398.64948  -3580047.36644  24204670.619    24204671.431
  -2768470.27148  -2157251.28844  24802343.567    24802345.186
 -24787094.82649 -19314616.15147  20637379.018    20637379.227
 -22331411.35349 -17401096.59047  20514177.579    20514178.048
   -582757.08948   -454095.16044  23691045.738    23691047.138
         -.43358                  25552407.261
 02  1  7  1 19 30.0000000  0  7G25G13G 4G 1G20G22G29
 -16064177.98349 -12517536.00846  22009232.043    22009231.710
  -4686038.03748  -3651454.59744  24187231.595    24187229.968
  -2780202.67448                  24800111.032
 -18633634.83549 -14519707.37046  21548886.323    21548886.841
 -24772992.28249 -19303627.16147  20640062.616    20640062.865
 -22379242.27649 -17438367.42547  20505075.749    20505076.288
   -499527.31248   -389240.88244  23706883.695    23706885.849
 02  1  7  1 20  0.0000000  0  7G25G 1G13G 4G20G22G29
 -15996008.87749 -12464417.23546  22022203.925    22022203.900
 -18695332.50849 -14567783.45946  21537146.035    21537146.256
  -4777651.51448  -3722841.69144  24169798.837    24169796.106
  -2791404.61048  -2175122.23144  24797980.563    24797983.136
 -24758281.11549 -19292163.92047  20642861.944    20642862.279
 -22426463.81549 -17475163.41347  20496089.800    20496090.426
   -416136.42448   -324261.09544  23722753.039    23722751.429
 02  1  7  1 20 30.0000000  0  7G25G 1G13G 4G20G22G29
 -15927662.60349 -12411160.40546  22035210.171    22035210.184
 -18756841.41349 -14615712.45446  21525440.688    21525441.210
  -4869236.10048  -3794206.25544  24152369.918    24152369.432
  -2802074.28748  -2183436.25544  24795950.439    24795950.017
 -24742959.66549 -19280225.13247  20645777.294    20645777.581
 -22473072.37949 -17511481.75647  20487220.342    20487221.075
   -332582.89148   -259154.51944  23738652.171    23738655.488
 02  1  7  1 21  0.0000000  0  7G25G 1G13G 4G20G22G29
 -15859147.19749 -12357771.78346  22048248.093    22048248.257
 -18818167.05549 -14663498.64846  21513770.917    21513771.270
  -4960798.26148  -3865553.32644  24134947.475    24134948.352
  -2812218.12648  -2191340.55244  24794020.572    24794016.030
 -24727034.93449 -19267816.25547  20648808.045    20648808.121
 -22519072.88249 -17547326.28847  20478466.700    20478467.341
   -248873.99248   -193926.91744  23754581.801    23754583.783
 02  1  7  1 21 30.0000000  0  7G25G 1G13G 4G20G22G29
 -15790461.45449 -12304250.43146  22061318.418    22061318.191
 -18879305.67149 -14711139.10946  21502136.871    21502137.276
  -5052334.23448  -3936880.01244  24117527.012    24117525.152
  -2821833.94348                  24792191.075
 -24710504.85249 -19254935.68047  20651953.957    20651954.007
 -22564461.16649 -17582693.76647  20469829.659    20469830.534
   -165007.91348   -128576.80244  23770541.782    23770541.156
 02  1  7  1 22  0.0000000  0  7G25G 1G13G 4G20G22G29
 -15721593.91849 -12250587.43246  22074423.652    22074423.911
 -18940243.21749 -14758622.89346  21490540.768    21490541.280
  -5143830.13848  -4008175.47144  24100116.845    24100117.995
  -2830908.59948  -2205904.59344  24790463.793    24790464.546
 -24693356.33449 -19241573.20647  20655217.164    20655217.464
 -22609222.73049 -17617572.89447  20461311.522    20461312.217
    -80971.67948    -63094.18644  23786532.718    23786534.548
 02  1  7  1 22 30.0000000  0  7G25G 1G13G 4G20G22G29
 -15652565.43449 -12196799.00846  22087559.286    22087559.293
 -19000998.33749 -14805964.52546  21478979.033    21478979.915
  -5235304.85148  -4079454.38844  24082710.456    24082709.310
  -2839462.05848  -2212569.62444  24788835.699    24788837.763
 -24675609.66749 -19227744.64147  20658593.953    20658594.273
 -22653375.40349 -17651977.55647  20452909.756    20452910.506
      3214.26548      2505.17344  23802553.794    23802553.986
 02  1  7  1 23  0.0000000  0  7G25G 1G13G 4G20G22G29
 -15583367.51349 -12142878.55846  22100727.239    22100727.373
 -19061559.84949 -14853155.30446  21467454.666    21467455.243
  -5326747.43648  -4150708.30844  24065308.246    24065308.500
  -2847484.53548                  24787307.250
 -24657255.20749 -19213442.47347  20662086.283    20662086.631
 -22696907.90749 -17685898.97447  20444626.016    20444626.909
     87559.37048     68228.49344  23818603.452    23818606.545
 02  1  7  1 23 30.0000000  0  7G25G 1G13G 4G20G22G29
 -15514004.63049 -12088829.56446  22113926.365    22113926.383
 -19121929.71649 -14900196.74546  21455967.057    21455967.715
  -5418160.16448  -4221938.92044  24047913.900    24047912.657
  -2854979.17148                  24785880.733
 -24638296.60649 -19198669.54447  20665694.035    20665694.447
 -22739821.76549 -17719338.32947  20436459.563    20436460.262
    172060.12048    134073.07544  23834682.953    23834684.497
 02  1  7  1 24  0.0000000  0  7G25G 1G13G 4G20G22G29
 -15444486.19749 -12034659.37346  22127155.443    22127155.169
 -19182115.15949 -14947094.47846  21444513.929    21444514.602
  -5509550.53748  -4293152.15144  24030521.638    24030519.891
  -2861954.63948                  24784553.287
 -24618742.47549 -19183432.56547  20669415.473    20669415.901
 -22782123.50049 -17752300.70347  20428409.943    20428410.554
    256707.42848    200031.93844  23850792.203    23850794.434
 02  1  7  1 24 30.0000000  0  7G25G 1G13G 4G20G22G29
 -15374814.93349 -11980370.08146  22140413.605    22140413.364
 -19242116.26949 -14993848.57046  21433095.854    21433096.382
  -5600918.95448  -4364348.26144  24013135.314    24013136.818
  -2868412.45948  -2235128.37844  24783324.528    24783325.961
 -24598594.54849 -19167732.89147  20673249.534    20673249.900
 -22823813.31649 -17784786.26047  20420476.381    20420477.160
    341499.61548    266103.62144  23866927.280    23866929.650
 02  1  7  1 25  0.0000000  0  7G25G 1G13G 4G20G22G29
 -15305012.86949 -11925978.87046  22153696.268    22153696.170
 -19301952.60349 -15040474.26047  21421709.803    21421710.309
  -5692285.33348  -4435542.77844  23995748.760    23995750.888
  -2874373.61048                  24782190.700
 -24577874.19249 -19151587.16647  20677192.247    20677192.640
 -22864910.35549 -17816809.91347  20412655.805    20412656.496
    426415.38048    332271.61944  23883085.829    23883087.901
 02  1  7  1 25 30.0000000  0  8G25G 1G13G 4G20G22G29G 6
 -15235036.40549 -11871451.76546  22167012.425    22167012.732
 -19361578.19549 -15086935.73946  21410362.697    21410363.246
  -5783603.56848  -4506699.80644  23978370.961    23978369.831
  -2879793.49148                  24781159.767
 -24556536.74849 -19134960.59347  20681252.785    20681253.222
 -22905368.10149 -17848335.41347  20404957.173    20404957.738
    511499.05548    398570.44244  23899277.860    23899279.832
         -.58258                  25533499.055
 02  1  7  1 26  0.0000000  0  8G25G 1G13G 4G20G22G29G 6
 -15164887.73449 -11816790.47946  22180361.374    22180361.544
 -19420992.45449 -15133232.54447  21399056.961    21399057.509
  -5874873.67248  -4577819.33744  23961003.991    23961001.077
  -2884672.91448                  24780231.690
 -24534583.52949 -19117854.19547  20685430.369    20685430.715
 -22945185.87549 -17879362.23547  20397379.898    20397380.522
    596749.59848    464999.30244  23915500.023    23915501.631
    -10930.54848                  25531418.966
 02  1  7  1 26 30.0000000  0  8G25G 1G13G 4G20G22G29G 6
 -15094564.23149 -11761992.95546  22193743.625    22193743.651
 -19480190.31849 -15179360.73647  21387792.037    21387792.559
  -5966090.85248  -4648897.58944  23943644.774    23943645.734
  -2889008.52648                  24779406.703
 -24512011.20349 -19100265.37847  20689725.567    20689726.028
 -22984358.51849 -17909886.35747  20389925.541    20389926.187
    682170.12548    531560.58944  23931754.460    23931758.676
    -21380.87948                  25529430.490
 02  1  7  1 27  0.0000000  0  8G25G 1G13G 4G20G22G29G 6
 -15024078.26749 -11707068.84246  22207156.565    22207156.330
 -19539181.72049 -15225328.05147  21376565.889    21376566.476
  -6057265.16848  -4719942.44844  23926295.967    23926294.256
  -2892811.64248                  24778684.121
 -24488831.52149 -19082203.29447  20694136.599    20694136.991
 -23022895.76249 -17939915.36247  20382592.617    20382593.304
    767749.09348    598245.34944  23948040.434    23948042.130
    -31361.77648                  25527531.418
 02  1  7  1 27 30.0000000  0  8G25G 1G13G 4G20G22G29G 6
 -14953435.70049 -11652022.70246  22220599.327    22220598.936
 -19597970.04849 -15271137.12647  21365379.358    21365379.691
  -6148400.35248  -4790956.81644  23908952.165    23908952.727
  -2896087.08848                  24778060.388
 -24465049.72249 -19063672.02747  20698662.068    20698662.476
 -23060800.75149 -17969451.70347  20375379.399    20375380.070
    853481.36148    665049.54944  23964355.304    23964355.829
    -40877.00448                  25525720.370
 02  1  7  1 28  0.0000000  0  8G25G 1G13G 4G20G22G29G 6
 -14882637.60449 -11596855.36946  22234071.765    22234071.460
 -19656553.62749 -15316786.65347  21354231.204    21354231.788
  -6239494.99548  -4861939.58144  23891618.106    23891617.989
  -2898834.87648  -2258833.76144  24777538.303    24777540.377
 -24440665.95549 -19044671.69747  20703302.134    20703302.687
 -23098071.75149 -17998494.02647  20368286.804    20368287.557
    939366.81648    731973.14644  23980697.700    23980700.635
    -49925.44648                  25523998.916
 02  1  7  1 28 30.0000000  0  8G25G 1G13G 4G20G22G29G 6
 -14811683.36249 -11541566.36346  22247573.907    22247573.690
 -19714929.51649 -15362274.34147  21343122.460    21343123.076
  -6330546.50048  -4932888.74844  23874291.464    23874293.017
  -2901053.90748                  24777114.909
 -24415679.16449 -19025201.47947  20708057.070    20708057.371
 -23134705.75449 -18027039.98647  20361315.404    20361316.092
   1025406.59348    799016.93544  23997071.318    23997074.091
    -58504.57548                  25522366.107
 02  1  7  1 29  0.0000000  0  8G25G 1G13G 4G20G22G29G 6
 -14740578.54949 -11486160.02946  22261104.954    22261104.819
 -19773101.15749 -15407602.87647  21332052.881    21332053.510
  -6421558.58248  -5003807.20144  23856971.786    23856971.801
  -2902749.20148                  24776792.661
 -24390094.66349 -19005265.51047  20712925.725    20712925.923
 -23170706.39049 -18055092.41447  20354464.401    20354465.052
   1111595.30348    866176.82144  24013472.351    24013472.832
    -66618.22847                  25520822.193
 02  1  7  1 29 30.0000000  0  8G 1G25G13G 4G20G22G29G 6
 -19831061.65849 -15452766.89247  21321022.981    21321023.549
 -14669319.01649 -11430633.13246  22274665.242    22274664.893
  -6512524.63448  -5074689.75344  23839662.682    23839664.132
  -2903915.39448  -2262792.13244  24776569.984    24776572.924
 -24363907.54049 -18984859.96947  20717909.118    20717909.255
 -23206066.66249 -18082645.86047  20347736.101    20347736.746
   1197938.18848    933456.79444  24029904.193    24029905.284
    -74259.95347                  25519368.003
 02  1  7  1 30  0.0000000  0  8G 1G25G13G 4G20G22G29G 6
 -19888818.26849 -15497772.02647  21310032.379    21310033.092
 -14597914.72949 -11374993.44546  22288252.899    22288253.097
  -6603451.96248  -5145542.17444  23822358.798    23822359.487
  -2904561.67048                  24776446.966
 -24337126.82549 -18963991.88547  20723005.418    20723005.777
 -23240793.67049 -18109705.85047  20341127.845    20341128.316
   1284426.26948   1000849.96644  24046362.126    24046365.460
    -81437.54747    -63457.99644  25518001.965    25518003.640
 02  1  7  1 30 30.0000000  0  8G 1G25G13G 4G20G22G29G 6
 -19946382.62049 -15542627.34147  21299078.602    21299079.252
 -14526379.94549 -11319252.06846  22301865.473    22301865.153
  -6694352.64848  -5216373.85044  23805061.536    23805062.510
  -2904701.21948  -2263404.51444  24776418.629    24776421.174
 -24309766.30849 -18942672.01047  20728211.640    20728211.899
 -23274899.33049 -18136281.67747  20334637.597    20334637.974
   1371045.76648   1068345.46944  24062844.467    24062845.206
    -88163.04947                  25516721.965
 02  1  7  1 31  0.0000000  0  8G 1G25G13G 4G20G22G29G 6
 -20003738.64949 -15587320.32647  21288164.196    21288164.729
 -14454700.98549 -11263398.35146  22315505.679    22315505.815
  -6785210.93048  -5287172.41044  23787770.729    23787770.592
  -2904319.77848                  24776490.977
 -24281811.87849 -18920889.34247  20733531.390    20733531.453
 -23308367.49349 -18162360.74847  20328269.021    20328269.577
   1457811.20648   1135954.73744  24079356.474    24079357.635
    -94420.82147    -73574.21744  25515531.023    25515530.142
 02  1  7  1 31 30.0000000  0  8G 1G25G13G 4G20G22G29G 6
 -20060885.31449 -15631850.17247  21277289.265    21277289.894
 -14382878.84149 -11207433.06446  22329173.000    22329172.438
  -6876025.54948  -5357936.99744  23770490.365    23770489.464
  -2903417.86748                  24776663.384
 -24253264.41549 -18898644.57647  20738963.789    20738964.121
 -23341197.08749 -18187942.23647  20322021.488    20322021.900
   1544721.75748   1203677.03944  24095894.481    24095897.578
   -100210.35547                  25514429.625
 02  1  7  1 32  0.0000000  0  8G 1G25G13G 4G20G22G29G 6
 -20117815.17149 -15676211.08247  21266455.961    21266456.468
 -14310908.60749 -11151352.38446  22342868.350    22342868.033
  -6966789.39348  -5428662.00744  23753218.109    23753215.963
  -2901990.01248                  24776934.392
 -24224118.41149 -18875933.41047  20744510.138    20744510.320
 -23373380.94249 -18213020.55347  20315897.136    20315897.660
   1631783.35648   1271517.01244  24112461.402    24112465.334
   -105524.82847                  25513418.293
 02  1  7  1 32 30.0000000  0  8G 1G25G13G 4G20G22G29G 6
 -20174529.69049 -15720404.20147  21255663.599    21255664.175
 -14238793.96549 -11095159.17746  22356590.952    22356590.748
  -7057504.43248  -5499349.00144  23735955.272    23735956.254
  -2900039.25348                  24777306.669
 -24194377.63749 -18852758.78847  20750169.552    20750169.541
 -23404920.53049 -18237596.84447  20309895.462    20309895.947
   1718992.50148   1339472.02044  24129057.543    24129057.965
   -110366.36547                  25512497.183
 02  1  7  1 33  0.0000000  0  8G 1G25G13G 4G20G22G29G 6
 -20231025.87949 -15764427.18847  21244912.309    21244912.833
 -14166534.88449 -11038853.42046  22370342.289    22370342.591
  -7148167.86348  -5569995.80844  23718703.169    23718701.294
  -2897564.63948                  24777776.152
 -24164041.16049 -18829119.98347  20755942.126    20755942.441
 -23435813.30949 -18261669.12847  20304016.634    20304017.211
   1806350.24248   1407542.76344  24145680.388    24145683.480
   -114732.34347                  25511666.474
 02  1  7  1 33 30.0000000  0  8G 1G25G13G 4G20G22G29G 6
 -20287297.84049 -15808275.45647  21234204.610    21234205.190
 -14094127.69049 -10982432.24946  22384120.529    22384121.080
  -7238773.85148  -5640597.81144  23701460.630    23701459.634
  -2894562.48348                  24778349.097
 -24133105.24049 -18805014.07647  20761829.162    20761829.136
 -23466053.57749 -18285232.96547  20298262.225    20298262.853
   1893860.67548   1475732.52044  24162333.946    24162335.489
   -118617.71147                  25510927.107
 02  1  7  1 34  0.0000000  0  8G 1G25G13G 4G20G22G29G 6
 -20343351.57349 -15851953.67647  21223537.630    21223538.084
 -14021581.27249 -10925902.60546  22397925.293    22397925.457
  -7329328.71548  -5711159.98344  23684229.350    23684228.067
  -2891040.09048                  24779019.751
 -24101577.88449 -18780447.31647  20767828.701    20767828.642
 -23495647.49149 -18308293.14647  20292630.562    20292631.113
   1981515.96748   1544035.11944  24179014.834    24179018.037
   -122029.07748                  25510277.855
 02  1  7  1 34 30.0000000  0  8G 1G25G13G 4G20G22G29G 6
 -20399203.20749 -15895474.42447  21212909.420    21212909.976
 -13948914.13049 -10869278.88446  22411753.974    22411753.785
  -7419848.53748  -5781694.87644  23667002.809    23667004.408
  -2887015.72248                  24779786.352
 -24069477.53349 -18755434.06247  20773936.933    20773937.377
 -23524611.51949 -18330862.50847  20287118.858    20287119.421
   2069298.15448   1612436.58444  24195718.888    24195721.982
   -124983.04848                  25509715.943
 02  1  7  1 35  0.0000000  0  8G 1G25G13G 4G20G22G29G 6
 -20454829.66549 -15938819.70147  21202324.350    21202324.873
 -13876105.52249 -10812544.92746  22425608.541    22425608.924
  -7510311.00848  -5852185.07544  23649789.631    23649790.822
  -2882468.35048                  24780651.010
 -24036783.44149 -18729958.15447  20780158.295    20780158.788
 -23552922.99849 -18352923.39347  20281731.353    20281731.804
   2157228.24148   1680953.38144  24212451.946    24212455.191
   -127457.42048                  25509244.930
 02  1  7  1 35 30.0000000  0  8G 1G25G13G 4G20G22G29G 6
 -20510230.17849 -15981988.91647  21191781.847    21191782.452
 -13803157.42049 -10755702.27446  22439490.096    22439490.536
  -7600715.49448  -5922630.08144  23632585.639    23632585.701
  -2877399.44948                  24781617.088
 -24003497.19349 -18704020.82647  20786493.091    20786493.182
 -23580581.63749 -18374475.57247  20276468.145    20276468.586
   2245305.01248   1749584.36844  24229212.479    24229212.721
   -129452.36948                  25508865.254
 02  1  7  1 36  0.0000000  0  8G 1G25G13G 4G20G22G29G 6
 -20565399.84549 -16024978.25547  21181283.100    21181283.728
 -13730067.16649 -10698748.86446  22453399.243    22453398.988
  -7691057.19348  -5993026.17744  23615393.806    23615391.931
  -2871806.12048  -2237772.05144  24782681.537    24782683.918
 -23969616.15549 -18677620.02647  20792940.267    20792940.607
 -23607582.92649 -18395515.53247  20271329.819    20271330.282
   2333531.61748   1818332.11044  24246001.198    24246005.588
   -130963.65548                  25508577.726
 02  1  7  1 36 30.0000000  0  8G 1G25G13G 4G20G22G29G 6
 -20620343.50849 -16067791.48647  21170827.675    21170828.290
 -13656841.64949 -10641690.04446  22467333.253    22467334.099
  -7781340.85748  -6063377.05644  23598214.322    23598213.685
  -2865694.78548  -2233009.94344  24783844.046    24783844.180
 -23935147.29549 -18650761.18247  20799499.018    20799499.318
 -23633931.97249 -18416047.25247  20266315.677    20266316.017
   2421901.38048   1887191.39544  24262818.249    24262820.076
   -131996.85048                  25508381.142
 02  1  7  1 37  0.0000000  0  8G 1G13G 4G25G20G22G29G 6
 -20675061.69649 -16110429.02147  21160415.251    21160415.865
  -7871567.49648  -6133683.47644  23581043.528    23581046.260
  -2859068.18748  -2227846.37044  24785105.199    24785103.818
 -13583484.33849 -10584528.53546  22481292.450    22481292.618
 -23900093.63249 -18623446.64947  20806169.916    20806170.309
 -23659629.73049 -18436071.47747  20261425.779    20261426.159
   2510411.98948                  24279660.550
   -132553.21348                  25508275.318
 02  1  7  1 37 30.0000000  0  8G 1G13G 4G25G20G22G29G 6
 -20729559.89549 -16152895.13747  21150044.429    21150045.097
  -7961742.47948  -6203949.68244  23563885.092    23563884.186
  -2851933.89548  -2222287.21044  24786463.224    24786463.548
 -13510002.93549 -10527270.32346  22495275.721    22495275.769
 -23864462.82649 -18595682.39347  20812950.555    20812950.871
 -23684682.27349 -18455592.93647  20256658.416    20256658.787
   2599055.68248                  24296530.587
   -132639.05248   -103355.90944  25508259.048    25508259.312
 02  1  7  1 38  0.0000000  0  8G 1G13G 4G25G20G22G29G 6
 -20783823.32849 -16195178.31847  21139718.644    21139719.000
  -8051851.58348  -6274164.55644  23546736.881    23546736.338
  -2844279.46748  -2216322.73744  24787919.846    24787919.200
 -13436385.38949 -10469906.04046  22509284.742    22509284.942
 -23828242.86449 -18567459.05547  20819842.744    20819843.320
 -23709075.52649 -18474600.66047  20252016.343    20252016.818
   2687845.40248   2094419.78944  24313425.803    24313430.099
   -132240.70248                  25508334.804
 02  1  7  1 38 30.0000000  0  8G 1G13G 4G25G20G22G29G 6
 -20837861.14349 -16237285.69147  21129435.302    21129436.114
  -8141904.39248  -6344335.51844  23529600.864    23529602.575
  -2836116.06348  -2209961.60044  24789473.367    24789476.524
 -13362643.54949 -10412444.90146  22523317.267    22523317.772
 -23791445.25049 -18538785.60147  20826844.633    20826845.018
 -23732818.91349 -18493102.00047  20247498.161    20247498.548
   2776770.05048                  24330347.157
   -131368.00648                  25508501.238
 02  1  7  1 39  0.0000000  0  8G 1G13G 4G25G20G22G29G 6
 -20891679.70049 -16279222.21247  21119194.207    21119194.746
  -8231906.85748  -6414467.28644  23512474.281    23512472.319
  -2827452.24148  -2203210.58644  24791122.535    24791119.461
 -13288785.41749 -10354893.14246  22537372.106    22537372.605
 -23754078.49249 -18509668.65647  20833955.534    20833955.699
 -23755919.60649 -18511102.54047  20243102.430    20243102.783
   2865821.38548                  24347294.274
   -130028.11548                  25508756.268
 02  1  7  1 39 30.0000000  0  8G 1G13G 4G25G20G22G29G 6
 -20945259.75249 -16320972.88747  21108998.259    21108998.702
  -8321840.32848  -6484545.27944  23495359.394    23495357.899
  -2818270.95448  -2196056.32944  24792870.165    24792868.685
 -13214794.66149 -10297238.04146  22551451.848    22551452.372
 -23716125.98649 -18480095.28547  20841177.756    20841178.132
 -23778359.00349 -18528587.78447  20238832.319    20238832.689
   2955016.53448                  24364266.376
   -128202.81448                  25509103.494
 02  1  7  1 40  0.0000000  0  8G 1G13G 4G25G20G22G29G 6
 -20998603.33049 -16362539.29847  21098847.336    21098847.837
  -8411706.53448  -6554570.85444  23478259.866    23478259.091
  -2808576.36048  -2188502.12544  24794714.820    24794714.324
 -13140675.84949 -10239483.16846  22565556.250    22565556.567
 -23677592.35349 -18450069.08747  20848510.016    20848510.429
 -23800139.56949 -18545559.65547  20234687.599    20234688.048
   3044351.74348                  24381268.364
   -125895.08348                  25509542.888
 02  1  7  1 40 30.0000000  0  8G 1G13G 4G25G20G22G29G 6
 -21051714.32949 -16403924.47747  21088740.604    21088741.303
  -8501510.12948  -6624547.64145  23461169.789    23461170.328
  -2798374.57048  -2180552.64744  24796655.605    24796653.354
 -13066435.04949 -10181633.24046  22579684.105    22579684.566
 -23638483.90149 -18419594.98147  20855952.631    20855952.890
 -23821266.11249 -18562021.89747  20230667.476    20230667.912
   3133820.98148   2441931.80844  24398292.663    24398291.843
   -123109.82048                  25510072.656
 02  1  7  1 41  0.0000000  0  8G 1G13G 4G25G20G22G29G 6
 -21104592.14149 -16445127.94947  21078678.310    21078679.016
  -8591250.66948  -6694475.30645  23444093.618    23444091.798
  -2787667.52548  -2172209.52444  24798693.210    24798690.725
 -12992074.44949 -10123689.95546  22593834.378    22593835.088
 -23598802.93349 -18388674.75747  20863503.828    20863504.061
 -23841738.84949 -18577974.68247  20226771.706    20226772.166
   3223422.79848                  24415343.973
   -119847.45448    -93388.75744  25510693.567    25510691.978
 02  1  7  1 41 30.0000000  0  8G 1G13G 4G25G20G22G29G 6
 -21157235.09549 -16486148.41947  21068660.518    21068661.201
  -8680926.31648  -6764352.39844  23427028.200    23427027.562
  -2776455.78448  -2163473.14644  24800827.142    24800826.894
 -12917594.58949 -10065653.74046  22608007.406    22608008.234
 -23558550.28649 -18357309.06947  20871163.091    20871163.551
 -23861556.84749 -18593417.27947  20223000.136    20223000.610
   3313156.78048                  24432420.051
   -116107.48948                  25511405.444
 02  1  7  1 42  0.0000000  0  8G 1G13G 4G25G20G22G29G 6
 -21209626.91949 -16526973.20347  21058690.401    21058691.061
  -8770521.04148  -6834166.41045  23409978.974    23409977.296
  -2764725.32848  -2154332.52444  24803059.602    24803056.528
 -12842981.57349 -10007513.78246  22622206.137    22622205.752
 -23517712.08449 -18325487.10747  20878934.589    20878934.951
 -23880704.40049 -18608337.45247  20219356.699    20219357.153
   3403037.17448   2651709.78444  24449523.711    24449526.740
   -111874.49848                  25512210.955
 02  1  7  1 42 30.0000000  0  8G 1G13G 4G25G20G22G29G 6
 -21261772.86549 -16567606.39447  21048767.949    21048768.443
  -8860040.50148  -6903921.79845  23392944.054    23392943.207
  -2752483.91048  -2144793.79944  24805388.338    24805386.224
 -12768243.33849  -9949276.24046  22636428.495    22636428.419
 -23476296.52549 -18293215.25447  20886816.057    20886816.142
 -23899187.93749 -18622740.21147  20215839.249    20215839.748
   3493056.72248                  24466654.221
   -107154.93248                  25513109.091
 02  1  7  1 43  0.0000000  0  8G 1G13G 4G25G20G22G29G 6
 -21313692.39549 -16608063.15447  21038887.875    21038888.384
  -8949504.48148  -6973633.91945  23375919.028    23375920.199
  -2739753.30748  -2134873.80344  24807810.833    24807813.889
 -12693401.93249  -9890958.30546  22650670.498    22650670.817
 -23434325.55249 -18260510.61347  20894802.509    20894802.991
 -23917027.62749 -18636641.27047  20212444.577    20212445.070
   3583194.01848                  24483806.513
   -101969.35348                  25514095.726
 02  1  7  1 43 30.0000000  0  8G 1G13G 4G25G20G22G29G 6
 -21365352.82149 -16648318.01647  21029056.833    21029057.466
  -9038880.16148  -7043277.30145  23358912.602    23358909.845
  -2726503.17748  -2124549.05544  24810332.337    24810330.528
 -12618426.94149  -9832536.28546  22664937.970    22664937.655
 -23391769.31849 -18227349.92447  20902900.846    20902901.250
 -23934191.70649 -18650015.87947  20209178.192    20209178.720
   3673479.72948                  24500987.561
    -96286.08848                  25515177.633
 02  1  7  1 44  0.0000000  0  7G 1G13G 4G25G20G22G29
 -21416766.63349 -16688380.71447  21019273.027    21019273.608
  -9128179.83248  -7112861.43245  23341917.684    23341916.810
  -2712748.37948  -2113831.03644  24812949.826    24812949.377
 -12543333.43749  -9774021.90546  22679227.464    22679227.960
 -23348642.96449 -18193744.98647  20911107.745    20911107.717
 -23950693.54849 -18662874.45847  20206038.363    20206038.815
   3763899.26448                  24518195.114
 02  1  7  1 44 30.0000000  0  7G 1G13G 4G25G20G22G29
 -21467922.53349 -16728242.43647  21009538.403    21009538.962
  -9217392.84748  -7182378.00845  23324942.553    23324941.955
  -2698480.26948  -2102713.03644  24815664.349    24815662.384
 -12468112.20449  -9715408.00546  22693541.404    22693541.691
 -23304937.99449 -18159689.18447  20919424.294    20919424.513
 -23966522.88349 -18675209.00647  20203025.884    20203026.425
   3854461.91048                  24535428.300
 02  1  7  1 45  0.0000000  0  7G 1G13G 4G25G20G22G29
 -21518843.08949 -16767920.77847  20999848.778    20999849.404
  -9306541.81948  -7251844.75445  23307976.561    23307976.362
  -2683723.73448  -2091214.43444  24818472.710    24818471.056
 -12392788.39149  -9656714.17446  22707875.331    22707875.675
 -23260679.68149 -18125202.20247  20927846.216    20927846.704
 -23981703.26949 -18687037.87947  20200137.399    20200137.852
   3945143.24948                  24552684.561
 02  1  7  1 45 30.0000000  0  7G13G 4G25G 1G20G22G29
  -9395610.99748  -7321249.24945  23291028.466    23291026.665
  -2668465.48648  -2079324.92844  24821375.578    24821377.165
 -12317348.87249  -9597930.18146  22722230.551    22722231.310
 -21569512.46249 -16807403.39347  20990206.600    20990207.246
 -23215855.05249 -18090273.93647  20936376.386    20936376.735
 -23996219.83049 -18698349.48447  20197374.881    20197375.288
   4035956.65548                  24569966.574
 02  1  7  1 46  0.0000000  0  7G13G 4G25G 1G20G22G29
  -9484602.77548  -7390593.45845  23274092.993    23274093.544
  -2652710.38148  -2067048.21644  24824372.821    24824375.852
 -12241798.21549  -9539059.60446  22736607.532    22736607.981
 -21619933.04549 -16846692.14747  20980612.034    20980612.540
 -23170469.16149 -18054908.32747  20945013.053    20945013.330
 -24010075.98949 -18709146.49047  20194738.158    20194738.534
   4126897.95948                  24587271.578
 02  1  7  1 46 30.0000000  0  7G13G 4G25G 1G20G22G29
  -9573520.65148  -7459880.09145  23257172.939    23257170.594
  -2636464.12748  -2054388.85044  24827464.495    24827467.583
 -12166141.62849  -9480106.46746  22751004.753    22751004.446
 -21670107.86849 -16885789.40247  20971064.118    20971064.573
 -23124528.02449 -18019110.05747  20953754.833    20953755.320
 -24023275.91649 -18719432.14747  20192226.108    20192226.625
   4217961.88248                  24604602.701
 02  1  7  1 47  0.0000000  0  8G13G 4G25G 1G20G22G29G27
  -9662366.45548  -7529110.53845  23240266.766    23240265.941
  -2619731.13748  -2041350.14044  24830648.606    24830649.336
 -12090383.68249  -9421074.35246  22765420.989    22765421.658
 -21720039.01249 -16924696.77747  20961562.384    20961562.871
 -23078036.69749 -17982883.06947  20962602.371    20962602.605
 -24035822.83349 -18729208.96547  20189838.534    20189839.007
   4309144.29848                  24621952.135
         -.85758          .21654  25579003.535    25579005.001
 02  1  7  1 47 30.0000000  0  8G13G 4G25G 1G20G22G29G27
  -9751122.46448  -7598271.03045  23223376.052    23223374.863
  -2602496.20148                  24833927.609
 -12014509.29349  -9361951.52346  22779859.471    22779860.202
 -21769708.46149 -16963400.23447  20952110.676    20952111.259
 -23030980.09249 -17946215.60447  20971557.161    20971557.511
 -24047699.96949 -18738463.87447  20187578.474    20187578.944
   4400461.12848                  24639329.927
    -84729.82748    -66022.43544  25562880.416    25562883.522
 02  1  7  1 48  0.0000000  0  8G13G 4G25G 1G20G22G29G27
  -9839784.77248  -7667358.50645  23206504.618    23206502.247
  -2584757.56548  -2014098.06044  24837302.328    24837306.365
 -11938516.19349  -9302736.17846  22794320.571    22794320.913
 -21819112.05149 -17001896.53047  20942709.571    20942710.086
 -22983356.78949 -17909106.55747  20980619.258    20980619.428
 -24058904.26349 -18747194.49347  20185446.393    20185446.942
   4491914.32148                  24656733.840
   -169392.53048                  25546768.573
 02  1  7  1 48 30.0000000  0  8G20G13G 4G25G 1G22G29G27
 -22935180.98749 -17871566.99247  20989786.956    20989787.300
  -9928364.41948  -7736381.58245  23189648.302    23189647.687
  -2566529.20148  -1999894.18944  24840771.780    24840772.428
 -11862417.80349  -9243438.79646  22808801.476    22808802.215
 -21868260.93249 -17040194.35547  20933356.467    20933357.240
 -24069447.95649 -18755410.35747  20183440.013    20183440.515
   4583490.85848                  24674159.400
   -254001.07348   -197922.15844  25530668.799    25530671.988
 02  1  7  1 49  0.0000000  0  8G20G13G 4G25G 1G22G29G27
 -22886455.14549 -17833598.82547  20999059.615    20999059.945
 -10016860.91748  -7805339.86645  23172807.899    23172807.645
  -2547812.92148  -1985310.06644  24844333.692    24844334.839
 -11786216.46749  -9184061.18746  22823302.465    22823302.891
 -21917154.46849 -17078293.20847  20924052.548    20924053.189
 -24079331.92849 -18763112.15247  20181558.970    20181559.545
   4675189.16048                  24691610.934
   -338555.89248   -263809.05044  25514578.679    25514582.114
 02  1  7  1 49 30.0000000  0  8G20G13G 4G25G 1G22G29G27
 -22837173.88949 -17795197.86747  21008436.770    21008437.211
 -10105266.26049  -7874227.10645  23155985.365    23155984.290
  -2528603.42548  -1970341.64944  24847988.720    24847990.035
 -11709905.93049  -9124598.50946  22837824.057    22837824.483
 -21965784.39449 -17116186.65347  20914798.658    20914799.301
 -24088549.13649 -18770294.39147  20179805.039    20179805.469
   4767015.31148                  24709083.112
   -423049.75048   -329648.41244  25498500.764    25498505.710
 02  1  7  1 50  0.0000000  0  8G20G13G 4G25G 1G22G29G27
 -22787344.71349 -17756369.95947  21017919.098    21017919.549
 -10193585.02448  -7943046.90645  23139178.103    23139177.733
  -2508907.92648                  24851736.195
 -11633493.36049  -9065056.31146  22852364.215    22852365.329
 -22014155.26149 -17153878.23547  20905594.021    20905594.640
 -24097105.42049 -18776961.62547  20178176.970    20178177.463
   4858962.47848                  24726581.507
   -507488.36148   -395444.69844  25482432.541    25482435.750
 02  1  7  1 50 30.0000000  0  8G20G13G 4G25G 1G22G29G27
 -22736967.78049 -17717115.22847  21027505.985    21027506.508
 -10281814.09449  -8011796.80445  23122389.657    23122386.652
  -2488726.19748  -1939268.58444  24855577.608    24855579.339
 -11556978.04849  -9005434.06646  22866925.092    22866924.969
 -22062264.17149 -17191365.69247  20896439.163    20896439.780
 -24104999.04249 -18783112.50047  20176674.708    20176675.105
   4951031.74248                  24744100.619
   -591869.53548   -461196.24744  25466374.735    25466376.163
 02  1  7  1 51  0.0000000  0  8G20G13G 4G25G 1G22G29G27
 -22686045.16749 -17677435.29447  21037195.589    21037196.107
 -10369952.72048  -8080476.23845  23105616.311    23105615.969
  -2468059.73348                  24859511.323
 -11480360.98749  -8945732.52046  22881504.902    22881505.525
 -22110109.89849 -17228648.07547  20887334.334    20887335.015
 -24112230.32749 -18788747.26847  20175298.826    20175299.295
   5043222.11548                  24761644.545
   -676193.28948   -526903.02144  25450329.161    25450332.227
 02  1  7  1 51 30.0000000  0  8G20G13G 4G25G 1G22G29G27
 -22634580.30549 -17637332.82347  21046989.399    21046989.658
 -10458001.47349  -8149085.61745  23088862.228    23088859.610
  -2446911.80648  -1906685.96344  24863535.579    24863537.544
 -11403645.23449  -8885954.08246  22896102.816    22896103.391
 -22157692.99049 -17265725.80547  20878279.503    20878280.294
 -24118801.31349 -18793867.52047  20174048.428    20174048.912
   5135530.63648                  24779211.116
   -760461.38748                  25434292.167
 02  1  7  1 52  0.0000000  0  8G20G13G 4G25G 1G22G29G27
 -22582571.51849 -17596806.51747  21056886.857    21056887.064
 -10545955.31249  -8217621.05145  23072124.941    23072123.885
  -2425280.39448  -1889830.36344  24867652.145    24867652.965
 -11326828.67449  -8826097.09946  22910721.183    22910722.324
 -22205008.49849 -17302595.02947  20869275.552    20869276.368
 -24124708.34949 -18798470.40847  20172924.097    20172924.640
   5227960.16147                  24796799.228
   -844670.10948   -658183.51044  25418268.448    25418270.010
 02  1  7  1 52 30.0000000  0  8G20G13G 4G25G 1G22G29G27
 -22530027.45549 -17555863.11946  21066884.917    21066885.535
 -10633820.12548  -8286087.11845  23055403.436    23055401.815
  -2403173.82548  -1872604.47144  24871858.866    24871856.711
 -11249918.79949  -8766167.39146  22925356.920    22925357.835
 -22252061.99249 -17339260.08547  20860321.554    20860322.249
 -24129958.60149 -18802561.51747  20171925.060    20171925.590
   5320502.96448                  24814410.601
   -928825.80048   -723759.35044  25402254.442    25402255.199
 02  1  7  1 53  0.0000000  0  8G20G13G 4G25G 1G22G29G27
 -22476928.90049 -17514487.64646  21076989.668    21076990.026
 -10721573.33149  -8354466.22045  23038706.746    23038706.221
  -2380572.59348  -1854993.16744  24876159.951    24876159.516
 -11172895.79349  -8706149.55046  22940013.504    22940015.382
 -22298831.03049 -17375703.48947  20851421.855    20851422.727
 -24134531.01949 -18806124.44747  20171054.930    20171055.493
   5413179.36247                  24832044.714
  -1012907.47348   -789277.44744  25386253.847    25386254.651
 02  1  7  1 53 30.0000000  0  8G20G13G 4G25G 1G22G29G27
 -22423283.71349 -17472686.22646  21087198.112    21087198.318
 -10809219.94649  -8422762.26545  23022026.565    23022026.161
  -2357484.10648  -1837002.17744  24880553.449    24880552.448
 -11095766.73349  -8646049.05046  22954690.757    22954691.300
 -22345320.30049 -17411928.89047  20842575.387    20842576.036
 -24138432.02549 -18809164.19947  20170312.693    20170313.176
   5505982.36748                  24849705.796
  -1096920.83448   -854742.33244  25370266.473    25370271.445
 02  1  7  1 54  0.0000000  0  6G20G13G25G 1G22G27
 -22369102.67449 -17430467.26146  21097507.916    21097508.624
 -10896767.55249  -8490981.15745  23005367.575    23005366.456
 -11018541.14249  -8585873.33545  22969386.577    22969387.731
 -22391537.17949 -17447942.04247  20833780.221    20833781.007
 -24141670.57249 -18811687.74747  20169696.476    20169697.016
  -1180874.41848   -920160.62644  25354290.387    25354296.675
 02  1  7  1 54 30.0000000  0  8G20G13G 3G25G 1G22G 4G27
 -22314374.46049 -17387821.92346  21107922.659    21107923.115
 -10984201.16349  -8559111.23945  22988728.913    22988726.946
         -.52358                  25243482.332
 -10941207.20949  -8525613.21145  22984102.732    22984103.600
 -22437467.12049 -17483731.60847  20825040.371    20825040.902
 -24144233.84649 -18813685.11047  20169208.435    20169208.938
         -.26458          .37854  24889615.399    24889613.022
  -1264754.53048   -985521.69544  25338329.373    25338333.283
 02  1  7  1 55  0.0000000  0  8G20G13G 3G25G 1G22G 4G27
 -22259128.76349 -17344773.35446  21118435.905    21118435.845
 -11071547.71249  -8627173.45145  22972107.589    22972107.142
    -89265.61948                  25226494.333
 -10863793.75848  -8465291.13445  22998833.573    22998834.341
 -22483136.65349 -17519318.25647  20816349.596    20816350.174
 -24146149.93549 -18815178.17747  20168844.057    20168844.631
     24512.31348     19101.10344  24894279.241    24894279.375
  -1348589.06248  -1050847.27344  25322374.689    25322377.239
 02  1  7  1 55 30.0000000  0  8G20G13G 3G25G 1G22G 4G27
 -22203355.38049 -17301313.60046  21129048.814    21129049.212
 -11158793.76849  -8695157.35245  22955505.641    22955504.442
   -178607.38848                  25209494.454
 -10786289.33048  -8404898.14745  23013583.041    23013583.647
 -22528532.30649 -17554691.49647  20807711.227    20807711.807
 -24147406.99749 -18816157.71547  20168604.912    20168605.464
     49494.55048                  24899032.488
  -1432365.39848  -1116127.40544  25306433.408    25306436.208
 02  1  7  1 56  0.0000000  0  8G20G13G25G 3G 1G22G 4G27
 -22147061.14149 -17257447.99246  21139761.393    21139761.795
 -11245942.69149  -8763065.59145  22938921.010    22938919.816
 -10708700.27248  -8344439.22045  23028346.866    23028348.037
   -268027.93948                  25192477.571
 -22573657.66349 -17589854.11147  20799124.294    20799124.829
 -24148010.11449 -18816627.68747  20168489.893    20168490.593
     74939.65448     58395.04144  24903875.400    24903877.277
  -1516088.45348  -1181366.10744  25290501.411    25290503.336
 02  1  7  1 56 30.0000000  0  8G20G13G25G 3G 1G22G 4G27
 -22090237.93549 -17213170.19646  21150574.518    21150574.905
 -11332983.21049  -8830889.36145  22922358.197    22922357.565
 -10631017.32748  -8283907.13745  23043130.172    23043131.257
   -357514.37748                  25175449.472
 -22618501.19649 -17624797.12347  20790590.771    20790591.206
 -24147949.76749 -18816580.67647  20168501.393    20168502.009
    100856.16748     78589.71944  24908806.437    24908808.299
  -1599747.79648  -1246555.09744  25274581.526    25274585.905
 02  1  7  1 57  0.0000000  0  7G20G13G25G 1G22G 4G27
 -22032881.02349 -17168476.52646  21161489.262    21161489.634
 -11419907.35649  -8898622.44445  22905816.228    22905815.750
 -10553234.64348  -8223297.35445  23057932.164    23057932.570
 -22663054.78849 -17659514.21047  20782112.616    20782113.048
 -24147219.58449 -18816011.71447  20168640.272    20168640.992
    127249.22648                  24913828.310
  -1683336.53448  -1311689.13044  25258675.615    25258677.226
 02  1  7  1 57 30.0000000  0  7G20G13G25G 1G22G 4G27
 -21974990.21949 -17123366.83846  21172504.946    21172505.462
 -11506711.40849  -8966261.94645  22889298.787    22889297.115
 -10475351.23748  -8162609.06545  23072752.154    23072753.742
 -22707314.93349 -17694002.63747  20773690.294    20773690.699
 -24145817.78349 -18814919.41447  20168907.010    20168907.577
    154119.34548    120093.45144  24918942.720    24918944.211
  -1766852.20248  -1376766.13444  25242782.167    25242784.965
 02  1  7  1 58  0.0000000  0  7G20G13G25G 1G22G 4G27
 -21916582.47049 -17077854.33946  21183620.085    21183620.567
 -11593408.70249  -9033818.27545  22872800.576    22872800.122
 -10397382.55748  -8101854.33945  23087589.531    23087591.032
 -22751295.02349 -17728272.84147  20765320.694    20765321.268
 -24143759.59749 -18813315.64547  20169298.815    20169299.669
    181449.97248    141390.01944  24924144.239    24924145.258
  -1850309.44548  -1441797.67644  25226901.460    25226902.544
 02  1  7  1 58 30.0000000  0  7G20G13G25G 1G22G 4G27
 -21857641.42749 -17031926.27946  21194836.034    21194836.909
 -11679979.78949  -9101276.23645  22856326.728    22856324.951
 -10319311.48248  -8041019.82945  23102446.539    23102447.264
 -22794975.31449 -17762309.43747  20757008.610    20757009.068
 -24141027.19049 -18811186.50747  20169818.682    20169819.457
    209257.82248    163058.40344  24929436.230    24929435.689
  -1933689.58748  -1506769.13944  25211033.497    25211036.940
 02  1  7  1 59  0.0000000  0  8G20G13G25G 3G 1G22G 4G27
 -21798199.18649 -16985607.67946  21206147.683    21206148.152
 -11766453.39449  -9168658.25545  22839871.704    22839869.840
 -10241168.92848  -7980129.62745  23117315.935    23117317.430
         -.28558                  25090144.086
 -22838384.70249 -17796134.94047  20748748.182    20748748.863
 -24137651.21149 -18808555.88747  20170461.376    20170462.134
    237510.94648    185073.84244  24934811.567    24934813.358
  -2017022.65548  -1571703.90744  25195176.945    25195177.856
 02  1  7  1 59 30.0000000  0  7G20G13G25G 1G22G 4G27
 -21738244.72749 -16938889.95046  21217556.243    21217557.004
 -11852814.67049  -9235952.74345  22823437.019    22823437.046
 -10162942.65748  -7919174.19645  23132202.533    23132204.031
 -22881508.75949 -17829738.10947  20740541.894    20740542.478
 -24133619.20649 -18805414.07847  20171228.239    20171229.149
    266220.67148    207444.98544  24940275.077    24940274.669
  -2100295.19048  -1636591.51144  25179330.061    25179333.205
 02  1  7  2  0  0.0000000  0  8G20G13G25G 3G 1G22G 4G27
 -21677780.11749 -16891774.70346  21229062.740    21229063.553
 -11939062.51349  -9303158.83645  22807024.795    22807023.065
 -10084633.68048  -7858154.30645  23147104.041    23147104.377
         -.27058                  25055948.693
 -22924345.76649 -17863117.60447  20732390.380    20732390.943
 -24128931.45049 -18801761.29647  20172120.599    20172121.697
    295385.58048    230170.90244  24945825.332    24945826.628
  -2183506.77448  -1701431.59244  25163495.398    25163500.838
 02  1  7  2  0 30.0000000  0  7G20G13G25G 1G22G 4G27
 -21616800.55049 -16844258.19146  21240666.787    21240667.241
 -12025188.71049  -9370270.16745  22790635.892    22790634.839
 -10006236.23048  -7797065.47945  23162023.160    23162023.208
 -22966887.60049 -17896267.09347  20724295.167    20724295.756
 -24123581.55349 -18797592.56247  20173138.257    20173139.186
    325010.62748                  24951462.716
  -2266650.41348  -1766218.74945  25147674.319    25147675.877
 02  1  7  2  1  0.0000000  0  7G20G13G25G 1G22G 4G27
 -21555299.72849 -16796335.50746  21252369.665    21252370.543
 -12111183.16849  -9437278.82045  22774271.282    22774271.233
  -9927742.51248  -7735901.65245  23176959.972    23176960.477
 -23009124.34749 -17929178.85547  20716257.974    20716258.471
 -24117562.00449 -18792902.01947  20174283.723    20174284.772
    355102.50848    276703.48944  24957188.834    24957191.977
  -2349717.42548  -1830946.25844  25131866.569    25131869.413
 02  1  7  2  1 30.0000000  0  7G20G13G25G 1G22G 4G27
 -21493287.93249 -16748014.66146  21264170.660    21264171.251
 -12197052.87649  -9504190.26845  22757931.119    22757930.431
  -9849161.71548  -7674669.95045  23191913.212    23191913.833
 -23051062.90749 -17961858.26247  20708277.203    20708277.658
 -24110881.38149 -18787696.35447  20175555.131    20175556.142
    385651.27948                  24963001.184
  -2432715.87648  -1895620.31544  25116072.758    25116075.964
 02  1  7  2  2  0.0000000  0  8G20G13G25G 3G 1G22G 4G27
 -21430788.93549 -16699314.17746  21276063.492    21276063.930
 -12282817.75449  -9571020.05045  22741610.384    22741609.375
  -9770516.09748  -7613387.76345  23206879.022    23206879.105
         -.13758                  24987458.690
 -23092723.43149 -17994321.02247  20700349.148    20700349.572
 -24103562.03749 -18781992.98347  20176948.248    20176949.194
    416633.52948                  24968897.200
  -2515666.90948  -1960257.41744  25100287.186    25100291.722
 02  1  7  2  2 30.0000000  0  8G20G13G25G 3G 1G22G 4G27
 -21367791.00849 -16650224.91846  21288051.710    21288052.596
 -12368462.38349  -9637756.12645  22725312.993    22725312.208
  -9691792.94948  -7552045.14045  23221859.947    23221860.990
    -90083.86348                  24970315.989
 -23134090.73549 -18026555.29747  20692477.217    20692477.722
 -24095590.76249 -18775781.61547  20178465.011    20178466.056
    448061.09048                  24974878.364
  -2598556.64648  -2024846.77244  25084514.431    25084516.732
 02  1  7  2  3  0.0000000  0  8G20G13G25G 3G 1G22G 4G27
 -21304291.56649 -16600744.87246  21300135.520    21300136.044
 -12453980.93749  -9704393.94245  22709038.763    22709038.139
  -9612988.32448  -7490639.04845  23236856.011    23236856.998
   -180198.91348                  24953168.014
 -23175158.52349 -18058556.18347  20684662.337    20684662.885
 -24086963.55349 -18769059.13047  20180106.070    20180107.039
    479936.99248    373976.97244  24980944.242    24980947.497
  -2681380.05148  -2089384.43944  25068753.196    25068757.439
 02  1  7  2  3 30.0000000  0  8G20G13G25G 3G 1G22G 4G27
 -21240283.16449 -16550868.23246  21312315.563    21312316.223
 -12539362.19849  -9770924.80245  22692792.413    22692790.628
  -9534093.62948  -7429162.76945  23251868.828    23251870.507
   -270332.86848                  24936017.056
 -23215915.65349 -18090314.99647  20676906.733    20676907.178
 -24077671.60549 -18761818.66647  20181874.705    20181875.933
    512269.17548    399170.89544  24987097.084    24987096.296
  -2764127.12048  -2153862.59745  25053006.605    25053009.684
 02  1  7  2  4  0.0000000  0  8G20G13G25G 3G 1G22G 4G27
 -21175773.54849 -16500601.03846  21324591.218    21324592.268
 -12624609.88349  -9837351.55745  22676569.007    22676568.611
  -9455115.06248  -7367621.14545  23266898.703    23266899.040
   -360488.46948                  24918860.230
 -23256366.17849 -18121834.89747  20669209.350    20669209.877
 -24067720.92349 -18754064.90347  20183768.201    20183769.190
    545050.10548    424714.45844  24993335.371    24993336.753
  -2846803.12548  -2218285.43744  25037274.573    25037277.772
 02  1  7  2  4 30.0000000  0  8G20G13G25G 3G 1G22G 4G27
 -21110766.55549 -16449946.27946  21336962.101    21336962.816
 -12709724.54949  -9903674.66145  22660372.807    22660371.458
  -9376054.99948  -7306016.01045  23281942.734    23281943.772
   -450664.76348                  24901699.938
 -23296510.58449 -18153116.26247  20661570.140    20661570.569
 -24057114.15249 -18745799.90147  20185787.111    20185788.147
    578276.28148    450604.97144  24999657.957    24999661.113
  -2929409.45948  -2282653.95444  25021554.312    25021557.316
 02  1  7  2  5  0.0000000  0  8G20G13G25G 3G 1G22G 4G27
 -21045263.90749 -16398905.29546  21349426.876    21349427.322
 -12794704.01949  -9969892.43245  22644202.079    22644200.573
  -9296914.15548  -7244347.92145  23297002.793    23297002.566
   -540858.50848                  24884537.159
 -23336346.92549 -18184157.58247  20653989.686    20653990.100
 -24045851.56549 -18737023.87447  20187930.216    20187931.182
    611946.30148    476841.32544  25006065.177    25006064.934
  -3011945.48848  -2346967.68144  25005848.856    25005850.491
 02  1  7  2  5 30.0000000  0  8G20G13G25G 3G 1G22G 4G27
 -20979274.42449 -16347484.96146  21361984.188    21361985.014
 -12879553.30749 -10036008.76145  22628054.760    22628054.550
  -9217699.70148  -7182622.48145  23312077.851    23312078.302
   -631073.12848                  24867369.381
 -23375880.38749 -18214962.89347  20646466.629    20646467.102
 -24033940.45649 -18727742.50347  20190196.764    20190197.734
    646051.76748                  25012554.509
  -3094417.53948  -2411231.57444  24990154.554    24990158.156
 02  1  7  2  6  0.0000000  0  8G20G13G25G 3G 1G22G 4G27
 -20912790.65949 -16295679.47346  21374635.933    21374636.634
 -12964261.31949 -10102014.99445  22611936.790    22611935.725
  -9138402.64748  -7120832.69345  23327166.340    23327168.935
   -721296.23648                  24850200.635
 -23415099.68749 -18245523.40347  20639003.512    20639003.887
 -24021372.08749 -18717948.98347  20192588.647    20192589.633
    680600.40348                  25019128.504
  -3176815.64348  -2475437.81344  24974474.848    24974477.716
 02  1  7  2  6 30.0000000  0  8G20G13G25G 3G 1G22G 4G27
 -20845830.91349 -16243503.09546  21387377.674    21387378.199
 -13048842.47349 -10167922.38145  22595840.278    22595839.615
  -9059039.96548  -7058991.76545  23342269.383    23342270.415
   -811540.99948                  24833026.918
 -23454019.48549 -18275850.53547  20631597.351    20631597.584
 -24008163.32649 -18707656.45847  20195102.259    20195103.152
    715574.37948    557590.44144  25025783.675    25025786.619
  -3259155.57348  -2539598.76844  24958805.567    24958809.674
 02  1  7  2  7  0.0000000  0  8G20G13G25G 3G 1G22G 4G27
 -20778381.92349 -16190945.48846  21400212.864    21400213.741
 -13133279.49849 -10233717.46646  22579773.210    22579771.769
  -8979596.53248  -6997087.90745  23357386.739    23357387.819
   -901789.05148                  24815854.049
 -23492622.64549 -18305930.93347  20624251.318    20624251.636
 -23994299.40449 -18696853.41647  20197740.413    20197741.334
    750987.19948    585184.80844  25032523.379    25032522.994
  -3341421.54748  -2603702.05344  24943151.111    24943155.455
 02  1  7  2  7 30.0000000  0  8G20G13G25G 3G 1G22G 4G27
 -20710444.04449 -16138006.92546  21413141.129    21413141.821
 -13217569.05849 -10299397.64946  22563733.180    22563731.440
  -8900071.98048  -6935120.83845  23372519.244    23372522.004
   -992035.65548                  24798679.560
 -23530905.86149 -18335762.02647  20616966.082    20616966.502
 -23979779.50249 -18685539.22247  20200503.317    20200504.235
    786838.58548    613120.97544  25039346.212    25039345.763
  -3423611.55448  -2667746.16244  24927510.607    24927515.355
 02  1  7  2  8  0.0000000  0  8G20G13G25G 3G 1G22G 4G27
 -20642020.63349 -16084690.02846  21426161.673    21426162.543
 -13301710.61849 -10364962.49346  22547721.259    22547719.241
  -8820467.59948  -6873091.59445  23387668.191    23387668.923
  -1082279.01848                  24781506.675
 -23568868.53849 -18365343.34947  20609742.348    20609742.732
 -23964605.54349 -18673715.37447  20203390.819    20203391.695
    823125.70048                  25046251.355
  -3505726.18248  -2731731.51544  24911884.693    24911888.906
 02  1  7  2  8 30.0000000  0  8G20G13G25G 3G 1G22G 4G27
 -20573133.49949 -16031011.79146  21439270.148    21439271.175
 -13385722.12949 -10430426.01346  22531735.215    22531733.958
  -8740804.01648  -6811016.18545  23402827.792    23402828.770
  -1172535.68248                  24764332.632
 -23606528.80349 -18394689.03047  20602575.786    20602576.189
 -23948797.87249 -18661397.72547  20206398.776    20206399.813
    859827.24548                  25053235.261
  -3587784.65048  -2795673.10744  24896269.363    24896272.427
 02  1  7  2  9  0.0000000  0  8G20G13G25G 3G 1G22G 4G27
 -20503780.05049 -15976970.19346  21452467.987    21452468.894
 -13469596.89349 -10495782.97746  22515773.503    22515773.380
  -8661076.75648  -6748891.19145  23417998.750    23418001.082
  -1262797.74448                  24747155.307
 -23643880.20949 -18423794.04247  20595468.018    20595468.409
 -23932352.71049 -18648583.33247  20209528.344    20209529.211
    896946.07148                  25060297.855
  -3669781.83248  -2859566.92944  24880666.446    24880668.513
 02  1  7  2  9 30.0000000  0  8G20G13G25G 3G 1G22G 4G27
 -20433951.54949 -15922558.42646  21465755.991    21465756.597
 -13553322.56949 -10561023.76946  22499841.686    22499840.478
  -8581275.53348  -6686708.54145  23433185.520    23433187.318
  -1353051.65248                  24729981.473
 -23680910.50149 -18452648.83447  20588421.485    20588421.979
 -23915259.94449 -18635264.31247  20212781.195    20212782.060
    934491.28548                  25067441.926
  -3751706.55248  -2923404.32544  24865075.827    24865079.089
 02  1  7  2 10  0.0000000  0  8G20G13G25G 3G 1G22G 4G27
 -20363651.24649 -15867779.02046  21479134.026    21479134.650
 -13636898.11049 -10626147.58246  22483937.457    22483935.865
  -8501402.15948  -6624469.68145  23448384.270    23448386.335
  -1443295.29248                  24712808.063
 -23717619.18449 -18481253.02047  20581436.122    20581436.682
 -23897521.67549 -18621442.30547  20216156.692    20216157.649
    972459.70448                  25074667.806
  -3833559.62348  -2987185.84444  24849500.695    24849503.311
 02  1  7  2 10 30.0000000  0  8G20G13G25G 3G 1G22G 4G27
 -20292883.80549 -15812635.61246  21492600.750    21492601.402
 -13720324.65649 -10691155.28046  22468062.022    22468060.760
  -8421459.85948  -6562177.10645  23463597.009    23463599.532
  -1533528.04348                  24695637.038
 -23754007.02049 -18509607.19947  20574511.380    20574512.029
 -23879141.09049 -18607119.79147  20219654.646    20219655.426
   1010846.98148                  25081973.100
  -3915343.00848  -3050913.13644  24833936.345    24833940.793
 02  1  7  2 11  0.0000000  0  8G13G25G20G 3G 1G22G 4G27
 -13803608.26349 -10756051.61146  22452214.665    22452212.327
  -8341457.51548  -6499837.75645  23478821.327    23478824.380
 -20221659.82049 -15757136.45546  21506154.129    21506154.677
  -1623754.81748                  24678467.712
 -23790080.32049 -18537716.28747  20567646.921    20567647.748
 -23860127.41049 -18592303.96247  20223272.694    20223273.533
   1049643.22848                  25089356.434
  -3997064.38048  -3114592.07044  24818386.211    24818388.337
 02  1  7  2 11 30.0000000  0  8G13G25G 3G 1G20G22G 4G27
 -13886728.84549 -10820820.90946  22436395.728    22436395.093
  -8261376.71948  -6437437.29645  23494059.496    23494061.370
  -1713954.05048                  24661303.628
 -23825819.14549 -18565564.74747  20560846.062    20560846.794
 -20149962.86049 -15701268.75546  21519797.498    21519798.212
 -23840463.06849 -18576981.12247  20227014.727    20227015.515
   1088864.95248                  25096820.385
  -4078704.67448  -3178207.85744  24802850.711    24802853.597
 02  1  7  2 12  0.0000000  0  8G13G25G 3G 1G20G22G 4G27
 -13969664.58749 -10885446.17146  22420614.444    22420613.400
  -8181198.37348  -6374960.78645  23509318.025    23509320.240
  -1804102.81448                  24644148.511
 -23861201.97649 -18593135.80547  20554112.851    20554113.522
 -20077775.39049 -15645018.83546  21533534.542    21533534.729
 -23820129.22249 -18561136.59447  20230884.262    20230885.119
   1128530.23648                  25104367.294
  -4160243.81148  -3241744.75244  24787333.679    24787336.754
 02  1  7  2 12 30.0000000  0  8G13G25G 3G 1G20G22G 4G27
 -14052443.05849 -10949948.88546  22404862.048    22404860.992
  -8100952.28548  -6312431.50945  23524588.129    23524590.420
  -1894227.50748                  24626998.709
 -23896256.46349 -18620451.01447  20547442.243    20547442.946
 -20005128.95149 -15588411.27246  21547358.658    21547359.323
 -23799156.03849 -18544793.88247  20234875.221    20234876.136
   1168607.68348                  25111993.198
  -4241710.48148  -3305225.26844  24771831.821    24771834.675
 02  1  7  2 13  0.0000000  0  8G13G25G 3G 1G20G22G 4G27
 -14135080.71249 -11014341.87646  22389136.859    22389136.135
  -8020657.20948  -6249864.07845  23539867.425    23539867.734
  -1984343.13948                  24609849.698
 -23930999.23849 -18647523.33147  20540831.122    20540831.781
 -19932044.02649 -15531462.04346  21561266.111    21561266.775
 -23777562.96549 -18527968.14047  20238984.300    20238985.267
   1209077.23648                  25119694.040
  -4323122.68648  -3368663.26844  24756338.131    24756342.785
 02  1  7  2 13 30.0000000  0  8G13G25G 3G 1G20G22G 4G27
 -14217562.05349 -11078613.07146  22373441.936    22373441.378
  -7940299.87948  -6187248.09645  23555160.170    23555161.547
  -2074432.96448                  24592706.744
 -23965415.22649 -18674341.00847  20534281.999    20534282.637
 -19858509.56249 -15474162.52146  21575259.675    21575259.998
 -23755337.42049 -18510649.56547  20243213.559    20243214.345
   1249950.29848    973987.05444  25127472.690    25127472.469
  -4404466.44248  -3432047.97644  24740859.536    24740858.618
 02  1  7  2 14  0.0000000  0  8G13G 3G25G 1G20G22G 4G27
 -14299888.01549 -11142763.17646  22357774.261    22357773.779
  -2164496.93548                  24575568.591
  -7859884.05748  -6124586.59945  23570462.181    23570465.342
 -23999505.50349 -18700904.89047  20527794.824    20527795.502
 -19784530.30249 -15416516.40646  21589337.178    21589338.327
 -23732483.22049 -18492841.12847  20247562.525    20247563.529
   1291222.52448                  25135326.360
  -4485744.02248  -3495381.12944  24725392.771    24725396.525
 02  1  7  2 14 30.0000000  0  8G13G 3G25G 1G20G22G 4G27
 -14382048.61449 -11206784.43346  22342140.854    22342138.930
  -2254523.63548                  24558435.332
  -7779401.96048  -6061873.41145  23585776.973    23585779.951
 -24033260.26949 -18727207.33347  20521371.673    20521372.140
 -19710100.54849 -15358519.26146  21603500.483    21603501.041
 -23708993.20349 -18474537.25447  20252032.632    20252033.655
   1332899.84848                  25143257.935
  -4566946.86548  -3558656.01744  24709941.219    24709944.260
 02  1  7  2 15  0.0000000  0  8G13G 3G25G 1G20G22G 4G27
 -14464053.35149 -11270684.25046  22326535.321    22326534.141
  -2344521.36648                  24541310.097
  -7698865.64148  -5999117.98645  23601103.770    23601105.322
 -24066689.27849 -18753255.93647  20515010.307    20515010.911
 -19635233.88649 -15300181.66346  21617747.559    21617748.236
 -23684880.12049 -18455747.87447  20256621.330    20256622.118
   1374968.62548                  25151263.938
  -4648086.07848  -3621881.33444  24694499.808    24694503.067
 02  1  7  2 15 30.0000000  0  8G13G 3G25G 1G20G22G 4G27
 -14545901.04949 -11334461.68946  22310959.508    22310959.168
  -2434487.61348                  24524189.595
  -7618276.11448  -5936321.11245  23616438.792    23616440.658
 -24099791.64449 -18779050.01847  20508710.912    20508711.535
 -19559933.57149 -15241506.16046  21632076.699    21632077.538
 -23660145.67549 -18436474.31347  20261327.965    20261329.011
   1417426.33548                  25159343.181
  -4729161.98248  -3685057.27244  24679071.882    24679072.326
 02  1  7  2 16  0.0000000  0  8G13G 3G25G 1G20G22G 4G27
 -14627587.11149 -11398113.18446  22295416.913    22295415.678
  -2524416.41748                  24507076.472
  -7537631.03848  -5873480.94645  23631784.982    23631788.171
 -24132562.78049 -18804585.99547  20502474.798    20502475.452
 -19484198.88949 -15182492.18446  21646488.637    21646489.206
 -23634788.21349 -18416715.28847  20266153.380    20266154.217
   1460274.03648                  25167495.277
  -4810171.06748  -3748181.25144  24663657.943    24663663.898
 02  1  7  2 16 30.0000000  0  8G13G 3G25G 1G20G22G 4G27
 -14709090.83649 -11461622.59046  22279905.680    22279904.596
  -2614285.68048                  24489974.832
  -7456912.09448  -5810583.23745  23647146.659    23647149.215
 -24164982.26849 -18829847.96347  20496305.581    20496306.268
 -19408013.42949 -15123126.95946  21660986.373    21660986.870
 -23608789.94849 -18396456.93647  20271100.720    20271101.708
   1503528.43147                  25175725.210
  -4891094.17048                  24648256.138
 02  1  7  2 17  0.0000000  0  8G13G 3G25G 1G20G22G 4G27
 -14790406.93649 -11524985.79646  22264432.177    22264431.760
  -2704089.05548  -2107078.52844  24472886.355    24472892.740
  -7376116.32848  -5747625.66045  23662520.852    23662522.875
 -24197045.09949 -18854832.01547  20490204.065    20490204.797
 -19331376.34549 -15063409.82346  21675569.981    21675571.209
 -23582148.75249 -18375697.60047  20276170.485    20276171.501
   1547190.80547                  25184034.286
  -4971927.49648  -3874225.09944  24632874.479    24632875.365
 02  1  7  2 17 30.0000000  0  8G13G 3G25G 1G20G22G 4G27
 -14871535.76149 -11588203.07746  22248994.504    22248993.274
  -2793825.75548                  24455809.047
  -7295246.97948  -5684610.76845  23677910.083    23677912.217
 -24228752.08449 -18879538.78647  20484170.325    20484171.039
 -19254292.23749 -15003344.35446  21690238.688    21690239.962
 -23554868.34549 -18354440.17847  20281361.944    20281362.884
   1591256.60148                  25192421.569
  -5052673.01448  -3937143.59644  24617509.774    24617512.100
 02  1  7  2 18  0.0000000  0  7G13G 3G25G 1G20G22G27
 -14952497.01349 -11651289.78346  22233587.003    22233586.450
  -2883514.34048                  24438742.499
  -7214326.11348  -5621555.70345  23693309.403    23693311.640
 -24260123.05749 -18903983.73247  20478200.913    20478201.631
 -19176785.23549 -14942949.36046  21704987.675    21704988.708
 -23526971.71449 -18332702.58247  20286670.584    20286671.565
  -5133352.01848                  24602157.064
 02  1  7  2 18 30.0000000  0  7G13G 3G25G 1G20G22G27
 -15033287.38149 -11714243.33646  22218213.855    22218213.214
  -2973149.92648                  24421685.338
  -7133352.63248  -5558459.67245  23708717.963    23708721.133
 -24291155.01149 -18928164.50647  20472295.955    20472296.609
 -19098856.13149 -14882225.45546  21719817.418    21719818.205
 -23498458.48549 -18310484.52047  20292096.405    20292097.402
  -5213962.62048  -4062821.72445  24586815.774    24586812.547
 02  1  7  2 19  0.0000000  0  7G13G 3G25G 1G20G22G27
 -15113897.60349 -11777056.51346  22202873.896    22202873.429
  -3062722.00948                  24404639.279
  -7052319.52648  -5495317.16145  23724138.400    23724139.527
 -24321839.04249 -18952074.17447  20466456.801    20466457.337
 -19020499.91549 -14821168.73946  21734727.906    21734729.010
 -23469322.59049 -18287781.26547  20297640.575    20297641.551
  -5294497.21348  -4125569.95446  24571492.197    24571491.580
 02  1  7  2 19 30.0000000  0  7G13G 3G25G 1G20G22G27
 -15194340.43849 -11839739.25246  22187566.298    22187565.651
  -3152241.76348                  24387605.407
  -6971241.75548  -5432139.85645  23739567.138    23739568.902
 -24352188.05649 -18975722.78747  20460681.775    20460682.415
 -18941733.76349 -14759792.59046  21749716.751    21749717.838
 -23439580.02449 -18264605.28047  20303300.401    20303301.395
  -5374969.81748  -4188280.18845  24556178.818    24556177.858
 02  1  7  2 20  0.0000000  0  7G13G 3G25G 1G20G22G27
 -15274598.83249 -11902278.28046  22172293.777    22172292.896
  -3241691.48348  -2525989.22344  24370582.802    24370587.932
  -6890104.85748  -5368916.44645  23755006.957    23755009.730
 -24382185.59849 -18999097.52847  20454973.469    20454974.259
 -18862545.11049 -14698087.21946  21764786.194    21764786.828
 -23409217.22849 -18240945.99847  20309078.344    20309079.370
  -5455365.39448                  24540879.357
 02  1  7  2 20 30.0000000  0  7G13G 3G25G 1G20G22G27
 -15354679.70749 -11964678.97946  22157054.201    22157053.441
  -3331076.35748                  24353573.391
  -6808918.07648  -5305654.23145  23770455.639    23770457.713
 -24411838.56649 -19022203.76647  20449330.393    20449331.136
 -18782945.21549 -14636061.40146  21779933.186    21779934.455
 -23378244.09149 -18216811.12747  20314972.285    20314973.294
  -5535691.77948  -4313521.80644  24525594.337    24525595.635
 02  1  7  2 21  0.0000000  0  7G13G 3G25G 1G20G22G27
 -15434560.74249 -12026923.96446  22141854.066    22141853.576
  -3420373.09048                  24336581.644
  -6727661.80548  -5242337.84644  23785919.450    23785920.500
 -24441125.32149 -19045024.64647  20443757.320    20443758.105
 -18702916.05549 -14573701.09846  21795162.337    21795163.140
 -23346641.84149 -18192186.03747  20320986.001    20320987.023
  -5615928.58948  -4376043.94944  24510325.445    24510327.488
 02  1  7  2 21 30.0000000  0  7G13G 3G25G 1G20G22G27
 -15514253.19349 -12089022.00346  22126688.592    22126688.089
  -3509591.65548  -2734742.45144  24319603.358    24319609.641
  -6646349.24348  -5178977.53644  23801391.876    23801395.875
 -24470057.26949 -19067569.05247  20438251.911    20438252.823
 -18622473.42849 -14511018.60946  21810470.167    21810471.457
 -23314425.13949 -18167082.15347  20327116.935    20327117.985
  -5696088.46648  -4438506.13244  24495071.404    24495075.876
 02  1  7  2 22  0.0000000  0  7G13G 3G25G 1G20G22G27
 -15593751.13249 -12150968.46846  22111561.115    22111560.494
  -3598724.84248                  24302642.238
  -6564976.77248  -5115570.57844  23816876.897    23816880.601
 -24498628.84949 -19089832.65447  20432815.092    20432815.746
 -18541615.64749 -14448012.62446  21825856.962    21825857.985
 -23281591.20249 -18141497.30747  20333365.334    20333366.225
  -5776166.90148  -4500904.89944  24479833.668    24479836.781
 02  1  7  2 22 30.0000000  0  7G13G 3G25G 1G20G22G27
 -15673063.70749 -12212770.49246  22096468.900    22096468.118
  -3687780.66048  -2873590.92344  24285695.504    24285700.245
  -6483556.15748  -5052126.04345  23832371.804    23832372.404
 -24526849.68749 -19111822.94847  20427445.130    20427445.940
 -18460356.55449 -14384693.93946  21841319.945    21841321.100
 -23248152.78249 -18115441.43547  20339728.173    20339729.102
  -5856174.60848  -4563248.48044  24464609.020    24464611.296
 02  1  7  2 23  0.0000000  0  7G13G 3G25G 1G20G22G27
 -15752179.45849 -12274419.15246  22081412.546    22081411.970
  -3776746.24148                  24268765.139
  -6402078.43848  -4988637.27144  23847874.894    23847877.906
 -24554708.49649 -19133531.14447  20422143.923    20422144.600
 -18378688.99449 -14321056.95546  21856860.870    21856862.502
 -23214101.89749 -18088908.32147  20346207.937    20346208.945
  -5936101.94348  -4625529.44744  24449398.343    24449401.425
 02  1  7  2 23 30.0000000  0  7G13G20G 3G25G 1G22G27
 -15831107.08849 -12335921.23146  22066394.111    22066392.865
 -18296626.20349 -14257112.01146  21872476.863    21872478.437
  -3865629.26548  -3012174.19444  24251851.366    24251855.798
  -6320554.76748  -4925112.48244  23863389.494    23863392.652
 -24582214.43449 -19154964.37447  20416909.578    20416910.222
 -23179450.67849 -18061907.41447  20352802.105    20352802.964
  -6015959.22948  -4687755.85544  24434202.368    24434204.397
 02  1  7  2 24  0.0000000  0  7G13G20G 3G25G 1G22G27
 -15909846.83549 -12397276.90046  22051409.989    22051409.698
 -18214172.97049 -14192862.82646  21888167.479    21888169.058
  -3954428.54948                  24234953.600
  -6238987.76948  -4861553.93945  23878911.787    23878914.536
 -24609368.00249 -19176123.02947  20411742.397    20411743.131
 -23144202.83349 -18034441.60247  20359509.634    20359510.323
  -6095748.27648  -4749929.10744  24419018.769    24419022.491
 02  1  7  2 24 30.0000000  0  7G13G20G 3G25G 1G22G27
 -15988389.71849 -12458479.18046  22036463.423    22036462.847
 -18131325.02749 -14128306.07746  21903932.880    21903934.465
  -4043134.02748  -3150489.45444  24218073.265    24218080.616
  -6157370.61548  -4797956.33845  23894442.197    23894445.495
 -24636160.84649 -19197000.60547  20406643.738    20406644.559
 -23108353.15549 -18006506.82647  20366331.448    20366332.609
  -6175461.69048  -4812043.46744  24403849.921    24403851.504
 02  1  7  2 25  0.0000000  0  7G13G20G 3G25G 1G22G27
 -16066726.82749 -12519521.10946  22021557.299    22021556.070
 -18048077.86349 -14063438.24146  21919774.657    21919775.275
  -4131735.34248  -3219529.42444  24201212.716    24201215.830
  -6075696.77648  -4734314.56645  23909984.911    23909987.967
 -24662584.14049 -19217590.21747  20401615.432    20401616.283
 -23071895.81649 -17978098.55247  20373268.974    20373270.096
  -6255091.89448  -4874092.95744  24388696.858    24388700.533
 02  1  7  2 25 30.0000000  0  7G13G20G 3G25G 1G22G27
 -16144855.01449 -12580400.24546  22006689.437    22006688.913
 -17964432.27249 -13998259.94846  21935691.697    21935693.148
  -4220227.94948                  24184373.422
  -5993965.29748  -4670627.87345  23925538.519    23925541.597
 -24688634.89549 -19237889.54147  20396658.104    20396658.912
 -23034831.37249 -17949217.20447  20380322.203    20380323.298
  -6334637.21748  -4936076.31944  24373560.672    24373561.675
 02  1  7  2 26  0.0000000  0  7G13G 3G25G 1G20G22G27
 -16222777.22349 -12641118.88746  21991861.316    21991860.231
  -4308614.04448  -3357356.85744  24167554.645    24167558.373
  -5912182.32348  -4606901.06245  23941100.270    23941104.093
 -24714317.18149 -19257901.74547  20391770.973    20391771.788
 -17880396.64949 -13932777.73346  21951683.657    21951684.921
 -22997166.94349 -17919868.34047  20387489.658    20387490.679
  -6414102.80348  -4997997.57144  24358437.282    24358439.531
 02  1  7  2 26 30.0000000  0  7G13G20G 3G25G 1G22G27
 -16300499.36449 -12701681.62546  21977071.491    21977070.535
 -17795981.05649 -13866999.43846  21967747.440    21967748.699
  -4396898.11548  -3426149.55944  24150753.865    24150763.049
  -5830355.97448  -4543140.48245  23956672.227    23956675.107
 -24739637.12149 -19277631.60647  20386953.014    20386953.803
 -22958911.61249 -17890059.03247  20394769.290    20394770.391
  -6493495.96548  -5059862.38844  24343330.356    24343332.230
 02  1  7  2 27  0.0000000  0  7G13G 3G25G 1G20G22G27
 -16378002.13549 -12762073.42146  21962322.994    21962322.493
  -4485059.77348  -3494846.85144  24133978.018    24133984.905
  -5748468.72948  -4479332.39845  23972255.269    23972258.228
 -24764575.81749 -19297064.39347  20382207.385    20382208.027
 -17711170.98249 -13800913.76146  21983886.044    21983887.216
 -22920049.80849 -17859777.14747  20402164.128    20402165.212
  -6572798.95148  -5121656.94944  24328239.486    24328241.246
 02  1  7  2 27 30.0000000  0  7G13G20G 3G25G 1G22G27
 -16455297.25649 -12822303.41246  21947614.721    21947613.996
 -17625982.71649 -13734533.39146  22000097.017    22000098.343
  -4573109.24748                  24117222.014
  -5666535.13448  -4415488.21445  23987845.919    23987849.699
 -24789145.44949 -19316209.59747  20377531.966    20377532.640
 -22880596.83049 -17829034.60747  20409671.875    20409673.034
  -6652024.99748  -5183391.54344  24313162.717    24313165.795
 02  1  7  2 28  0.0000000  0  7G13G 3G25G 1G20G22G27
 -16532391.45049 -12882376.84646  21932943.718    21932943.029
  -4661051.97748  -3631983.58444  24100487.146    24100494.509
  -5584564.47648  -4351615.16745  24003445.632    24003449.344
 -24813353.17649 -19335072.79947  20372925.571    20372926.216
 -17540427.46849 -13667867.05646  22016377.801    22016378.861
 -22840563.19949 -17797839.61147  20417290.164    20417291.232
  -6731182.53648  -5245072.78144  24298100.144    24298103.168
 02  1  7  2 28 30.0000000  0  7G13G20G 3G25G 1G22G27
 -16609274.16149 -12942285.48046  21918313.869    21918313.265
 -17454499.55849 -13600910.34646  22032728.854    22032730.544
  -4748876.42048  -3700418.10544  24083774.768    24083782.959
  -5502548.48948  -4287706.78045  24019053.050    24019055.951
 -24837188.97049 -19353646.18147  20368389.786    20368390.573
 -22799942.28349 -17766186.99047  20425019.902    20425021.158
  -6810262.84148  -5306693.80744  24283051.123    24283052.108
 02  1  7  2 29  0.0000000  0  7G13G20G 3G25G 1G22G27
 -16685944.00049 -13002028.24146  21903723.991    21903723.409
 -17368202.23749 -13533665.77146  22049151.318    22049152.897
  -4836580.14248  -3768758.61144  24067084.690    24067088.114
  -5420487.98348  -4223763.73445  24034667.356    24034670.476
 -24860651.86149 -19371928.99247  20363925.107    20363925.806
 -22758736.45349 -17734078.59047  20432861.042    20432862.355
  -6889266.04848  -5368254.75744  24268017.374    24268019.123
 02  1  7  2 29 30.0000000  0  8G13G20G 3G25G 1G22G 2G27
 -16762397.49749 -13061602.42646  21889174.988    21889174.639
 -17281536.58249 -13466134.19046  22065643.089    22065644.910
  -4924158.30048  -3837001.22444  24050420.513    24050423.886
  -5338381.98548  -4159785.20445  24050293.293    24050298.257
 -24883738.75149 -19389918.81647  20359531.505    20359532.223
 -22716945.62449 -17701514.35147  20440813.511    20440814.770
         -.81957                  24846493.694
  -6968190.21348  -5429754.13844  24252998.191    24253001.648
 02  1  7  2 30  0.0000000  0  8G13G20G 3G25G 1G22G 2G27
 -16838627.66349 -13121002.58746  21874669.443    21874668.934
 -17194500.23249 -13398313.75446  22082205.752    22082206.987
  -5011602.69448                  24033779.264
  -5256225.85548  -4095767.61645  24065926.626    24065930.051
 -24906443.35249 -19407610.75347  20355211.007    20355211.721
 -22674566.86849 -17668491.98347  20448878.077    20448879.396
    -99088.97647                  24827637.412
  -7047030.21648  -5491187.97244  24237996.117    24238000.708
 02  1  7  2 30 30.0000000  0  8G13G 3G25G 1G20G22G 2G27
 -16914635.30349 -13180229.35846  21860205.341    21860204.830
  -5098912.96748  -3973173.55144  24017165.222    24017167.408
  -5174022.88448  -4031713.52944  24081569.455    24081573.858
 -24928766.87949 -19425005.75047  20350962.875    20350963.698
 -17107098.53249 -13330208.63946  22098837.942    22098839.408
 -22631604.77349 -17635015.07047  20457053.733    20457054.875
   -198086.08647                  24808799.413
  -7125788.35948  -5552557.98644  24223008.364    24223009.938
 02  1  7  2 31  0.0000000  0  8G13G20G 3G25G 1G22G 2G27
 -16990425.84549 -13239286.94846  21845783.004    21845782.456
 -17019341.88749 -13261826.93946  22115537.185    22115539.071
  -5186093.18948  -4041106.19244  24000574.749    24000577.764
  -5091780.85148  -3967629.03345  24097219.679    24097223.262
 -24950715.36849 -19442108.51047  20346786.182    20346787.078
 -22588068.81249 -17601090.98747  20465338.173    20465339.445
   -296997.89648                  24789977.156
  -7204471.76848  -5613869.76444  24208035.564    24208035.842
 02  1  7  2 31 30.0000000  0  8G13G20G 3G25G 1G22G 2G27
 -17065985.03949 -13298164.28146  21831404.643    21831403.771
 -16931220.67149 -13193161.16046  22132306.328    22132307.965
  -5273127.92048  -4108925.40744  23984012.803    23984018.717
  -5009487.97248  -3903504.89145  24112879.645    24112883.462
 -24972274.82549 -19458908.12947  20342683.700    20342684.469
 -22543948.30549 -17566711.41647  20473734.113    20473735.524
   -395810.19447                  24771173.461
  -7283067.64748  -5675113.29644  24193079.954    24193080.769
 02  1  7  2 32  0.0000000  0  8G13G20G 3G25G 1G22G 2G27
 -17141323.01849 -13356869.23546  21817068.181    21817067.584
 -16842749.85449 -13124222.95646  22149141.556    22149143.193
  -5360026.12748  -4176638.26344  23967476.155    23967480.522
  -4927156.70948  -3839350.87045  24128546.541    24128550.812
 -24993456.02549 -19475412.99947  20338653.229    20338654.167
 -22499257.46349 -17531887.42747  20482238.623    20482239.839
   -494533.15348                  24752387.414
  -7361588.14448  -5736298.11344  24178136.937    24178139.544
 02  1  7  2 32 30.0000000  0  8G13G20G 3G25G 1G22G 2G27
 -17216436.36249 -13415399.14646  21802775.125    21802774.523
 -16753930.78849 -13055013.40246  22166043.747    22166045.002
  -5446783.48248  -4244241.36444  23950967.163    23950970.286
  -4844786.19448  -3775166.24145  24144221.690    24144225.504
 -25014256.39849 -19491621.12547  20334695.026    20334695.712
 -22453996.88449 -17496619.49047  20490851.338    20490852.919
   -593163.70947                  24733618.710
  -7440031.56848  -5797422.90244  24163209.879    24163212.844
 02  1  7  2 33  0.0000000  0  8G13G20G 3G25G 1G22G 2G27
 -17291312.78749 -13473744.45246  21788526.100    21788525.617
 -16664755.75049 -12985526.46646  22183013.092    22183014.929
  -5533386.09248  -4311723.95144  23934486.067    23934494.755
  -4762366.70648  -3710943.46045  24159905.768    24159910.619
 -25034664.01349 -19507523.20247  20330811.627    20330812.558
 -22408158.22149 -17460901.10247  20499574.035    20499575.602
   -691689.58047                  24714869.894
  -7518387.17348  -5858479.20944  24148299.097    24148302.266
 02  1  7  2 33 30.0000000  0  8G13G20G 3G25G 1G22G 2G27
 -17365943.10249 -13531897.97946  21774324.572    21774323.533
 -16575220.67549 -12915758.97646  22200051.059    22200052.881
  -5619824.00048  -4379078.15544  23918038.685    23918044.629
  -4679891.17748  -3646677.02745  24175599.964    24175604.258
 -25054670.29249 -19523112.55147  20327004.483    20327005.197
 -22361736.23449 -17424728.17747  20508407.902    20508409.457
   -790101.97847                  24696142.502
  -7596647.61748  -5919461.39145  24133407.249    24133409.971
 02  1  7  2 34  0.0000000  0  8G13G20G 3G25G 1G22G 2G27
 -17440341.64249 -13589870.90746  21760167.570    21760166.193
 -16485344.43249 -12845725.63746  22217154.378    22217156.227
  -5706110.19748  -4446314.20144  23901618.124    23901623.361
  -4597376.55348  -3582380.13445  24191302.821    24191306.023
 -25074290.15549 -19538400.79947  20323271.149    20323272.037
 -22314749.30549 -17388115.04047  20517349.349    20517351.048
   -888415.57147                  24677434.184
  -7674829.05748  -5980381.96445  24118529.104    24118532.257
 02  1  7  2 34 30.0000000  0  8G13G20G 3G25G 1G22G 2G27
 -17514510.23149 -13647664.64846  21746053.321    21746052.953
 -16395133.66549 -12775431.63146  22234320.460    22234322.190
  -5792245.22748  -4513432.43544  23885227.341    23885234.904
  -4514826.78648  -3518055.84545  24207011.646    24207014.106
 -25093525.93149 -19553389.75447  20319610.915    20319611.775
 -22267203.23349 -17351066.20947  20526397.125    20526398.757
   -986632.03848                  24658744.383
  -7752934.85248  -6041243.62544  24103666.166    24103671.401
 02  1  7  2 35  0.0000000  0  8G13G20G 3G25G 1G22G 2G27
 -17588448.01849 -13705278.54246  21731983.254    21731982.958
 -16304592.33449 -12704880.05646  22251550.211    22251551.959
  -5878227.11948  -4580431.39344  23868865.554    23868870.897
  -4432243.36648  -3453705.33145  24222726.452    24222729.585
 -25112377.28849 -19568079.16447  20316023.547    20316024.399
 -22219101.06749 -17313584.05947  20535550.884    20535552.342
  -1084750.90448                  24640072.595
  -7830965.75948  -6102046.95245  24088817.692    24088821.021
 02  1  7  2 35 30.0000000  0  8G13G20G 3G25G 1G22G 2G27
 -17662149.45749 -13762708.27346  21717958.772    21717958.083
 -16213719.73349 -12634070.34745  22268842.421    22268844.041
  -5964049.21948  -4647305.80144  23852534.135    23852542.574
  -4349623.51248  -3389326.47045  24238449.236    24238452.239
 -25130839.31549 -19582465.19747  20312510.369    20312511.330
 -22170441.55149 -17275667.61347  20544810.682    20544811.985
  -1182766.94048                  24621420.048
  -7908918.19848  -6162789.12444  24073984.008    24073987.616
 02  1  7  2 36  0.0000000  0  8G13G20G 3G25G 1G22G 2G27
 -17735601.82149 -13819943.92046  21703981.132    21703980.725
 -16122507.71449 -12562996.14945  22286200.190    22286202.077
  -6049697.55948  -4714044.75444  23836236.435    23836240.203
  -4266956.81048  -3324911.08545  24254179.709    24254182.811
 -25148899.83649 -19596538.37247  20309073.622    20309074.656
 -22121215.76649 -17237309.92547  20554178.161    20554179.775
  -1280667.47548                  24602791.323
  -7986780.81148  -6223461.25944  24059167.029    24059169.163
 02  1  7  2 36 30.0000000  0  8G13G20G 3G25G 1G22G 2G27
 -17808814.64049 -13876992.90646  21690049.253    21690048.883
 -16030971.01149 -12491668.95245  22303618.879    22303620.977
  -6135180.54948  -4780654.99144  23819969.071    23819975.043
  -4184255.22048  -3260468.51345  24269918.319    24269921.505
 -25166569.34949 -19610306.86247  20305711.057    20305712.128
 -22071437.61149 -17198521.81847  20563650.590    20563652.130
  -1378462.44148                  24584181.878
  -8064565.14148  -6284072.41844  24044365.820    24044368.974
 02  1  7  2 37  0.0000000  0  8G13G20G 3G25G 1G22G 2G27
 -17881791.74149 -13933858.21246  21676162.156    21676161.565
 -15939118.11649 -12420095.37945  22321098.033    22321099.560
  -6220500.87648  -4847138.33044  23803733.741    23803738.173
  -4101524.77948  -3196003.43245  24285661.054    24285665.895
 -25183852.27449 -19623774.11447  20302422.281    20302423.381
 -22021115.05349 -17159309.50547  20573226.746    20573228.137
  -1476155.71148                  24565590.614
  -8142276.73848  -6344626.94045  24029578.075    24029579.289
 02  1  7  2 37 30.0000000  0  8G13G20G 3G25G 1G22G 2G27
 -17954525.89049 -13990534.20846  21662320.968    21662320.420
 -15846946.60949 -12348273.54145  22338637.748    22338638.877
  -6305650.06848  -4913488.36444  23787530.036    23787536.167
  -4018760.79248  -3131512.28745  24301409.942    24301414.252
 -25200742.03649 -19636935.00747  20299208.192    20299209.431
 -21970244.83249 -17119670.44147  20582906.963    20582908.469
  -1573740.40348                  24547021.751
  -8219910.20248  -6405120.55844  24014804.071    24014808.102
 02  1  7  2 38  0.0000000  0  8G13G20G 3G25G 1G22G 2G27
 -18027009.30549 -14047014.83046  21648528.066    21648527.742
 -15754453.93349 -12276201.42745  22356238.282    22356240.627
  -6390619.22648  -4979698.09244  23771361.253    23771364.343
  -3935958.05848  -3066990.93945  24317168.554    24317170.904
 -25217231.53249 -19649784.00447  20296070.435    20296071.721
 -21918823.44049 -17079601.89747  20592692.420    20592694.000
  -1671208.99648                  24528473.496
  -8297459.39048  -6465548.52845  24000048.044    24000051.227
 02  1  7  2 38 30.0000000  0  8G13G20G 3G25G 1G22G 2G27
 -18099237.95049 -14103296.92946  21634783.270    21634782.864
 -15661640.66548 -12203879.49845  22373900.210    22373902.897
  -6475403.07348  -5045763.34644  23755227.919    23755231.511
  -3853114.82648  -3002438.00445  24332932.334    24332935.528
 -25233317.21849 -19662318.34447  20293009.414    20293010.721
 -21866850.81249 -17039103.81647  20602582.628    20602583.972
  -1768557.61048                  24509949.324
  -8374921.71648  -6525908.80644  23985306.606    23985308.092
 02  1  7  2 39  0.0000000  0  8G13G20G 3G25G 1G22G 2G27
 -18171205.84349 -14159375.84546  21621088.721    21621088.169
 -15568505.75348 -12131306.96745  22391623.695    22391626.922
  -6559994.48448  -5111678.65344  23739130.357    23739136.577
  -3770227.16248  -2937850.50845  24348705.615    24348710.548
 -25248993.89949 -19674533.98147  20290026.440    20290027.488
 -21814325.41549 -16998175.00847  20612577.725    20612579.297
  -1865780.75048                  24491447.130
  -8452293.32248  -6586198.42944  23970584.345    23970583.911
 02  1  7  2 39 30.0000000  0  8G13G20G 3G25G 1G22G 2G27
 -18242914.99549 -14215253.14446  21607442.519    21607442.016
 -15475056.32448 -12058489.32645  22409406.370    22409408.416
  -6644394.67048  -5177444.87444  23723069.077    23723073.352
  -3687299.97448  -2873232.19045  24364486.579    24364489.789
 -25264264.30649 -19686433.03947  20287120.523    20287121.749
 -21761253.46549 -16956820.31647  20622676.520    20622678.097
  -1962880.84248                  24472970.731
  -8529578.08848  -6646420.35944  23955876.753    23955879.532
 02  1  7  2 40  0.0000000  0  8G13G20G 3G25G 1G22G 2G27
 -18314358.47549 -14270923.42346  21593847.583    21593847.124
 -15381289.96448 -11985424.74745  22427249.487    22427250.195
  -6728595.06548  -5243055.44744  23707047.339    23707052.089
  -3604328.51648  -2808579.38245  24380275.389    24380279.382
 -25279121.99149 -19698010.49647  20284293.324    20284294.528
 -21707632.07349 -16915037.48447  20632880.786    20632882.438
  -2059850.84948                  24454517.383
  -8606770.52448  -6706570.32945  23941187.708    23941189.256
 02  1  7  2 40 30.0000000  0  8G13G20G 3G25G 1G22G 2G27
 -18385546.31749 -14326394.50946  21580300.846    21580300.454
 -15287221.80148 -11912125.00745  22445150.577    22445152.710
  -6812604.80248  -5308517.48545  23691060.011    23691064.527
  -3521325.65748  -2743902.10145  24396070.166    24396078.605
 -25293577.78349 -19709274.79047  20281542.551    20281543.695
 -21653475.78349 -16872837.85147  20643186.493    20643188.060
  -2156701.24248                  24436087.393
  -8683882.53348  -6766657.64045  23926514.652    23926516.948
 02  1  7  2 41  0.0000000  0  8G13G20G 3G25G 1G22G 2G27
 -18456474.32549 -14381663.13146  21566803.383    21566803.050
 -15192852.37548 -11838590.50045  22463108.342    22463110.376
  -6896418.35948  -5373826.55344  23675110.329    23675113.735
  -3438289.10848  -2679198.63345  24411872.465    24411876.979
 -25307628.03949 -19720223.08247  20278868.984    20278870.133
 -21598784.51649 -16830221.35047  20653593.972    20653595.642
  -2253427.90048                  24417681.114
  -8760911.68848  -6826680.39045  23911854.984    23911858.602
 02  1  7  2 41 30.0000000  0  8G13G20G 3G25G 1G22G 2G27
 -18527141.87749 -14436728.79646  21553356.538    21553356.000
 -15098186.26548 -11764824.80845  22481123.095    22481124.033
  -6980034.53348  -5438981.84345  23659198.882    23659204.138
  -3355220.77548  -2614470.33845  24427678.911    24427683.731
 -25321273.14949 -19730855.67747  20276272.371    20276273.485
 -21543561.90249 -16787190.81347  20664102.452    20664104.122
  -2350030.94948  -1831192.97744  24399299.089    24399302.815
  -8837859.31048  -6886639.60545  23897213.803    23897215.379
 02  1  7  2 42  0.0000000  0  8G13G20G 3G25G 1G22G 2G27
 -18597557.34149 -14491598.03046  21539956.429    21539955.995
 -15003236.79648 -11690838.31645  22499191.283    22499193.559
  -7063460.45348  -5503988.87545  23643324.063    23643328.034
  -3272131.38448  -2549725.72044  24443491.316    24443497.248
 -25334522.23449 -19741179.68147  20273751.227    20273752.375
 -21487820.81049 -16743756.26447  20674709.693    20674711.341
  -2446519.24348  -1906378.63244  24380936.541    24380940.016
  -8914735.30548  -6946543.02444  23882584.181    23882585.404
 02  1  7  2 42 30.0000000  0  8G13G20G 3G25G 1G22G 2G27
 -18667704.95149 -14546258.54246  21526608.284    21526607.645
 -14907992.88748 -11616622.38645  22517315.247    22517316.605
  -7146678.74048  -5568834.16945  23627487.615    23627490.858
  -3189007.48048  -2484954.14544  24459309.519    24459312.783
 -25347360.11349 -19751183.26947  20271308.284    20271309.420
 -21431549.53649 -16699908.58347  20685417.702    20685419.606
  -2542876.71648                  24362600.912
  -8991525.66948  -7006379.68545  23867971.749    23867974.248
 02  1  7  2 43  0.0000000  0  7G13G20G25G 1G22G 2G27
 -18737577.24749 -14600704.52946  21513312.058    21513311.020
 -14812452.12748 -11542175.14445  22535495.903    22535498.013
  -3105844.06848  -2420151.77944  24475134.904    24475139.062
 -25359780.11649 -19760861.23547  20268944.860    20268945.842
 -21374745.03849 -16655645.40247  20696227.216    20696229.139
  -2639096.54148                  24344292.121
  -9068224.77648  -7066145.28045  23853376.503    23853379.616
 02  1  7  2 43 30.0000000  0  7G13G20G25G 1G22G 2G27
 -18807167.91749 -14654931.07246  21500068.649    21500068.426
 -14716613.14348 -11467495.52645  22553733.848    22553736.812
  -3022637.43648  -2355315.79744  24490969.036    24490972.928
 -25371776.82549 -19770209.36447  20266662.000    20266663.162
 -21317405.46549 -16610965.27547  20707138.896    20707140.721
  -2735172.72448                  24326008.330
  -9144828.04148  -7125836.17744  23838797.869    23838797.953
 02  1  7  2 44  0.0000000  0  7G13G20G25G 1G22G 2G27
 -18876497.00749 -14708953.77746  21486876.415    21486875.979
 -14620501.16948 -11392603.20845  22572023.796    22572025.902
  -2939409.96448  -2290463.55744  24506806.996    24506813.895
 -25383371.30549 -19779244.06947  20264455.701    20264456.902
 -21259555.36449 -16565887.33447  20718147.412    20718149.122
  -2831125.70448                  24307749.303
  -9221357.34748  -7185469.42044  23824237.098    23824237.522
 02  1  7  2 44 30.0000000  0  7G13G20G25G 1G22G 2G27
 -18945557.62349 -14762767.28646  21473734.964    21473734.387
 -14524114.22548 -11317496.59445  22590365.855    22590366.344
  -2856156.95348  -2225591.42944  24522649.841    24522655.504
 -25394557.33349 -19787960.50047  20262327.121    20262328.292
 -21201191.96249 -16520409.41447  20729253.531    20729255.276
  -2926949.07248                  24289515.687
  -9297807.52748  -7245041.00144  23809686.916    23809690.229
 02  1  7  2 45  0.0000000  0  7G13G20G25G 1G22G 2G27
 -19014329.58149 -14816355.86446  21460647.647    21460647.396
 -14427437.08248 -11242163.87745  22608762.083    22608765.168
  -2772861.00748  -2160685.78644  24538500.587    24538509.275
 -25405315.49149 -19796343.52347  20260279.710    20260280.883
 -21142299.58649 -16474519.30847  20740460.518    20740462.127
  -3022622.71748                  24271307.830
  -9374160.26748  -7304536.64744  23795159.080    23795162.457
 02  1  7  2 45 30.0000000  0  8G13G20G31G25G 1G22G 2G27
 -19082835.93849 -14869737.48446  21447611.431    21447611.014
 -14330497.73048 -11166626.85445  22627210.395    22627212.242
         -.58958                  25180527.091
  -2689547.25648  -2095766.34144  24554354.702    24554361.198
 -25415669.50849 -19804411.63447  20258309.441    20258310.500
 -21082905.69249 -16428238.40047  20751762.751    20751764.590
  -3118170.34048  -2429743.03044  24253127.270    24253128.987
  -9450440.53948  -7363975.80744  23780642.407    23780644.746
 02  1  7  2 46  0.0000000  0  8G13G20G31G25G 1G22G 2G27
 -19151069.46249 -14922906.50746  21434626.876    21434626.499
 -14233293.79848 -11090883.65845  22645707.104    22645708.826
   -104018.93248                  25160733.589
  -2606210.70948  -2030829.11144  24570214.330    24570219.360
 -25425613.09749 -19812159.92947  20256417.352    20256418.566
 -21023007.41549 -16381564.46947  20763161.069    20763162.961
  -3213584.89148                  24234968.690
  -9526642.80648  -7423354.16145  23766141.949    23766145.031
 02  1  7  2 46 30.0000000  0  8G13G20G31G25G 1G22G 2G27
 -19219016.04249 -14975851.93546  21421697.262    21421696.628
 -14135816.01648 -11014927.05345  22664256.635    22664258.961
   -208144.44848   -162188.95544  25140918.455    25140925.482
  -2522839.49348  -1965864.85644  24586078.340    24586085.117
 -25435132.66749 -19819577.82247  20254605.933    20254607.016
 -20962595.02749 -16334489.93347  20774657.297    20774659.048
  -3308852.43748                  24216841.194
  -9602754.43848  -7482661.91245  23751658.097    23751662.038
 02  1  7  2 47  0.0000000  0  7G13G20G25G 1G22G 2G27
 -19286673.91049 -15028572.39446  21408822.427    21408821.982
 -14038068.37448 -10938760.19745  22682857.894    22682858.498
  -2439435.12848  -1900874.81144  24601950.258    24601958.697
 -25444227.99749 -19826665.13747  20252875.211    20252876.258
 -20901671.57349 -16287017.16147  20786250.756    20786252.532
  -3403972.22348                  24198740.317
  -9678776.06948  -7541899.56545  23737191.602    23737195.164
 02  1  7  2 47 30.0000000  0  7G13G25G 1G20G22G 2G27
 -19354035.62649 -15081062.08346  21396004.023    21396003.633
  -2355992.33748  -1835854.78144  24617829.767    24617835.701
 -25452892.18049 -19833416.49347  20251226.408    20251227.496
 -13940048.12648 -10862380.89545  22701510.320    22701513.170
 -20840233.97849 -16239143.76247  20797941.659    20797943.805
  -3498937.12647                  24180667.627
  -9754701.84348  -7601062.52145  23722743.847    23722745.494
 02  1  7  2 48  0.0000000  0  8G13G31G25G 1G20G22G 2G27
 -19421112.15649 -15133329.54946  21383239.705    21383239.296
         -.59258          .03254  25081358.098    25081361.886
  -2272524.55448  -1770815.20644  24633712.769    24633718.902
 -25461137.40349 -19839841.38847  20249657.498    20249658.608
 -13841771.38948 -10785801.75245  22720211.951    22720214.852
 -20778297.92949 -16190881.95847  20809727.737    20809729.728
  -3593758.92247                  24162624.991
  -9830544.71448  -7660160.84845  23708310.949    23708313.086
 02  1  7  2 48 30.0000000  0  7G13G31G25G 1G20G22G27
 -19487881.17149 -15185357.39546  21370533.828    21370533.313
   -104519.21048                  25061467.668
  -2189011.08748  -1705740.12544  24649604.989    24649609.243
 -25468941.58549 -19845922.61347  20248172.326    20248173.384
 -13743220.36048 -10709008.91345  22738965.645    22738968.643
 -20715845.12549 -16142217.48647  20821611.979    20821614.003
  -9906283.78048  -7719178.35245  23693898.291    23693899.914
 02  1  7  2 49  0.0000000  0  7G13G31G25G 1G20G22G27
 -19554355.68549 -15237155.76046  21357884.282    21357883.940
   -209134.12848   -162960.86144  25041561.174    25041568.165
  -2105467.83648  -1640641.85644  24665503.803    24665511.224
 -25476318.78149 -19851671.12447  20246768.601    20246769.662
 -13644413.41148 -10632016.58945  22757767.956    22757768.868
 -20652893.11849 -16093164.03047  20833591.594    20833593.653
  -9981934.07348  -7778126.62245  23679503.081    23679504.896
 02  1  7  2 49 30.0000000  0  7G13G20G31G25G 1G22G27
 -19620533.19949 -15288722.69446  21345291.060    21345291.232
 -13545353.07148 -10554826.85045  22776618.082    22776618.691
   -313841.97248                  25021635.939
  -2021894.52448  -1575520.06844  24681406.764    24681413.653
 -25483267.52849 -19857085.77747  20245446.265    20245447.544
 -20589444.12449 -16043723.31247  20845665.485    20845667.666
 -10057494.79748  -7837005.13445  23665123.964    23665126.738
 02  1  7  2 50  0.0000000  0  7G13G31G25G 1G20G22G27
 -19686418.10449 -15340061.62446  21332753.855    21332753.494
   -418646.44448   -326217.06944  25001691.461    25001696.994
  -1938297.95948  -1510380.21644  24697315.250    24697319.759
 -25489793.18749 -19862170.75347  20244204.348    20244205.582
 -13446048.66648 -10477446.94645  22795515.901    22795519.229
 -20525507.03549 -15993902.26347  20857832.422    20857834.443
 -10132972.10048  -7895818.63345  23650761.059    23650764.517
 02  1  7  2 50 30.0000000  0  8G13G31G25G 1G20G22G 2G27
 -19752032.62649 -15391189.86646  21320267.983    21320267.649
   -523569.49948                  24981724.755
  -1854702.95648  -1445241.53744  24713223.652    24713227.141
 -25495918.87549 -19866944.06247  20243038.729    20243040.079
 -13346527.41848 -10399898.04044  22814454.257    22814458.182
 -20461108.67049 -15943721.78147  20870087.147    20870089.059
         -.24257                  24072847.378
 -10208390.09948  -7954585.93645  23636410.322    23636410.522
 02  1  7  2 51  0.0000000  0  8G13G31G25G 1G20G22G 2G27
 -19817358.13049 -15442092.90146  21307836.478    21307836.379
   -628591.26848   -489810.29344  24961740.533    24961749.468
  -1771093.01748  -1380091.24444  24729134.135    24729142.575
 -25501626.79449 -19871391.83747  20241952.594    20241954.008
 -13246775.91748 -10322169.71744  22833436.309    22833436.573
 -20396234.80249 -15893170.77947  20882432.274    20882434.408
    -93928.77848                  24054974.208
 -10283731.82348  -8013293.75945  23622072.587    23622075.368
 02  1  7  2 51 30.0000000  0  8G13G31G25G 1G20G22G 2G27
 -19882383.80149 -15492762.29946  21295462.805    21295462.610
   -733700.24848                  24941738.534
  -1687460.02948                  24745048.604
 -25506907.14049 -19875506.44047  20240947.749    20240949.012
 -13146788.12648 -10244257.26544  22852462.882    22852464.851
 -20330879.19149 -15842244.39347  20894869.042    20894870.973
   -187701.97048                  24037129.525
 -10358988.20148  -8071935.11745  23607752.087    23607754.623
 02  1  7  2 52  0.0000000  0  8G13G31G25G 1G20G22G 2G27
 -19947097.49049 -15543188.58646  21283148.696    21283148.280
   -838883.73048   -653674.42844  24921723.757    24921731.182
  -1603793.96648  -1249728.98044  24760970.805    24760974.425
 -25511748.84849 -19879279.24647  20240026.440    20240027.842
 -13046557.33648 -10166155.51344  22871536.439    22871543.407
 -20265034.64949 -15790937.02747  20907398.703    20907401.024
   -281308.45248   -219201.35544  24019317.198    24019320.049
 -10434149.22048  -8130502.15845  23593449.191    23593451.494
 02  1  7  2 52 30.0000000  0  8G13G31G25G 1G20G22G 2G27
 -20011491.96549 -15593366.14046  21270894.329    21270893.967
   -944133.62848   -735687.20344  24901694.401    24901700.681
  -1520089.91448  -1184505.32744  24776898.552    24776902.431
 -25516145.65049 -19882705.37047  20239189.730    20239191.068
 -12946081.26048 -10087862.63144  22890656.253    22890661.506
 -20198698.32449 -15739246.45347  20920022.373    20920024.525
   -374741.43448   -292006.34644  24001537.376    24001543.469
 -10509209.31348  -8188990.56745  23579166.071    23579169.117
 02  1  7  2 53  0.0000000  0  8G13G31G25G 1G20G22G 2G27
 -20075568.72049 -15643296.12046  21258700.694    21258700.539
  -1049450.61748   -817752.23444  24881653.476    24881662.660
  -1436351.70848  -1119255.13544  24792833.561    24792842.249
 -25520099.97149 -19885786.70847  20238437.186    20238438.593
 -12845366.26048 -10009383.52344  22909822.343    22909826.488
 -20131876.20149 -15687177.33747  20932738.223    20932740.417
   -468002.65248   -364677.41944  23983790.087    23983797.048
 -10584171.77048  -8247402.90145  23564901.643    23564903.185
 02  1  7  2 53 30.0000000  0  8G13G31G25G 1G20G22G 2G27
 -20139327.79349 -15692978.54946  21246568.450    21246568.364
  -1154834.03248                  24861599.451
  -1352581.87448  -1053980.27144  24808775.576    24808780.761
 -25523612.98549 -19888524.16647  20237768.817    20237770.367
 -12744417.37748  -9930722.22044  22929031.683    22929035.531
 -20064572.99049 -15634733.35147  20945545.694    20945547.837
   -561092.70048   -437215.17444  23966076.229    23966084.153
 -10659038.43848  -8305740.61545  23550654.244    23550655.517
 02  1  7  2 54  0.0000000  0  8G13G31G25G 1G20G22G 2G27
 -20202768.91649 -15742413.22646  21234495.725    21234495.370
  -1260282.44948   -982036.41144  24841533.231    24841538.638
  -1268782.54048                  24824722.889
 -25526685.09049 -19890918.06247  20237184.192    20237185.662
 -12643239.38348  -9851882.33244  22948286.298    22948290.523
 -19996792.85449 -15581917.73647  20958444.062    20958446.254
   -654011.68648   -509619.53444  23948393.888    23948399.127
 -10733810.81748  -8364004.80845  23536425.817    23536428.598
 02  1  7  2 54 30.0000000  0  8G13G31G25G 1G20G22G 2G27
 -20265898.30849 -15791604.99447  21222482.449    21222482.335
  -1365801.58248  -1064258.93144  24821453.276    24821460.097
  -1184962.28348   -923368.23244  24840672.159    24840680.101
 -25529323.61549 -19892974.10247  20236682.125    20236683.559
 -12541843.67548  -9772872.85744  22967580.406    22967583.868
 -19928546.89449 -15528739.14047  20971430.617    20971432.721
   -746766.35848                  23930742.978
 -10808496.89148  -8422201.81445  23522213.873    23522215.524
 02  1  7  2 55  0.0000000  0  8G13G31G25G 1G20G22G 2G27
 -20328700.85249 -15840542.07847  21210531.603    21210531.543
  -1471375.57448  -1146524.16844  24801362.307    24801372.483
  -1101108.45248   -858027.95744  24856629.921    24856635.120
 -25531514.80049 -19894681.56747  20236265.177    20236266.733
 -12440220.54648  -9693686.12144  22986919.863    22986923.110
 -19859824.59149 -15475189.37547  20984507.923    20984510.180
   -839342.32148                  23913126.349
 -10883083.56448  -8480321.32045  23508019.959    23508022.142
 02  1  7  2 55 30.0000000  0  8G13G31G25G 1G20G22G 2G27
 -20391188.36449 -15889233.67847  21198641.019    21198640.716
  -1577015.67848  -1228840.91244  24781260.851    24781270.283
  -1017235.64548   -792672.88644  24872591.222    24872595.456
 -25533271.65649 -19896050.59347  20235931.047    20235932.571
 -12338386.94448  -9614335.44544  23006297.399    23006301.689
 -19790642.71749 -15421281.50246  20997673.221    20997675.481
   -931752.12048   -726040.65944  23895541.242    23895544.658
 -10957584.61648  -8538374.10145  23493843.835    23493845.613
 02  1  7  2 56  0.0000000  0  8G13G22G31G25G 1G20G 2G27
 -20453351.16049 -15937672.25347  21186811.761    21186811.644
 -19720996.20449 -15367011.57346  21010926.334    21010928.611
  -1682711.41048  -1311201.05544  24761146.488    24761157.161
   -933336.17948                  24888556.232
 -25534585.57949 -19897074.47447  20235681.190    20235682.732
 -12236337.84348  -9534816.75844  23025717.455    23025718.983
  -1023986.63348   -797911.69844  23877989.838    23877994.945
 -11031992.18148  -8596354.04045  23479683.805    23479685.101
 02  1  7  2 56 30.0000000  0  8G13G22G31G25G 1G20G 2G27
 -20515208.90849 -15985873.13647  21175040.765    21175040.578
 -19650909.00749 -15312398.26646  21024263.589    21024265.794
  -1788481.32948  -1393619.02444  24741019.655    24741026.507
   -849431.61748   -661917.16144  24904522.879    24904531.070
 -25535476.87049 -19897769.03447  20235511.542    20235513.194
 -12134097.93148  -9455149.53144  23045172.955    23045176.016
  -1116065.63248   -869661.53644  23860467.585    23860470.475
 -11106327.25348  -8654277.49445  23465538.480    23465540.146
 02  1  7  2 57  0.0000000  0  8G13G22G31G25G 1G20G 2G27
 -20576756.83449 -16033832.58847  21163328.654    21163328.701
 -19580380.90149 -15257441.38846  21037684.938    21037686.687
  -1894319.54348                  24720878.081
   -765519.82148   -596531.69644  24920491.973    24920502.398
 -25535941.69849 -19898131.28347  20235422.896    20235424.513
 -12031667.34348  -9375333.57444  23064664.793    23064667.243
  -1207984.69148   -941286.79044  23842976.350    23842982.443
 -11180586.66548  -8712141.98345  23451407.863    23451408.476
 02  1  7  2 57 30.0000000  0  8G13G22G31G25G 1G20G 2G27
 -20637972.61449 -16081533.23047  21151679.818    21151679.506
 -19509394.53449 -15202127.42446  21051193.370    21051195.313
  -2000203.30348                  24700729.829
   -681580.96748                  24936465.121
 -25535959.13949 -19898144.91947  20235419.757    20235421.447
 -11929029.20848  -9295355.97444  23084196.657    23084199.587
  -1299722.40348  -1012770.69544  23825519.365    23825524.119
 -11254750.35748  -8769931.86045  23437293.888    23437297.004
 02  1  7  2 58  0.0000000  0  8G13G22G31G25G 1G20G 2G27
 -20698843.71349 -16128965.29147  21140095.946    21140095.918
 -19437941.84949 -15146450.10346  21064789.963    21064792.549
  -2106118.97448  -1641128.36844  24680574.518    24680579.221
   -597604.86948   -465689.56644  24952444.900    24952451.323
 -25535517.71549 -19897800.99547  20235503.791    20235505.565
 -11826175.98248  -9215210.75444  23103768.991    23103772.228
  -1391266.59048  -1084103.77344  23808097.667    23808102.623
 -11328807.45848  -8827638.72645  23423201.914    23423203.696
 02  1  7  2 58 30.0000000  0  8G13G22G31G25G 1G20G 2G27
 -20759377.17849 -16176134.26247  21128576.947    21128576.825
 -19366034.95549 -15090418.84946  21078473.810    21078476.118
  -2212072.78148  -1723689.64244  24660412.844    24660418.808
   -513600.84448   -400232.22344  24968430.491    24968436.326
 -25534625.65949 -19897105.93047  20235673.483    20235675.470
 -11723119.88148                  23123379.875
  -1482625.15948  -1155292.26644  23790714.356    23790717.553
 -11402766.93748  -8885269.50145  23409127.832    23409129.831
 02  1  7  2 59  0.0000000  0  8G13G22G31G25G 1G20G 2G27
 -20819573.60749 -16223040.60447  21117122.185    21117122.306
 -19293678.94649 -15034037.63846  21092242.952    21092245.409
  -2318064.59448  -1806280.61544  24640243.049    24640250.822
   -429571.79848                  24984421.162
 -25533284.76849 -19896061.12547  20235928.570    20235930.505
 -11619866.37548  -9054450.34244  23143027.886    23143031.689
  -1573799.12548  -1226336.90744  23773363.956    23773367.298
 -11476631.29948  -8942826.16145  23395071.779    23395073.567
 02  1  7  2 59 30.0000000  0  8G13G22G31G25G 1G20G 2G27
 -20879449.25949 -16269696.99347  21105727.964    21105728.016
 -19220894.51249 -14977322.58646  21106092.805    21106095.400
  -2424109.60848  -1888912.98044  24620063.569    24620068.313
   -345536.19948                  25000412.744
 -25531512.01849 -19894679.80547  20236266.070    20236267.925
 -11516436.75148  -8973855.96344  23162710.280    23162717.484
  -1664804.90048  -1297250.49444  23756045.855    23756047.142
 -11550418.21648  -9000322.47345  23381030.731    23381033.761
 02  1  7  3  0  0.0000000  0  8G13G22G31G25G 1G20G 2G27
 -20939005.46749 -16316104.46547  21094395.063    21094394.819
 -19147688.03549 -14920278.66746  21120023.617    21120026.286
  -2530208.42348  -1971587.28444  24599873.100    24599880.922
   -261497.83048                  25016405.708
 -25529310.11349 -19892964.07847  20236685.080    20236686.972
 -11412837.47848                  23182424.703
  -1755644.70648  -1368034.73244  23738760.067    23738763.652
 -11624131.13748  -9057761.14045  23367003.372    23367005.689
 02  1  7  3  0 30.0000000  0  8G13G22G31G25G 1G20G 2G27
 -20998220.73549 -16362246.27047  21083126.515    21083126.643
 -19074042.57749 -14862892.69246  21134038.163    21134040.541
  -2636338.69348  -2054286.16844  24579676.386    24579688.052
   -177437.39548                  25032401.352
 -25526658.71749 -19890898.09747  20237189.548    20237191.418
 -11309052.22248  -8812257.96744  23202174.804    23202179.455
  -1846297.78148  -1438673.50144  23721508.475    23721514.340
 -11697750.26948  -9115126.70445  23352994.193    23352997.674
 02  1  7  3  1  0.0000000  0  8G13G22G31G25G 1G20G 2G27
 -21057079.89849 -16408110.59047  21071926.013    21071926.229
 -18999947.94049 -14805156.69946  21148137.813    21148140.631
  -2742484.32948  -2136996.95844  24559477.754    24559483.933
    -93342.57648                  25048404.523
 -25523544.04149 -19888471.12347  20237782.202    20237784.177
 -11205070.81548  -8731233.63444  23221961.975    23221961.626
  -1936749.67048  -1509155.42944  23704296.761    23704300.119
 -11771262.42248  -9172408.95445  23339005.637    23339007.116
 02  1  7  3  1 30.0000000  0  8G13G22G31G25G 1G20G 2G27
 -21115575.26849 -16453691.43947  21060794.934    21060794.904
 -18925400.97349 -14747068.23946  21162323.934    21162326.505
  -2848636.72648                  24539276.572
     -9207.57248     -7200.47144  25064414.738    25064425.659
 -25519959.45749 -19885677.98547  20238464.545    20238466.399
 -11100890.63948  -8650054.45644  23241787.213    23241793.015
  -2026993.00548  -1579474.92944  23687124.007    23687127.370
 -11844661.44448  -9229603.02045  23325037.971    23325039.531
 02  1  7  3  2  0.0000000  0  8G13G22G31G25G 1G20G 2G27
 -21173732.72049 -16499008.97147  21049727.721    21049727.784
 -18850432.37849 -14688651.23846  21176590.150    21176592.976
  -2954820.67348  -2302453.74244  24519071.137    24519078.389
     74939.32848                  25080427.225
 -25515932.00949 -19882539.75847  20239231.239    20239232.995
 -10996542.99148                  23261644.388
  -2117054.29848  -1649652.52244  23669985.493    23669989.351
 -11917975.02748  -9286730.52045  23311087.000    23311090.034
 02  1  7  3  2 30.0000000  0  8G13G22G31G25G 1G20G 2G27
 -21231543.36849 -16544056.26747  21038726.760    21038726.833
 -18775037.88349 -14629902.36646  21190937.166    21190939.947
  -3061026.12648                  24498860.935
    159104.62148    123951.33044  25096444.107    25096449.342
 -25511453.62049 -19879050.14947  20240083.473    20240085.259
 -10892023.54748  -8487301.22144  23281533.135    23281536.724
  -2206925.14048  -1719681.72544  23652883.869    23652886.574
 -11991195.96848  -9343785.83045  23297153.494    23297156.127
 02  1  7  3  3  0.0000000  0  8G13G22G31G25G 1G20G 2G27
 -21289011.82549 -16588836.92147  21027791.045    21027791.049
 -18699226.82149 -14570828.88846  21205363.420    21205366.163
  -3167257.00848  -2467988.30544  24478645.821    24478652.821
    243281.73148                  25112462.493
 -25506530.41049 -19875213.92447  20241020.239    20241022.022
 -10787342.06948  -8405731.37144  23301453.288    23301458.499
  -2296610.85648  -1789566.69944  23635817.418    23635821.753
 -12064330.91948  -9400774.14045  23283236.123    23283238.351
 02  1  7  3  3 30.0000000  0  8G13G22G31G25G 1G20G 2G27
 -21346122.44549 -16633338.74147  21016923.662    21016923.646
 -18622988.17549 -14511422.23246  21219871.144    21219874.212
  -3273496.36648  -2550772.04944  24458429.189    24458439.118
    327483.80348                  25128485.424
 -25501147.84449 -19871019.76447  20242044.395    20242046.366
 -10682487.82948  -8324026.95244  23321406.500    23321412.962
  -2386096.14448  -1859295.46344  23618788.564    23618793.856
 -12137365.73249  -9457684.39945  23269339.306    23269340.605
 02  1  7  3  4  0.0000000  0  8G13G22G31G25G 1G20G 2G27
 -21402886.67549 -16677570.65147  21006121.481    21006121.704
 -18546338.24749 -14451695.09446  21234457.344    21234459.903
  -3379755.10848  -2633570.90744  24438208.706    24438216.898
    411696.80948                  25144510.957
 -25495318.90049 -19866477.77647  20243153.821    20243155.634
 -10577477.79548                  23341389.582
  -2475393.42948  -1928877.72144  23601795.826    23601801.058
 -12210313.84548  -9514527.12345  23255456.943    23255459.244
 02  1  7  3  4 30.0000000  0  8G13G22G31G25G 1G20G 2G27
 -21459296.60849 -16721526.48147  20995386.962    20995387.039
 -18469274.10549 -14391645.18946  21249122.106    21249124.939
  -3486024.48248  -2716377.99844  24417986.205    24417995.141
    495926.47048                  25160539.953
 -25489036.95849 -19861582.80447  20244349.394    20244351.294
 -10472308.89648  -8160251.56644  23361402.288    23361403.347
  -2564495.50948  -1998307.90444  23584840.203    23584843.288
 -12283169.11448  -9571297.50045  23241592.231    23241594.816
 02  1  7  3  5  0.0000000  0  8G22G13G31G25G 1G20G 2G27
 -18391791.02949 -14331268.84146  21263866.940    21263869.999
 -21515342.73249 -16765198.82947  20984722.364    20984722.335
  -3592294.16048  -2799185.32844  24397763.461    24397766.890
    580179.81448                  25176573.168
 -25482293.75549 -19856328.40947  20245632.568    20245634.461
 -10366976.90248  -8078174.81444  23381446.576    23381449.740
  -2653393.55248  -2067579.10844  23567923.891    23567929.816
 -12355923.94849  -9627989.59345  23227748.809    23227750.701
 02  1  7  3  5 30.0000000  0  8G22G13G31G25G 1G20G 2G27
 -18313901.47849 -14270575.76246  21278688.949    21278691.539
 -21571033.14049 -16808593.99247  20974124.581    20974124.500
  -3698570.73748  -2881997.99344  24377539.387    24377549.812
    664446.92748                  25192609.288
 -25475098.13849 -19850721.48547  20247001.875    20247003.756
 -10261494.45348  -7995980.91944  23401519.553    23401521.860
  -2742095.83048  -2136697.75644  23551044.032    23551048.091
 -12428587.72448  -9684610.74345  23213920.448    23213923.509
 02  1  7  3  6  0.0000000  0  8G22G13G31G25G 1G20G 2G27
 -18235621.62149 -14209578.55046  21293585.148    21293587.599
 -21626379.30349 -16851720.91547  20963592.121    20963592.362
  -3804864.77448  -2964824.32644  24357312.318    24357316.841
    748713.89948                  25208644.780
 -25467462.97349 -19844772.05547  20248454.768    20248456.613
 -10155878.24548  -7913682.68744  23421617.414    23421619.942
  -2830614.60248  -2205673.41844  23534199.626    23534202.820
 -12501173.86548  -9741171.38945  23200107.697    23200111.086
 02  1  7  3  6 30.0000000  0  8G22G13G31G25G 1G20G 2G27
 -18156931.57749 -14148261.71646  21308559.372    21308562.388
 -21681356.45949 -16894560.30147  20953130.658    20953130.827
  -3911150.60348  -3047644.25344  24337086.935    24337093.570
    833003.01548                  25224684.750
 -25459364.70649 -19838461.76947  20249995.975    20249997.799
 -10050108.57148                  23441745.133
  -2918925.85848  -2274487.32845  23517393.918    23517397.404
 -12573659.34249  -9797653.61645  23186315.408    23186317.637
 02  1  7  3  7  0.0000000  0  8G22G13G31G25G 1G20G 2G27
 -18077840.28249 -14086632.22846  21323610.340    21323613.083
 -21735968.55149 -16937115.22047  20942738.094    20942738.283
  -4017431.19748  -3130460.14144  24316862.095    24316871.279
    917308.07948                  25240727.474
 -25450808.94049 -19831794.98747  20251624.144    20251625.898
  -9944194.59748                  23461900.076
  -3007034.08148  -2343143.06144  23500628.356    23500632.843
 -12646050.01548  -9854061.97745  23172538.609    23172541.575
 02  1  7  3  7 30.0000000  0  8G22G13G31G25G 1G20G 2G27
 -17998338.81049 -14024683.11546  21338738.818    21338741.413
 -21790202.16749 -16979375.22547  20932417.947    20932418.280
  -4123692.12648  -3213260.69844  24296641.044    24296648.888
   1001640.44948                  25256775.713
 -25441783.43149 -19824762.17647  20253341.680    20253343.473
  -9838127.68748  -7666085.41444  23482083.931    23482088.099
  -3094926.49548  -2411630.63344  23483902.438    23483906.060
 -12718334.27448  -9910387.39145  23158783.446    23158786.355
 02  1  7  3  8  0.0000000  0  8G22G13G31G25G 1G20G 2G27
 -17918437.20649 -13962422.21446  21353943.569    21353945.990
 -21844062.48149 -17021344.34647  20922168.531    20922168.846
  -4229937.39248  -3296049.09944  24276422.839    24276430.710
   1085992.80848                  25272828.073
 -25432294.72649 -19817368.43047  20255147.385    20255149.233
  -9731918.19148  -7583324.98244  23502294.513    23502302.704
  -3182609.00748  -2479954.65944  23467217.071    23467222.927
 -12790518.79349  -9966635.11145  23145048.490    23145050.286
 02  1  7  3  8 30.0000000  0  8G22G13G31G25G 1G20G 2G27
 -17838149.10549 -13899860.14746  21369221.913    21369224.862
 -21897558.36049 -17063029.49347  20911988.673    20911988.935
  -4336175.05148  -3378831.55644  24256207.223    24256213.327
   1170353.56248                  25288881.174
 -25422353.22149 -19809621.85447  20257039.277    20257041.104
  -9625579.93948                  23522530.820
  -3270091.04148  -2548122.49244  23450569.573    23450575.450
 -12862614.43148 -10022813.55345  23131327.365    23131330.527
 02  1  7  3  9  0.0000000  0  8G22G13G31G25G 1G20G 2G27
 -17757468.84949 -13836992.50946  21384575.093    21384578.011
 -21950679.50149 -17104422.63447  20901880.125    20901880.388
  -4442393.60748  -3461599.14844  24235994.430    24236002.869
   1254730.91948                  25304937.679
 -25411949.65049 -19801515.22647  20259019.166    20259020.826
  -9519107.50548  -7417498.80944  23542791.566    23542795.704
  -3357362.99948  -2616126.59044  23433962.759    23433965.957
 -12934612.40849 -10078915.90345  23117628.274    23117631.299
 02  1  7  3  9 30.0000000  0  8G22G13G31G25G 1G20G 2G27
 -17676396.70349 -13773819.50346  21400002.602    21400005.687
 -22003421.30349 -17145520.19147  20891843.889    20891844.168
  -4548587.63648  -3544347.63544  24215786.354    24215793.934
   1339127.19648   1043444.58244  25320998.374    25321007.310
 -25401080.91149 -19793046.13047  20261087.501    20261089.231
  -9412501.50448                  23563077.958
  -3444421.11348  -2683964.04845  23417395.774    23417400.147
 -13006509.88049 -10134939.94045  23103946.094    23103948.445
 02  1  7  3 10  0.0000000  0  8G22G13G31G25G 1G20G 2G27
 -17594928.04449 -13710337.53346  21415505.640    21415508.460
 -22055774.45449 -17186314.90047  20881881.369    20881881.684
  -4654746.48548  -3627068.68944  24195584.367    24195593.303
   1423549.56748                  25337063.929
 -25389738.94749 -19784208.28747  20263245.688    20263247.527
  -9305757.71848  -7251252.58044  23583391.760    23583394.920
  -3531256.74348  -2751628.18145  23400871.847    23400877.142
 -13078299.26148 -10190879.74645  23090283.960    23090287.200
 02  1  7  3 10 30.0000000  0  8G22G13G31G25G 1G20G 2G27
 -17513081.34549 -13646560.99046  21431080.912    21431083.672
 -22107752.48949 -17226817.31047  20871990.339    20871990.481
  -4760882.79148  -3709772.19844  24175387.741    24175390.936
   1507982.16048                  25353130.885
 -25377938.88049 -19775013.48347  20265491.083    20265492.848
  -9198894.76548  -7167982.96344  23603726.508    23603730.463
  -3617884.12948  -2819130.01345  23384386.967    23384391.100
 -13149996.11249 -10246747.44645  23076642.565    23076644.149
 02  1  7  3 11  0.0000000  0  8G22G13G31G25G 1G20G 2G27
 -17430851.17449 -13582485.63646  21446728.638    21446731.663
 -22159345.62349 -17267019.79747  20862172.296    20862172.782
  -4866985.19148  -3792449.29944  24155196.771    24155203.340
   1592432.70248                  25369201.488
 -25365671.89749 -19765454.84747  20267825.678    20267827.453
  -9091907.36548  -7084616.31544  23624086.617    23624092.981
  -3704293.74448  -2886462.17445  23367944.011    23367949.136
 -13221591.92949 -10302536.42845  23063017.443    23063019.734
 02  1  7  3 11 30.0000000  0  8G22G13G31G25G 1G20G 2G27
 -17348258.58849 -13518127.88546  21462445.531    21462448.197
 -22210570.05649 -17306934.98447  20852424.828    20852425.196
  -4973069.02748  -3875111.94944  24135009.536    24135015.939
   1676882.85748                  25385272.713
 -25352955.64049 -19755546.12747  20270245.542    20270247.186
  -8984816.96948  -7001169.45944  23644464.735    23644471.133
  -3790502.66648  -2953637.92445  23351538.932    23351542.890
 -13293104.67248 -10358260.66245  23049407.896    23049410.425
 02  1  7  3 12  0.0000000  0  8G22G13G31G25G 1G20G 2G27
 -17265295.16349 -13453481.16846  21478232.834    21478235.868
 -22261412.57349 -17346552.57547  20842749.979    20842750.374
  -5079120.03548  -3957748.98044  24114828.815    24114834.759
   1761343.39648                  25401344.796
 -25339778.40049 -19745278.20647  20272753.079    20272754.799
  -8877615.38448  -6917635.94344  23664865.047    23664868.735
  -3876498.37248  -3020647.55945  23335174.617    23335178.747
 -13364522.71549 -10413911.09745  23035819.840    23035821.251
 02  1  7  3 12 30.0000000  0  8G22G13G31G25G 1G20G 2G27
 -17181960.72849 -13388545.35446  21494091.073    21494094.183
 -22311868.24049 -17385868.72547  20833148.797    20833149.075
  -5185132.09348  -4040355.70144  24094655.093    24094661.205
   1845817.03248                  25417419.887
 -25326136.67349 -19734648.34047  20275349.126    20275351.045
  -8770302.66548  -6834015.86744  23685286.024    23685288.702
  -3962276.87848  -3087487.92845  23318851.307    23318855.513
 -13435842.96949 -10469485.34745  23022246.524    23022249.154
 02  1  7  3 13  0.0000000  0  8G22G13G31G25G 1G20G 2G27
 -17098247.51249 -13323314.39846  21510021.503    21510024.177
 -22361924.49949 -17424873.64747  20823623.258    20823623.601
  -5291091.64048  -4122921.48344  24074491.897    24074497.679
   1930314.37548                  25433499.415
 -25312019.35449 -19723647.88747  20278035.604    20278037.587
  -8662871.11648  -6750303.14844  23705730.084    23705733.107
  -4047826.20248  -3154149.71845  23302571.938    23302576.634
 -13507054.72449 -10524975.03645  23008695.470    23008698.491
 02  1  7  3 13 30.0000000  0  8G22G13G31G25G 1G20G 2G27
 -17014166.84149 -13257797.10546  21526021.349    21526024.215
 -22411588.01149 -17463572.53347  20814172.372    20814172.747
  -5397004.11748  -4205450.61244  24054338.128    24054342.626
   2014826.37248   1569963.77145  25449582.085    25449583.920
 -25297434.46549 -19712283.09247  20280811.064    20280812.805
  -8555332.34348  -6666506.91944  23726193.797    23726198.043
  -4133153.56948  -3220638.54445  23286334.520    23286339.229
 -13578166.17449 -10580386.57746  22995164.555    22995165.683
 02  1  7  3 14  0.0000000  0  8G22G13G31G25G 1G20G 2G27
 -16929728.72049 -13192001.28446  21542089.493    21542092.323
 -22460863.95249 -17501969.41647  20804795.768    20804796.241
  -5502873.48748  -4287946.13644  24034190.740    24034199.179
   2099345.66348   1635824.89845  25465665.058    25465667.880
 -25282388.69149 -19700559.17047  20283674.224    20283676.019
  -8447696.74248  -6582635.18944  23746676.062    23746680.524
  -4218264.70448  -3286958.89045  23270138.370    23270142.492
 -13649184.10749 -10635725.26245  22981649.146    22981651.528
 02  1  7  3 14 30.0000000  0  7G22G13G25G 1G20G 2G27
 -16844916.71249 -13125914.13046  21558228.778    21558231.979
 -22509731.55549 -17540048.11147  20795496.544    20795496.953
   2183891.26148                  25481754.385
 -25266862.32149 -19688460.75647  20286628.825    20286630.592
  -8339947.97548  -6498675.29144  23767180.748    23767183.910
  -4303139.46748  -3353095.03145  23253987.082    23253992.846
 -13720089.20849 -10690976.01046  22968156.392    22968159.332
 02  1  7  3 15  0.0000000  0  7G22G13G25G 1G20G 2G27
 -16759744.05949 -13059545.94546  21574436.864    21574440.048
 -22558198.83449 -17577814.86547  20786273.706    20786274.195
   2268452.33248                  25497845.588
 -25250865.25649 -19675995.56647  20289672.959    20289674.725
  -8232099.66448  -6414637.83444  23787703.345    23787705.734
  -4387786.86148  -3419054.01145  23237879.534    23237882.388
 -13790891.50149 -10746146.63746  22954684.075    22954687.085
 02  1  7  3 15 30.0000000  0  7G22G13G25G 1G20G 2G27
 -16674232.99549 -12992914.07646  21590709.203    21590712.274
 -22606283.49149 -17615283.47247  20777123.333    20777123.729
   2353009.46348                  25513936.750
 -25234416.77149 -19663178.62247  20292803.003    20292804.868
  -8124173.99248  -6330540.12044  23808241.211    23808243.279
  -4472225.26548  -3484850.14945  23221810.761    23221815.650
 -13861610.20649 -10801252.15946  22941225.911    22941228.865
 02  1  7  3 16  0.0000000  0  7G22G13G25G 1G20G 2G27
 -16588375.49649 -12926012.25546  21607047.377    21607050.538
 -22653973.06149 -17652444.21847  20768048.311    20768048.805
   2437572.49748                  25530028.622
 -25217505.42649 -19650001.01147  20296021.002    20296022.838
  -8016163.23648                  23828794.605
  -4556442.69548  -3550474.08145  23205785.260    23205788.879
 -13932234.19549 -10856283.85646  22927786.956    22927789.601
 02  1  7  3 16 30.0000000  0  6G22G13G 1G20G 2G27
 -16502166.46449 -12858836.51946  21623452.222    21623455.422
 -22701257.14949 -17689289.00347  20759050.770    20759050.985
 -25200122.80649 -19636456.16847  20299328.826    20299330.693
  -7908062.47748  -6162141.90244  23849366.495    23849373.622
  -4640430.14248  -3615918.81645  23189802.775    23189806.982
 -14002755.28549 -10911235.38846  22914367.456    22914370.282
 02  1  7  3 17  0.0000000  0  7G22G13G25G 1G20G 2G27
 -16415605.95649 -12791386.90446  21639924.602    21639927.869
 -22748131.72849 -17725814.69347  20750130.856    20750131.010
          .25658                  25562221.084
 -25182265.98149 -19622541.82047  20302727.239    20302729.073
  -7799872.20448  -6077837.97844  23869953.849    23869957.615
  -4724183.64548  -3681181.24345  23173865.012    23173869.161
 -14073170.55649 -10966104.44446  22900967.116    22900969.543
 02  1  7  3 17 30.0000000  0  7G22G13G25G 1G20G 2G27
 -16328703.31549 -12723670.69146  21656461.667    21656465.169
 -22794601.25849 -17762024.75947  20741287.952    20741288.128
     84603.83548                  25578321.021
 -25163941.05949 -19608262.71847  20306214.451    20306216.338
  -7691601.97048  -5993471.75144  23890557.738    23890559.774
  -4807708.44348  -3746265.46845  23157970.153    23157975.064
 -14143486.25249 -11020895.92346  22887587.207    22887589.691
 02  1  7  3 18  0.0000000  0  8G22G13G 8G25G 1G20G 2G27
 -16241457.17349 -12655686.81946  21673063.939    21673067.134
 -22840659.43449 -17797914.29047  20732523.539    20732523.736
         -.82658                  25091213.248
    169221.34148                  25594422.596
 -25145143.34049 -19593615.20647  20309791.531    20309793.462
  -7583250.38548  -5909042.15744  23911175.672    23911180.565
  -4890999.22848  -3811167.32545  23142121.310    23142125.944
 -14213697.88049 -11075606.30646  22874226.442    22874228.955
 02  1  7  3 18 30.0000000  0  8G22G13G 8G25G 1G20G 2G27
 -16153875.08249 -12587441.16246  21689730.528    21689733.729
 -22886309.39149 -17833485.73247  20723836.824    20723836.898
    -92996.53348                  25073497.418
    253847.69548                  25610526.994
 -25125877.24349 -19578602.72247  20313457.604    20313459.627
  -7474825.11348  -5824555.14744  23931809.061    23931817.749
  -4974059.53948  -3875889.63745  23126314.917    23126318.880
 -14283810.00749 -11130239.15846  22860883.983    22860887.099
 02  1  7  3 19  0.0000000  0  7G22G13G25G 1G20G 2G27
 -16065956.33449 -12518933.18346  21706460.906    21706464.571
 -22931545.75149 -17868734.88647  20715228.455    20715228.663
    338485.77148                  25626633.229
 -25106138.96149 -19563222.30447  20317213.892    20317215.871
  -7366326.04448  -5740010.63944  23952455.831    23952464.022
  -5056884.73748  -3940428.71245  23110554.203    23110559.270
 -14353818.90749 -11184791.57346  22847562.005    22847563.760
 02  1  7  3 19 30.0000000  0  8G22G13G 8G25G 1G20G 2G27
 -15977676.01149 -12450143.45746  21723260.328    21723263.505
 -22976338.77049 -17903638.58147  20706704.694    20706704.977
         -.02258                  25038118.820
    423163.58048                  25642746.617
 -25085900.24449 -19547451.93547  20321065.133    20321067.137
  -7257728.10348  -5655389.01344  23973121.521    23973126.355
  -5139445.92148  -4004762.07945  23094842.916    23094847.242
 -14423696.43349 -11239241.63146  22834264.540    22834266.851
 02  1  7  3 20  0.0000000  0  6G22G20G 2G27G13G 1
 -15889077.62949 -12381105.89746  21740119.996    21740123.305
  -7149074.95948  -5570724.45544  23993797.564    23993803.338
  -5221782.82848  -4068920.69545  23079174.790    23079179.655
 -14493483.08549 -11293620.87046  22820984.216    22820987.394
 -23020727.33449 -17938227.11647  20698257.758    20698257.984
 -25065201.73349 -19531323.28647  20325003.833    20325005.804
 02  1  7  3 20 30.0000000  0  6G22G13G 1G20G 2G27
 -15800139.89049 -12311803.90446  21757044.197    21757047.638
 -23064685.66449 -17972480.40447  20689892.869    20689893.112
 -25044018.99249 -19514817.31747  20329034.806    20329036.882
  -7040345.71648  -5486000.56744  24014488.489    24014492.622
  -5303870.14248  -4132884.82645  23063554.030    23063557.926
 -14563154.47149 -11347910.30746  22807727.558    22807729.955
 02  1  7  3 21  0.0000000  0  7G22G13G31G 1G20G 2G27
 -15710899.41249 -12242266.01346  21774026.527    21774030.024
 -23108245.70549 -18006423.33747  20681603.462    20681603.840
        -1.10058          .14554  23753471.080    23753477.699
 -25022385.39449 -19497960.03147  20333151.748    20333153.816
  -6931577.09448  -5401245.97744  24035186.560    24035193.536
  -5385740.77948  -4196680.12245  23047975.003    23047979.535
 -14632744.15449 -11402136.07246  22794484.470    22794487.236
 02  1  7  3 21 30.0000000  0  8G22G13G 8G31G 1G20G 2G27
 -15621349.22649 -12172486.78446  21791067.352    21791070.761
 -23151396.04449 -18040047.02247  20673392.117    20673392.546
         -.12958                  24967395.435
   -104764.85748    -81633.83745  23733535.636    23733540.295
 -25000291.21949 -19480743.85247  20337356.157    20337358.324
  -6822762.58748  -5316455.65544  24055893.329    24055899.125
  -5467383.89048  -4260298.09845  23032438.523    23032443.201
 -14702242.28149 -11456290.49746  22781259.331    22781262.395
 02  1  7  3 22  0.0000000  0  8G13G 8G31G 1G20G22G 2G27
 -23194127.51749 -18073344.31847  20665261.000    20665261.469
    -92870.73748                  24949722.664
   -209434.22248   -163194.21244  23713617.678    23713622.065
 -24977729.02249 -19463162.98347  20341649.529    20341651.810
  -6713897.99148  -5231626.31145  24076609.876    24076615.377
 -15531485.26649 -12102463.06446  21808167.875    21808171.932
  -5548791.15748  -4323732.34545  23016947.066    23016951.381
 -14771641.30349 -11510367.70546  22768053.726    22768055.391
 02  1  7  3 22 30.0000000  0  8G13G 8G31G 1G20G22G 2G27
 -23236424.16449 -18106302.79047  20657212.290    20657212.677
   -185704.93848                  24932057.945
   -313991.81748   -244667.50845  23693720.676    23693728.415
 -24954684.27649 -19445206.10347  20346034.713    20346037.085
  -6604972.04248  -5146749.15344  24097337.726    24097343.284
 -15441296.05749 -12032185.89646  21825330.938    21825334.135
  -5629947.34448  -4386970.91645  23001503.831    23001508.774
 -14840926.59049 -11564356.28046  22754868.077    22754871.602
 02  1  7  3 23  0.0000000  0  8G13G 8G31G 1G20G22G 2G27
 -23278279.74149 -18138917.56947  20649247.593    20649248.016
   -278498.10148                  24914399.477
   -418430.14248   -326047.85145  23673847.263    23673852.265
 -24931152.34249 -19426869.59547  20350512.577    20350514.924
  -6495983.20148  -5061823.00944  24118078.012    24118081.708
 -15350779.79949 -11961653.89146  21842555.201    21842559.169
  -5710846.86748  -4450009.49345  22986109.246    22986113.752
 -14910093.51449 -11618252.63446  22741706.704    22741709.411
 02  1  7  3 23 30.0000000  0  8G13G 8G31G 1G20G22G 2G27
 -23319704.46349 -18171196.62247  20641364.408    20641364.847
   -371261.86748                  24896748.046
   -522757.73648   -407341.94245  23653994.159    23653998.329
 -24907145.03349 -19408162.66847  20355081.143    20355083.485
  -6386946.29848  -4976859.38444  24138826.906    24138833.742
 -15259951.33149 -11890878.60846  21859839.494    21859843.313
  -5791500.61948  -4512856.57045  22970761.154    22970765.418
 -14979153.74549 -11672065.84446  22728565.542    22728567.427
 02  1  7  3 24  0.0000000  0  8G13G 8G31G 1G20G22G 2G27
 -23360697.87449 -18203139.58547  20633563.552    20633563.929
   -463997.13148                  24879100.880
   -626972.83748   -488548.32745  23634162.314    23634167.913
 -24882663.51749 -19389086.22847  20359739.818    20359742.255
  -6277865.83748  -4891861.80844  24159584.897    24159589.110
 -15168814.60549 -11819863.12246  21877182.415    21877186.277
  -5871908.71848  -4575512.22445  22955459.994    22955463.619
 -15048108.20349 -11725796.63846  22715443.050    22715446.467
 02  1  7  3 24 30.0000000  0  8G13G 8G31G 1G20G22G 2G27
 -23401252.72949 -18234740.81547  20625846.278    20625846.783
   -556698.31148                  24861460.096
   -731067.20348   -569660.69145  23614354.392    23614359.647
 -24857702.21549 -19369635.93047  20364490.073    20364492.488
  -6168739.28948  -4806828.38744  24180350.844    24180358.191
 -15077367.31449 -11748605.63846  21894584.155    21894588.292
  -5952064.87248  -4637971.57445  22940206.732    22940211.709
 -15116951.35549 -11779440.68946  22702342.530    22702345.920
 02  1  7  3 25  0.0000000  0  8G13G 8G31G 1G20G22G 2G27
 -23441375.69349 -18266005.50947  20618211.417    20618211.864
   -649373.26648                  24843825.321
   -835045.69048   -650682.72145  23594567.241    23594571.200
 -24832269.38149 -19349818.20747  20369329.811    20369332.088
  -6059578.04248  -4721767.85344  24201123.150    24201128.096
 -14985620.35449 -11677114.64346  21912043.335    21912047.316
  -6031976.28748  -4700240.21445  22924999.590    22925005.312
 -15185691.04449 -11833004.13646  22689262.522    22689265.686
 02  1  7  3 25 30.0000000  0  8G13G 8G31G 1G20G22G 2G27
 -23481079.36649 -18296943.48047  20610656.388    20610656.730
   -742036.08048                  24826192.184
   -938919.59148   -731623.29645  23574800.899    23574807.189
 -24806379.42849 -19329644.28447  20374256.641    20374259.096
  -5950399.44648  -4636693.88144  24221899.309    24221902.754
 -14893591.04849 -11605403.64746  21929555.813    21929559.575
  -6111656.64548  -4762328.80445  22909838.029    22909842.239
 -15254341.53749 -11886498.08646  22676198.527    22676200.998
 02  1  7  3 26  0.0000000  0  8G13G 8G31G 1G20G22G 2G27
 -23520348.64249 -18327542.95847  20603183.459    20603183.861
   -834673.11448                  24808563.929
  -1042672.11548   -812469.28445  23555057.307    23555063.299
 -24780018.68249 -19309103.51347  20379272.897    20379275.464
  -5841192.94848  -4551598.07744  24242681.481    24242685.988
 -14801268.88349 -11533464.44046  21947124.473    21947127.862
  -6191091.41648  -4824226.02645  22894721.024    22894725.613
 -15322889.20849 -11939911.90546  22663154.133    22663157.368
 02  1  7  3 26 30.0000000  0  8G13G 8G31G 1G20G22G 2G27
 -23559160.05349 -18357785.65747  20595797.698    20595798.147
   -927262.24648                  24790945.349
  -1146278.55148   -893201.44245  23535341.124    23535348.865
 -24753165.23749 -19288178.82447  20384383.021    20384385.562
  -5731939.79848  -4466465.95744  24263471.326    24263480.510
 -14708634.81349 -11461282.18846  21964752.139    21964756.268
  -6270257.65248  -4885913.99145  22879656.636    22879660.106
 -15391311.90649 -11993228.34046  22650134.111    22650137.427
 02  1  7  3 27  0.0000000  0  8G13G 8G31G 1G20G22G 2G27
 -23597512.50549 -18387670.72947  20588499.661    20588500.074
  -1019803.62848                  24773335.347
  -1249736.36048   -973817.80845  23515653.709    23515660.886
 -24725819.60749 -19266870.61147  20389586.949    20389589.365
  -5622643.64348  -4381300.31944  24284269.912    24284278.103
 -14615692.21249 -11388859.53446  21982438.817    21982443.319
  -6349155.06948  -4947392.48445  22864642.942    22864647.869
 -15459609.97149 -12046447.67546  22637136.900    22637140.293
 02  1  7  3 27 30.0000000  0  8G13G 8G31G 1G20G22G 2G27
 -23635434.91549 -18417220.70247  20581283.375    20581283.814
  -1112328.04048                  24755728.287
  -1353073.08248  -1054339.78645  23495989.553    23495996.299
 -24698012.77249 -19245203.02147  20394878.670    20394880.981
  -5513338.20548  -4296127.48344  24305070.492    24305080.420
 -14522474.69549 -11316222.65446  22000177.411    22000181.925
  -6427813.70849  -5008684.91545  22849674.601    22849678.598
 -15527813.89349 -12099593.63446  22624158.335    22624161.260
 02  1  7  3 28  0.0000000  0  8G13G 8G31G 1G20G22G 2G27
 -23672910.47049 -18446422.47947  20574152.199    20574152.525
  -1204819.59148                  24738127.784
  -1456270.15148  -1134752.99745  23476351.938    23476355.678
 -24669729.36649 -19223164.07647  20400260.581    20400263.082
  -5404011.21348  -4210937.85544  24325874.455    24325879.443
 -14428969.73749 -11243361.80546  22017970.990    22017975.419
  -6506217.23949  -5069778.55845  22834754.802    22834759.063
 -15595907.97349 -12152654.00846  22611201.645    22611203.648
 02  1  7  3 28 30.0000000  0  8G13G 8G31G 1G20G22G 2G27
 -23709949.88149 -18475284.40147  20567103.981    20567104.356
  -1297290.22748                  24720531.924
  -1559336.81348  -1215064.59345  23456738.316    23456745.709
 -24640981.51349 -19200763.22847  20405731.032    20405733.490
  -5294677.82448  -4125743.22844  24346680.680    24346688.400
 -14335192.46149 -11170288.74646  22035816.570    22035820.654
  -6584376.86249  -5130682.14546  22819881.934    22819886.122
 -15663904.24649 -12205638.17246  22598261.718    22598264.904
 02  1  7  3 29  0.0000000  0  8G13G 8G31G 1G20G22G 2G27
 -23746543.65149 -18503799.06947  20560140.109    20560140.481
  -1389732.20048                  24702940.284
  -1662262.33948  -1295266.21545  23437152.575    23437158.131
 -24611761.69749 -19177994.61547  20411291.455    20411293.982
  -5185333.34648                  24367487.583
 -14241138.18149 -11096999.84646  22053714.671    22053718.277
  -6662284.17849  -5191389.10946  22805056.173    22805060.579
 -15731794.94549 -12258540.04946  22585342.237    22585345.363
 02  1  7  3 29 30.0000000  0  8G13G 8G31G 1G20G22G 2G27
 -23782682.75649 -18531959.45447  20553262.929    20553263.412
  -1482137.62048                  24685356.609
  -1765036.07948  -1375349.55345  23417595.339    23417601.219
 -24582062.33649 -19154852.33447  20416943.442    20416945.813
  -5075973.33948                  24388299.035
 -14146802.06349 -11023491.33846  22071665.964    22071670.404
  -6739930.59649  -5251892.79446  22790281.017    22790285.249
 -15799572.03549 -12311353.41146  22572445.195    22572448.228
 02  1  7  3 30  0.0000000  0  8G13G 8G31G 1G20G22G 2G27
 -23818372.91649 -18559770.01247  20546471.774    20546472.142
  -1574513.85048                  24667777.750
  -1867662.53048  -1455318.14945  23398066.053    23398071.199
 -24551891.23349 -19131342.46347  20422684.901    20422687.296
  -4966608.45248  -3870105.39644  24409109.723    24409115.408
 -14052194.60849 -10949771.39246  22089669.740    22089673.745
  -6817322.97249  -5312198.51246  22775553.042    22775557.398
 -15867242.98449 -12364084.06346  22559567.519    22559570.923
 02  1  7  3 30 30.0000000  0  8G13G 8G31G 1G20G22G 2G27
 -23853609.86249 -18587227.41547  20539766.358    20539766.849
  -1666857.56048                  24650206.370
  -1970135.34848  -1535167.04545  23378566.115    23378572.186
 -24521245.54549 -19107462.78747  20428516.308    20428519.003
  -4857238.60748                  24429923.210
 -13957315.69949 -10875839.92646  22107724.433    22107728.403
  -6894457.30249  -5372303.16846  22760875.881    22760879.045
 -15934804.51949 -12416729.45746  22546711.241    22546714.418
 02  1  7  3 31  0.0000000  0  8G13G 8G31G 1G20G22G 2G27
 -23888393.42549 -18614331.53547  20533147.176    20533147.681
  -1759169.84248                  24632638.702
  -2072453.01348  -1614895.03345  23359095.067    23359100.021
 -24490126.65749 -19083214.38547  20434437.980    20434440.590
  -4747868.18348                  24450735.467
 -13862169.43349 -10801700.13646  22125830.492    22125835.405
  -6971334.31249  -5432207.29046  22746245.582    22746250.262
 -16002257.86449 -12469290.53046  22533875.340    22533878.366
 02  1  7  3 31 30.0000000  0  8G13G 8G31G 1G20G22G 2G27
 -23922705.96549 -18641068.62647  20526617.722    20526618.163
  -1851434.70448                  24615081.564
  -2174596.24748  -1694487.12045  23339658.482    23339663.401
 -24458518.91949 -19058585.05947  20440453.093    20440455.520
  -4638484.23448                  24471550.824
 -13766742.80049 -10727341.87346  22143989.279    22143994.454
  -7047937.24849  -5491897.86246  22731669.470    22731673.239
 -16069586.74849 -12521754.62746  22521062.902    22521065.341
 02  1  7  3 32  0.0000000  0  8G13G 8G31G 1G20G22G 2G27
 -23956559.85849 -18667448.32847  20520175.395    20520175.890
  -1943665.50648  -1514549.36644  24597531.148    24597532.193
  -2276575.95548  -1773951.75445  23320251.785    23320256.739
 -24426436.43949 -19033585.80647  20446558.426    20446560.719
  -4529103.82048                  24492364.817
 -13671052.57349 -10652778.21946  22162198.856    22162203.317
  -7124279.23949  -5551385.10346  22717141.076    22717145.853
 -16136804.88349 -12574132.43146  22508271.856    22508274.982
 02  1  7  3 32 30.0000000  0  8G13G 8G31G 1G20G22G 2G27
 -23989947.63449 -18693464.82547  20513822.137    20513822.908
  -2035856.19148                  24579987.823
  -2378382.76148  -1853281.71145  23300879.077    23300884.770
 -24393873.21549 -19008211.94447  20452754.905    20452757.304
  -4419723.75148                  24513179.992
 -13575095.61949 -10578006.72246  22180458.650    22180463.175
  -7200353.23949  -5610663.50946  22702664.688    22702669.509
 -16203905.92249 -12626418.99646  22495503.357    22495506.250
 02  1  7  3 33  0.0000000  0  8G13G 8G31G 1G20G22G 2G27
 -24022869.33049 -18719118.14147  20507557.330    20507557.927
  -2128007.77748                  24562451.943
  -2480015.26248  -1932475.82145  23281538.462    23281545.150
 -24360830.97349 -18982464.82047  20459042.442    20459045.110
  -4310348.51348                  24533993.565
 -13478876.02149 -10503030.57146  22198769.416    22198774.269
  -7276160.13549  -5669733.79146  22688239.019    22688243.719
 -16270891.09949 -12678615.26946  22482755.957    22482759.196
 02  1  7  3 33 30.0000000  0  8G13G 8G31G 1G20G22G 2G27
 -24055324.32949 -18744407.80347  20501381.460    20501382.172
  -2220121.24948  -1729969.83144  24544924.272    24544926.965
  -2581471.42448  -2011532.53345  23262232.275    23262237.355
 -24327311.04949 -18956345.47747  20465421.368    20465424.044
  -4200982.06948                  24554805.364
 -13382397.94949 -10427853.01946  22217128.132    22217133.214
  -7351700.08949  -5728596.06146  22673864.793    22673868.688
 -16337761.33149 -12730721.96646  22470030.832    22470033.707
 02  1  7  3 34  0.0000000  0  8G13G 8G31G 1G20G22G 2G27
 -24087322.27749 -18769341.31647  20495292.546    20495293.170
  -2312207.14348                  24527399.304
  -2682758.99848  -2090457.89945  23242957.590    23242962.897
 -24293324.86149 -18929862.80947  20471888.675    20471891.256
  -4091638.52348                  24575613.127
 -13285675.20449 -10352484.81046  22235534.052    22235539.174
  -7426983.46649  -5787258.41346  22659538.527    22659542.427
 -16404527.32149 -12782747.44646  22457326.452    22457329.432
 02  1  7  3 34 30.0000000  0  8G13G 8G31G 1G20G22G 2G27
 -24118849.71749 -18793908.20347  20489293.055    20489293.587
  -2404253.42348                  24509884.980
  -2783863.08248  -2169240.29045  23223718.716    23223722.659
 -24258860.55849 -18903007.58247  20478447.057    20478449.737
  -3982308.76048                  24596418.254
 -13188698.42749 -10276918.64446  22253988.377    22253992.939
  -7501997.42749  -5845710.83446  22645263.799    22645268.192
 -16471176.80149 -12834682.13946  22444643.149    22444645.972
 02  1  7  3 35  0.0000000  0  8G13G 8G31G 1G20G22G 2G27
 -24149904.31149 -18818106.64047  20483383.746    20483384.203
  -2496258.92448  -1945142.29744  24492376.012    24492379.144
  -2884779.59848  -2247876.54045  23204514.861    23204519.522
 -24223917.38749 -18875779.20947  20485096.823    20485099.391
  -3872994.98848                  24617219.781
 -13091469.72849 -10201156.18646  22272491.121    22272495.409
  -7576740.32549  -5903952.03746  22631040.956    22631045.405
 -16537708.66149 -12886525.17046  22431982.363    22431985.524
 02  1  7  3 35 30.0000000  0  8G13G 8G31G 1G20G22G 2G27
 -24180481.85949 -18841933.35347  20477565.156    20477565.655
  -2588220.74548  -2016800.96944  24474876.067    24474880.952
  -2985502.62648  -2326362.01845  23185347.737    23185352.351
 -24188493.12149 -18848175.95747  20491837.724    20491840.401
  -3763697.48848                  24638018.717
 -12993989.16949 -10125197.47346  22291040.644    22291045.096
  -7651208.89649  -5961979.47646  22616869.617    22616874.631
 -16604119.96249 -12938274.27146  22419345.162    22419348.087
 02  1  7  3 36  0.0000000  0  8G13G 8G31G 1G20G22G 2G27
 -24210600.51249 -18865402.48847  20471833.649    20471834.124
  -2680158.21448  -2088440.67144  24457381.723    24457385.384
  -3086048.60048  -2404709.55145  23166215.439    23166220.045
 -24152607.73349 -18820213.39047  20498666.388    20498669.272
  -3654438.81148                  24658810.090
 -12896279.36349 -10049060.12646  22309634.160    22309638.390
  -7725422.12249  -6019807.94746  22602747.765    22602752.376
 -16670429.99949 -12989944.45546  22406726.829    22406729.605
 02  1  7  3 36 30.0000000  0  8G13G 8G31G 1G20G22G 2G27
 -24240247.98449 -18888504.46847  20466191.765    20466192.325
  -2772059.99748  -2160052.63944  24439892.866    24439895.929
  -3186403.37948  -2482908.11545  23147117.680    23147122.786
 -24116250.34749 -18791883.02747  20505584.849    20505587.881
  -3545210.76048  -2762526.02044  24679595.440    24679603.632
 -12798331.79749  -9972737.51646  22328273.360    22328278.182
  -7799367.97349  -6077428.07746  22588675.965    22588680.431
 -16736627.31249 -13041526.79646  22394129.713    22394132.395
 02  1  7  3 37  0.0000000  0  8G13G 8G31G 1G20G22G 2G27
 -24269416.58049 -18911233.29847  20460641.287    20460641.781
  -2863919.78848  -2231631.78444  24422414.275    24422418.571
  -3286558.04248  -2560950.75245  23128059.151    23128064.393
 -24079415.52049 -18763180.63247  20512594.330    20512597.302
  -3436010.34648  -2677435.03344  24700376.003    24700383.341
 -12700143.52349  -9896227.32746  22346958.245    22346963.102
  -7873039.78149  -6134834.67946  22574657.160    22574661.340
 -16802705.87649 -13093016.62546  22381555.618    22381558.495
 02  1  7  3 37 30.0000000  0  8G13G 8G31G 1G20G22G 2G27
 -24298102.49749 -18933586.01747  20455182.819    20455183.256
  -2955735.07448                  24404940.373
  -3386506.92948  -2638833.04945  23109039.504    23109045.318
 -24042101.33649 -18734104.70847  20519695.220    20519698.238
  -3326838.06848  -2592365.96344  24721150.838    24721157.586
 -12601714.95049  -9819529.90746  22365688.225    22365692.781
  -7946434.53049  -6192025.38046  22560689.901    22560694.908
 -16868663.06749 -13144411.86846  22369004.203    22369007.358
 02  1  7  3 38  0.0000000  0  8G13G 8G31G 1G20G22G 2G27
 -24326311.39449 -18955567.03047  20449815.033    20449815.545
  -3047512.36548  -2374691.24944  24387477.873    24387479.703
  -3486253.86048  -2716557.99245  23090057.869    23090064.432
 -24004314.80849 -18704660.72747  20526885.848    20526888.931
  -3217703.98848  -2507326.70344  24741918.661    24741928.590
 -12503055.48548  -9742652.55446  22384462.717    22384468.722
  -8019558.45449  -6249005.06046  22546775.346    22546779.938
 -16934505.40549 -13195717.61446  22356474.894    22356477.909
 02  1  7  3 38 30.0000000  0  8G13G 8G31G 1G20G22G 2G27
 -24354039.50349 -18977173.40647  20444538.562    20444539.342
  -3139249.00948  -2446174.46944  24370019.287    24370025.479
  -3585793.16748  -2794121.16845  23071116.508    23071122.572
 -23966053.86849 -18674847.07247  20534166.612    20534169.724
  -3108608.48048  -2422317.44644  24762679.386    24762690.804
 -12404165.84548  -9665595.86746  22403280.570    22403285.681
  -8092408.35849  -6305771.21346  22532912.844    22532916.348
 -17000230.06949 -13246931.66646  22343967.863    22343971.022
 02  1  7  3 39  0.0000000  0  8G13G 8G31G 1G20G22G 2G27
 -24381286.19849 -18998404.65347  20439353.496    20439354.144
  -3230945.18348  -2517626.14544  24352570.726    24352578.917
  -3685122.53948  -2871520.74745  23052214.803    23052220.499
 -23927319.68749 -18644664.66047  20541537.451    20541540.633
  -2999554.95348                  24783431.722
 -12305049.20648  -9588362.27446  22422142.174    22422148.004
  -8164984.16649  -6362323.80546  22519101.601    22519106.179
 -17065837.39149 -13298054.28446  22331482.510    22331485.728
 02  1  7  3 39 30.0000000  0  8G13G 8G31G 1G20G22G 2G27
 -24408047.23049 -19019257.46447  20434260.895    20434261.526
  -3322598.26848  -2589044.28844  24335130.748    24335136.981
  -3784235.93748  -2948752.04245  23033354.184    23033359.339
 -23888110.10149 -18614111.80347  20548998.663    20549001.788
  -2890543.89448  -2252397.57344  24804175.893    24804184.084
 -12205705.72748  -9510951.93746  22441046.912    22441053.377
  -8237282.53249  -6418660.19246  22505343.912    22505348.485
 -17131324.53849 -13349083.26246  22319021.451    22319024.618
 02  1  7  3 40  0.0000000  0  8G13G 8G31G 1G20G22G 2G27
 -24434325.11949 -19039733.79947  20429260.565    20429261.264
  -3414211.61148  -2660431.42544  24317696.482    24317706.162
  -3883133.96748  -3025815.52145  23014534.836    23014539.380
 -23848429.10949 -18583191.61847  20556550.258    20556553.344
  -2781581.79048                  24824910.780
 -12106142.14948  -9433370.10745  22459993.017    22459998.339
  -8309306.47949  -6474782.75446  22491637.843    22491642.388
 -17196694.93249 -13400021.26846  22306582.168    22306585.187
 02  1  7  3 40 30.0000000  0  8G13G 8G31G 1G20G22G 2G27
 -24460114.70349 -19059829.63847  20424353.230    20424353.934
  -3505781.16748  -2731784.46844  24300272.503    24300278.837
  -3981809.90948  -3102705.94045  22995756.747    22995762.513
 -23808273.46549 -18551901.57647  20564191.607    20564194.706
  -2672667.90748  -2082624.59744  24845637.100    24845643.560
 -12006357.24448  -9355615.80346  22478981.527    22478987.376
  -8381051.64749  -6530688.08946  22477985.083    22477989.862
 -17261944.57749 -13450865.18146  22294164.766    22294168.090
 02  1  7  3 41  0.0000000  0  8G13G 8G31G 1G20G22G 2G27
 -24485417.88349 -19079546.45747  20419538.238    20419538.803
  -3597309.77648  -2803105.58044  24282854.312    24282860.993
  -4080263.55348  -3179423.15545  22977022.547    22977027.439
 -23767646.79249 -18520244.49947  20571922.689    20571925.793
  -2563808.24148                  24866351.898
 -11906356.96448  -9277693.69145  22498011.126    22498017.624
  -8452520.54449  -6586378.13846  22464385.131    22464389.427
 -17327076.31049 -13501617.22346  22281771.243    22281774.413
 02  1  7  3 41 30.0000000  0  8G13G 8G31G 1G20G22G 2G27
 -24510228.28749 -19098879.29447  20414817.081    20414817.695
  -3688792.32348  -2874390.80244  24265446.432    24265452.105
  -4178487.15548  -3255961.08245  22958330.243    22958337.466
 -23726545.00049 -18488217.20547  20579743.707    20579746.857
  -2455000.91048  -1913014.53544  24887058.110    24887063.765
 -11806139.44048  -9199602.28345  22517081.838    22517089.043
  -8523707.99749  -6641848.88046  22450838.815    22450843.216
 -17392085.04149 -13552273.41946  22269400.980    22269403.896
 02  1  7  3 42  0.0000000  0  8G13G 8G31G 1G20G22G 2G27
 -24534531.07349 -19117816.58347  20410192.427    20410193.020
  -3780214.85348  -2945629.24944  24248048.656    24248057.344
  -4276463.82048  -3332306.60845  22939686.774    22939691.593
 -23684954.63949 -18455809.20647  20587658.337    20587661.439
  -2346234.82048  -1828262.01644  24907755.953    24907759.135
 -11705693.21948  -9121332.69045  22536196.738    22536202.641
  -8594599.44749  -6697088.97446  22437348.851    22437352.978
 -17456956.50349 -13602822.65346  22257055.687    22257058.955
 02  1  7  3 42 30.0000000  0  8G13G 8G31G 1G20G22G 2G27
 -24558345.70149 -19136373.48847  20405660.548    20405661.128
  -3871597.50048  -3016836.53744  24230659.290    24230666.346
  -4374210.98548  -3408473.27545  22921085.298    22921092.667
 -23642896.94749 -18423037.05747  20595661.891    20595664.967
  -2237533.57348  -1743560.09944  24928440.588    24928446.544
 -11605041.90448  -9042903.28245  22555349.801    22555355.531
  -8665214.79949  -6752113.93346  22423911.035    22423915.313
 -17521710.93249 -13653280.68846  22244733.619    22244736.709
 02  1  7  3 43  0.0000000  0  8G13G 8G31G 1G20G22G 2G27
 -24581666.80049 -19154545.82447  20401222.729    20401223.318
  -3962935.90848  -3088009.33944  24213279.108    24213282.155
  -4471721.28048  -3484455.36545  22902530.661    22902535.704
 -23600368.22549 -18389897.87047  20603754.786    20603758.004
  -2128896.05448                  24949114.592
 -11504184.13148  -8964313.00945  22574543.116    22574547.574
  -8735549.41749  -6806920.14046  22410526.792    22410531.326
 -17586343.90449 -13703644.07846  22232434.609    22232437.570
 02  1  7  3 43 30.0000000  0  8G13G 8G31G 1G20G22G 2G27
 -24604495.05449 -19172334.12347  20396878.679    20396879.300
  -4054232.40948  -3159149.50444  24195905.236    24195912.047
  -4568993.80548  -3560252.17945  22884019.506    22884025.476
 -23557371.56649 -18356394.06147  20611936.858    20611940.073
  -2020327.66448  -1574309.33244  24969773.750    24969782.189
 -11403125.15848  -8885565.95145  22593773.862    22593780.293
  -8805605.11849  -6861509.01046  22397195.616    22397199.966
 -17650857.60449 -13753914.53746  22220157.622    22220160.709
 02  1  7  3 44  0.0000000  0  8G13G 8G31G 1G20G22G 2G27
 -24626829.83549 -19189737.89647  20392628.564    20392629.352
  -4145486.63748  -3230256.70844  24178540.982    24178545.621
  -4666025.74848  -3635861.50445  22865555.827    22865561.148
 -23513907.65749 -18322526.16347  20620207.891    20620211.054
  -1911831.04848  -1489766.83044  24990421.401    24990429.593
 -11301867.53148  -8806664.12345  22613042.704    22613047.756
  -8875381.37049  -6915880.12946  22383917.868    22383922.244
 -17715251.63749 -13804091.74746  22207903.900    22207907.206
 02  1  7  3 44 30.0000000  0  8G13G 8G31G 1G20G22G 2G27
 -24648671.43049 -19206757.36647  20388472.158    20388473.019
  -4236700.07748  -3301332.14645  24161182.597    24161186.771
  -4762815.64248  -3711282.20845  22847136.721    22847143.026
 -23469978.70749 -18288295.89547  20628567.554    20628570.723
  -1803410.65848  -1405283.74844  25011052.479    25011062.656
 -11200415.75048  -8727610.97545  22632348.834    22632354.066
  -8944879.21549  -6970034.30846  22370692.546    22370696.779
 -17779527.41249 -13854176.81746  22195672.855    22195676.491
 02  1  7  3 45  0.0000000  0  8G13G 8G31G 1G20G22G 2G27
 -24670010.54249 -19223385.29047  20384411.392    20384412.388
  -4327864.30448  -3372369.23044  24143835.135    24143838.221
  -4859352.49848  -3786505.74845  22828766.409    22828771.596
 -23425577.49049 -18253697.62947  20637016.429    20637019.782
  -1695061.50348                  25031671.156
 -11098764.51948  -8648402.42045  22651691.978    22651699.011
  -9014090.12649  -7023964.90246  22357522.498    22357526.493
 -17843676.69649 -13904163.30946  22183465.270    22183468.515
 02  1  7  3 45 30.0000000  0  8G13G 8G31G 1G20G22G 2G27
 -24690844.49049 -19239619.58247  20380446.904    20380448.106
  -4418977.58048  -3443366.64944  24126497.537    24126502.573
  -4955631.49048  -3861528.31645  22810445.690    22810450.344
 -23380702.88449 -18218730.48847  20645555.976    20645559.228
  -1586784.77948                  25052275.283
 -10996914.93448  -8569039.31745  22671073.949    22671079.364
  -9083011.94649  -7077670.23146  22344406.742    22344411.851
 -17907697.48149 -13954049.67446  22171282.604    22171286.177
 02  1  7  3 46  0.0000000  0  8G13G 8G31G 1G20G22G 2G27
 -24711177.04349 -19255463.17547  20376577.768    20376578.863
  -4510044.50748  -3514327.90144  24109166.892    24109173.468
  -5051654.65948  -3936351.55245  22792172.738    22792178.077
 -23335360.50549 -18183398.85147  20654184.560    20654187.755
  -1478588.37448                  25072865.284
 -10894874.69948  -8489527.63645  22690491.195    22690498.598
  -9151649.22549  -7131153.83846  22331345.644    22331349.886
 -17971594.54649 -14003839.63546  22159123.640    22159126.846
 02  1  7  3 46 30.0000000  0  8G13G 8G31G 1G20G22G 2G27
 -24731013.56949 -19270920.25347  20372803.212    20372804.294
  -4601071.77348  -3585258.28744  24091845.792    24091849.150
  -5147425.58048  -4010978.22445  22773948.158    22773954.337
 -23289558.02449 -18147708.69447  20662900.659    20662903.824
  -1370482.00048                  25093436.583
 -10792653.50448  -8409874.97945  22709944.138    22709949.519
  -9220008.38249  -7184420.72746  22318337.252    22318342.399
 -18035374.42949 -14053538.28346  22146986.463    22146989.858
 02  1  7  3 47  0.0000000  0  8G13G 8G31G 1G20G22G 2G27
 -24750343.56649 -19285982.63347  20369124.983    20369125.975
  -4692049.08048  -3656149.79144  24074533.483    24074539.608
  -5242931.05848  -4085398.05945  22755774.507    22755780.583
 -23243286.04549 -18111652.69347  20671705.738    20671708.935
  -1262458.43648                  25113993.198
 -10690243.91948  -8330075.49945  22729431.382    22729438.134
  -9288078.68749  -7237462.53946  22305384.052    22305388.562
 -18099026.69949 -14103137.49446  22134874.153    22134877.524
 02  1  7  3 47 30.0000000  0  8G13G 8G31G 1G20G22G 2G27
 -24769161.36849 -19300645.89747  20365543.915    20365545.213
  -4782971.72348  -3726998.70744  24057230.828    24057235.232
  -5338163.83048  -4159605.37545  22737651.697    22737657.965
 -23196540.82049 -18075227.93147  20680601.107    20680604.283
  -1154516.21448                  25134534.059
 -10587644.19148  -8250127.86145  22748956.412    22748961.461
  -9355855.38649  -7290275.56246  22292486.238    22292491.002
 -18162546.56649 -14152633.53546  22122787.295    22122790.477
 02  1  7  3 48  0.0000000  0  8G13G 8G31G 1G20G22G 2G27
 -24787477.87249 -19314918.54247  20362058.419    20362059.488
  -4873851.42048  -3797814.16045  24039936.796    24039944.084
  -5433132.61648  -4233607.00745  22719580.074    22719586.297
 -23149335.18749 -18038444.40847  20689584.369    20689587.534
  -1046804.95348                  25155050.905
 -10484869.16748  -8170043.62145  22768513.434    22768519.314
  -9423350.08749  -7342868.84546  22279642.573    22279647.398
 -18225945.70049 -14202035.49446  22110722.149    22110725.480
 02  1  7  3 48 30.0000000  0  8G13G 8G31G 1G20G22G 2G27
 -24805285.57549 -19328794.71747  20358669.836    20358671.211
  -4964681.51048  -3868590.87845  24022653.684    24022656.289
  -5527828.11848  -4307395.68145  22701559.768    22701566.563
 -23101663.55949 -18001297.77547  20698655.979    20698659.202
   -939107.68048                  25175561.263
 -10381915.07348  -8089819.86545  22788105.369    22788111.806
  -9490555.95549  -7395237.07246  22266853.790    22266858.600
 -18289217.48349 -14251338.22346  22098681.905    22098685.176
 02  1  7  3 49  0.0000000  0  7G13G 8G31G 1G22G 2G27
 -24822580.93449 -19342271.66347  20355378.621    20355379.880
  -5055459.50148  -3939326.99345  24005378.371    24005387.058
  -5622244.79948  -4380967.08145  22683593.060    22683598.796
 -23053524.40949 -17963786.83747  20707816.680    20707819.804
 -10278782.31648  -8009456.86845  22807731.025    22807737.081
  -9557470.17049  -7447378.02246  22254120.208    22254125.307
 -18352359.20349 -14300539.60546  22086666.690    22086669.718
 02  1  7  3 49 30.0000000  0  7G13G 8G31G 1G22G 2G27
 -24839359.31049 -19355345.76647  20352185.811    20352187.043
  -5146181.21748  -4010019.31844  23988115.378    23988120.284
  -5716375.72748  -4454315.81545  22665679.936    22665686.526
 -23004914.63149 -17925909.17947  20717066.605    20717069.790
 -10175469.76548  -7928953.79745  22827390.461    22827396.977
  -9624088.29149  -7499288.26446  22241443.816    22241447.922
 -18415366.75949 -14349636.43746  22074677.375    22074680.432
 02  1  7  3 50  0.0000000  0  8G13G 8G31G 1G 3G22G 2G27
 -24855632.09749 -19368025.90147  20349089.265    20349090.352
  -5236858.55448  -4080677.03244  23970859.250    23970866.900
  -5810230.29048  -4527449.20445  22647820.649    22647825.689
 -22955847.54649 -17887675.17747  20726404.052    20726407.220
         -.57759          .01756  22083472.174    22083476.624
 -10071992.46448  -7848322.32845  22847082.567    22847087.119
  -9690422.37849  -7550977.17046  22228820.442    22228824.979
 -18478252.18949 -14398638.10546  22062710.589    22062713.652
 02  1  7  3 50 30.0000000  0  8G13G 8G31G 1G 3G22G 2G27
 -24871382.84149 -19380299.25147  20346091.893    20346093.173
  -5327476.29848  -4151288.31845  23953615.701    23953622.617
  -5903790.09048  -4600352.90045  22630016.925    22630021.602
 -22906308.68549 -17849073.55747  20735831.170    20735834.390
    -28946.14849    -22555.00946  22077964.655    22077969.331
  -9968337.61348  -7767552.51845  22866806.524    22866815.212
  -9756456.66849  -7602432.47746  22216254.922    22216259.792
 -18540999.75649 -14447532.34346  22050769.286    22050772.568
 02  1  7  3 51  0.0000000  0  8G13G 8G31G 1G 3G22G 2G27
 -24886614.92149 -19392168.44947  20343193.244    20343194.551
  -5418038.47748  -4221856.29944  23936382.271    23936385.915
  -5997056.53448  -4673028.01546  22612268.509    22612273.363
 -22856303.33549 -17810108.44247  20745346.906    20745350.102
    -57334.60649    -44675.91646  22072562.924    22072567.354
  -9864512.58348  -7686650.09845  22886564.671    22886570.577
  -9822195.29449  -7653657.38646  22203744.914    22203749.467
 -18603613.50649 -14496322.31346  22038854.610    22038857.869
 02  1  7  3 51 30.0000000  0  8G13G 8G31G 1G 3G22G 2G27
 -24901329.28249 -19403634.22947  20340393.148    20340394.454
  -5508546.42148  -4292382.01544  23919159.270    23919166.648
  -6090028.41548  -4745473.60246  22594577.098    22594581.811
 -22805834.05849 -17770781.82047  20754950.854    20754954.209
    -85166.72749    -66363.32146  22067266.592    22067270.505
  -9760521.67348  -7605618.39945  22906353.152    22906359.755
  -9887639.58149  -7704652.95046  22191291.259    22191295.722
 -18666094.74049 -14545009.02846  22026966.043    22026969.081
 02  1  7  3 52  0.0000000  0  8G13G 8G31G 1G 3G22G 2G27
 -24915521.54349 -19414693.18147  20337692.641    20337693.765
  -5598996.44048  -4362862.65145  23901947.549    23901956.237
  -6182699.15648  -4817684.52946  22576941.863    22576947.339
 -22754898.36849 -17731091.76047  20764643.777    20764647.178
   -112438.15249    -87613.83246  22062076.975    22062081.343
  -9656364.10448  -7524456.87445  22926174.393    22926179.900
  -9952785.73049  -7755416.19546  22178894.460    22178898.901
 -18728439.88949 -14593589.70346  22015101.889    22015104.865
 02  1  7  3 52 30.0000000  0  8G13G 8G31G 1G 3G22G 2G27
 -24929188.83249 -19425343.06347  20335092.093    20335093.092
  -5689386.39948  -4433296.40144  23884745.634    23884752.971
  -6275063.65748  -4889656.83246  22559365.595    22559371.200
 -22703495.00449 -17691037.28247  20774425.317    20774428.696
   -139145.26149   -108424.60946  22056994.478    22056999.012
  -9552040.23148  -7443165.75245  22946026.021    22946033.756
 -10017631.38549  -7805945.29446  22166554.832    22166559.021
 -18790646.60549 -14642062.50246  22003262.953    22003266.597
 02  1  7  3 53  0.0000000  0  8G13G 8G31G 1G 3G22G 2G27
 -24942343.97449 -19435593.87147  20332589.008    20332590.050
  -5779730.01648  -4503694.09945  23867554.894    23867559.347
  -6367132.95148  -4961399.11346  22541845.172    22541851.152
 -22651638.92449 -17650630.03447  20784293.238    20784296.890
   -165300.98549   -128805.75446  22052017.286    22052022.021
  -9447567.01148  -7361758.24145  22965907.100    22965914.168
 -10082190.24749  -7856250.91046  22154269.699    22154274.251
 -18852728.35549 -14690437.92646  21991450.180    21991453.393
 02  1  7  3 53 30.0000000  0  8G13G 8G31G 1G 3G22G 2G27
 -24954981.86649 -19445441.63047  20330183.972    20330184.872
  -5870022.27748  -4574051.77144  23850372.002    23850379.269
  -6458899.38648  -5032905.39446  22524382.854    22524388.315
 -22599326.64349 -17609867.31047  20794248.193    20794251.784
   -190899.68249   -148752.84146  22047146.027    22047151.107
  -9342942.37848  -7280232.74045  22985817.021    22985823.096
 -10146457.22549  -7906329.08946  22142040.086    22142045.062
 -18914680.25349 -14738712.16946  21979661.877    21979664.829
 02  1  7  3 54  0.0000000  0  8G13G 8G31G 1G 3G22G 2G27
 -24967105.47949 -19454888.65147  20327877.001    20327877.884
  -5960267.29348  -4644372.63945  23833200.147    23833204.612
  -6550364.32448  -5104176.75446  22506978.273    22506982.592
 -22546563.30549 -17568753.11247  20804288.624    20804292.219
   -215944.78249   -168268.55746  22042380.200    22042385.178
  -9238173.28748  -7198594.71245  23005753.374    23005761.204
 -10210436.32049  -7956182.94346  22129865.227    22129869.946
 -18976506.32749 -14786888.36946  21967895.923    21967898.977
 02  1  7  3 54 30.0000000  0  8G13G 8G31G 1G 3G22G 2G27
 -24978696.59249 -19463920.73947  20325671.284    20325672.350
  -6050447.24148  -4714642.83744  23816039.246    23816043.918
  -6641507.08848  -5175197.07546  22489633.401    22489639.276
 -22493332.29249 -17527274.49047  20814418.477    20814422.152
   -240417.36049   -187338.16346  22037723.387    22037728.477
  -9133244.87648  -7116832.51545  23025721.602    23025727.565
 -10274109.69049  -8005798.56446  22117748.698    22117753.238
 -19038188.61849 -14834952.52846  21956157.781    21956161.309
 02  1  7  3 55  0.0000000  0  8G13G 8G31G 1G 3G22G 2G27
 -24989752.58449 -19472535.85247  20323567.431    20323568.366
  -6140559.81448  -4784860.45944  23798890.213    23798896.770
  -6732322.72148  -5245962.49046  22472352.106    22472357.008
 -22439632.84649 -17485430.85547  20824636.747    20824640.591
   -264314.58549   -205959.43946  22033175.863    22033181.044
  -9028157.59448  -7034946.51345  23045718.163    23045725.407
 -10337475.10449  -8055174.21846  22105690.416    22105694.966
 -19099724.89849 -14882902.91346  21944448.106    21944451.300
 02  1  7  3 55 30.0000000  0  8G13G 8G31G 1G 3G22G 2G27
 -25000289.52649 -19480746.51347  20321562.337    20321563.418
  -6230621.58248  -4855038.52845  23781753.803    23781757.233
  -6822825.24048  -5316483.92746  22455129.793    22455135.109
 -22385482.87549 -17443236.16347  20834941.470    20834945.274
   -287652.43549   -224144.84046  22028734.966    22028739.676
  -8922931.23948  -6952952.15445  23065743.537    23065749.369
 -10400549.13149  -8104322.82646  22093688.421    22093692.466
 -19161131.53349 -14930752.28646  21932763.371    21932766.512
 02  1  7  3 56  0.0000000  0  8G13G 8G31G 1G 3G22G 2G27
 -25010302.51249 -19488548.89447  20319656.895    20319657.975
  -6320628.43148  -4925173.64145  23764625.006    23764631.168
  -6913007.49048  -5386755.80246  22437968.916    22437974.581
 -22330879.38749 -17400688.08047  20845332.069    20845335.863
   -310425.82349   -241890.41546  22024401.173    22024405.947
  -8817564.30148  -6870848.22445  23085793.223    23085800.466
 -10463327.25649  -8153240.85946  22081741.185    22081746.296
 -19222404.16349 -14978497.24146  21921103.468    21921106.634
 02  1  7  3 56 30.0000000  0  8G13G 8G31G 1G 3G22G 2G27
 -25019789.24349 -19495941.20847  20317851.591    20317852.598
  -6410578.64848  -4995265.01044  23747508.934    23747514.667
  -7002865.00249  -5456774.65446  22420869.742    22420875.090
 -22275821.80449 -17357786.15847  20855809.278    20855813.143
   -332632.33749   -259194.26246  22020175.858    22020180.563
  -8712057.92048  -6788635.68945  23105871.547    23105878.421
 -10525807.90249  -8201927.09746  22069852.722    22069856.750
 -19283540.95249 -15026136.34946  21909468.841    21909472.424
 02  1  7  3 57  0.0000000  0  8G13G 8G31G 1G 3G22G 2G27
 -25028750.74449 -19502924.25147  20316146.314    20316147.536
  -6500473.22048  -5065312.78445  23730401.116    23730406.976
  -7092396.49149  -5526539.45246  22403832.665    22403838.288
 -22220313.06449 -17314532.68247  20866372.535    20866376.233
   -354272.60749   -276056.87946  22016057.673    22016062.572
  -8606416.27748  -6706317.70145  23125973.739    23125980.073
 -10587992.56849  -8250382.69546  22058018.505    22058022.818
 -19344543.20049 -15073670.61446  21897860.872    21897864.159
 02  1  7  3 57 30.0000000  0  8G13G 8G31G 1G 3G22G 2G27
 -25037185.71349 -19509497.01147  20314541.497    20314542.678
  -6590311.70548  -5135316.82245  23713306.403    23713313.714
  -7181598.32849  -5596047.40446  22386858.443    22386863.131
 -22164353.68249 -17270928.05947  20877021.009    20877024.648
   -375345.12249   -292477.10546  22012047.571    22012052.110
  -8500641.38848  -6623895.93145  23146103.078    23146109.701
 -10649880.47349  -8298607.05146  22046242.301    22046246.528
 -19405409.94349 -15121099.29546  21886278.885    21886282.059
 02  1  7  3 58  0.0000000  0  8G13G 8G31G 1G 3G22G 2G27
 -25045093.22649 -19515658.76847  20313036.257    20313037.298
  -6680093.47948  -5205276.72445  23696221.401    23696227.525
  -7270467.49848  -5665296.12246  22369946.149    22369951.528
 -22107944.44349 -17226972.89847  20887755.539    20887759.463
   -395848.97749   -308454.21446  22008146.174    22008151.073
  -8394735.81348  -6541372.28945  23166256.339    23166261.442
 -10711471.07149  -8346599.73946  22034521.714    22034526.182
 -19466140.72649 -15168422.03646  21874721.895    21874725.323
 02  1  7  3 58 30.0000000  0  8G13G 8G31G 1G 3G22G 2G27
 -25052463.06649 -19521401.55547  20311633.854    20311635.126
  -6769808.75648  -5275184.78645  23679149.546    23679155.438
  -7358991.53549  -5734275.92346  22353101.206    22353106.308
 -22051076.85049 -17182660.57547  20898577.399    20898581.120
   -415773.76349   -323980.09946  22004354.412    22004359.871
  -8288692.28148  -6458741.20145  23186435.082    23186441.631
 -10772754.55749  -8394353.12946  22022859.948    22022864.364
 -19526725.47049 -15215630.97946  21863192.154    21863196.223
 02  1  7  3 59  0.0000000  0  8G13G 8G31G 1G 3G22G 2G27
 -25059282.92749 -19526715.78847  20310336.320    20310337.641
  -6859445.61848  -5345031.77645  23662092.695    23662098.076
  -7447156.00649  -5802975.54946  22336324.652    22336329.226
 -21993740.88349 -17137983.29047  20909488.143    20909491.790
   -435107.42949   -339045.37446  22000675.608    22000680.789
  -8182502.24148  -6375995.90345  23206643.695    23206648.993
 -10833719.19649  -8441858.06246  22011258.881    22011263.346
 -19587152.24249 -15262716.82346  21851693.726    21851697.076
 02  1  7  3 59 30.0000000  0  8G13G 8G31G 1G 3G22G 2G27
 -25065567.03449 -19531612.54947  20309140.283    20309141.653
  -6949018.50448  -5414828.90845  23645046.614    23645053.882
  -7534972.28148  -5871403.83946  22319612.415    22319618.515
 -21935952.17449 -17092953.21847  20920484.550    20920488.765
   -453863.49549   -353660.57146  21997106.124    21997111.309
  -8076182.52348  -6293149.58545  23226874.892    23226883.083
 -10894379.24849  -8489125.65646  21999715.293    21999720.004
 -19647435.14649 -15309690.56446  21840222.582    21840225.875
 02  1  7  4  0  0.0000000  0  8G13G 8G31G 1G 3G22G 2G27
 -25071307.20149 -19536085.46247  20308048.337    20308049.702
  -7038519.60648  -5484570.09645  23628015.765    23628021.654
  -7622430.21749  -5939552.91946  22302970.367    22302976.181
 -21877704.47549 -17047565.48847  20931569.278    20931573.019
   -472033.80549   -367819.33146  21993648.640    21993654.227
  -7969728.32048  -6210198.47545  23247133.439    23247139.681
 -10954727.14549  -8536150.01446  21988231.666    21988235.948
 -19707566.46149 -15356546.18546  21828779.952    21828783.580
 02  1  7  4  0 30.0000000  0  8G13G 8G31G 1G 3G22G 2G27
 -25076520.87949 -19540148.12147  20307056.355    20307057.881
  -7127967.04348  -5554269.44245  23610994.279    23611001.921
  -7709545.26549  -6007434.82546  22286393.594    22286398.091
 -21819017.41149 -17001835.39747  20942736.984    20942740.840
   -489635.79149   -381535.23546  21990298.863    21990304.016
  -7863160.52148  -6127158.82645  23267412.187    23267419.094
 -11014781.27749  -8582945.41546  21976803.434    21976807.891
 -19767564.01649 -15403297.60846  21817363.149    21817366.490
 02  1  7  4  1  0.0000000  0  8G13G 8G31G 1G 3G22G 2G27
 -25081214.87449 -19543805.83447  20306162.971    20306164.420
  -7217367.84448  -5623932.49945  23593982.708    23593989.541
  -7796321.76049  -6075052.91346  22269879.517    22269885.622
 -21759899.19849 -16955769.35347  20953986.422    20953990.585
   -506676.20749   -394813.55146  21987055.991    21987061.177
  -7756489.07048  -6044038.44345  23287711.646    23287719.180
 -11074548.77549  -8629517.53746  21965430.711    21965434.940
 -19827434.91949 -15449950.28046  21805969.953    21805973.204
 02  1  7  4  1 30.0000000  0  8G13G 8G31G 1G 3G22G 2G27
 -25085364.67549 -19547039.49747  20305373.306    20305374.858
  -7306697.67748  -5693540.23345  23576983.731    23576990.969
  -7882732.84149  -6142386.26446  22253436.738    22253442.075
 -21700327.43049 -16909349.88447  20965323.513    20965327.423
   -523130.41649   -407635.07746  21983924.899    21983929.641
  -7649692.59448  -5960820.61145  23308034.166    23308042.605
 -11134005.44849  -8675847.43146  21954115.841    21954120.991
 -19887154.96749 -15496485.42546  21794605.634    21794608.960
 02  1  7  4  2  0.0000000  0  8G13G 8G31G 1G 3G22G 2G27
 -25088976.24149 -19549853.75847  20304686.147    20304687.674
  -7395962.57948  -5763097.37945  23559996.336    23560002.946
  -7968781.85149  -6209437.48746  22237062.176    22237067.483
 -21640309.54749 -16862582.79147  20976744.239    20976748.180
   -539004.00849   -420004.17046  21980904.727    21980910.360
  -7542779.75948  -5877512.13045  23328378.762    23328386.455
 -11193157.40049  -8721939.87846  21942860.185    21942864.485
 -19946730.01549 -15542907.58946  21783268.892    21783272.193
 02  1  7  4  2 30.0000000  0  8G13G 8G31G 1G 3G22G 2G27
 -25092065.41549 -19552260.96147  20304098.244    20304099.691
  -7485178.93248  -5832616.67145  23543019.413    23543025.971
  -8054482.38149  -6276217.15946  22220752.929    22220759.273
 -21579863.27149 -16815481.89047  20988246.724    20988250.452
   -554312.96549   -431933.27346  21977991.612    21977996.559
  -7435769.60648  -5794127.81545  23348743.019    23348752.452
 -11252020.96849  -8767807.61246  21931658.273    21931663.177
 -20006175.99749 -15589229.17546  21771956.861    21771960.258
 02  1  7  4  3  0.0000000  0  8G13G 8G31G 1G 3G22G 2G27
 -25094614.63449 -19554247.42047  20303613.539    20303615.124
  -7574328.82948  -5902084.18545  23526055.111    23526061.419
  -8139814.04649  -6342709.40946  22204516.611    22204520.489
 -21518972.68549 -16768034.77247  20999833.799    20999837.855
   -569039.34849   -443408.42646  21975189.568    21975194.350
  -7328647.49448  -5710656.26445  23369127.099    23369134.505
 -11310578.70649  -8813437.03246  21920515.358    21920519.738
 -20065475.17449 -15635436.36846  21760672.631    21760675.967
 02  1  7  4  3 30.0000000  0  8G13G 8G31G 1G 3G22G 2G27
 -25096623.98349 -19555813.19947  20303231.035    20303232.628
  -7663413.01248  -5971500.49745  23509102.801    23509110.033
  -8224775.01749  -6408912.80046  22188347.927    22188353.835
 -21457639.98049 -16720243.14847  21011505.596    21011509.420
   -583183.23449   -454429.66946  21972497.647    21972502.182
  -7221416.77348  -5627100.07145  23389533.609    23389540.407
 -11368831.63249  -8858828.94046  21909429.910    21909434.818
 -20124627.99149 -15681529.51246  21749416.050    21749419.602
 02  1  7  4  4  0.0000000  0  8G13G 8G31G 1G 3G22G 2G27
 -25098096.73849 -19556960.85347  20302950.584    20302952.133
  -7752434.96248  -6040868.30445  23492162.801    23492168.227
  -8309366.36049  -6474828.17146  22172251.162    22172257.062
 -21395870.20349 -16672110.94847  21023259.829    21023263.872
   -596747.86849   -464999.54246  21969916.672    21969921.234
  -7114083.54648  -5543464.03445  23409957.328    23409964.900
 -11426783.22449  -8903986.04246  21898402.480    21898407.089
 -20183637.83549 -15727511.25046  21738186.909    21738190.335
 02  1  7  4  4 30.0000000  0  8G13G 8G31G 1G 3G22G 2G27
 -25099003.25949 -19557667.28447  20302777.936    20302779.478
  -7841365.16948  -6110164.61045  23475238.811    23475245.552
  -8393556.13149  -6540430.62746  22156230.720    22156235.959
 -21333635.65649 -16623616.59247  21035102.424    21035106.611
   -609703.83949   -475095.12846  21967451.429    21967456.169
  -7006621.22048  -5459727.37545  23430407.672    23430416.112
 -11484404.30349  -8948885.60446  21887437.397    21887442.015
 -20242475.08249 -15773358.49546  21726990.789    21726994.437
 02  1  7  4  5  0.0000000  0  8G13G 8G31G 1G 3G22G 2G27
 -25099358.23349 -19557943.93547  20302710.597    20302712.074
  -7930218.28148  -6179400.85045  23458332.406    23458339.956
  -8477356.42149  -6605729.57446  22140283.249    22140289.581
 -21270952.59049 -16574772.74047  21047031.051    21047035.015
   -622065.66849   -484727.74346  21965098.874    21965103.619
  -6899047.19348  -5375903.67345  23450878.209    23450888.634
 -11541709.72049  -8993539.19046  21876532.879    21876537.525
 -20301154.36449 -15819082.64846  21715824.746    21715828.138
 02  1  7  4  5 30.0000000  0  8G13G 8G31G 1G 3G22G 2G27
 -25099178.15449 -19557803.66547  20302745.046    20302746.679
  -8019010.64948  -6248589.74945  23441433.873    23441440.975
  -8560781.11849  -6670735.85446  22124408.666    22124414.311
 -21207839.07749 -16525593.47647  21059040.721    21059044.993
   -633849.69649   -493910.11046  21962856.650    21962861.997
  -6791380.89148  -5292008.08645  23471367.055    23471374.825
 -11598716.03549  -9037959.71346  21865684.702    21865689.516
 -20359692.04149 -15864696.45346  21704684.961    21704688.185
 02  1  7  4  6  0.0000000  0  8G13G 8G31G 1G 3G22G 2G27
 -25098450.19549 -19557236.47647  20302883.566    20302885.148
  -8107729.68448  -6317721.48245  23424552.110    23424558.036
  -8643814.75149  -6735437.41246  22108607.950    22108613.195
 -21144284.02749 -16476070.16147  21071135.270    21071139.325
   -645042.69749   -502631.93946  21960726.373    21960731.490
  -6683612.07648  -5208032.59945  23491874.165    23491883.597
 -11655410.85649  -9082137.51346  21854896.186    21854900.636
 -20418075.18249 -15910189.84246  21693575.090    21693578.609
 02  1  7  4  6 30.0000000  0  8G13G 8G31G 1G 3G22G 2G27
 -25097179.25449 -19556246.18347  20303125.439    20303126.995
  -8196380.66948  -6386800.22145  23407682.150    23407690.341
  -8726460.25749  -6799836.51546  22092880.844    22092886.858
 -21080294.60449 -16426208.37447  21083312.133    21083316.157
   -655649.98449   -510897.36946  21958708.056    21958713.150
  -6575749.02848  -5123983.69545  23512400.630    23512407.692
 -11711799.77849  -9126076.95046  21844165.908    21844170.496
 -20476308.93749 -15955566.82746  21682494.257    21682497.415
 02  1  7  4  7  0.0000000  0  8G13G 8G31G 1G 3G22G 2G27
 -25095361.00249 -19554829.41447  20303471.741    20303473.331
  -8284959.53048  -6455822.71445  23390825.636    23390832.323
  -8808710.85749  -6863927.90046  22077229.032    22077234.873
 -21015868.44549 -16376006.27247  21095571.901    21095575.893
   -665667.41149   -518703.15846  21956801.961    21956806.639
  -6467790.42648  -5039860.32745  23532943.879    23532952.567
 -11767878.82649  -9169774.92446  21833494.143    21833498.956
 -20534389.22249 -16000824.22246  21671441.969    21671445.191
 02  1  7  4  7 30.0000000  0  8G13G 8G31G 1G 3G22G 2G27
 -25092991.59649 -19552983.17447  20303922.609    20303924.216
  -8373461.85048  -6524785.57145  23373985.146    23373992.360
  -8890559.92249  -6927706.40746  22061653.767    22061659.163
 -20951002.99149 -16325461.86447  21107915.711    21107920.216
   -675090.51449   -526045.84346  21955008.697    21955014.146
  -6359734.58248  -4955661.20345  23553506.942    23553515.878
 -11823644.06649  -9213228.37846  21822882.226    21822887.025
 -20592311.53749 -16045958.52946  21660419.163    21660422.483
 02  1  7  4  8  0.0000000  0  8G13G 8G31G 1G 3G22G 2G27
 -25090086.03849 -19550719.15447  20304475.633    20304477.271
  -8461902.87248  -6593700.66945  23357154.886    23357163.325
  -8972020.18649  -6991181.94346  22046151.952    22046157.531
 -20885715.21849 -16274588.37947  21120339.751    21120344.117
   -683934.48349   -532937.25946  21953326.283    21953331.120
  -6251599.46848  -4871400.28045  23574084.693    23574093.133
 -11879110.97149  -9256449.36046  21812327.260    21812332.193
 -20650090.72449 -16090981.30046  21649423.969    21649427.345
 02  1  7  4  8 30.0000000  0  8G13G 8G31G 1G 3G22G 2G27
 -25086635.53849 -19548030.50247  20305132.246    20305133.852
  -8550273.61648  -6662561.02045  23340338.672    23340345.144
  -9053080.19749  -7054345.58846  22030727.016    22030732.510
 -20819997.75549 -16223380.06947  21132845.223    21132849.624
   -692190.49749   -539370.51846  21951754.536    21951759.201
  -6143378.77848  -4787072.70245  23594677.518    23594687.446
 -11934270.72649  -9299431.00246  21801830.795    21801835.409
 -20707717.79149 -16135885.53947  21638458.296    21638461.671
 02  1  7  4  9  0.0000000  0  8G13G 8G31G 1G 3G22G 2G27
 -25082651.69649 -19544926.26147  20305890.509    20305892.034
  -8638585.49548  -6731375.43545  23323532.129    23323540.569
  -9133749.05649  -7117204.44146  22015376.387    22015381.423
 -20753864.12149 -16171847.46947  21145430.341    21145434.410
   -699870.02449   -545354.57546  21950293.662    21950298.336
  -6035086.73748  -4702689.53045  23615286.182    23615293.692
 -11989135.33649  -9342182.66746  21791390.530    21791394.896
 -20765204.16149 -16180680.14746  21627519.096    21627522.382
 02  1  7  4  9 30.0000000  0  8G13G 8G31G 1G 3G22G 2G27
 -25078116.68349 -19541392.53447  20306753.458    20306755.105
  -8726820.60748  -6800130.07745  23306743.168    23306749.797
  -9214006.35249  -7179742.59246  22000103.618    22000109.190
 -20687298.24849 -16119978.06247  21158097.308    21158101.898
   -706955.10949   -550875.42946  21948945.337    21948949.901
  -5926708.37148  -4618239.09245  23635909.996    23635917.697
 -12043687.23449  -9384690.66046  21781009.673    21781014.173
 -20822531.80149 -16225351.06746  21616609.665    21616613.139
 02  1  7  4 10  0.0000000  0  8G13G 8G31G 1G 3G22G 2G27
 -25073029.08949 -19537428.22447  20307721.637    20307723.264
  -8814977.80148  -6868824.02545  23289968.505    23289975.132
  -9293848.56349  -7241957.30046  21984910.702    21984916.590
 -20620300.82649 -16067772.38147  21170846.663    21170850.968
   -713445.02049   -555932.51146  21947710.645    21947715.339
  -5818245.13248  -4533722.51445  23656549.648    23656560.322
 -12097925.45149  -9426954.22446  21770688.394    21770693.209
 -20879699.36349 -16269897.25347  21605731.040    21605734.388
 02  1  7  4 10 30.0000000  0  8G13G 8G31G 1G 3G22G 2G27
 -25067391.82049 -19533035.59647  20308794.556    20308796.074
  -8903059.77748  -6937459.33845  23273204.551    23273214.480
  -9373275.80049  -7303848.64446  21969795.548    21969801.759
 -20552876.42349 -16015233.98747  21183677.279    21183681.564
   -719342.64149   -560528.08046  21946587.911    21946592.973
  -5709702.42148  -4449144.02745  23677204.903    23677212.797
 -12151853.14649  -9468975.82746  21760426.645    21760430.762
 -20936709.46149 -16314320.73647  21594882.638    21594886.181
 02  1  7  4 11  0.0000000  0  8G13G 8G31G 1G 3G22G 2G27
 -25061187.33549 -19528200.98347  20309975.018    20309976.678
  -8991048.69548  -7006022.11745  23256462.875    23256468.932
  -9452267.96749  -7365400.97846  21954764.255    21954769.183
 -20485008.85149 -15962350.26847  21196591.798    21196596.212
   -724630.01249   -564648.11946  21945582.183    21945586.999
  -5601064.94848  -4364491.67545  23697877.392    23697888.065
 -12205452.68949  -9510741.72446  21750226.870    21750231.597
 -20993543.96549 -16358607.39447  21584067.357    21584070.743
 02  1  7  4 11 30.0000000  0  8G13G 8G31G 1G 3G22G 2G27
 -25054425.69949 -19522932.22447  20311261.750    20311263.331
  -9078954.40848  -7074520.09245  23239734.353    23239741.929
  -9530832.68749  -7426620.23146  21939813.567    21939820.006
 -20416710.08849 -15909130.55247  21209589.103    21209593.062
   -729317.12449   -568300.42746  21944689.998    21944694.749
  -5492345.68448  -4279775.58845  23718567.330    23718574.143
 -12258734.57849  -9552260.10046  21740087.699    21740092.172
 -21050212.63649 -16402764.82447  21573283.784    21573287.716
 02  1  7  4 12  0.0000000  0  8G13G 8G31G 1G 3G22G 2G27
 -25047119.52549 -19517239.15347  20312652.052    20312653.621
  -9166789.32348  -7142962.85745  23223019.875    23223025.427
  -9608979.97949  -7487514.21846  21924942.817    21924948.991
 -20347994.52249 -15855586.05647  21222665.160    21222669.756
   -733416.88749   -571495.06646  21943910.107    21943915.171
  -5383559.55648  -4195007.43245  23739267.931    23739278.852
 -12311711.64049  -9593540.94546  21730006.327    21730011.034
 -21106727.78049 -16446802.62847  21562529.305    21562532.957
 02  1  7  4 12 30.0000000  0  8G13G 8G31G 1G 3G22G 2G27
 -25039272.07149 -19511124.30747  20314145.231    20314146.782
  -9254556.42048  -7211352.79545  23206318.799    23206323.793
  -9686710.43049  -7548083.39446  21910151.407    21910156.921
 -20278866.96349 -15801720.52947  21235819.690    21235824.313
   -736932.36049   -574234.40546  21943240.877    21943245.818
  -5274712.18248  -4110191.55545  23759981.456    23759988.783
 -12364387.05849  -9634586.74446  21719982.481    21719987.302
 -21163092.40649 -16490723.14447  21551803.694    21551807.352
 02  1  7  4 13  0.0000000  0  8G13G 8G31G 1G 3G22G 2G27
 -25030869.22549 -19504576.68847  20315744.418    20315746.117
  -9342241.56948  -7279678.87845  23189631.895    23189639.036
  -9764007.38349  -7608314.78746  21895442.535    21895447.441
 -20209315.27349 -15747524.50647  21249055.349    21249059.434
   -739849.70349   -576507.68846  21942685.960    21942690.986
  -5165792.25448  -4025319.07544  23780708.587    23780718.515
 -12416747.30849  -9675386.96046  21710018.971    21710023.497
 -21219292.05249 -16534515.10447  21541108.928    21541112.649
 02  1  7  4 13 30.0000000  0  8G13G 8G31G 1G 3G22G 2G27
 -25021923.28549 -19497605.87747  20317446.917    20317448.501
  -9429856.67448  -7347950.39045  23172959.911    23172966.498
  -9840880.48949  -7668215.90346  21880813.537    21880819.373
 -20139353.15549 -15693008.67647  21262368.366    21262373.001
   -742180.98649   -578324.29446  21942242.018    21942247.212
  -5056814.03948  -3940401.25945  23801446.699    23801457.124
 -12468804.64549  -9715951.14146  21700112.176    21700117.198
 -21275338.35849 -16578187.57447  21530443.666    21530447.445
 02  1  7  4 14  0.0000000  0  8G13G 8G31G 1G 3G22G 2G27
 -25012427.57249 -19490206.67547  20319254.080    20319255.684
  -9517394.67248  -7416161.79945  23156302.376    23156308.909
  -9917320.69449  -7727779.70046  21866267.964    21866272.980
 -20068975.75849 -15638169.25147  21275760.913    21275765.915
   -743919.64549   -579679.11646  21941911.105    21941915.628
  -4947773.66248  -3855434.95944  23822196.205    23822205.885
 -12520552.79049  -9756274.39246  21690265.464    21690270.455
 -21331224.36349 -16621735.14147  21519809.237    21519813.046
 02  1  7  4 14 30.0000000  0  8G13G 8G31G 1G 3G22G 2G27
 -25002384.52349 -19482380.97747  20321165.229    20321166.865
  -9604857.46548  -7484314.61945  23139657.995    23139664.283
  -9993327.45549  -7787005.75246  21851803.642    21851809.882
 -19998187.13049 -15583009.38947  21289231.596    21289236.229
   -745068.09949   -580574.04746  21941692.729    21941697.378
  -4838675.42048  -3770423.60844  23842957.752    23842964.007
 -12571993.82849  -9796358.33546  21680476.851    21680480.973
 -21386951.80449 -16665159.14847  21509204.854    21509208.409
 02  1  7  4 15  0.0000000  0  8G13G 8G31G 1G 3G22G 2G27
 -24991793.75649 -19474128.48747  20323180.617    20323182.291
  -9692244.56148  -7552408.44345  23123029.114    23123035.594
 -10068897.78049  -7845891.72446  21837423.313    21837429.029
 -19926988.57049 -15527530.10046  21302779.784    21302785.012
   -745625.83849   -581008.68346  21941586.790    21941591.369
  -4729521.50648                  23863727.908
 -12623127.76149  -9836202.96846  21670745.385    21670750.537
 -21442519.89749 -16708458.99247  21498630.044    21498633.862
 02  1  7  4 15 30.0000000  0  8G13G 8G31G 1G 3G22G 2G27
 -24980643.45849 -19465440.00247  20325302.504    20325304.181
  -9779543.68848  -7620433.74845  23106416.654    23106423.715
 -10144017.47849  -7904426.56846  21823128.989    21823134.214
 -19855370.05149 -15471723.56946  21316409.362    21316413.683
   -745581.36949   -580974.05846  21941594.996    21941600.776
  -4620302.33248  -3600263.27845  23884512.960    23884522.889
 -12673942.91049  -9875799.19946  21661076.446    21661080.952
 -21497916.40549 -16751625.13147  21488088.401    21488092.059
 02  1  7  4 16  0.0000000  0  8G13G 8G31G 1G 3G22G 2G27
 -24968910.13649 -19456297.21047  20327535.495    20327537.061
  -9866731.26648  -7688372.11145  23089826.263    23089833.248
 -10218660.79949  -7962590.21046  21808924.399    21808929.936
 -19783309.93749 -15415572.93546  21330121.455    21330126.189
   -744911.51849   -580452.13246  21941722.258    21941727.422
  -4510997.08348  -3515090.58744  23905312.524    23905324.190
 -12724416.19549  -9915129.04446  21651471.696    21651476.245
 -21553117.48049 -16794638.98347  21477584.410    21477588.023
 02  1  7  4 16 30.0000000  0  7G13G 8G31G 1G22G 2G27
 -24956622.69949 -19446722.64347  20329873.701    20329875.263
  -9953835.62648  -7756245.62245  23073250.541    23073256.164
 -10292853.75349  -8020402.91546  21794806.467    21794811.324
 -19710838.83549 -15359102.05546  21343912.716    21343917.217
  -4401636.76048  -3429874.96644  23926123.832    23926134.257
 -12774576.33249  -9954214.87446  21641926.205    21641931.046
 -21608151.38349 -16837522.57247  21467111.989    21467115.439
 02  1  7  4 17  0.0000000  0  7G13G 8G31G 1G22G 2G27
 -24943791.17049 -19436724.10947  20332315.398    20332316.975
 -10040865.85548  -7824061.39545  23056688.705    23056695.568
 -10366603.35449  -8077870.15546  21780771.746    21780777.617
 -19637967.86849 -15302319.59646  21357779.319    21357784.204
  -4292233.09348  -3344625.64644  23946942.187    23946950.021
 -12824433.05049  -9993064.27647  21632438.685    21632443.701
 -21663027.20949 -16880282.98747  21456669.447    21456672.951
 02  1  7  4 17 30.0000000  0  7G13G 8G31G 1G22G 2G27
 -24930414.34449 -19426300.66747  20334860.950    20334862.741
 -10127820.98048  -7891818.64145  23040141.597    23040148.756
 -10439906.15349  -8134989.23746  21766822.817    21766828.451
 -19564698.05649 -15245226.34446  21371722.801    21371727.288
  -4182787.66248  -3259343.73044  23967770.446    23967778.885
 -12873985.69949 -10031676.73847  21623009.305    21623014.014
 -21717743.69049 -16922919.23647  21446257.310    21446260.726
 02  1  7  4 18  0.0000000  0  7G13G 8G31G 1G22G 2G27
 -24916465.40149 -19415431.42247  20337515.423    20337517.095
 -10214673.17948  -7959495.68145  23023614.858    23023620.894
 -10512732.40249  -8191736.98346  21752965.193    21752970.052
 -19491003.84149 -15187802.39246  21385745.496    21385750.358
  -4073275.30248                  23988608.516
 -12923207.26149 -10070031.20646  21613642.552    21613647.580
 -21772272.87549 -16965409.54147  21435880.376    21435884.169
 02  1  7  4 18 30.0000000  0  7G13G 8G31G 1G22G 2G27
 -24901964.48649 -19404132.06747  20340274.881    20340276.623
 -10301442.19548  -8027107.90745  23007102.917    23007109.323
 -10585099.65149  -8248127.06846  21739193.170    21739199.279
 -19416907.03849 -15130064.73146  21399846.277    21399851.009
  -3963718.48848  -3088641.01944  24009457.540    24009465.731
 -12972118.09849 -10108143.55046  21604334.713    21604339.828
 -21826634.29449 -17007769.12047  21425535.941    21425539.588
 02  1  7  4 19  0.0000000  0  7G13G 8G31G 1G22G 2G27
 -24886900.22349 -19392393.74347  20343141.592    20343143.380
 -10388116.27648  -8094646.17645  22990608.748    22990617.436
 -10656993.96149  -8304148.61746  21725512.669    21725518.363
 -19342398.07549 -15072005.90946  21414024.541    21414029.828
  -3854107.97848  -3003230.41044  24030315.831    24030327.249
 -13020706.91649 -10146004.96947  21595089.656    21595094.370
 -21880815.96849 -17049988.63147  21415225.419    21415228.962
 02  1  7  4 19 30.0000000  0  7G13G 8G31G 1G22G 2G27
 -24871287.58449 -19380228.11047  20346112.500    20346114.486
 -10474709.79848  -8162121.63845  22974131.314    22974137.752
 -10728427.76349  -8359811.33546  21711919.566    21711924.685
 -19267493.60949 -15013638.91446  21428278.811    21428283.734
  -3744460.82948                  24051180.368
 -13068988.84749 -10183627.25247  21585901.257    21585906.130
 -21934832.23249 -17092079.25347  21404946.742    21404950.365
 02  1  7  4 20  0.0000000  0  7G13G 8G31G 1G22G 2G27
 -24855124.11149 -19367633.25947  20349188.283    20349190.175
 -10561219.22548  -8229531.57745  22957668.867    22957675.182
 -10799395.44749  -8415110.84546  21698414.041    21698419.870
 -19192192.42049 -14954962.78146  21442608.201    21442613.320
  -3634776.16148                  24072053.947
 -13116961.06549 -10221008.20146  21576772.218    21576777.329
 -21988679.33149 -17134038.05647  21394700.066    21394703.463
 02  1  7  4 20 30.0000000  0  7G13G 8G31G 1G22G 2G27
 -24838397.61349 -19354599.68547  20352371.654    20352373.390
 -10647632.18748  -8296866.35845  22941224.714    22941232.145
 -10869882.44149  -8470035.77746  21685001.495    21685006.831
 -19116484.29649 -14895969.55846  21457015.016    21457020.004
  -3525044.29548  -2746817.92644  24092935.193    24092942.564
 -13164611.59649 -10258138.48447  21567705.156    21567709.842
 -22042344.90549 -17175855.41147  21384487.749    21384491.415
 02  1  7  4 21  0.0000000  0  7G13G 8G31G 1G22G 2G27
 -24821135.70949 -19341148.91247  20355656.543    20355658.469
 -10733975.42548  -8364146.80945  22924793.953    22924802.144
 -10939913.54449  -8524605.47846  21671674.949    21671680.641
 -19040398.28049 -14836681.87246  21471493.797    21471498.852
  -3415294.66048  -2661299.00244  24113819.311    24113830.233
 -13211967.92049 -10295039.51847  21558693.591    21558698.173
 -22095855.47149 -17217551.97347  21374304.950    21374308.717
 02  1  7  4 21 30.0000000  0  7G13G 8G31G 1G22G 2G27
 -24803305.00349 -19327254.91947  20359049.323    20359051.198
 -10820214.79748  -8431346.30845  22908383.379    22908389.553
 -11009452.41149  -8578791.60146  21658441.802    21658447.606
 -18963902.38349 -14777074.80546  21486050.865    21486056.186
  -3305495.58448  -2575741.51244  24134714.667    24134724.596
 -13258996.47249 -10331685.14447  21549744.157    21549749.177
 -22149176.61549 -17259100.93347  21364158.181    21364162.147
 02  1  7  4 22  0.0000000  0  7G13G 8G31G 1G22G 2G27
 -24784917.93049 -19312927.39347  20362548.107    20362550.080
 -10906362.28448  -8498474.22245  22891990.613    22891997.599
 -11078509.29049  -8632602.14746  21645301.354    21645306.517
 -18887011.09849 -14717159.64546  21500682.746    21500687.960
  -3195661.56048                  24155614.150
 -13305710.06849 -10368085.34947  21540855.003    21540859.866
 -22202320.27649 -17300511.59447  21354045.247    21354049.168
 02  1  7  4 22 30.0000000  0  7G13G 8G31G 1G22G 2G27
 -24765962.57449 -19298157.04447  20366155.492    20366157.343
 -10992405.23248  -8565520.69245  22875616.871    22875623.602
 -11147069.58449  -8686025.74446  21632254.288    21632260.272
 -18809713.98349 -14656928.25546  21515392.060    21515397.163
  -3085782.76048                  24176519.113
 -13352096.49449 -10404230.61347  21532027.745    21532032.565
 -22255273.60849 -17341773.94447  21343968.768    21343972.512
 02  1  7  4 23  0.0000000  0  6G 8G31G 1G13G 2G27
 -11078376.04948  -8632510.93145  22859257.255    22859264.536
 -11215163.55549  -8739085.96046  21619296.596    21619302.370
 -18732045.61249 -14596407.57646  21530171.631    21530176.956
 -24746472.15349 -19282969.76447  20369864.344    20369866.352
 -13398188.88849 -10440146.76047  21523256.630    21523261.340
 -22308068.87249 -17382913.11947  21333921.952    21333925.768
 02  1  7  4 23 30.0000000  0  6G13G 8G31G 1G 2G27
 -24726408.72749 -19267335.98647  20373682.150    20373684.347
 -11164235.99148  -8699414.78145  22842919.207    22842924.413
 -11282750.43949  -8791751.03746  21606434.896    21606440.760
 -18653969.67949 -14535569.32146  21545029.065    21545034.242
 -13443949.32649 -10475804.24347  21514548.790    21514553.677
 -22360667.24749 -17423898.87047  21323912.795    21323916.695
 02  1  7  4 24  0.0000000  0  7G13G 8G31G 1G28G 2G27
 -24705813.17849 -19251287.56447  20377601.543    20377603.573
 -11250024.54948  -8766263.02145  22826592.981    22826601.669
 -11349868.13049  -8844050.50246  21593663.013    21593668.468
 -18575528.18849 -14474446.21546  21559956.307    21559962.338
         -.24158                  25151677.345
 -13489418.25049 -10511234.57647  21505896.031    21505900.715
 -22413108.19449 -17464761.95247  21313933.578    21313937.286
 02  1  7  4 24 30.0000000  0  8G13G 8G31G 1G28G10G 2G27
 -24684666.92949 -19234810.02547  20381625.624    20381627.675
 -11335723.18548  -8833041.16445  22810285.995    22810292.851
 -11416495.99149  -8895968.27746  21580984.153    21580989.382
 -18496704.67749 -14413025.43346  21574956.091    21574961.222
   -100074.06848                  25132624.388
         -.49958                  24551265.211
 -13534577.52249 -10546423.61947  21497302.656    21497307.347
 -22465372.77249 -17505487.60147  21303987.983    21303991.815
 02  1  7  4 25  0.0000000  0  8G13G 8G31G 1G28G10G 2G27
 -24662963.40149 -19217898.23947  20385755.574    20385757.686
 -11421324.23748  -8899743.27845  22793996.397    22794002.759
 -11482624.61849  -8947497.03646  21568400.343    21568405.484
 -18417494.19649 -14351303.11546  21590028.969    21590034.464
   -200134.83748                  25113583.433
    -38932.46048    -30336.24244  24543858.478    24543865.215
 -13579420.44249 -10581366.15747  21488769.534    21488774.584
 -22517453.28549 -17546069.81947  21294077.561    21294081.285
 02  1  7  4 25 30.0000000  0  8G13G 8G31G 1G28G10G 2G27
 -24640697.58049 -19200548.30447  20389992.473    20389994.498
 -11506821.55548  -8966364.55945  22777726.675    22777734.425
 -11548245.79149  -8998630.37246  21555913.004    21555918.246
 -18337892.79049 -14289276.18446  21605176.921    21605182.584
   -300089.59848                  25094562.544
    -77330.25748    -60256.72544  24536553.425    24536560.337
 -13623941.48749 -10616057.88547  21480297.354    21480302.295
 -22569343.39149 -17586503.66747  21284203.592    21284207.045
 02  1  7  4 26  0.0000000  0  8G13G 8G31G 1G28G10G 2G27
 -24617867.38149 -19182758.59447  20394337.049    20394339.123
 -11592212.05148  -9032902.60945  22761478.247    22761484.430
 -11613354.83649  -9049364.64046  21543523.041    21543528.416
 -18257900.02949 -14226944.29846  21620399.556    21620404.852
   -399935.19648                  25075562.153
   -115190.62548    -89758.47844  24529347.961    24529355.343
 -13668138.71049 -10650497.28347  21471886.979    21471891.666
 -22621039.86649 -17626786.63547  21274366.020    21274369.492
 02  1  7  4 26 30.0000000  0  8G13G 8G31G 1G28G10G 2G27
 -24594481.21449 -19164535.66047  20398787.499    20398789.577
 -11677503.29948  -9099363.28245  22745246.585    22745253.466
 -11677957.43249  -9099704.27346  21531229.481    21531234.426
 -18177525.78849 -14164315.15546  21635693.604    21635699.515
   -499678.62648                  25056582.889
   -152520.31448   -118846.66544  24522242.323    24522253.493
 -13712020.14749 -10684690.61647  21463536.607    21463541.471
 -22672550.08149 -17666924.46547  21264563.654    21264567.022
 02  1  7  4 27  0.0000000  0  8G13G 8G31G 1G28G10G 2G27
 -24570526.03149 -19145869.33747  20403346.046    20403348.277
 -11762681.47548  -9165735.90145  22729037.865    22729044.662
 -11742037.62249  -9149636.83446  21519035.765    21519040.876
 -18096758.55049 -14101379.78746  21651063.758    21651069.177
   -599305.57548                  25037623.640
   -189305.15548                  24515242.941
 -13755572.65149 -10718627.63947  21455248.913    21455253.593
 -22723860.07049 -17706906.27247  21254799.690    21254803.670
 02  1  7  4 27 30.0000000  0  8G13G 8G31G 1G28G10G 2G27
 -24546007.08049 -19126763.71347  20408012.131    20408014.212
 -11847750.48848  -9232023.42146  22712850.108    22712856.445
 -11805597.78049  -9199164.17646  21506940.181    21506945.292
 -18015604.96149 -14038143.35946  21666506.645    21666512.354
   -698820.05448                  25018686.896
   -225549.21348   -175752.51744  24508347.559    24508357.488
 -13798801.18949 -10752312.22647  21447022.729    21447027.388
 -22774973.83449 -17746735.17647  21245073.074    21245076.837
 02  1  7  4 28  0.0000000  0  8G13G 8G31G 1G28G10G 2G27
 -24520927.43949 -19107221.18847  20412784.610    20412786.821
 -11932712.37748  -9298227.47145  22696682.080    22696689.827
 -11868638.44449  -9248286.71546  21494944.173    21494949.229
 -17934069.55349 -13974609.41546  21682022.647    21682028.638
   -798223.46848                  24999770.769
   -261254.27348   -203574.75544  24501553.013    24501559.000
 -13841708.79849 -10785746.73447  21438857.598    21438862.362
 -22825893.15949 -17786412.56647  21235383.127    21235387.124
 02  1  7  4 28 30.0000000  0  8G13G 8G31G 1G28G10G 2G27
 -24495309.60949 -19087259.29547  20417659.336    20417661.468
 -12017589.10049  -9364365.15845  22680531.811    22680536.090
 -11931179.65849  -9297020.07246  21483042.708    21483047.993
 -17852176.77149 -13910797.00446  21697606.218    21697612.079
   -897537.50248                  24980871.583
   -296442.08248   -230993.95244  24494856.501    24494862.507
 -13884317.94449 -10818948.67347  21430749.467    21430754.086
 -22876639.63849 -17825955.27747  21225726.468    21225730.337
 02  1  7  4 29  0.0000000  0  8G13G 8G31G 1G28G10G 2G27
 -24469152.14549 -19066876.91047  20422637.054    20422639.227
 -12102377.70848  -9430434.20945  22664396.123    22664403.467
 -11993216.84249  -9345360.68646  21471237.253    21471242.565
 -17769926.28849 -13846705.85646  21713258.129    21713264.285
   -996758.98848                  24961990.745
   -331109.83048                  24488258.965
 -13926626.82949 -10851916.64547  21422698.446    21422703.518
 -22927210.51249 -17865361.14847  21216103.202    21216107.104
 02  1  7  4 29 30.0000000  0  8G13G 8G31G 1G28G10G 2G27
 -24442448.15449 -19046068.65547  20427718.722    20427720.896
 -12187070.28948  -9496428.39646  22648279.682    22648286.512
 -12054740.12449  -9393300.85946  21459530.120    21459535.337
 -17687312.32049 -13782331.47846  21728978.959    21728985.203
  -1095879.08248                  24943128.628
   -365248.60048   -284609.66744  24481763.093    24481770.833
 -13968627.98749 -10884644.82647  21414705.969    21414711.178
 -22977597.21749 -17904623.51547  21206514.564    21206518.499
 02  1  7  4 30  0.0000000  0  8G13G 8G31G 1G28G10G 2G27
 -24415182.67849 -19024822.88547  20432906.989    20432909.402
 -12271650.85149  -9562335.33545  22632185.356    22632191.288
 -12115732.20449  -9440827.10746  21447923.741    21447928.640
 -17604321.84549 -13717663.71846  21744771.562    21744777.685
  -1194882.10048                  24924288.605
   -398842.81548                  24475371.199
 -14010306.78649 -10917121.81847  21406774.604    21406779.389
 -23027784.06749 -17943730.15147  21196964.526    21196968.287
 02  1  7  4 30 30.0000000  0  8G13G 8G31G 1G28G10G 2G27
 -24387353.55549 -19003137.91147  20438202.814    20438205.032
 -12356115.88048  -9628152.21545  22616110.271    22616118.025
 -12176187.66349  -9487935.21346  21436419.164    21436424.452
 -17520953.93549 -13652701.85546  21760636.136    21760642.654
  -1293764.15048                  24905472.663
   -431888.93248                  24469082.759
 -14051660.49349 -10949345.49547  21398905.219    21398910.534
 -23077767.36549 -17982678.17347  21187452.830    21187456.949
 02  1  7  4 31  0.0000000  0  8G13G 8G31G 1G28G10G 2G27
 -24358961.78949 -18981014.50847  20443605.910    20443608.157
 -12440465.20848  -9693878.94845  22600060.683    22600066.256
 -12236104.70849  -9534623.78046  21425017.250    21425022.395
 -17437211.01949 -13587447.78946  21776571.910    21776578.361
  -1392524.49748                  24886679.235
   -464386.47248                  24462898.146
 -14092689.79049 -10981316.37847  21391097.654    21391102.662
 -23127546.57349 -18021467.16947  21177980.123    21177984.287
 02  1  7  4 31 30.0000000  0  8G13G 8G31G 1G28G10G 2G27
 -24330023.40949 -18958465.17747  20449112.803    20449114.993
 -12524713.53548  -9759526.98045  22584028.155    22584036.075
 -12295496.83549  -9580903.32346  21413715.504    21413720.526
 -17353110.61949 -13521915.15146  21792576.191    21792582.277
  -1491178.02348                  24867905.716
   -496350.52748                  24456814.285
 -14133410.56249 -11013046.85347  21383348.522    21383353.453
 -23177136.61449 -18060108.76447  21168543.825    21168548.089
 02  1  7  4 32  0.0000000  0  8G13G 8G31G 1G28G10G 2G27
 -24300530.74749 -18935483.93747  20454724.834    20454727.273
 -12608852.38448  -9825089.70045  22568016.950    22568023.556
 -12354353.53949  -9626765.66146  21402515.117    21402520.664
 -17268646.34649 -13456098.98246  21808649.408    21808655.629
  -1589715.31648                  24849155.679
   -527772.22548                  24450835.915
 -14173814.83549 -11044530.70347  21375659.804    21375664.725
 -23226528.44849 -18098595.91547  21159144.962    21159148.708
 02  1  7  4 32 30.0000000  0  8G13G 8G31G 1G28G10G 2G27
 -24270484.71849 -18912071.50647  20460442.365    20460444.868
 -12692881.16949  -9890566.66546  22552028.348    22552033.159
 -12412673.00649  -9672209.38046  21391417.216    21391422.453
 -17183820.76249 -13390001.27446  21824791.207    21824797.023
  -1688135.99648                  24830426.682
   -558651.13148                  24444961.714
 -14213903.31049 -11075768.47747  21368031.394    21368036.115
 -23275721.66149 -18136928.30047  21149783.794    21149787.626
 02  1  7  4 33  0.0000000  0  8G13G 8G31G 1G28G10G 2G27
 -24239870.42649 -18888216.27147  20466268.403    20466270.843
 -12776783.63848  -9955945.19545  22536059.745    22536067.651
 -12470437.29649  -9717220.49346  21380425.215    21380430.501
 -17098620.13349 -13323611.31946  21841004.812    21841011.010
  -1786423.28548                  24811722.885
   -588970.85548   -458939.47644  24439191.840    24439198.030
 -14253660.52949 -11106748.12947  21360465.943    21360470.910
 -23324699.67349 -18175092.99547  21140463.748    21140467.325
 02  1  7  4 33 30.0000000  0  8G13G 8G31G 1G28G10G 2G27
 -24208722.26149 -18863945.03147  20472195.873    20472198.373
 -12860592.48049 -10021250.75745  22520113.102    22520118.464
 -12527677.74049  -9761823.42646  21369532.852    21369538.011
 -17013079.55349 -13256956.47746  21857281.994    21857288.180
  -1884609.63548                  24793038.403
   -618764.37348                  24433520.502
 -14293119.97549 -11137495.74847  21352957.326    21352962.164
 -23373494.90049 -18213115.25947  21131178.211    21131182.146
 02  1  7  4 34  0.0000000  0  8G13G 8G31G 1G28G10G 2G27
 -24177032.73749 -18839251.95747  20478226.144    20478228.718
 -12944299.67949 -10086477.14045  22504184.402    22504190.108
 -12584385.01949  -9806010.90846  21358741.457    21358746.430
 -16927194.04349 -13190032.85746  21873626.058    21873632.461
  -1982687.08648                  24774376.075
   -648024.09048                  24427950.960
 -14332274.80849 -11168006.00747  21345506.149    21345511.076
 -23422099.36149 -18250988.87747  21121929.118    21121933.045
 02  1  7  4 34 30.0000000  0  8G13G 8G31G 1G28G10G 2G27
 -24144794.03349 -18814130.94947  20484360.764    20484363.334
 -13027895.76248 -10151616.91745  22488274.892    22488282.180
 -12640548.05849  -9849774.31046  21348053.898    21348059.253
 -16840956.70749 -13122835.08546  21890036.225    21890042.229
  -2080645.74148                  24755734.433
   -676740.07348   -527331.34644  24422486.797    24422493.560
 -14371116.56849 -11198272.31047  21338114.570    21338119.403
 -23470503.33149 -18288706.27347  21112718.233    21112722.033
 02  1  7  4 35  0.0000000  0  8G13G 8G31G 1G28G10G 2G27
 -24111999.96449 -18788577.18647  20490601.095    20490603.729
 -13111372.81249 -10216663.96045  22472391.395    22472396.814
 -12696157.76249  -9893106.54546  21337472.160    21337477.302
 -16754362.62349 -13055359.32946  21906514.763    21906521.479
  -2178477.64848                  24737118.442
   -704905.12748   -549278.19844  24417129.449    24417137.302
 -14409638.44649 -11228289.35847  21330784.311    21330789.409
 -23518698.98649 -18326261.34847  21103546.751    21103550.773
