     2.10           OBSERVATION DATA    G (GPS)             RINEX VERSION / TYPE
teqc  2004Apr5                          20041208 15:58:07UTCPGM / RUN BY / DATE
OBSERVATION MODE: Permanent                                 COMMENT
CHUM Chumysh (CHUM)                                         MARKER NAME
25601M001                                                   MARKER NUMBER
T136                ROGUE SNR-8000       3.20               REC # / TYPE / VERS
113                 AOAD/M_T        NONE                    ANT # / TYPE
        0.0900        0.0000        0.0000                  ANTENNA: DELTA H/E/N
  1228950.8684  4508079.8913  4327868.4935                  APPROX POSITION XYZ
  74.75109757  42.99850109  716.3263  LonLatAlt  S/W        COMMENT
Linux 2.0.36|Pentium II|gcc -static|Linux|486/DX+           COMMENT
BIT 2 OF LLI FLAGS DATA COLLECTED UNDER A/S CONDITION       COMMENT
Konovalov           IVTAN                                   OBSERVER / AGENCY
     1     1                                                WAVELENGTH FACT L1/2
     5    L1    L2    C1    P2    P1                        # / TYPES OF OBSERV
    30.0000                                                 INTERVAL
    P1 =    P1  TurboRogue; =    Y1  Benchmark              COMMENT
    L1 = L1(P1) TurboRogue; = L1(Y1) Benchmark              COMMENT
    P2 =    P2  TurboRogue; =    Y2  Benchmark              COMMENT
    L2 = L2(P2) TurboRogue; = L2(Y2) Benchmark              COMMENT
 SNR is mapped to RINEX snr flag value [1,4-9]              COMMENT
    SNR:  >=316 >=100 >=31.6 >=10 >=3.2    >0 bad=0         COMMENT
L1 & L2:      9     8     7     6     5     4     1         COMMENT
  2002     1     3     0     0    0.0000000     GPS         TIME OF FIRST OBS
  2002     1     3    23    59   30.0000000     GPS         TIME OF LAST OBS
                                                            END OF HEADER
 02  1  3  0  0  0.0000000  0  8G 1G11G22G14G25G20G21G29
  -4433358.74648  -3454564.95045  24241076.506    24241078.330
 -13839812.37349 -10784273.41445  22733887.856    22733888.216
  -2731527.96548  -2128464.43645  23790502.857    23790504.290
  -5371884.83449  -4185885.43146  22555383.620    22555384.603
 -24234017.79749 -18883647.29147  20464566.072    20464566.337
 -17484509.52749 -13624293.23746  22037922.084    22037923.514
  18672400.73548                  24418409.360
 -14064858.83249 -10959629.70547  21107936.888    21107937.869
 02  1  3  0  0 30.0000000  0  8G 1G11G22G14G25G20G21G29
  -4515551.59848  -3518611.33245  24225434.309    24225439.655
 -13783808.82749 -10740634.33745  22744544.279    22744544.889
  -2845128.91748  -2216984.68644  23768884.715    23768886.822
  -5300087.73249  -4129939.61346  22569046.023    22569046.371
 -24226873.37149 -18878080.16447  20465925.544    20465925.805
 -17565172.39949 -13687147.40046  22022572.773    22022573.701
  18780643.55948                  24439007.176
 -14021668.13349 -10925974.59647  21116155.740    21116156.690
 02  1  3  0  1  0.0000000  0  8G 1G11G22G14G25G20G21G29
  -4597671.58548  -3582600.88244  24209807.260    24209810.521
 -13727384.42749 -10696667.35745  22755282.219    22755283.134
  -2958671.25448  -2305459.28844  23747278.640    23747279.634
  -5228137.70649  -4073874.62446  22582737.389    22582737.704
 -24219266.55349 -18872152.74847  20467372.900    20467373.159
 -17645518.14849 -13749754.45346  22007283.555    22007284.617
  18889062.80048                  24459637.895
 -13978249.48949 -10892141.87247  21124418.319    21124419.101
 02  1  3  0  1 30.0000000  0  8G 1G11G22G14G25G20G21G29
  -4679725.87048  -3646539.34545  24194193.717    24194194.827
 -13670549.08349 -10652380.14245  22766097.394    22766097.762
  -3072159.29948  -2393891.58344  23725682.654    23725684.653
  -5156042.65349  -4017696.63346  22596456.833    22596457.376
 -24211205.71949 -18865871.56047  20468906.864    20468907.157
 -17725551.50849 -13812118.07846  21992053.438    21992053.984
  18997649.23148                  24480301.921
 -13934610.34549 -10858137.33247  21132722.951    21132723.587
 02  1  3  0  2  0.0000000  0  8G 1G11G22G14G25G20G21G29
  -4761721.62048  -3710432.17845  24178589.968    24178593.771
 -13613312.78449 -10607780.50545  22776988.507    22776989.298
  -3185597.21948  -2482284.78844  23704097.044    23704097.435
  -5083810.65049  -3961411.93446  22610202.231    22610202.674
 -24202699.45249 -18859243.28947  20470525.530    20470525.843
 -17805277.82049 -13874242.46446  21976882.145    21976883.241
  19106393.59548                  24500995.027
 -13890758.52649 -10823967.07147  21141067.311    21141068.222
 02  1  3  0  2 30.0000000  0  8G 1G11G22G14G25G20G21G29
  -4843637.60948  -3774262.84045  24163002.279    24163005.310
 -13555656.90949 -10562853.94945  22787960.564    22787961.968
  -3298961.25348  -2570620.47845  23682523.231    23682525.200
  -5011421.21349  -3905004.55146  22623977.311    22623977.623
 -24193727.84949 -18852252.42847  20472232.714    20472233.042
 -17884673.88349 -13936109.53346  21961773.378    21961774.564
  19215314.32648                  24521722.187
 -13846673.28249 -10789614.92147  21149456.239    21149457.126
 02  1  3  0  3  0.0000000  0  8G 1G11G22G14G25G20G21G29
  -4925482.28048  -3838037.96845  24147427.750    24147431.848
 -13497592.94449 -10517609.41945  22799010.179    22799010.309
  -3412257.03348  -2658902.96545  23660964.223    23660967.432
  -4938883.50449  -3848481.61546  22637780.757    22637780.906
 -24184300.74949 -18844906.65447  20474026.789    20474027.022
 -17963745.73749 -13997723.96046  21946727.050    21946727.585
  19324401.22148                  24542480.685
 -13802363.66049 -10755087.93147  21157888.385    21157888.966
 02  1  3  0  3 30.0000000  0  8G 1G11G22G14G25G20G21G29
  -5007267.29548  -3901766.59145  24131864.701    24131867.849
 -13439135.08249 -10472057.94945  22810134.472    22810135.130
  -3525493.41248  -2747139.20745  23639416.099    23639419.147
  -4866209.94449  -3791852.82846  22651610.415    22651610.985
 -24174431.14349 -18837216.07347  20475904.937    20475905.270
 -18042503.07949 -14059093.31546  21931738.993    21931739.867
  19433640.75248                  24563268.348
 -13757841.70349 -10720395.48147  21166360.565    21166361.153
 02  1  3  0  4  0.0000000  0  8G 1G11G22G14G25G20G21G29
  -5089001.25048  -3965455.38445  24116309.982    24116315.132
 -13380295.03649 -10426208.64945  22821330.793    22821331.124
  -3638676.17848  -2835333.61545  23617878.547    23617880.825
  -4793410.08349  -3735125.61746  22665462.951    22665463.973
 -24164128.91249 -18829188.38347  20477865.320    20477865.649
 -18120952.41249 -14120222.66546  21916811.634    21916812.345
  19543021.63548                  24584082.620
 -13713116.55049 -10685544.69447  21174871.217    21174871.949
 02  1  3  0  4 30.0000000  0  8G 1G11G22G14G25G20G21G29
  -5170685.38048  -4029105.36945  24100767.490    24100769.775
 -13321076.27049 -10380064.24745  22832600.141    22832600.528
  -3751803.45448  -2923484.81144  23596351.189    23596353.722
  -4720485.61849  -3678301.31145  22679340.210    22679340.568
 -24153396.19749 -18820825.25847  20479907.610    20479908.044
 -18199092.33749 -14181110.88146  21901941.298    21901942.745
  19652540.85648                  24604923.049
 -13668189.86549 -10650536.87447  21183420.419    21183421.353
 02  1  3  0  5  0.0000000  0  8G 1G11G22G14G25G20G21G29
  -5252307.54248  -4092707.08945  24085234.501    24085240.656
 -13261469.52449 -10333617.46645  22843943.536    22843944.021
  -3864860.21348  -3011581.00144  23574837.039    23574839.046
  -4647425.17549  -3621371.04545  22693243.398    22693243.697
 -24142222.23849 -18812118.30247  20482033.935    20482034.322
 -18276908.87149 -14241747.10846  21887133.328    21887134.745
  19762208.31248                  24625791.317
 -13623049.99549 -10615362.92547  21192010.157    21192011.382
 02  1  3  0  5 30.0000000  0  8G 1G11G22G14G25G20G21G29
  -5333874.42048  -4156265.65345  24069712.478    24069716.691
 -13201484.80749 -10286876.19045  22855357.106    22855357.526
  -3977850.70448  -3099625.56244  23553335.317    23553336.571
  -4574236.29949  -3564340.69646  22707170.723    22707171.478
 -24130615.30949 -18803073.96047  20484242.998    20484243.431
 -18354406.71849 -14302135.00846  21872386.537    21872387.153
  19872015.09648                  24646686.927
 -13577704.26349 -10580028.56347  21200639.340    21200640.011
 02  1  3  0  6  0.0000000  0  8G 1G11G22G14G25G20G21G29
  -5415383.18648  -4219778.96745  24054202.480    24054204.237
 -13141121.77649 -10239840.09845  22866844.357    22866845.975
  -4090768.88448  -3187613.74444  23531848.587    23531850.351
  -4500916.58349  -3507208.38245  22721122.914    22721123.296
 -24118574.14549 -18793691.26247  20486534.432    20486534.826
 -18431580.85049 -14362270.66646  21857700.318    21857701.586
  19981961.76948  15570354.80844  24667609.674    24667612.780
 -13532150.27849 -10544531.92847  21209307.825    21209308.687
 02  1  3  0  6 30.0000000  0  8G 1G11G22G14G25G20G21G29
  -5496829.86048  -4283243.85844  24038702.325    24038707.734
 -13080379.65549 -10192508.62745  22878404.194    22878405.827
  -4203608.24548  -3275540.52645  23510375.623    23510377.161
  -4427463.18449  -3449971.90845  22735100.481    22735101.147
 -24106095.80949 -18783967.91047  20488908.799    20488909.237
 -18508425.09149 -14422149.26646  21843077.620    21843078.390
  20092050.22448                  24688559.286
 -13486384.62249 -10508870.35547  21218016.791    21218017.456
 02  1  3  0  7  0.0000000  0  8G 1G11G22G14G25G20G21G29
  -5578209.68948  -4346656.64345  24023218.703    24023221.799
 -13019256.25248 -10144880.06845  22890034.177    22890033.791
  -4316360.93348  -3363399.76844  23488919.019    23488921.061
  -4353871.65649  -3392627.79545  22749104.902    22749104.978
 -24093177.22849 -18773901.50947  20491366.893    20491367.445
 -18584932.47249 -14481765.38946  21828518.390    21828519.041
  20202283.00448                  24709534.920
 -13440402.85049 -10473040.37847  21226766.836    21226767.558
 02  1  3  0  7 30.0000000  0  8G 1G11G22G14G25G20G21G29
  -5659507.47248  -4410005.55545  24007746.271    24007749.562
 -12957739.12048 -10096944.65945  22901740.996    22901741.241
  -4429008.90248  -3451177.39544  23467482.702    23467484.628
  -4280127.69549  -3335164.90845  22763137.456    22763137.639
 -24079804.45649 -18763481.19847  20493911.658    20493912.217
 -18661085.58749 -14541105.43746  21814027.314    21814027.902
  20312673.71248                  24730542.719
 -13394190.15049 -10437030.46247  21235561.062    21235561.602
 02  1  3  0  8  0.0000000  0  7G 1G11G22G14G25G20G29
  -5740750.52248  -4473311.78145  23992286.732    23992289.958
 -12895858.64849 -10048726.11845  22913517.117    22913516.930
  -4541576.65948  -3538892.52244  23446062.008    23446064.578
  -4206259.34349  -3277605.10045  22777194.314    22777194.542
 -24066006.13549 -18752729.28847  20496537.632    20496538.136
 -18736909.87449 -14600189.26146  21799598.466    21799599.359
 -13347774.66149 -10400862.52047  21244393.449    21244394.090
 02  1  3  0  8 30.0000000  0  7G 1G11G22G14G25G20G29
  -5821916.62248  -4536557.99745  23976840.801    23976843.007
 -12833595.70148 -10000209.55345  22925364.203    22925366.477
  -4654039.20848  -3626525.64044  23424660.741    23424662.770
  -4132245.35149  -3219931.81845  22791278.150    22791278.714
 -24051761.61549 -18741629.68447  20499248.246    20499248.922
 -18812380.92349 -14658997.82446  21785236.372    21785236.952
 -13301134.60649 -10364519.59547  21253268.699    21253269.647
 02  1  3  0  9  0.0000000  0  8G 1G11G22G14G25G20G30G29
  -5903038.58148  -4599769.78345  23961404.505    23961406.301
 -12770985.73049  -9951422.57745  22937279.795    22937279.521
  -4766426.39148  -3714100.08344  23403274.942    23403276.539
  -4058119.16249  -3162171.08645  22805384.698    22805384.293
 -24037104.83149 -18730208.82847  20502037.401    20502038.005
 -18887529.22749 -14717554.88446  21770936.790    21770937.200
        -1.22058         -.89555  23584883.377    23584884.242
 -13254303.06849 -10328027.46447  21262180.693    21262181.306
 02  1  3  0  9 30.0000000  0  8G 1G11G22G14G25G20G30G29
  -5984107.29348  -4662940.17445  23945977.956    23945980.828
 -12708022.69248  -9902360.47645  22949260.880    22949261.540
  -4878726.03648  -3801606.30144  23381904.408    23381907.377
  -3983872.02449  -3104316.15045  22819512.905    22819513.371
 -24022028.25749 -18718460.85347  20504906.383    20504906.984
 -18962343.62749 -14775851.76646  21756699.683    21756700.392
     50122.59748     39056.65345  23594422.445    23594423.473
 -13207271.45049 -10291379.42747  21271130.308    21271131.071
 02  1  3  0 10  0.0000000  0  8G 1G11G22G14G25G20G30G29
  -6065105.68348  -4726055.76745  23930563.280    23930565.869
 -12644692.29648  -9853012.14645  22961311.018    22961311.985
  -4990918.41648  -3889028.94544  23360554.966    23360558.494
  -3909487.90749  -3046354.43245  22833667.195    22833667.861
 -24006516.37149 -18706373.66847  20507857.990    20507858.683
 -19036804.97849 -14833873.54746  21742529.351    21742530.795
    100781.48648     78531.15845  23604062.474    23604062.945
 -13160023.41749 -10254562.75247  21280121.058    21280121.775
 02  1  3  0 10 30.0000000  0  8G 1G11G22G14G25G20G30G29
  -6146028.78748  -4789112.74145  23915165.415    23915168.932
 -12580992.63849  -9803376.04845  22973435.301    22973435.644
  -5102995.65548  -3976361.88245  23339227.458    23339227.064
  -3834962.59649  -2988282.71645  22847850.022    22847849.927
 -23990565.79549 -18693944.64547  20510892.935    20510893.700
 -19110906.04249 -14891614.58046  21728429.485    21728429.799
    151978.50448    118424.96245  23613803.954    23613806.311
 -13112554.18749 -10217573.72147  21289154.395    21289155.001
 02  1  3  0 11  0.0000000  0  8G 1G11G22G14G25G20G30G29
  -6226883.05448  -4852116.01745  23899777.681    23899782.426
 -12516933.32748  -9753459.68245  22985623.192    22985625.958
  -5214961.34848  -4063607.92345  23317921.443    23317926.044
  -3760303.30649  -2930106.59645  22862056.639    22862056.100
 -23974184.58849 -18681180.07247  20514010.342    20514011.137
 -19184651.52849 -14949078.54946  21714395.443    21714396.219
    203705.14548    158731.45345  23623647.625    23623647.162
 -13064871.10749 -10180418.05747  21298227.903    21298228.836
 02  1  3  0 11 30.0000000  0  8G 1G11G22G14G25G20G30G29
  -6307679.82748  -4915074.44745  23884403.454    23884406.113
 -12452528.48648  -9703274.09845  22997879.231    22997879.849
  -5326824.05448  -4150773.65545  23296634.730    23296636.663
  -3685522.00749  -2871835.41245  22876286.718    22876287.295
 -23957385.17749 -18668089.61347  20517207.452    20517208.141
 -19258050.48049 -15006272.47146  21700427.750    21700429.115
    255948.21748    199440.38745  23633588.818    23633589.116
 -13016985.81649 -10143104.82547  21307340.258    21307341.099
 02  1  3  0 12  0.0000000  0  8G 1G11G22G14G25G20G30G29
  -6388398.54948  -4977972.06645  23869043.554    23869045.418
 -12387760.94548  -9652805.85945  23010205.056    23010205.651
  -5438560.31448  -4237840.86745  23275371.506    23275373.434
  -3610599.04849  -2813453.84645  22890544.660    22890544.228
 -23940148.92849 -18654658.75047  20520487.352    20520487.978
 -19331080.26049 -15063178.71546  21686531.267    21686531.777
    308726.01148    240565.97145  23643632.796    23643634.312
 -12968878.56749 -10105618.63847  21316494.738    21316495.463
 02  1  3  0 12 30.0000000  0  8G 1G11G22G14G25G20G30G29
  -6469050.08448  -5040817.32745  23853695.253    23853698.924
 -12322644.18848  -9602065.53545  23022594.650    23022596.555
  -5550178.16648  -4324815.82344  23254131.301    23254134.128
  -3535545.99249  -2754970.91045  22904825.973    22904825.853
 -23922487.92349 -18640896.90947  20523848.096    20523848.693
 -19403749.77749 -15119804.25446  21672702.245    21672703.230
    362025.74648    282098.26345  23653774.808    23653778.296
 -12920560.51049 -10067968.19747  21325689.478    21325690.218
 02  1  3  0 13  0.0000000  0  8G 1G11G22G14G25G20G30G29
  -6549638.81148  -5103613.68245  23838360.235    23838363.302
 -12257185.67148  -9551058.85545  23035052.634    23035053.371
  -5661678.95348  -4411699.55645  23232913.496    23232916.601
  -3460367.60849  -2696390.31245  22919132.228    22919131.940
 -23904408.14749 -18626808.75047  20527288.678    20527289.430
 -19476060.99849 -15176150.58946  21658941.642    21658942.565
    415841.35248    324032.48645  23664016.165    23664018.554
 -12872036.27249 -10030157.08547  21334923.222    21334923.884
 02  1  3  0 13 30.0000000  0  8G 1G11G22G14G25G20G30G29
  -6630165.41548  -5166361.61545  23823035.615    23823038.004
 -12191389.10048  -9499788.78445  23047572.432    23047573.171
  -5773060.26848  -4498490.18045  23211718.851    23211720.931
  -3385065.55749  -2637713.34145  22933462.207    22933461.587
 -23885911.98149 -18612396.12847  20530808.184    20530808.883
 -19548012.66349 -15232216.75646  21645250.107    21645250.885
    470169.73148    366366.30845  23674355.135    23674355.676
 -12823307.12849  -9992186.30047  21344195.797    21344196.560
 02  1  3  0 14  0.0000000  0  8G 1G11G22G14G25G20G30G29
  -6710612.37848  -5229047.41245  23807727.523    23807731.475
 -12125240.17348  -9448244.17845  23060160.295    23060161.407
  -5884302.09548  -4585172.12645  23190549.632    23190553.887
  -3309623.39549  -2578927.20645  22947817.515    22947818.096
 -23866983.60849 -18597646.72047  20534410.069    20534410.777
 -19619585.04149 -15287987.37246  21631630.098    21631630.671
    525026.56048    409111.89244  23684792.744    23684795.412
 -12774356.40649  -9954042.86747  21353511.055    21353512.090
 02  1  3  0 14 30.0000000  0  8G 1G11G22G14G25G20G30G29
  -6790989.80548  -5291679.01745  23792432.576    23792435.706
 -12058752.17448  -9396435.35545  23072812.774    23072812.888
  -5995411.57848  -4671750.95245  23169406.882    23169408.505
  -3234051.71049  -2520040.13145  22962199.115    22962199.293
 -23847634.47649 -18582569.44547  20538092.056    20538092.873
 -19690786.53949 -15343468.99646  21618080.813    21618081.493
    580399.42248    452259.59244  23695330.485    23695330.894
 -12725194.65349  -9915734.99747  21362866.302    21362867.030
 02  1  3  0 15  0.0000000  0  8G 1G11G22G14G25G20G30G29
  -6871309.05948  -5354265.34145  23777147.972    23777150.819
 -11991938.85948  -9344373.02545  23085526.451    23085525.597
  -6106396.87048  -4758232.99145  23148286.097    23148289.314
  -3158362.32749  -2461061.34545  22976602.296    22976601.866
 -23827877.68649 -18567174.51747  20541851.771    20541852.462
 -19761626.13549 -15398668.63146  21604600.371    21604601.105
    636275.16548    495799.17245  23705963.316    23705963.107
 -12675833.40849  -9877271.67546  21372259.338    21372260.081
 02  1  3  0 15 30.0000000  0  8G 1G11G22G14G25G20G30G29
  -6951576.36748  -5416811.23445  23761873.328    23761875.962
 -11924809.79648  -9292064.59345  23098301.843    23098303.634
  -6217261.41848  -4844620.94845  23127190.347    23127192.325
  -3082562.21949  -2401996.27845  22991026.177    22991027.391
 -23807720.82049 -18551467.84147  20545687.442    20545688.134
 -19832107.99949 -15453589.52246  21591188.503    21591189.117
    692645.14848    539723.87644  23716689.930    23716690.433
 -12626279.50449  -9838658.23146  21381689.200    21381689.846
 02  1  3  0 16  0.0000000  0  8G 1G11G22G14G25G20G30G29
  -7031769.85148  -5479299.63345  23746612.527    23746617.458
 -11857346.30148  -9239495.57245  23111138.707    23111141.370
  -6327980.80748  -4930895.80545  23106120.654    23106121.164
  -3006630.62149  -2342828.75545  23005475.660    23005475.532
 -23787144.21749 -18535434.09647  20549603.278    20549603.880
 -19902208.44449 -15508213.20246  21577848.305    21577848.947
    749529.11648    584049.03745  23727514.624    23727516.313
 -12576511.87349  -9799878.24646  21391159.521    21391160.304
 02  1  3  0 16 30.0000000  0  8G 1G11G22G14G25G20G30G29
  -7111901.33448  -5541739.66045  23731364.762    23731367.675
 -11789563.49448  -9186677.73644  23124037.210    23124037.522
  -6438563.78348  -5017064.36645  23085077.530    23085080.581
  -2930579.94649  -2283568.45745  23019947.642    23019947.009
 -23766160.69049 -18519083.26447  20553596.444    20553596.960
 -19971937.14749 -15562547.20146  21564579.610    21564580.114
    806913.03448    628763.81744  23738434.291    23738434.008
 -12526542.65449  -9760941.17546  21400668.317    21400669.287
 02  1  3  0 17  0.0000000  0  8G 1G11G22G14G25G20G30G29
  -7191957.83348  -5604121.18145  23716130.760    23716132.732
 -11721451.77048  -9133603.59144  23136999.827    23136997.736
  -6548994.74148  -5103114.47945  23064062.865    23064065.898
  -2854398.29349  -2224206.08945  23034444.162    23034443.580
 -23744759.38849 -18502406.89047  20557668.842    20557669.388
 -20041279.26549 -15616579.96746  21551384.061    21551384.666
    864807.31248    673876.26144  23749451.425    23749452.694
 -12476359.66049  -9721837.53146  21410218.186    21410218.786
 02  1  3  0 17 30.0000000  0  8G 1G11G22G14G25G20G30G29
  -7271950.41848  -5666452.92245  23700906.389    23700909.863
 -11653024.72548  -9080283.79244  23150019.303    23150019.846
  -6659281.36148  -5189052.09445  23043075.936    23043078.191
  -2778096.88549  -2164750.40445  23048963.773    23048963.302
 -23722952.93349 -18485414.81247  20561817.994    20561818.601
 -20110243.34749 -15670318.15946  21538260.328    21538260.969
    923199.15048    719376.39145  23760562.427    23760563.173
 -12425973.96249  -9682575.93646  21419805.865    21419806.616
 02  1  3  0 18  0.0000000  0  8G 1G11G22G14G25G20G30G29
  -7351866.88148  -5728725.51545  23685701.437    23685703.985
 -11584272.86348  -9026710.88644  23163102.492    23163102.325
  -6769408.03748  -5274865.10345  23022119.536    23022122.129
  -2701663.94049  -2105192.22645  23063508.829    23063509.674
 -23700729.96849 -18468098.18347  20566046.902    20566047.351
 -20178814.74149 -15723750.36946  21525211.845    21525212.248
    982099.10748    765272.51044  23771770.914    23771770.850
 -12375373.71749  -9643147.16546  21429434.653    21429435.552
 02  1  3  0 18 30.0000000  0  8G 1G11G22G14G25G20G30G29
  -7431693.71148  -5790928.24445  23670508.548    23670511.953
 -11515186.50748  -8972877.30244  23176249.630    23176249.949
  -6879358.98848  -5360541.20345  23001197.181    23001199.871
  -2625087.31049  -2045522.08245  23078080.618    23078080.430
 -23678079.16649 -18450448.17747  20570357.342    20570357.811
 -20246978.51949 -15776864.95146  21512240.283    21512240.946
   1041517.75948    811572.78544  23783078.158    23783078.179
 -12324546.26049  -9603541.33846  21439107.010    21439107.730
 02  1  3  0 19  0.0000000  0  8G 1G11G22G14G25G20G30G29
  -7511445.32148  -5853072.35445  23655333.888    23655334.966
 -11445783.14148  -8918796.71644  23189456.612    23189456.133
  -6989145.64748  -5446089.23245  22980305.278    22980307.195
  -2548381.97248  -1985751.65045  23092676.979    23092677.332
 -23655016.63349 -18432477.34647  20574745.932    20574746.357
 -20314746.96649 -15829671.48146  21499345.028    21499345.518
   1101438.56648    858264.33844  23794480.523    23794480.868
 -12273506.56949  -9563770.12846  21448819.544    21448820.110
 02  1  3  0 19 30.0000000  0  8G 1G11G22G14G25G20G30G29
  -7591125.12148  -5915160.42845  23640170.478    23640172.524
 -11376069.35648  -8864474.26244  23202722.329    23202724.059
  -7098769.01348  -5531510.06945  22959444.556    22959445.761
  -2471552.53049  -1925884.50645  23107297.867    23107297.462
 -23631547.76749 -18414189.88147  20579211.664    20579212.034
 -20382121.64249 -15882171.18346  21486523.552    21486523.771
   1161855.38648    905342.39544  23805977.460    23805977.117
 -12222258.90049  -9523836.86646  21458571.655    21458572.289
 02  1  3  0 20  0.0000000  0  8G 1G11G22G14G25G20G30G29
  -7670736.66748  -5977195.31845  23625019.740    23625023.594
 -11306051.78448  -8809915.09444  23216046.100    23216044.601
  -7208229.36548  -5616803.86645  22938614.698    22938616.548
  -2394602.91148  -1865923.72345  23121940.351    23121939.567
 -23607677.57249 -18395589.69447  20583754.037    20583754.417
 -20449104.11249 -15934365.26746  21473777.162    21473777.705
   1222762.58948    952802.57544  23817566.949    23817567.492
 -12170807.08649  -9483744.53246  21468362.711    21468363.587
 02  1  3  0 20 30.0000000  0  8G 1G11G22G14G25G20G30G29
  -7750275.79348  -6039173.75445  23609883.865    23609888.137
 -11235729.68448  -8755118.62144  23229428.736    23229427.593
  -7317519.81548  -5701965.27545  22917817.503    22917819.351
  -2317529.96248  -1805866.83145  23136606.335    23136606.547
 -23583403.81649 -18376675.04547  20588373.583    20588373.925
 -20515688.33049 -15986249.03946  21461107.455    21461107.804
   1284161.84048   1000646.12644  23829251.650    23829253.541
 -12119147.69549  -9443490.45846  21478193.035    21478194.116
 02  1  3  0 21  0.0000000  0  8G 1G11G22G14G25G20G30G29
  -7829748.88148  -6101100.74145  23594761.171    23594764.577
 -11165112.39548  -8700092.11444  23242865.714    23242867.191
  -7426643.69548  -5786996.94045  22897052.236    22897054.006
  -2240340.53849  -1745719.19545  23151295.751    23151294.553
 -23558734.40249 -18357452.09447  20593067.873    20593068.228
 -20581878.56849 -16037825.80946  21448511.066    21448511.494
   1346044.66648   1048866.53044  23841027.340    23841028.436
 -12067287.41249  -9403079.82846  21488061.765    21488062.549
 02  1  3  0 21 30.0000000  0  8G 1G11G22G14G25G20G30G29
  -7909157.52648  -6162977.51645  23579651.059    23579653.885
 -11094204.84148  -8644839.46144  23256359.131    23256359.673
  -7535599.95148  -5871898.13945  22876319.324    22876320.367
  -2163036.90748  -1685482.57045  23166005.330    23166005.646
 -23533672.61049 -18337923.39547  20597836.843    20597837.166
 -20647674.14749 -16089095.04346  21435990.519    21435991.102
   1408407.12248   1097460.66344  23852894.693    23852896.239
 -12015228.14249  -9362514.16346  21497968.190    21497968.934
 02  1  3  0 22  0.0000000  0  8G 1G11G22G14G25G20G30G29
  -7988501.07148  -6224803.53645  23564551.839    23564552.360
 -11023009.63548  -8589362.63344  23269907.552    23269909.442
  -7644384.72548  -5956665.71645  22855617.514    22855620.548
  -2085619.21748  -1625157.07945  23180737.574    23180737.313
 -23508219.74949 -18318089.95947  20602680.404    20602680.582
 -20713072.55749 -16140054.79846  21423545.468    21423546.104
   1471247.38348   1146427.10444  23864852.612    23864853.236
 -11962969.97849  -9321793.50546  21507912.912    21507913.896
 02  1  3  0 22 30.0000000  0  8G 1G11G22G14G25G20G30G29
  -8067751.20148  -6286556.75245  23549469.577    23549473.156
 -10951501.51148  -8533642.02144  23283514.733    23283515.870
  -7752967.04848  -6041275.73745  22834955.549    22834957.866
  -2008060.21048  -1564721.45145  23195497.165    23195497.064
 -23482349.25249 -18297931.09847  20607603.273    20607603.538
 -20778043.65249 -16190681.58446  21411182.116    21411182.680
   1534591.38048   1195786.08044  23876906.691    23876907.076
 -11910485.12649  -9280896.20646  21517900.047    21517900.736
 02  1  3  0 23  0.0000000  0  8G 1G11G22G14G25G20G30G29
  -8146926.97048  -6348252.00645  23534405.714    23534406.519
 -10879702.34948  -8477694.59544  23297177.436    23297177.256
  -7861363.06148  -6125740.53245  22814329.174    22814331.128
  -1930379.36848  -1504190.90345  23210278.781    23210279.163
 -23456081.88149 -18277462.98347  20612601.823    20612602.056
 -20842604.42849 -16240988.64946  21398896.401    21398896.815
   1598417.48048   1245520.70144  23889052.735    23889053.803
 -11857793.41049  -9239837.72646  21527926.963    21527927.577
 02  1  3  0 23 30.0000000  0  8G 1G11G22G14G25G20G30G29
  -8226019.73848  -6409882.59645  23519353.111    23519356.076
 -10807607.10748  -8421516.43644  23310897.422    23310897.845
  -7969560.88348  -6210050.91945  22793739.454    22793742.612
  -1852568.88148  -1443559.33345  23225085.710    23225086.277
 -23429410.84649 -18256680.32347  20617677.179    20617677.328
 -20906744.26649 -16290967.70146  21386690.921    21386691.398
   1662731.93448   1295635.84944  23901290.836    23901291.906
 -11804886.40949  -9198611.48546  21537994.958    21537995.664
 02  1  3  0 24  0.0000000  0  8G 1G11G22G14G25G20G30G29
  -8305047.41548  -6471462.42445  23504315.229    23504317.059
 -10735237.14448  -8365124.22844  23324669.160    23324671.592
  -8077575.38448  -6294218.20545  22773185.081    22773188.219
  -1774647.49048  -1382841.33645  23239913.766    23239914.062
 -23402355.71749 -18235598.37347  20622825.685    20622825.850
 -20970479.29849 -16340631.31746  21374562.689    21374563.219
   1727514.50348   1346115.76644  23913618.964    23913619.284
 -11751782.80449  -9157232.04846  21548100.166    21548100.733
 02  1  3  0 24 30.0000000  0  8G 1G11G22G14G25G20G30G29
  -8384010.35348  -6532991.83645  23489288.923    23489291.436
 -10662596.06348  -8308520.75544  23338491.783    23338494.707
  -8185404.06348  -6378240.63345  22752666.308    22752669.089
  -1696616.25648  -1322037.75145  23254762.442    23254761.758
 -23374918.54849 -18214218.73247  20628046.714    20628046.899
 -21033807.87449 -16389978.22346  21362511.489    21362512.246
   1792762.09948   1396958.02844  23926034.918    23926034.440
 -11698483.47249  -9115700.09246  21558242.494    21558243.476
 02  1  3  0 25  0.0000000  0  8G 1G11G22G14G25G20G30G29
  -8462902.15448  -6594465.78545  23474276.117    23474277.678
 -10589680.54648  -8251703.44444  23352368.373    23352367.993
  -8293037.83748  -6462111.15745  22732184.200    22732186.922
  -1618469.76548  -1261144.36445  23269633.861    23269633.134
 -23347094.65449 -18192537.74347  20633341.192    20633341.243
 -21096721.59949 -16439001.86746  21350539.953    21350540.482
   1858478.86248   1448165.89444  23938540.036    23938538.558
 -11644982.41549  -9074010.95446  21568423.743    21568424.300
 02  1  3  0 25 30.0000000  0  8G 1G11G22G14G25G20G30G29
  -8541708.92748  -6655873.46945  23459279.925    23459279.471
 -10516479.96448  -8194663.96044  23366296.985    23366295.986
  -8400460.01848  -6545816.77845  22711742.787    22711744.573
  -1540194.71848  -1200150.79445  23284528.323    23284527.814
 -23318872.37149 -18170546.32747  20638711.998    20638712.044
 -21159204.43349 -16487689.72846  21338649.461    21338649.874
   1924676.02648   1499748.08044  23951137.446    23951138.820
 -11591266.42549  -9032154.33546  21578645.765    21578646.501
 02  1  3  0 26  0.0000000  0  8G 1G11G22G14G25G20G30G29
  -8620429.45648  -6717213.98745  23444299.640    23444301.445
 -10442996.18848  -8137403.82644  23380280.107    23380279.157
  -8507666.24748  -6629354.08445  22691341.846    22691344.634
  -1461790.49948  -1139056.57545  23299448.601    23299448.532
 -23290252.00749 -18148244.72547  20644158.242    20644158.425
 -21221253.53249 -16536039.62046  21326841.351    21326841.849
   1991352.43748   1551703.70744  23963825.403    23963828.406
 -11537334.68649  -8990129.60346  21588908.237    21588908.872
 02  1  3  0 26 30.0000000  0  8G 1G11G22G14G25G20G30G29
  -8699071.25548  -6778493.25845  23429334.159    23429336.366
 -10369239.86948  -8079931.28844  23394315.908    23394317.910
  -8614660.83148  -6712726.34945  22670981.684    22670984.954
  -1383265.25048  -1077868.04745  23314391.771    23314391.252
 -23261242.72749 -18125640.06947  20649678.466    20649678.557
 -21282874.30349 -16584055.76246  21315116.004    21315116.428
   2058498.14348   1604025.02644  23976602.074    23976603.702
 -11483195.18749  -8947942.97046  21599210.626    21599211.169
 02  1  3  0 27  0.0000000  0  8G 1G11G22G14G25G20G30G29
  -8777644.95548  -6839719.51945  23414382.885    23414384.279
 -10295225.35248  -8022257.57944  23408400.253    23408400.393
  -8721451.92148  -6795940.08945  22650659.849    22650662.450
  -1304630.50648  -1016594.20845  23329354.835    23329354.402
 -23231857.20949 -18102742.23547  20655270.458    20655270.366
 -21344075.46149 -16631744.94746  21303469.632    21303470.050
   2126099.81848   1656701.62144  23989466.474    23989467.052
 -11428859.11449  -8905603.15846  21609550.575    21609550.790
 02  1  3  0 27 30.0000000  0  8G 1G11G22G14G25G20G30G29
  -8856141.14648  -6900885.40345  23399445.186    23399447.920
 -10220946.44948  -7964377.86944  23422534.678    23422534.006
  -8828027.61348  -6878986.12845  22630378.333    22630381.558
  -1225877.77648   -955228.42645  23344340.930    23344340.944
 -23202088.14049 -18079545.53747  20660935.326    20660935.232
 -21404845.93249 -16679098.52647  21291904.825    21291905.361
   2194164.30348   1709738.86744  24002419.561    24002420.457
 -11374317.69249  -8863103.33146  21619929.499    21619930.126
 02  1  3  0 28  0.0000000  0  8G 1G11G22G14G25G20G30G29
  -8934555.35648  -6961987.38645  23384523.723    23384525.285
 -10146402.10048  -7906291.37144  23436719.841    23436720.454
  -8934380.13248  -6961858.16845  22610140.955    22610144.422
  -1147003.51348   -893767.94345  23359350.995    23359350.067
 -23171932.71949 -18056047.78847  20666673.557    20666673.704
 -21465179.26349 -16726111.46947  21280424.309    21280424.663
   2262693.22648   1763138.00144  24015459.204    24015461.184
 -11319567.32549  -8820440.69946  21630348.296    21630348.529
 02  1  3  0 28 30.0000000  0  8G 1G11G22G14G25G20G30G29
  -9012898.20548  -7023033.83045  23369615.375    23369616.485
 -10071605.83348  -7848008.47044  23450953.184    23450954.055
  -9040517.17248  -7044562.27945  22589943.206    22589945.945
  -1068018.66648   -832221.29345  23374380.582    23374379.433
 -23141403.12349 -18032258.47547  20672483.147    20672483.423
 -21525084.07049 -16772790.48847  21269024.737    21269025.112
   2331673.53048   1816888.90144  24028586.836    24028588.130
 -11264618.80049  -8777623.64846  21640804.193    21640804.815
 02  1  3  0 29  0.0000000  0  8G 1G11G22G14G25G20G30G29
  -9091160.65548  -7084017.58745  23354722.570    23354724.738
  -9996552.34048  -7789525.19444  23465235.367    23465236.760
  -9146427.14448  -7127089.50845  22569789.394    22569792.453
   -988915.52248   -770582.46745  23389433.441    23389433.043
 -23110492.58249 -18008172.32247  20678365.333    20678365.493
 -21584549.78249 -16819127.36047  21257708.890    21257709.322
   2401111.55448   1870996.43944  24041799.620    24041802.042
 -11209463.80449  -8734645.71646  21651299.968    21651300.481
 02  1  3  0 29 30.0000000  0  8G 1G11G22G14G25G20G30G29
  -9169342.96048  -7144938.87845  23339844.389    23339847.237
  -9921245.49648  -7730844.52944  23479565.835    23479566.190
  -9252107.66249  -7209438.10245  22549679.954    22549682.220
   -909695.07848   -708852.23245  23404508.582    23404508.671
 -23079203.42449 -17983791.14147  20684319.428    20684319.616
 -21643574.87349 -16865120.90147  21246476.324    21246476.540
   2471004.38848   1925458.38344  24055099.393    24055101.190
 -11154103.59749  -8691507.87946  21661834.607    21661835.335
 02  1  3  0 30  0.0000000  0  8G 1G11G22G14G25G20G30G29
  -9247438.17048  -7205792.29045  23324984.137    23324985.191
  -9845681.40648  -7671963.44844  23493945.374    23493946.116
  -9357548.73748  -7291600.06745  22529614.796    22529617.208
   -830351.12648   -647025.76245  23419607.378    23419607.122
 -23047530.69349 -17959111.06847  20690346.259    20690346.574
 -21702150.64449 -16910764.32547  21235329.755    21235330.370
   2541355.84348   1980277.72644  24068488.257    24068488.741
 -11098531.51749  -8648204.94546  21672409.463    21672409.977
 02  1  3  0 30 30.0000000  0  8G 1G11G22G14G25G20G30G29
  -9325457.64948  -7266586.69245  23310136.974    23310138.663
  -9769874.76748                  23508371.168
  -9462758.58849  -7373581.79745  22509593.865    22509595.543
   -750896.00448   -585112.68345  23434726.673    23434727.897
 -23015487.07649 -17934141.99247  20696443.924    20696444.236
 -21760286.65849 -16956065.08647  21224266.976    21224267.294
   2612152.19848   2035443.72044  24081959.331    24081961.760
 -11042759.58149  -8604746.27646  21683022.767    21683022.937
 02  1  3  0 31  0.0000000  0  8G 1G11G22G14G25G20G30G29
  -9403411.04148  -7327329.59445  23295302.834    23295304.715
  -9693838.39348  -7553644.24244  23522839.426    23522836.332
  -9567743.92349  -7455388.45345  22489615.832    22489618.160
   -671339.60348   -523120.66645  23449866.100    23449865.688
 -22983084.60049 -17908893.29247  20702609.920    20702610.252
 -21817990.41249 -17001029.01747  21213286.392    21213286.779
   2683381.18948   2090946.79544  24095514.538    24095513.088
 -10986797.84049  -8561139.71846  21693672.082    21693672.309
 02  1  3  0 31 30.0000000  0  8G 1G11G22G14G25G20G30G29
  -9481264.45648  -7387994.63045  23280488.471    23280490.413
  -9617541.77248                  23537359.097
  -9672468.18948  -7536991.73445  22469687.097    22469690.419
   -591649.16548   -461024.21445  23465030.862    23465030.280
 -22950291.35549 -17883340.08847  20708850.182    20708850.297
 -21875226.17349 -17045628.27647  21202394.656    21202394.969
   2755073.95348   2146811.30744  24109156.432    24109156.050
 -10930612.98549  -8517359.29646  21704363.517    21704363.990
 02  1  3  0 32  0.0000000  0  8G 1G11G22G14G25G20G30G29
  -9559040.82648  -7448599.59945  23265688.035    23265689.739
  -9541011.54948                  23551921.224
  -9776951.73049  -7618407.51145  22449804.570    22449807.364
   -511848.45448   -398841.84045  23480216.352    23480216.173
 -22917131.92049 -17857501.54147  20715160.336    20715160.636
 -21932015.48249 -17089879.64947  21191588.072    21191588.570
   2827204.71948   2203017.08144  24122882.825    24122884.361
 -10874228.76549  -8473423.52846  21715093.093    21715093.785
 02  1  3  0 32 30.0000000  0  8G 1G11G22G14G25G20G30G29
  -9636752.47148  -7509154.10745  23250899.686    23250901.525
  -9464263.14148                  23566526.881
  -9881203.35549  -7699642.41945  22429966.256    22429968.405
   -431950.32148   -336583.54545  23495420.366    23495420.513
 -22883620.15049 -17831388.45247  20721537.362    20721537.770
 -21988368.68449 -17133791.19547  21180864.389    21180864.709
   2899758.53048   2259552.52344  24136689.500    24136688.425
 -10817657.92149  -8429342.34546  21725857.918    21725858.365
 02  1  3  0 33  0.0000000  0  8G 1G11G22G14G25G20G30G29
  -9714376.68248  -7569640.52045  23236127.886    23236130.679
  -9387277.22748                  23581175.405
  -9985197.85349  -7780676.97845  22410176.497    22410178.613
   -351932.97648   -274232.36345  23510647.307    23510647.205
 -22849735.99049 -17804985.19147  20727984.645    20727985.111
 -22044261.03549 -17177343.63247  21170228.159    21170228.670
   2972755.43248   2316433.21244  24150579.298    24150580.681
 -10760878.25449  -8385098.44546  21736662.880    21736663.328
 02  1  3  0 33 30.0000000  0  8G 1G11G22G14G25G20G30G29
  -9791908.76948  -7630055.12345  23221374.401    23221375.642
  -9310052.56848                  23595871.780
 -10088927.99049  -7861505.62445  22390437.496    22390439.249
   -271792.82848   -211785.49145  23525897.314    23525897.624
 -22815476.52549 -17778289.48247  20734504.227    20734504.608
 -22099686.47949 -17220532.24847  21159681.072    21159681.484
   3046197.09048   2373660.45944  24164555.508    24164558.536
 -10703886.02349  -8340688.90646  21747508.195    21747508.601
 02  1  3  0 34  0.0000000  0  8G 1G11G22G14G25G20G30G29
  -9869352.87348  -7690401.18645  23206637.747    23206639.165
  -9232597.00047                  23610609.111
 -10192395.02449  -7942129.26545  22370748.129    22370750.260
   -191534.74148   -149246.73845  23541170.337    23541169.972
 -22780847.99049 -17751306.18447  20741094.183    20741094.503
 -22154647.47949 -17263358.96447  21149222.382    21149222.748
   3120076.60948                  24178613.692
 -10646685.82249  -8296117.31046  21758392.960    21758393.560
 02  1  3  0 34 30.0000000  0  8G 1G11G22G14G25G20G30G29
  -9946712.97548  -7750681.75845  23191916.403    23191919.661
  -9154917.46448                  23625391.808
 -10295599.79949  -8022548.44645  22351109.004    22351112.186
   -111163.53348    -86619.81745  23556463.673    23556463.779
 -22745856.48649 -17724040.05047  20747752.723    20747753.104
 -22209146.39649 -17305825.61547  21138851.587    21138851.982
   3194387.09848   2489133.24644  24192755.707    24192758.777
 -10589282.29849  -8251387.28746  21769316.429    21769317.443
 02  1  3  0 35  0.0000000  0  8G 1G11G22G14G25G20G30G29
 -10023981.23848  -7810890.74345  23177212.616    23177214.598
  -9077009.67348                  23640218.566
 -10398531.54949  -8102754.78745  22331521.486    22331523.955
    -30671.95248    -23899.11045  23571781.128    23571780.504
 -22710495.74849 -17696486.20647  20754481.629    20754482.026
 -22263173.32349 -17347924.48647  21128570.651    21128570.916
   3269133.72548   2547377.32644  24206978.331    24206979.459
 -10531668.06049  -8206493.06746  21780280.202    21780280.761
 02  1  3  0 35 30.0000000  0  8G 1G11G22G14G25G20G30G29
 -10101168.19648  -7871036.41945  23162525.077    23162526.321
  -8998887.34148                  23655084.081
 -10501198.01349  -8182754.35845  22311984.374    22311986.592
     49928.58148     38906.50045  23587119.252    23587119.929
 -22674778.29849 -17668654.40647  20761278.556    20761278.663
 -22316737.33649 -17389662.64947  21118377.663    21118378.041
   3344303.10548   2605950.86544  24221282.683    24221281.751
 -10473854.42049  -8161443.47746  21791281.508    21791282.372
 02  1  3  0 36  0.0000000  0  8G 1G11G22G14G25G20G30G29
 -10178279.26048  -7931122.94445  23147850.151    23147852.310
  -8920559.88348                  23669989.924
 -10603602.15349  -8262549.60445  22292497.494    22292499.707
    130631.54648    101791.91745  23602475.711    23602476.519
 -22638711.91649 -17640550.70247  20768141.804    20768142.126
 -22369842.34549 -17431043.15847  21108272.459    21108272.810
   3419886.87748   2664847.31544  24235667.175    24235666.087
 -10415847.37549  -8116243.18246  21802320.458    21802320.743
 02  1  3  0 36 30.0000000  0  8G 1G11G22G14G25G20G30G29
 -10255315.73948  -7991151.32345  23133191.247    23133194.088
  -8842031.70448                  23684931.935
 -10705742.59749  -8342139.45545  22273060.333    22273063.178
    211435.02448    164755.66945  23617853.092    23617852.891
 -22602299.96849 -17612177.72647  20775070.575    20775070.947
 -22422487.86149 -17472065.62247  21098254.087    21098254.441
   3495880.68148   2724063.25444  24250127.886    24250129.571
 -10357648.83249  -8070893.65946  21813394.908    21813395.517
 02  1  3  0 37  0.0000000  0  8G 1G11G22G14G25G20G30G29
 -10332277.18048  -8051121.21245  23118546.039    23118548.830
  -8763305.76248                  23699914.640
 -10807615.86749  -8421521.08045  22253674.844    22253676.928
    292338.47448    227797.30545  23633248.032    23633248.344
 -22565543.89449 -17583536.60347  20782065.246    20782065.544
 -22474671.75449 -17512728.36847  21088323.517    21088323.845
   3572282.07048   2783596.81344  24264667.349    24264666.584
 -10299259.17749  -8025395.22346  21824505.944    21824506.564
 02  1  3  0 37 30.0000000  0  8G 1G11G22G14G25G20G30G29
 -10409142.09348  -8111015.90145  23103918.578    23103920.509
  -8684364.24148                  23714936.150
 -10909197.78149  -8500675.68446  22234344.144    22234346.930
    373362.58748    290932.95945  23648666.023    23648667.412
 -22528424.17649 -17554612.11947  20789128.723    20789128.854
 -22526371.20249 -17553013.63147  21078485.517    21078485.909
   3649109.74748   2843462.54544  24279285.799    24279284.986
 -10240657.67349  -7979731.70346  21835657.686    21835658.242
 02  1  3  0 38  0.0000000  0  8G 1G11G22G14G25G20G30G29
 -10485904.87449  -8170831.01045  23089312.103    23089314.053
  -8605204.69248                  23729999.727
 -11010479.84649  -8579596.72246  22215070.949    22215072.601
    454512.23048    354166.41945  23664109.025    23664107.860
 -22490937.12349 -17525401.39647  20796262.331    20796262.568
 -22577578.59749 -17592915.47347  21068741.031    21068741.273
   3726366.60748   2903662.66844  24293988.674    24293987.083
 -10181838.98549  -7933898.93946  21846850.612    21846851.128
 02  1  3  0 38 30.0000000  0  8G 1G11G22G14G25G20G30G29
 -10562556.55648  -8230559.51945  23074724.516    23074726.319
  -8525821.91848                  23745104.618
 -11111450.62849  -8658275.32746  22195856.955    22195858.851
    535795.42748    417503.98745  23679576.726    23679575.472
 -22453075.89749 -17495899.11747  20803467.186    20803467.525
 -22628283.30449 -17632425.60747  21059092.241    21059092.488
   3804058.37648   2964201.72844  24308772.735    24308772.772
 -10122795.01249  -7887890.63946  21858086.055    21858087.122
 02  1  3  0 39  0.0000000  0  8G 1G11G22G14G25G20G30G29
 -10639120.94648  -8290220.02345  23060154.567    23060155.992
  -8446242.87948                  23760249.904
 -11212130.54349  -8736727.23146  22176698.253    22176701.053
    617187.76448    480926.55445  23695064.416    23695064.674
 -22414866.28849 -17466125.37047  20810737.895    20810738.213
 -22678507.71449 -17671561.47647  21049534.698    21049535.297
   3882158.56448   3025059.02444  24323633.842    24323634.601
 -10063549.89849  -7841725.61446  21869360.090    21869360.461
 02  1  3  0 39 30.0000000  0  8G 1G11G22G14G25G20G30G29
 -10715597.71048  -8349812.24745  23045602.056    23045603.710
  -8366470.84148                  23775429.772
 -11312516.77849  -8814950.25446  22157595.658    22157597.693
    698688.50548    544433.61045  23710574.004    23710574.142
 -22376310.29249 -17436081.70947  20818074.882    20818075.363
 -22728250.03149 -17710321.68047  21040069.366    21040069.782
   3960664.34948   3086232.30544  24338573.805    24338575.391
 -10004104.20849  -7795404.29446  21880672.207    21880672.570
 02  1  3  0 40  0.0000000  0  8G 1G11G22G14G25G20G30G29
 -10791985.58949  -8409335.22545  23031065.994    23031068.947
  -8286508.26548                  23790644.427
 -11412605.25649  -8892941.28346  22138549.388    22138551.339
    780297.82948    608025.28645  23726104.134    23726103.075
 -22337408.54449 -17405768.63347  20825477.391    20825477.768
 -22777507.30249 -17748703.93647  21030695.829    21030696.071
   4039574.16048   3147720.46844  24353589.214    24353590.726
  -9944457.40849  -7748926.26546  21892022.664    21892023.232
 02  1  3  0 40 30.0000000  0  8G 1G11G22G14G25G20G30G29
 -10868297.00749  -8468798.61545  23016544.675    23016546.052
  -8206370.78648                  23805896.434
 -11512405.91149  -8970708.09646  22119557.629    22119560.195
    862002.79848    671691.48845  23741651.790    23741651.376
 -22298175.48349 -17375197.39947  20832943.708    20832944.032
 -22826290.34249 -17786716.66547  21021412.536    21021412.747
   4118872.39748   3209511.34844  24368679.233    24368680.566
  -9884622.46149  -7702301.60946  21903408.623    21903409.128
 02  1  3  0 41  0.0000000  0  8G 1G11G22G14G25G20G30G29
 -10944540.61149  -8528209.19845  23002036.314    23002037.371
  -8126070.57748                  23821175.694
 -11611924.58349  -9048255.21546  22100620.167    22100622.483
    943793.63248    735424.57045  23757215.989    23757215.747
 -22258621.90349 -17344376.40747  20840470.072    20840470.416
 -22874606.62449 -17824365.69247  21012218.534    21012219.002
   4198547.35948   3271595.72244  24383840.948    24383844.521
  -9824608.95049  -7655537.82846  21914829.165    21914829.513
 02  1  3  0 41 30.0000000  0  8G20G 1G11G22G14G25G30G29
 -22922433.51749 -17861633.37647  21003117.362    21003117.801
 -11020695.43248  -8587550.57746  22987543.017    22987545.964
  -8045590.25448                  23836491.209
 -11711137.33849  -9125563.87646  22081740.423    22081742.331
   1025690.48548    799240.26345  23772800.949    23772801.171
 -22218729.28649 -17313291.22447  20848061.214    20848061.590
   4278617.11348   3333987.75544  24399078.080    24399078.314
  -9764396.45549  -7608618.97846  21926287.012    21926287.307
 02  1  3  0 42  0.0000000  0  8G20G 1G11G22G14G25G30G29
 -22969747.22349 -17898501.17747  20994113.830    20994114.271
 -11096739.03249  -8646805.32545  22973074.096    22973075.757
  -7964910.84648                  23851842.528
 -11810018.78449  -9202614.31046  22062924.085    22062925.823
   1107714.78848    863155.30445  23788408.753    23788410.148
 -22178476.89549 -17281925.70847  20855721.076    20855721.448
   4359100.93148   3396702.44444  24414394.189    24414391.302
  -9703963.23849  -7561528.15146  21937786.735    21937787.341
 02  1  3  0 42 30.0000000  0  8G 1G11G22G14G25G20G30G29
 -11172677.06548  -8705977.82445  22958622.541    22958623.632
  -7884041.35848                  23867232.941
 -11908572.09649  -9279409.03546  22044169.785    22044171.876
   1189860.21748    927164.68845  23804041.600    23804042.584
 -22137872.64349 -17250286.01147  20863447.886    20863448.055
 -23016551.55949 -17934972.06147  20985207.114    20985207.511
   4439990.19748   3459733.07944  24429785.814    24429788.974
  -9643315.52849  -7514270.18646  21949328.512    21949328.928
 02  1  3  0 43  0.0000000  0  8G 1G11G22G14G25G20G30G29
 -11248523.36348  -8765078.84645  22944188.926    22944191.755
  -7802998.99147                  23882652.451
 -12006808.34149  -9355956.67746  22025476.427    22025478.298
   1272112.24248    991257.13045  23819693.126    23819692.585
 -22096932.34349 -17218384.46247  20871238.627    20871238.795
 -23062858.86649 -17971055.64747  20976395.290    20976395.627
   4521268.22148   3523066.57544  24445253.030    24445253.902
  -9582467.85249  -7466856.39846  21960906.617    21960906.842
 02  1  3  0 43 30.0000000  0  8G 1G11G22G14G25G20G30G29
 -11324285.79149  -8824114.47646  22929773.646    22929774.581
  -7721795.49948                  23898107.363
 -12104732.95249  -9432261.51646  22006841.744    22006843.914
   1354461.75648   1055425.54645  23835363.613    23835363.065
 -22055666.19149 -17186229.00247  20879091.338    20879091.517
 -23108676.11249 -18006757.36647  20967676.467    20967676.929
   4602923.75748   3586694.21444  24460791.384    24460793.315
  -9521428.89549  -7419293.55846  21972522.457    21972522.399
 02  1  3  0 44  0.0000000  0  8G 1G11G22G14G25G20G30G29
 -11399952.53848  -8883075.54945  22915372.480    22915375.357
  -7640422.38547                  23913590.380
 -12202331.26749  -9508312.11246  21988269.019    21988272.059
   1436919.75848   1119678.51845  23851055.047    23851053.800
 -22014064.10749 -17153811.77747  20887007.981    20887008.043
 -23153989.91349 -18042066.79447  20959053.546    20959053.914
   4684965.68748   3650623.06944  24476403.268    24476405.190
  -9460187.59549  -7371573.03546  21984176.165    21984176.985
 02  1  3  0 44 30.0000000  0  8G 1G11G22G14G25G20G30G29
 -11475536.10449  -8941971.82046  22900991.326    22900992.784
  -7558895.79147                  23929103.798
 -12299613.06149  -9584116.13246  21969757.346    21969759.711
   1519472.85348   1184005.55645  23866764.731    23866764.562
 -21972141.00249 -17121144.40847  20894985.867    20894985.854
 -23198811.33349 -18076992.55447  20950524.253    20950524.613
   4767378.41348   3714840.70744  24492086.461    24492084.426
  -9398756.91549  -7323704.94746  21995865.700    21995866.079
 02  1  3  0 45  0.0000000  0  8G 1G11G22G14G25G20G30G29
 -11551011.70649  -9000783.94145  22886628.497    22886630.577
  -7477194.39847                  23944650.934
 -12396551.00749  -9659652.24046  21951309.986    21951311.824
   1602144.91248   1248425.30145  23882496.199    23882496.578
 -21929874.53649 -17088209.48547  20903028.843    20903028.764
 -23243114.11149 -18111514.19747  20942093.405    20942093.529
   4850183.52048   3779364.23044  24507843.279    24507843.574
  -9337113.04149  -7275670.73546  22007596.345    22007596.345
 02  1  3  0 45 30.0000000  0  8G 1G11G22G14G25G20G30G29
 -11626393.94048  -9059523.29945  22872281.954    22872285.151
  -7395336.32147                  23960228.050
 -12493156.90149  -9734929.62046  21932927.382    21932929.778
   1684920.41248   1312925.63145  23898247.577    23898247.698
 -21887280.89949 -17055019.62547  20911133.960    20911133.995
 -23286911.41349 -18145641.95447  20933759.253    20933759.447
   4933363.28848   3844179.67444  24523672.279    24523672.846
  -9275271.25249  -7227482.29646  22019364.057    22019364.386
 02  1  3  0 46  0.0000000  0  7G 1G22G14G25G20G30G29
 -11701678.62149  -9118186.63245  22857958.333    22857958.164
 -12589424.14149  -9809943.09446  21914607.651    21914610.825
   1767802.18948   1377508.80245  23914020.408    23914019.934
 -21844358.65649 -17021573.70847  20919301.832    20919301.917
 -23330197.94949 -18179371.71647  20925522.228    20925522.570
   5016918.55748   3909287.69244  24539571.884    24539573.267
  -9213228.24349  -7179137.07746  22031170.966    22031170.956
 02  1  3  0 46 30.0000000  0  7G 1G22G14G25G20G30G29
 -11776877.37449  -9176783.00345  22843647.188    22843648.450
 -12685361.40749  -9884699.39046  21896352.147    21896354.385
   1850777.90948   1442165.14145  23929809.506    23929808.766
 -21801121.41449 -16987882.33547  20927529.615    20927529.743
 -23372984.16049 -18212711.60647  20917380.238    20917380.454
   5100834.67848   3974676.83244  24555540.527    24555544.246
  -9150996.30349  -7130644.63346  22043013.027    22043013.669
 02  1  3  0 47  0.0000000  0  8G 1G11G22G14G25G20G30G29
 -11851983.07848  -9235306.85645  22829354.192    22829356.039
          .16757                  24007131.758
 -12780959.28249  -9959191.33246  21878159.721    21878162.527
   1933853.89648   1506899.62145  23945618.181    23945617.033
 -21757564.47249 -16953941.85147  20935818.425    20935818.424
 -23415261.41049 -18245654.89447  20909335.476    20909335.470
   5185115.57548   4040350.30044  24571578.568    24571579.785
  -9088569.20949  -7082000.11746  22054892.614    22054892.556
 02  1  3  0 47 30.0000000  0  8G 1G11G22G14G25G20G30G29
 -11926995.38649  -9293757.93445  22815081.456    22815081.650
     82445.63847                  24022820.191
 -12876214.50249 -10033416.20546  21860033.966    21860036.287
   2017029.78348   1571711.93745  23961447.462    23961445.938
 -21713689.20849 -16919753.32347  20944167.383    20944167.406
 -23457028.22149 -18278200.43947  20901387.232    20901387.568
   5269758.59348   4106305.97244  24587685.453    24587686.380
  -9025947.21249  -7033203.73346  22066809.197    22066809.334
 02  1  3  0 48  0.0000000  0  8G 1G11G22G14G25G20G30G29
 -12001900.65549  -9352125.61146  22800826.195    22800827.610
    165043.78748                  24038538.287
 -12971110.70949 -10107361.26846  21841975.339    21841977.645
   2100318.06848   1636611.83044  23977295.158    23977294.511
 -21669483.98249 -16885307.68447  20952579.106    20952579.306
 -23498269.37949 -18310336.37947  20893539.181    20893539.513
   5354774.18548   4172551.81844  24603863.550    24603864.904
  -8963117.31949  -6984245.35446  22078765.010    22078765.545
 02  1  3  0 48 30.0000000  0  8G 1G11G22G14G25G20G30G29
 -12076709.68849  -9410418.27046  22786590.169    22786592.064
    247780.21148                  24054282.688
 -13065656.35149 -10181033.20146  21823984.148    21823986.050
   2183706.87748   1701590.07545  23993164.019    23993163.143
 -21624962.09749 -16850615.29547  20961051.536    20961051.790
 -23538994.53149 -18342070.23147  20885789.220    20885789.446
   5440148.27448   4239077.12644  24620110.304    24620110.466
  -8900091.20749  -6935134.08246  22090758.860    22090758.608
 02  1  3  0 49  0.0000000  0  8G 1G11G22G14G25G20G30G29
 -12151398.62549  -9468617.38346  22772378.468    22772379.111
    330675.09048                  24070058.270
 -13159824.75049 -10254411.12146  21806064.521    21806067.083
   2267219.26048   1766664.60345  24009056.069    24009054.960
 -21580102.08549 -16815659.43147  20969588.099    20969588.051
 -23579178.79549 -18373382.62647  20878142.386    20878142.794
   5525901.59048   4305897.92744  24636427.695    24636427.508
  -8836845.54849  -6885851.71346  22102794.130    22102794.164
 02  1  3  0 49 30.0000000  0  8G 1G11G22G14G25G20G30G29
 -12225981.72348  -9526734.00846  22758183.123    22758185.441
    413710.80648                  24085858.890
 -13253627.42549 -10327504.04646  21788214.027    21788216.628
   2350840.14448   1831823.67045  24024968.839    24024968.756
 -21534920.01149 -16780452.61247  20978185.973    20978186.182
 -23618834.71949 -18404283.33747  20870596.369    20870596.511
   5612016.74348   4373000.64244  24652815.118    24652817.362
  -8773395.41349  -6836410.02546  22114867.591    22114867.966
 02  1  3  0 50  0.0000000  0  8G 1G11G22G14G25G20G30G29
 -12300467.87149  -9584775.08946  22744011.008    22744012.433
    496875.03748                  24101682.802
 -13347070.70049 -10400316.98046  21770433.048    21770435.052
   2434559.59448   1897059.54245  24040899.658    24040900.711
 -21489426.99849 -16745003.50247  20986842.695    20986842.990
 -23657970.31749 -18434778.59147  20863149.174    20863149.541
   5698481.41948   4440375.75544  24669268.494    24669270.995
  -8709750.55749  -6786816.60346  22126979.265    22126979.535
 02  1  3  0 50 30.0000000  0  8G 1G11G22G14G25G20G30G29
 -12374861.40449  -9642744.01146  22729854.678    22729855.840
    580159.42348                  24117532.890
 -13440156.87349 -10472851.65046  21752718.854    21752721.615
   2518372.08248   1962367.91644  24056848.848    24056849.390
 -21443629.56749 -16709317.18247  20995557.772    20995557.711
 -23696588.83849 -18464870.91847  20855800.034    20855800.212
   5785288.09848   4508017.33144  24685787.395    24685789.049
  -8645916.25749  -6737075.58046  22139126.687    22139127.024
 02  1  3  0 51  0.0000000  0  8G 1G11G22G14G25G20G30G29
 -12449144.78549  -9700627.09646  22715717.116    22715719.238
    663578.04248                  24133407.647
 -13532865.44949 -10545092.07346  21735077.406    21735079.325
   2602294.27648   2027761.77045  24072819.258    24072818.700
 -21397512.43249 -16673381.74547  21004333.562    21004333.657
 -23734671.85649 -18494545.97747  20848553.037    20848553.249
   5872451.15848   4575936.61744  24702374.096    24702376.379
  -8581875.58749  -6687173.74146  22151312.883    22151313.581
 02  1  3  0 51 30.0000000  0  8G 1G11G22G14G25G20G30G29
 -12523321.22649  -9758426.84846  22701604.023    22701605.331
    747124.08448                  24149303.234
 -13625197.39349 -10617039.08346  21717506.613    21717508.961
   2686322.03248   2093237.88545  24088808.498    24088806.878
 -21351081.46249 -16637201.76047  21013169.003    21013169.262
 -23772221.11749 -18523805.11647  20841407.700    20841407.904
   5959963.90148   4644128.37044  24719026.847    24719027.373
  -8517632.78149  -6637114.40646  22163537.995    22163538.191
 02  1  3  0 52  0.0000000  0  8G 1G11G22G14G25G20G30G29
 -12597393.10649  -9816145.14946  22687507.477    22687508.545
    830791.62448                  24165226.692
 -13717152.35249 -10688692.31246  21700008.806    21700011.125
   2770451.94348   2158793.58244  24104817.833    24104817.766
 -21304341.07849 -16600780.67447  21022063.777    21022063.647
 -23809237.97249 -18552649.41147  20834363.700    20834363.885
   6047820.86448   4712588.38144  24735746.300    24735747.111
  -8453190.96649  -6586899.99346  22175801.261    22175801.275
 02  1  3  0 52 30.0000000  0  8G 1G11G22G14G25G20G30G29
 -12671367.90349  -9873787.77946  22673430.161    22673432.175
    914570.06848                  24181167.910
 -13808735.31449 -10760055.72846  21682580.862    21682583.376
   2854675.65348   2224422.35544  24120846.383    24120846.121
 -21257300.81249 -16564125.91247  21031015.254    21031014.946
 -23845728.70249 -18581083.74547  20827419.633    20827419.672
   6136011.35348                  24752527.140
  -8388558.27149  -6536536.84346  22188099.935    22188100.449
 02  1  3  0 53  0.0000000  0  8G 1G11G22G14G25G20G30G29
 -12745254.65849  -9931361.80146  22659371.107    22659371.713
    998446.05848    778010.46744  24197131.098    24197131.932
 -13899952.76349 -10831134.26046  21665223.136    21665225.765
   2938982.87448   2290116.24544  24136888.055    24136888.912
 -21209971.88249 -16527246.21547  21040021.529    21040021.474
 -23881701.47649 -18609114.47247  20820574.063    20820574.180
   6224522.76348                  24769370.916
  -8323744.68749  -6486032.74346  22200433.701    22200433.141
 02  1  3  0 53 30.0000000  0  8G 1G11G22G14G25G20G30G29
 -12819038.63349  -9988855.74746  22645329.176    22645331.081
   1082431.05848                  24213109.483
 -13990787.44049 -10901914.48146  21647937.170    21647940.205
   3023387.37348   2355885.90845  24152950.545    24152950.172
 -21162341.98249 -16490131.99647  21049085.209    21049085.086
 -23917140.50549 -18636729.29247  20813830.289    20813830.623
   6313366.62148   4919507.22844  24786277.622    24786278.894
  -8258736.38849  -6435376.90746  22212804.942    22212805.150
 02  1  3  0 54  0.0000000  0  7G 1G22G14G25G20G30G29
 -12892696.73149 -10046251.60246  22631313.094    22631314.849
 -14081213.69649 -10972376.43346  21630730.395    21630732.102
   3107911.31248   2421748.63544  24169034.901    24169034.116
 -21114390.27449 -16452767.02347  21058210.017    21058209.662
 -23952021.67249 -18663909.41347  20807192.795    20807192.992
   6402562.77948   4989010.75644  24803249.697    24803252.295
  -8193510.97849  -6384551.89946  22225216.242    22225216.552
 02  1  3  0 54 30.0000000  0  8G 1G 4G22G14G25G20G30G29
 -12966240.17849 -10103558.12646  22617318.238    22617319.470
         -.30658                  25320681.026
 -14171240.26349 -11042526.94146  21613597.747    21613600.793
   3192542.67848   2487695.07044  24185139.539    24185140.827
 -21066130.19949 -16415161.76547  21067393.558    21067393.248
 -23986355.02649 -18690662.67047  20800659.487    20800659.457
   6492096.84648   5058777.57044  24820288.660    24820290.383
  -8128080.44449  -6333567.07546  22237667.138    22237667.657
 02  1  3  0 55  0.0000000  0  8G 1G 4G22G14G25G20G30G29
 -13039690.79149 -10160792.29246  22603340.155    22603341.780
    -53035.28148                  25310589.297
 -14260886.56949 -11112381.12946  21596539.304    21596541.564
   3277258.34748   2553707.22645  24201261.076    24201262.698
 -21017586.02449 -16377335.12747  21076631.204    21076631.061
 -24020161.43049 -18717005.30947  20794226.156    20794226.253
   6581943.43048   5128787.98844  24837386.224    24837386.546
  -8062467.32249  -6282439.95646  22250153.329    22250152.868
 02  1  3  0 55 30.0000000  0  8G 1G 4G22G14G25G20G30G29
 -13113032.88849 -10217941.90546  22589384.026    22589385.540
   -105614.88948                  25300584.204
 -14350134.54249 -11181924.93746  21579555.480    21579557.850
   3362073.03748   2619796.49744  24217400.029    24217401.078
 -20968744.41949 -16339276.72947  21085925.491    21085925.265
 -24053424.18849 -18742924.32947  20787896.387    20787896.688
   6672115.02248   5199051.54544  24854544.519    24854545.973
  -7996657.08249  -6231159.23846  22262677.114    22262676.671
 02  1  3  0 56  0.0000000  0  8G 1G 4G22G14G25G20G30G29
 -13186254.05049 -10274997.29246  22575450.794    22575452.053
   -157725.14648                  25290668.057
 -14438969.57649 -11251146.97446  21562651.149    21562653.184
   3446998.05248   2685971.74944  24233561.233    24233561.713
 -20919594.80549 -16300978.32247  21095278.235    21095278.098
 -24086130.30649 -18768409.61847  20781672.877    20781673.173
   6762620.59848   5269575.38344  24871767.824    24871768.880
  -7930638.23049  -6179715.96846  22275238.993    22275239.533
 02  1  3  0 56 30.0000000  0  8G 1G 4G22G14G25G20G30G29
 -13259368.14549 -10331969.27946  22561536.732    22561537.904
   -209379.49248                  25280837.939
 -14527402.73149 -11320055.82146  21545822.582    21545824.514
   3532018.72348   2752221.52944  24249740.385    24249738.951
 -20870153.33949 -16262452.50147  21104686.758    21104686.637
 -24118292.47549 -18793471.05247  20775552.860    20775552.860
   6853443.05248   5340346.19144  24889050.165    24889053.550
  -7864425.30649  -6128121.47846  22287839.168    22287839.490
 02  1  3  0 57  0.0000000  0  8G 1G 4G22G14G25G20G30G29
 -13332379.93849 -10388861.55946  22547643.998    22547645.316
   -260581.82348                  25271094.916
 -14615436.82049 -11388653.76446  21529070.070    21529072.063
   3617128.89348   2818541.07444  24265935.581    24265937.539
 -20820427.64949 -16223705.20647  21114149.234    21114149.244
 -24149914.79449 -18818111.80947  20769535.388    20769535.426
   6944574.01448                  24906391.421
  -7798024.11449  -6076380.28546  22300475.306    22300475.158
 02  1  3  0 57 30.0000000  0  8G 1G 4G22G14G25G20G30G29
 -13405284.70949 -10445670.44746  22533770.232    22533771.820
   -311326.49448                  25261439.512
 -14703064.75349 -11456935.22846  21512395.129    21512397.081
   3702332.24048   2884933.19244  24282149.974    24282148.803
 -20770415.32349 -16184734.55947  21123665.898    21123666.071
 -24180991.91449 -18842327.72647  20763621.265    20763621.252
   7036014.73548   5482609.89644  24923792.742    24923791.546
  -7731430.98849  -6024489.53546  22313147.450    22313146.999
 02  1  3  0 58  0.0000000  0  8G 1G 4G22G14G25G20G30G29
 -13478075.24849 -10502390.31646  22519918.319    22519920.082
   -361605.23548                  25251871.656
 -14790276.73549 -11524892.53846  21495798.938    21495801.294
   3787634.77848   2951402.57444  24298382.511    24298381.453
 -20720110.84949 -16145536.26147  21133238.864    21133238.656
 -24211515.63749 -18866112.41247  20757812.666    20757812.590
   7127769.04848   5554106.82844  24941252.971    24941252.868
  -7664639.57549  -5972444.27946  22325857.067    22325857.048
 02  1  3  0 58 30.0000000  0  8G 1G 4G22G14G25G20G30G29
 -13550756.58749 -10559025.10046  22506088.444    22506089.518
   -411422.28948                  25242390.686
 -14877075.55149 -11592527.94046  21479282.094    21479283.991
   3873030.61948   3017944.70744  24314632.520    24314632.752
 -20669521.68749 -16106116.12447  21142865.793    21142865.629
 -24241489.99349 -18889469.02447  20752108.625    20752108.512
   7219828.68248   5625841.59544  24958771.691    24958772.044
  -7597655.65149  -5920249.01946  22338604.265    22338604.192
 02  1  3  0 59  0.0000000  0  8G 1G 4G22G14G25G20G30G29
 -13623324.42149 -10615571.44146  22492278.202    22492279.747
   -460772.52948                  25233000.192
 -14963454.53749 -11659836.23746  21462844.263    21462846.885
   3958522.85248   3084561.95944  24330901.177    24330903.155
 -20618645.80449 -16066472.57147  21152546.736    21152546.953
 -24270910.01749 -18912393.71047  20746510.149    20746510.193
   7312194.55348   5697814.98044  24976348.333    24976349.307
  -7530475.79249  -5867901.07646  22351387.657    22351388.658
 02  1  3  0 59 30.0000000  0  8G 1G 4G22G14G25G20G30G29
 -13695762.17049 -10672016.42046  22478494.122    22478496.311
   -509638.25248                  25223701.691
 -15049394.61649 -11726802.51346  21446491.153    21446493.011
   4044127.30948   3151266.61344  24347191.510    24347193.838
 -20567469.16949 -16026594.66147  21162285.499    21162285.542
 -24299758.27249 -18934872.86147  20741020.792    20741020.576
   7404879.79148                  24993985.437
  -7463084.33849  -5815388.26746  22364211.341    22364212.023
 02  1  3  1  0  0.0000000  0  8G 1G 4G22G14G25G20G30G29
 -13768086.67549 -10728373.14846  22464731.983    22464732.725
   -558035.95548                  25214491.383
 -15134910.39449 -11793438.08946  21430217.475    21430220.343
   4129825.81648   3218044.57344  24363500.128    24363500.154
 -20516011.35349 -15986497.65547  21172077.671    21172077.823
 -24328050.89849 -18956919.05847  20735636.853    20735636.777
   7497864.15148                  25011679.686
  -7395499.00649  -5762724.38446  22377072.941    22377073.403
 02  1  3  1  0 30.0000000  0  8G 1G 4G22G14G25G20G30G29
 -13840302.64149 -10784645.29546  22450988.772    22450989.759
   -605969.33348                  25205368.960
 -15220004.25649 -11859744.91046  21414024.562    21414026.435
   4215612.47048   3284891.22944  24379823.755    24379824.700
 -20464278.92049 -15946186.65847  21181921.537    21181921.823
 -24355791.78949 -18978535.32447  20730357.831    20730357.924
   7591139.57048   5915174.82944  25029429.325    25029430.658
  -7327725.55649  -5709913.90446  22389969.525    22389970.202
 02  1  3  1  1  0.0000000  0  8G 1G 4G22G14G25G20G30G29
 -13912404.31649 -10840828.37146  22437268.394    22437269.653
   -653431.68548                  25196338.786
 -15304668.14649 -11925716.68946  21397913.579    21397915.465
   4301492.16748   3351810.28944  24396166.446    24396164.857
 -20412268.42849 -15905658.99847  21191818.809    21191819.166
 -24382974.36949 -18999716.54747  20725185.180    20725185.241
   7684708.40048   5988085.57844  25047235.144    25047235.370
  -7259758.93949  -5656952.93246  22402903.604    22402904.120
 02  1  3  1  1 30.0000000  0  8G 1G 4G22G14G25G20G30G29
 -13984395.17649 -10896925.10146  22423569.463    22423569.902
   -700426.17248   -545787.77944  25187395.669    25187399.096
 -15388903.42549 -11991354.52046  21381884.351    21381886.167
   4387460.25048   3418798.32244  24412526.536    24412527.425
 -20359985.69049 -15864919.19147  21201768.073    21201768.186
 -24409601.71149 -19020465.11947  20720117.972    20720118.280
   7778563.64048   6061219.50944  25065095.290    25065094.997
  -7191603.78549  -5603845.02146  22415873.071    22415873.385
 02  1  3  1  2  0.0000000  0  8G 1G 4G22G14G25G20G30G29
 -14056265.94249 -10952928.25246  22409892.546    22409893.780
   -746942.79948                  25178543.869
 -15472698.40049 -12056649.25046  21365938.179    21365940.120
   4473524.90648   3485861.58944  24428903.284    24428905.231
 -20307423.76449 -15823961.83847  21211770.274    21211770.623
 -24435663.91249 -19040773.31947  20715158.420    20715158.656
   7872711.20048   6134581.27744  25083010.860    25083008.798
  -7123251.52649  -5550583.53946  22428879.819    22428880.250
 02  1  3  1  2 30.0000000  0  8G 1G 4G22G14G25G20G30G29
 -14128020.47549 -11008840.83246  22396237.524    22396238.744
   -792984.38248                  25169782.357
 -15556054.57849 -12121602.05646  21350076.200    21350078.291
   4559681.23648   3552996.24344  24445298.366    24445300.489
 -20254588.34349 -15782791.37047  21221824.528    21221824.839
 -24461163.95549 -19060643.47847  20710305.650    20710305.983
   7967144.02248                  25100980.839
  -7054707.03849  -5497172.27646  22441923.294    22441923.640
 02  1  3  1  3  0.0000000  0  8G 1G 4G22G14G25G20G30G29
 -14199633.30449 -11064643.00246  22382611.172    22382611.519
   -838525.01348                  25161116.281
 -15638944.43349 -12186191.51146  21334302.813    21334304.800
   4645953.56148   3620221.27644  24461715.797    24461716.217
 -20201456.58649 -15741389.99347  21231935.397    21231935.579
 -24486075.80249 -19080055.30047  20705565.374    20705565.726
   8061883.93348                  25119009.194
  -6985945.89749  -5443592.18846  22455008.294    22455008.779
 02  1  3  1  3 30.0000000  0  7G 1G 4G22G14G25G20G29
 -14271108.60049 -11120337.99746  22369008.564    22369010.391
   -883568.02348                  25152545.109
 -15721370.05449 -12250419.24346  21318617.499    21318619.456
   4732336.51048   3687532.55244  24478153.877    24478153.266
 -20148035.49449 -15699763.15847  21242100.889    21242101.322
 -24510403.15349 -19099011.67247  20700936.024    20700936.286
  -6916973.40349  -5389847.39846  22468133.708    22468133.859
 02  1  3  1  4  0.0000000  0  7G 1G 4G22G14G25G20G29
 -14342459.72049 -11175936.24346  22355431.278    22355432.288
   -928126.55048                  25144064.981
 -15803342.60549 -12314293.92846  21303018.547    21303020.989
   4818815.39748   3754918.53044  24494610.446    24494609.960
 -20094340.88449 -15657923.19347  21252318.848    21252318.759
 -24534158.93549 -19117522.66547  20696415.582    20696415.891
  -6847803.67549  -5335948.91546  22481295.793    22481295.797
 02  1  3  1  4 30.0000000  0  7G 1G 4G22G14G25G20G29
 -14413699.43949 -11231447.68046  22341875.084    22341875.729
   -972212.64148                  25135675.732
 -15884872.51649 -12377823.67746  21287504.377    21287506.424
   4905376.34948   3822368.48344  24511083.444    24511084.950
 -20040387.30349 -15615881.43547  21262585.883    21262585.814
 -24557355.34349 -19135597.79247  20692001.578    20692001.863
  -6778450.63049  -5281907.61146  22494493.531    22494494.124
 02  1  3  1  5  0.0000000  0  7G 1G 4G22G14G25G20G29
 -14484840.71849 -11286882.40746  22328336.651    22328338.091
  -1015838.73048                  25127375.087
 -15965970.71149 -12441017.02046  21272071.627    21272073.393
   4992005.44948   3889871.51744  24527566.696    24527566.600
 -19986189.93049 -15573649.70647  21272899.061    21272898.936
 -24580004.84049 -19153246.75547  20687691.377    20687691.638
  -6708928.15049  -5227734.27946  22507723.432    22507723.270
 02  1  3  1  5 30.0000000  0  7G 1G 4G22G14G25G20G29
 -14555856.30749 -11342219.18346  22314823.495    22314824.795
  -1058976.84348                  25119164.736
 -16046607.79649 -12503851.03946  21256726.792    21256728.569
   5078728.73948   3957447.90244  24544070.470    24544072.394
 -19931724.42849 -15531209.04747  21283263.493    21283263.737
 -24602079.55349 -19170447.82547  20683490.528    20683490.787
  -6639209.91449  -5173408.39145  22520990.086    22520990.541
 02  1  3  1  6  0.0000000  0  7G 1G 4G22G14G25G20G29
 -14626757.54149 -11397466.86946  22301331.872    22301332.627
  -1101637.92148                  25111046.990
 -16126793.02449 -12566332.94746  21241468.180    21241469.811
   5165533.59348   4025087.89944  24560589.347    24560589.343
 -19877004.41849 -15488570.07447  21293676.502    21293676.466
 -24623590.76349 -19187209.80347  20679397.279    20679397.597
  -6569308.44549  -5118939.73245  22534291.595    22534292.119
 02  1  3  1  6 30.0000000  0  7G 1G 4G22G14G25G20G29
 -14697529.17549 -11452613.57446  22287863.668    22287864.573
  -1143806.52348                  25103022.618
 -16206509.37049 -12628449.50346  21226298.236    21226300.191
   5252433.63448   4092802.03444  24577125.741    24577125.400
 -19822017.04949 -15445722.77347  21304140.171    21304140.474
 -24644522.77749 -19203520.45847  20675414.252    20675414.577
  -6499209.69949  -5064317.35545  22547630.977    22547631.007
 02  1  3  1  7  0.0000000  0  7G 1G 4G22G14G25G20G29
 -14768179.28549 -11507665.59146  22274419.686    22274421.218
  -1185489.95448                  25095091.165
 -16285762.54849 -12690205.14246  21211217.187    21211218.741
   5339420.12348   4160583.54144  24593679.310    24593677.586
 -19766772.67749 -15402675.20947  21314652.850    21314652.831
 -24664883.10249 -19219385.64447  20671539.994    20671540.226
  -6428922.38249  -5009548.03945  22561006.688    22561007.273
 02  1  3  1  7 30.0000000  0  7G 1G 4G22G14G25G20G29
 -14838708.36949 -11562623.30346  22260998.958    22260999.633
  -1226688.44748                  25087250.828
 -16364551.06649 -12751598.72546  21196223.780    21196225.502
   5426491.18548   4228430.93644  24610248.328    24610250.795
 -19711274.24549 -15359429.67647  21325214.109    21325213.928
 -24684671.83849 -19234805.43547  20667773.836    20667774.235
  -6358448.48649  -4954633.33045  22574417.249    22574417.687
 02  1  3  1  8  0.0000000  0  7G 1G 4G22G14G25G20G29
 -14909105.63349 -11617478.28246  22247601.766    22247603.208
  -1267390.50648                  25079504.998
 -16442861.99549 -12812620.17746  21181322.201    21181324.090
   5513656.84248   4296352.05244  24626834.955    24626835.922
 -19655513.21049 -15315979.52147  21335824.848    21335825.005
 -24703877.87449 -19249771.16647  20664118.840    20664119.224
  -6287777.70449  -4899565.20845  22587865.230    22587865.248
 02  1  3  1  8 30.0000000  0  7G 1G 4G22G14G25G20G29
 -14979346.29749 -11672211.23146  22234236.218    22234237.006
  -1307571.14548                  25071859.122
 -16520668.55649 -12873248.60046  21166515.335    21166517.626
   5600940.42448   4364365.06144  24643445.508    24643445.330
 -19599467.06149 -15272307.19947  21346490.273    21346490.275
 -24722475.90249 -19264263.12347  20660580.067    20660580.419
  -6216886.62149  -4844325.42745  22601355.753    22601355.487
 02  1  3  1  9  0.0000000  0  7G 1G 4G22G14G25G20G29
 -15049461.06949 -11726846.07246  22220893.900    22220894.916
  -1347260.51248                  25064307.034
 -16597999.58649 -12933506.48746  21151800.272    21151802.057
   5688309.86848   4432444.95944  24660071.320    24660071.868
 -19543169.15149 -15228438.70147  21357203.326    21357203.530
 -24740496.64049 -19278305.24347  20657150.943    20657151.102
  -6145806.97149  -4788938.69845  22614881.807    22614883.445
 02  1  3  1  9 30.0000000  0  8G 1G 4G22G14G25G20G13G29
 -15119458.71849 -11781389.62946  22207572.624    22207573.916
  -1386467.41548                  25056846.025
 -16674861.76949 -12993399.04746  21137173.279    21137175.071
   5775755.20748   4500583.96844  24676711.322    24676714.562
 -19486630.53049 -15184382.63347  21367961.955    21367962.209
 -24757948.79849 -19291904.32747  20653829.448    20653829.744
         -.77257                  25117315.740
  -6074548.58249  -4733412.71545  22628441.748    22628442.444
 02  1  3  1 10  0.0000000  0  8G 1G 4G22G14G25G20G13G29
 -15189337.50149 -11835840.59346  22194275.927    22194276.818
  -1425189.38448  -1110538.52244  25049477.449    25049476.829
 -16751251.39249 -13052923.38446  21122637.233    21122639.082
   5863276.90848   4568782.52044  24693367.120    24693368.180
 -19429851.76449 -15140139.43547  21378766.951    21378767.087
 -24774829.96449 -19305058.48947  20650616.880    20650617.137
    -91858.34848                  25099837.892
  -6003110.73348  -4677746.86945  22642035.718    22642035.504
 02  1  3  1 10 30.0000000  0  8G 1G 4G22G14G25G20G13G29
 -15259087.36149 -11890191.11346  22181002.595    22181003.456
  -1463416.58048                  25042202.159
 -16827156.65349 -13112070.30946  21108192.894    21108194.338
   5950883.66348   4637047.29644  24710037.369    24710037.569
 -19372825.50349 -15095703.39147  21389618.551    21389618.770
 -24791130.19149 -19317759.97347  20647515.306    20647515.605
   -183731.77948                  25082353.801
  -5931484.70348  -4621934.40745  22655665.423    22655665.950
 02  1  3  1 11  0.0000000  0  8G 1G 4G22G14G25G20G13G29
 -15328713.08349 -11944444.89446  22167752.679    22167754.316
  -1501153.21748                  25035021.981
 -16902580.25649 -13170841.89846  21093839.847    21093842.056
   6038569.60348   4705373.76544  24726724.012    24726725.663
 -19315559.05049 -15051080.18747  21400515.824    21400516.120
 -24806854.12449 -19330012.39647  20644523.272    20644523.731
   -275625.93548                  25064865.727
  -5859676.22648  -4565979.77745  22669330.517    22669331.237
 02  1  3  1 11 30.0000000  0  8G 1G 4G22G14G25G20G13G29
 -15398183.64649 -11998577.75746  22154533.957    22154534.372
  -1538368.12548                  25027940.755
 -16977489.29449 -13229212.53146  21079585.721    21079587.090
   6126364.52448                  24743430.986
 -19258022.92549 -15006246.84047  21411464.720    21411464.726
 -24821970.40249 -19341791.32547  20641646.816    20641647.179
   -367510.54648                  25047381.869
  -5787655.41448  -4509859.69745  22683035.728    22683036.265
 02  1  3  1 12  0.0000000  0  8G 1G 4G22G14G25G20G13G29
 -15467511.01149 -12052599.05246  22141341.274    22141341.788
  -1575072.98648                  25020955.342
 -17051894.06049 -13287190.21646  21065426.721    21065427.979
   6214255.19348                  24760156.062
 -19200232.32049 -14961215.20347  21422462.062    21422461.865
 -24836490.97149 -19353106.05847  20638883.736    20638884.043
   -459397.77648                  25029895.242
  -5715435.33448  -4453584.35745  22696778.302    22696778.831
 02  1  3  1 12 30.0000000  0  8G 1G 4G22G14G25G20G13G29
 -15536690.36949 -12106505.01746  22128175.770    22128177.079
  -1611262.79148                  25014069.282
 -17125787.79849 -13344769.71846  21051365.058    21051366.519
   6302244.97048   4910834.44444  24776900.551    24776905.605
 -19142184.75849 -14915983.33847  21433507.922    21433508.047
 -24850411.00049 -19363952.83747  20636234.893    20636235.206
   -551283.14248                  25012411.360
  -5643012.38948  -4397150.92045  22710560.059    22710559.536
 02  1  3  1 13  0.0000000  0  8G 1G 4G22G14G25G20G13G29
 -15605737.20749 -12160307.72946  22115037.810    22115038.869
  -1646953.08148  -1283341.41744  25007277.804    25007279.631
 -17199184.05349 -13401961.55846  21037397.957    21037399.673
   6390317.30148                  24793659.333
 -19083897.98849 -14870565.08647  21444599.730    21444599.473
 -24863745.79149 -19374343.58447  20633697.475    20633697.661
   -643182.27948                  24994922.094
  -5570403.11048  -4340572.30545  22724377.781    22724378.104
 02  1  3  1 13 30.0000000  0  8G 1G22G 4G14G25G20G13G29
 -15674649.09249 -12214005.28746  22101924.316    22101925.580
 -17272078.61949 -13458762.46446  21023527.149    21023528.280
  -1682141.08548  -1310760.65844  25000581.575    25000584.693
   6478473.35648   5048154.84444  24810435.653    24810436.821
 -19025371.77749 -14824960.25347  21455737.006    21455736.724
 -24876492.93849 -19384276.43147  20631271.573    20631271.646
   -735092.88348                  24977431.362
  -5497606.13948  -4283847.42445  22738229.870    22738230.892
 02  1  3  1 14  0.0000000  0  8G 1G22G 4G14G25G20G13G29
 -15743446.93049 -12267613.97946  22088831.169    22088832.410
 -17344490.65549 -13515187.37846  21009746.605    21009748.496
  -1716847.40048                  24993977.482
   6566690.73148   5116895.38144  24827223.800    24827223.377
 -18966629.55449 -14779187.08747  21466915.173    21466915.121
 -24888673.45649 -19393767.74347  20628953.553    20628953.916
   -827036.33348                  24959936.549
  -5424643.53348  -4226993.49745  22752114.469    22752114.210
 02  1  3  1 14 30.0000000  0  8G 1G22G 4G14G25G20G13G29
 -15812115.60249 -12321122.02846  22075764.735    22075765.366
 -17416403.49449 -13571223.30446  20996062.179    20996064.086
  -1751057.37348  -1364461.65444  24987466.727    24987470.295
   6654983.14848   5185694.47244  24844025.067    24844028.143
 -18907658.69149 -14733235.77047  21478136.933    21478136.868
 -24900272.27349 -19402805.78847  20626746.110    20626746.366
   -918998.29248                  24942435.980
  -5351501.61848  -4169999.83145  22766033.287    22766033.763
 02  1  3  1 15  0.0000000  0  8G 1G25G29G 4G22G14G20G13
 -15880637.45349 -12374515.65746  22062726.457    22062726.647
 -18848444.27749 -14687094.67947  21489405.022    21489405.359
  -5278163.79048  -4112853.51945  22779988.056    22779989.879
  -1784753.11748                  24981053.874
 -17487797.60249 -13626855.02046  20982476.834    20982478.658
   6743367.02248                  24860843.557
 -24911271.78649 -19411376.84047  20624653.274    20624653.594
  -1010961.21348                  24924935.646
 02  1  3  1 15 30.0000000  0  8G 1G25G29G 4G22G14G20G13
 -15949019.29849 -12427800.18046  22049712.297    22049713.497
 -18788995.26049 -14640770.76647  21500717.671    21500718.018
  -5204637.97548  -4055560.72945  22793980.111    22793981.106
  -1817941.38948  -1416578.95944  24974739.048    24974741.627
 -17558678.01949 -13682086.46646  20968988.411    20968990.192
   6831834.33648                  24877679.065
 -24921678.70349 -19419486.12447  20622672.943    20622673.136
  -1102931.65248                  24907434.062
 02  1  3  1 16  0.0000000  0  8G 1G25G29G 4G22G14G20G13
 -16017246.20849 -12480963.97846  22036729.121    22036730.232
 -18729299.02049 -14594254.21947  21512077.518    21512077.592
  -5130910.42848  -3998110.73145  22808010.805    22808011.091
  -1850607.07048                  24968522.463
 -17629028.07249 -13736904.64646  20955601.277    20955602.954
   6920398.68048   5392511.08344  24894532.603    24894537.089
 -24931478.01849 -19427121.95447  20620807.925    20620808.231
  -1194895.56848                  24889933.541
 02  1  3  1 16 30.0000000  0  8G 1G25G29G 4G22G14G20G13
 -16085331.42449 -12534017.37946  22023774.509    22023774.920
 -18669371.36349 -14547557.34747  21523481.434    21523481.596
  -5056995.28848  -3940514.55745  22822075.717    22822076.709
  -1882763.32648  -1467089.58744  24962404.219    24962407.235
 -17698859.27949 -13791318.54546  20942312.764    20942314.812
   7009045.60048                  24911401.403
 -24940683.37849 -19434294.96547  20619056.180    20619056.315
  -1286866.40248                  24872433.908
 02  1  3  1 17  0.0000000  0  8G 1G25G29G 4G22G14G20G13
 -16153271.52249 -12586957.69846  22010844.817    22010846.099
 -18609211.39849 -14500679.45247  21534929.427    21534929.658
  -4982890.80648  -3882770.86645  22836177.530    22836179.033
  -1914407.25348  -1491747.18944  24956382.263    24956382.023
 -17768166.54949 -13845324.17046  20929124.299    20929125.856
   7097776.89148                  24928286.954
 -24949291.48149 -19441002.58047  20617418.453    20617418.853
  -1378841.08248                  24854929.409
 02  1  3  1 17 30.0000000  0  8G 1G25G29G 4G22G14G20G13
 -16221066.14049 -12639784.66046  21997943.522    21997944.920
 -18548821.06549 -14453622.06447  21546421.179    21546421.468
  -4908597.40548  -3824879.93145  22850315.854    22850316.296
  -1945538.08948                  24950457.778
 -17836947.93249 -13898920.00946  20916035.224    20916036.865
   7186591.95948   5599933.67044  24945187.984    24945194.611
 -24957301.99449 -19447244.54047  20615894.081    20615894.346
  -1470819.04848                  24837428.428
 02  1  3  1 18  0.0000000  0  8G 1G25G29G 4G22G14G20G13
 -16288729.87149 -12692509.63246  21985068.798    21985069.060
 -18488217.34649 -14406398.40147  21557953.858    21557954.082
  -4834131.25148  -3766854.40945  22864485.209    22864486.055
  -1976170.83648                  24944629.252
 -17905216.59249 -13952116.33546  20903044.579    20903045.828
   7275474.48248                  24962101.433
 -24964730.23649 -19453032.78947  20614480.683    20614481.021
  -1562815.74148                  24819921.051
 02  1  3  1 18 30.0000000  0  8G 1G25G29G 4G22G14G20G13
 -16356243.06149 -12745117.28946  21972220.751    21972221.580
 -18427383.46049 -14358995.38047  21569530.153    21569530.537
  -4759473.90148  -3708679.90645  22878692.836    22878693.164
  -2006285.82648  -1563340.84544  24938898.939    24938897.120
 -17972951.15849 -14004896.47947  20890154.408    20890156.345
   7364442.93948   5738518.27344  24979032.196    24979033.241
 -24971556.55549 -19458352.00547  20613181.730    20613182.124
  -1654811.74748                  24802413.967
 02  1  3  1 19  0.0000000  0  8G 1G25G29G 4G22G14G20G13
 -16423598.97549 -12797602.39246  21959402.887    21959404.378
 -18366314.90949 -14311409.50147  21581150.920    21581151.433
  -4684619.73848  -3650352.03345  22892936.988    22892937.573
  -2035876.55648                  24933267.390
 -18040143.39349 -14057254.03647  20877368.646    20877370.430
   7453502.57148   5807915.08444  24995980.224    24995980.651
 -24977774.46249 -19463197.14547  20611998.335    20611998.618
  -1746800.51948                  24784910.666
 02  1  3  1 19 30.0000000  0  8G 1G25G29G 4G22G14G20G13
 -16490805.84549 -12849971.35146  21946614.056    21946615.054
 -18305022.11449 -14263648.89047  21592814.716    21592815.037
  -4609578.15648  -3591878.12545  22907216.184    22907217.290
  -2064951.26248  -1609054.12844  24927734.945    24927734.743
 -18106799.86349 -14109194.11747  20864684.087    20864685.819
   7542643.78448                  25012943.167
 -24983392.55149 -19467574.89447  20610929.035    20610929.551
  -1838790.48448                  24767403.665
 02  1  3  1 20  0.0000000  0  8G 1G25G29G 4G22G14G20G13
 -16557864.94949 -12902225.17646  21933853.237    21933853.827
 -18243508.90649 -14215716.52847  21604520.454    21604520.675
  -4534351.79548  -3533260.24645  22921532.673    22921532.984
  -2093511.65448                  24922299.259
 -18172920.46249 -14160716.63447  20852101.422    20852103.483
   7631864.22048                  25029921.023
 -24988412.26849 -19471486.37947  20609973.646    20609974.073
  -1930783.22548                  24749899.017
 02  1  3  1 20 30.0000000  0  8G 1G25G 4G22G14G20G13G29
 -16624793.82449 -12954377.51446  21921117.096    21921117.768
 -18181795.59849 -14167628.24647  21616264.353    21616264.609
  -2121575.54948                  24916959.127
 -18238521.32749 -14211834.16747  20839618.760    20839620.171
   7721144.47348                  25046911.359
 -24992851.69549 -19474945.68647  20609129.119    20609129.435
  -2022797.06748                  24732388.999
  -4458959.70048  -3474513.22545  22935878.810    22935879.427
 02  1  3  1 21  0.0000000  0  8G 1G25G29G 4G22G14G20G13
 -16691572.14749 -13006412.54546  21908409.029    21908410.652
 -18119863.84849 -14119369.75147  21628049.387    21628049.547
  -4383382.44748  -3415621.91945  22950260.281    22950260.992
  -2149122.72348                  24911718.357
 -18303580.55549 -14262529.64147  20827237.826    20827239.396
   7810503.57448   6086096.49244  25063915.806    25063919.424
 -24996690.74349 -19477937.16647  20608398.707    20608399.034
  -2114811.53048  -1647901.37244  24714878.981    24714879.317
 02  1  3  1 21 30.0000000  0  8G 1G25G 4G22G14G20G13G29
 -16758191.54349 -13058323.74946  21895732.292    21895733.269
 -18057707.97849 -14070936.61847  21639877.214    21639877.347
  -2176145.18248                  24906576.168
 -18368088.24849 -14312795.35747  20814962.295    20814964.103
   7899948.76648                  25080936.337
 -24999921.55249 -19480454.69447  20607783.678    20607784.143
  -2206818.51348                  24697371.889
  -4307613.06848  -3356580.92245  22964678.534    22964679.863
 02  1  3  1 22  0.0000000  0  8G 1G25G 4G22G14G20G13G29
 -16824658.40149 -13110116.11146  21883084.105    21883084.526
 -17995336.62449 -14022335.57447  21651746.233    21651746.356
  -2202649.48148  -1716351.27044  24901532.703    24901531.574
 -18432049.57149 -14362635.34747  20802791.312    20802792.879
   7989472.00448                  25097972.907
 -25002551.06049 -19482503.67647  20607283.297    20607283.771
  -2298824.84948                  24679861.507
  -4231659.35048  -3297396.27045  22979132.302    22979133.797
 02  1  3  1 22 30.0000000  0  8G 1G25G 4G22G14G20G13G29
 -16890977.65949 -13161793.44146  21870463.685    21870464.734
 -17932757.52949 -13973572.65546  21663654.513    21663654.578
  -2228641.30548                  24896583.859
 -18495468.14049 -14412052.41747  20790722.950    20790724.578
   8079066.79448                  25115022.761
 -25004584.72649 -19484088.37047  20606896.525    20606896.857
  -2390836.03048  -1862985.16244  24662354.473    24662355.571
  -4155527.55648  -3238072.86645  22993620.192    22993621.335
 02  1  3  1 23  0.0000000  0  8G 1G25G 4G22G14G20G13G29
 -16957114.09949 -13213328.31246  21857878.321    21857879.389
 -17869938.05149 -13924622.42546  21675608.613    21675609.112
  -2254085.89648                  24891742.741
 -18558307.35249 -14461018.01147  20778765.026    20778766.648
   8168766.78748                  25132091.465
 -25005988.14349 -19485181.95747  20606629.271    20606629.734
  -2482817.20148                  24644849.443
  -4079183.91748  -3178584.36845  23008147.932    23008148.300
 02  1  3  1 23 30.0000000  0  8G 1G25G 4G22G14G20G13G29
 -17023088.34949 -13264736.79346  21845324.219    21845324.787
 -17806901.14849 -13875502.77446  21687604.301    21687604.422
  -2279003.79148                  24887003.428
 -18620586.39649 -14509547.09847  20766913.913    20766915.221
   8258550.09948                  25149177.230
 -25006782.16349 -19485800.67947  20606477.907    20606478.448
  -2574789.13548                  24627348.637
  -4002650.35748  -3118947.92145  23022711.247    23022712.659
 02  1  3  1 24  0.0000000  0  8G 1G 4G22G14G25G20G13G29
 -17088926.38449 -13316039.13246  21832795.139    21832796.272
  -2303421.44548                  24882357.482
 -18682329.91049 -14557658.91247  20755164.484    20755165.708
   8348591.57648   6505384.36444  25166272.826    25166275.701
 -17743675.09149 -13826235.73746  21699635.581    21699635.756
 -25006993.32249 -19485965.23247  20606437.807    20606438.377
  -2666778.13648                  24609843.353
  -3925953.90448  -3059184.51045  23037306.970    23037307.345
 02  1  3  1 24 30.0000000  0  7G 1G 4G22G25G20G13G29
 -17154603.53749 -13367216.10646  21820297.213    21820298.020
  -2327314.86348  -1813493.03944  24877810.609    24877811.735
 -18743512.02849 -14605333.26247  20743521.320    20743523.060
 -17680237.63349 -13776803.97046  21711707.470    21711707.534
 -25006597.62149 -19485656.89947  20606513.193    20606513.633
  -2758759.58748                  24592339.208
  -3849071.41048  -2999276.15045  23051936.770    23051937.363
 02  1  3  1 25  0.0000000  0  7G 1G 4G22G25G20G13G29
 -17220105.94549 -13418256.93446  21807833.282    21807833.777
  -2350670.76048                  24873364.140
 -18804117.65449 -14652558.44447  20731989.189    20731990.564
 -17616577.60049 -13727198.76446  21723821.527    21723821.563
 -25005581.82449 -19484865.38047  20606706.830    20606707.308
  -2850720.23048                  24574840.973
  -3771990.30948  -2939213.05845  23066604.991    23066607.067
 02  1  3  1 25 30.0000000  0  8G 1G 4G22G14G25G20G13G29
 -17285464.41349 -13469185.60146  21795395.537    21795396.204
  -2373520.36548                  24869013.914
 -18864176.32249 -14699357.42047  20720560.160    20720561.776
         -.75357                  25217654.856
 -17552728.14149 -13677445.95546  21735971.385    21735971.486
 -25003977.43449 -19483615.22047  20607012.194    20607012.549
  -2942691.01848  -2293001.67744  24557337.823    24557334.894
  -3694742.91148  -2879020.35945  23081304.770    23081306.313
 02  1  3  1 26  0.0000000  0  8G 1G 4G22G14G25G20G13G29
 -17350677.75749 -13520001.18146  21782985.535    21782986.677
  -2395863.03748                  24864763.183
 -18923685.74349 -14745728.38147  20709235.747    20709237.278
     89377.35047                  25234800.744
 -17488690.56149 -13627546.55846  21748157.665    21748157.718
 -25001783.92949 -19481906.00647  20607429.528    20607429.970
  -3034671.27348  -2364674.54444  24539836.145    24539833.207
  -3617329.30148  -2818698.15045  23096036.275    23096035.648
 02  1  3  1 26 30.0000000  0  7G 1G 4G22G25G20G13G29
 -17415725.80749 -13570687.95646  21770607.667    21770608.054
  -2417678.99148                  24860613.429
 -18982624.31149 -14791654.52147  20698020.427    20698021.557
 -17424447.20249 -13577486.82246  21760382.959    21760382.997
 -24998981.78349 -19479722.53047  20607962.603    20607962.998
  -3126640.86448                  24522333.631
  -3539730.57748  -2758231.72445  23110802.377    23110803.908
 02  1  3  1 27  0.0000000  0  8G 1G 4G22G14G25G20G13G29
 -17480591.86149 -13621232.90346  21758264.105    21758264.688
  -2438952.10548                  24856567.307
 -19040974.35549 -14837122.08347  20686916.853    20686918.281
         -.54358                  25269154.233
 -17359983.71649 -13527255.55546  21772649.664    21772650.094
 -24995555.19949 -19477052.48147  20608614.519    20608614.920
  -3218583.46548                  24504838.189
  -3461931.45348  -2697609.13745  23125607.876    23125608.503
 02  1  3  1 27 30.0000000  0  8G 1G 4G22G14G25G20G13G29
 -17545283.67049 -13671642.08446  21745953.633    21745954.259
  -2459690.85548  -1916643.19044  24852620.188    24852618.580
 -19098742.46849 -14882136.18547  20675923.766    20675925.330
     90381.49448                  25286353.173
 -17295310.50749 -13476860.86346  21784956.574    21784956.773
 -24991512.82649 -19473902.59747  20609383.988    20609384.387
  -3310507.18948  -2579611.35144  24487345.850    24487342.726
  -3383941.23448  -2636837.61245  23140447.789    23140449.900
 02  1  3  1 28  0.0000000  0  8G 1G 4G22G14G25G20G13G29
 -17609814.60149 -13721925.90646  21733673.646    21733674.340
  -2479909.23048                  24848770.354
 -19155940.87249 -14926706.35247  20665038.939    20665040.597
    180832.40048                  25303565.555
 -17230443.48649 -13426315.15246  21797300.601    21797300.612
 -24986868.56849 -19470283.71747  20610267.982    20610268.332
  -3402425.78548                  24469853.179
  -3305774.56648  -2575928.63245  23155323.329    23155322.977
 02  1  3  1 28 30.0000000  0  8G 1G 4G22G14G25G20G13G29
 -17674189.73449 -13772088.32646  21721423.708    21721424.292
  -2499613.10948                  24845019.218
 -19212573.76349 -14970835.90547  20654262.220    20654263.181
    271345.22248    211435.04344  25320789.987    25320790.245
 -17165389.91149 -13375624.07546  21809679.717    21809679.721
 -24981628.60349 -19466200.64947  20611265.184    20611265.617
  -3494344.47848  -2722861.15344  24452363.321    24452362.472
  -3227438.03848  -2514887.27745  23170230.592    23170231.253
 02  1  3  1 29  0.0000000  0  8G 1G 4G22G14G25G20G13G29
 -17738401.43149 -13822123.39646  21709204.829    21709205.390
  -2518795.56648  -1962698.75244  24841370.111    24841371.728
 -19268632.30449 -15014517.91547  20643594.544    20643596.162
    361926.02448    282015.61245  25338026.655    25338026.110
 -17100144.79649 -13324783.74446  21822095.857    21822096.080
 -24975786.01949 -19461648.01047  20612376.941    20612377.176
  -3586256.20548                  24434872.038
  -3148925.47048  -2453708.77945  23185170.534    23185170.880
 02  1  3  1 29 30.0000000  0  8G 1G 4G22G14G25G20G13G29
 -17802448.10149 -13872029.88546  21697016.832    21697017.394
  -2537455.60148                  24837820.474
 -19324114.07849 -15057750.47147  20633036.880    20633038.520
    452575.07848                  25355277.821
 -17034709.19649 -13273794.97646  21834547.505    21834547.919
 -24969340.34849 -19456625.42547  20613603.442    20613603.890
  -3678159.44448                  24417383.558
  -3070236.69848  -2392392.93045  23200144.438    23200145.917
 02  1  3  1 30  0.0000000  0  8G 1G 4G22G14G25G20G13G29
 -17866327.86349 -13921806.30846  21684860.740    21684861.296
  -2555592.51848  -1991371.64644  24834370.216    24834371.746
 -19379016.19049 -15100531.32247  20622589.593    20622591.114
    543292.45948                  25372541.425
 -16969083.34149 -13222657.97046  21847035.364    21847035.593
 -24962290.69949 -19451132.20847  20614944.982    20614945.234
  -3770052.73848                  24399897.280
  -2991371.48748  -2330939.64345  23215152.487    23215154.022
 02  1  3  1 30 30.0000000  0  8G 1G 4G22G14G25G20G13G29
 -17930030.64649 -13971444.81946  21672738.792    21672739.293
  -2573196.67748                  24831020.458
 -19433327.47749 -15142851.80347  20612253.843    20612255.365
    634086.65648                  25389817.859
 -16903259.95449 -13171367.03746  21859561.504    21859561.834
 -24954627.89449 -19445161.21247  20616403.032    20616403.383
  -3861926.29448  -3009288.47044  24382413.908    24382411.269
  -2912321.05948  -2269342.01945  23230195.405    23230196.692
 02  1  3  1 31  0.0000000  0  8G 1G 4G22G14G25G20G13G29
 -17993558.54749 -14020947.05546  21660649.513    21660650.122
  -2590270.99348                  24827770.495
 -19487049.06149 -15184712.75047  20602031.292    20602032.692
    724954.39748                  25407111.174
 -16837243.53449 -13119925.69046  21872124.122    21872124.607
 -24946354.86549 -19438714.71347  20617977.408    20617977.795
  -3953782.38148  -3080864.58244  24364934.460    24364937.268
  -2833088.60948  -2207602.57445  23245272.692    23245274.609
 02  1  3  1 31 30.0000000  0  8G 1G 4G22G14G25G20G13G29
 -18056914.04449 -14070314.96046  21648593.368    21648594.178
  -2606818.77748                  24824620.224
 -19540182.57449 -15226115.45847  20591920.529    20591921.707
    815891.45648                  25424416.325
 -16771039.05649 -13068337.80146  21884722.346    21884722.874
 -24937475.16249 -19431795.48247  20619667.675    20619668.070
  -4045623.90348                  24347457.044
  -2753678.72948  -2145724.88145  23260384.138    23260385.663
 02  1  3  1 32  0.0000000  0  8G 1G 4G22G14G25G20G13G29
 -18120101.31149 -14119551.77346  21636570.159    21636570.261
  -2622845.44748  -2043776.43844  24821569.499    24821569.973
 -19592731.48749 -15267062.64047  20581920.777    20581921.988
    906891.85048                  25441732.324
 -16704653.28249 -13016608.64646  21897355.395    21897355.488
 -24927994.36649 -19424407.86347  20621471.322    20621471.657
  -4137455.30048  -3223986.20644  24329982.135    24329980.825
  -2674096.85548  -2083713.15745  23275528.194    23275529.336
 02  1  3  1 32 30.0000000  0  8G 1G 4G22G14G25G20G13G29
 -18183106.32149 -14168646.57046  21624579.778    21624580.140
  -2638337.67148                  24818622.116
 -19644680.93049 -15307542.71447  20572034.979    20572036.415
    997968.17648                  25459064.893
 -16638074.42749 -12964729.04146  21910024.591    21910025.003
 -24917899.21249 -19416541.52947  20623392.321    20623392.577
  -4229263.04248  -3295524.69344  24312512.122    24312510.535
  -2594330.34448  -2021557.56445  23290707.905    23290710.323
 02  1  3  1 33  0.0000000  0  8G 1G 4G22G14G25G20G13G29
 -18245920.53349 -14217592.68746  21612625.922    21612627.054
  -2653287.48148  -2067497.46444  24815778.981    24815776.762
 -19696021.36349 -15347548.24347  20562265.429    20562266.731
   1089127.47448                  25476412.634
 -16571296.62649 -12912694.42046  21922732.252    21922732.852
 -24907182.41149 -19408190.80047  20625432.047    20625432.433
  -4321038.73048  -3367038.16944  24295047.427    24295046.933
  -2514372.08848  -1959252.57145  23305923.056    23305923.958
 02  1  3  1 33 30.0000000  0  8G 1G 4G22G14G25G20G13G29
 -18308573.35349 -14266413.05346  21600704.441    21600705.064
  -2667725.64848                  24813031.529
 -19746781.40449 -15387101.51147  20552606.608    20552607.554
   1180338.85848                  25493768.646
 -16504351.81449 -12860529.66646  21935471.069    21935471.507
 -24895874.36049 -19399379.36447  20627583.941    20627584.310
  -4412811.75148  -3438549.54544  24277583.477    24277581.009
  -2434253.34448  -1896822.53044  23321169.205    23321170.420
 02  1  3  1 34  0.0000000  0  8G 1G 4G22G14G25G20G13G29
 -18371062.45349 -14315105.84846  21588813.340    21588813.802
  -2681650.76848  -2089598.68644  24810382.305    24810381.198
 -19796958.21949 -15426200.36447  20543058.102    20543059.083
   1271602.72548                  25511136.790
 -16437239.77249 -12808234.58946  21948242.100    21948242.294
 -24883974.23249 -19390106.57047  20629848.277    20629848.743
  -4504580.35348  -3510057.46944  24260120.432    24260118.863
  -2353973.03248  -1834266.58745  23336445.687    23336448.723
 02  1  3  1 34 30.0000000  0  7G 1G 4G22G25G20G13G29
 -18433368.32849 -14363655.86646  21576956.166    21576956.963
  -2695044.06848  -2100035.03044  24807832.894    24807829.388
 -19846531.26949 -15464828.73947  20533624.192    20533625.359
 -16369943.44149 -12755795.92146  21961048.346    21961048.762
 -24871463.52749 -19380357.99847  20632229.100    20632229.453
  -4596325.23348  -3581546.89144  24242662.099    24242660.364
  -2273513.10248  -1771570.67544  23351757.251    23351759.087
 02  1  3  1 35  0.0000000  0  7G 1G 4G22G25G20G13G29
 -18495480.35049 -14412054.83546  21565136.944    21565137.556
  -2707896.16148                  24805386.656
 -19895489.12949 -15502977.71747  20524308.020    20524309.091
 -16302454.87049 -12703207.45746  21973891.017    21973891.329
 -24858332.89349 -19370126.36047  20634727.852    20634728.282
  -4688035.89748  -3653009.62544  24225209.490    24225212.324
  -2192864.57048  -1708727.81844  23367103.449    23367104.791
 02  1  3  1 35 30.0000000  0  7G 1G 4G25G22G20G13G29
 -18557407.01749 -14460309.37846  21553352.914    21553353.323
  -2720216.70048                  24803040.684
 -16234785.36949 -12650478.00346  21986768.193    21986768.428
 -19943840.01049 -15540653.72047  20515106.856    20515108.053
 -24844592.09449 -19359419.27047  20637342.719    20637343.070
  -4779721.46248  -3724452.87444  24207763.578    24207761.849
  -2112037.63748  -1645745.98344  23382485.286    23382485.754
 02  1  3  1 36  0.0000000  0  7G 1G 4G22G25G20G13G29
 -18619136.21449 -14508410.04846  21541606.135    21541606.545
  -2731994.61148                  24800799.576
 -19991570.97849 -15577846.67447  20506024.201    20506025.483
 -16166924.85749 -12597599.71346  21999681.989    21999682.002
 -24830230.47649 -19348228.42147  20640075.531    20640076.007
  -4871370.15048  -3795867.38344  24190322.021    24190325.060
  -2031021.58548  -1582616.72745  23397902.288    23397903.691
 02  1  3  1 36 30.0000000  0  7G 1G 4G25G22G20G13G29
 -18680677.95949 -14556364.64546  21529895.260    21529895.722
  -2743241.11748                  24798659.848
 -16098886.51849 -12544582.85546  22012628.896    22012629.372
 -20038691.53549 -15614563.98047  20497057.319    20497058.612
 -24815259.36049 -19336562.63447  20642924.153    20642924.687
  -4962991.90448  -3867260.88444  24172887.896    24172887.513
  -1949828.27848  -1519349.38444  23413353.069    23413352.646
 02  1  3  1 37  0.0000000  0  7G 1G 4G25G22G20G13G29
 -18742039.63249 -14604178.93046  21518218.012    21518218.599
  -2753964.57148                  24796619.072
 -16030679.96249 -12491434.91746  22025608.253    22025608.350
 -20085208.32849 -15650810.81447  20488205.433    20488206.893
 -24799687.34749 -19324428.61647  20645887.497    20645887.855
  -5054594.48248  -3938639.44444  24155455.226    24155454.815
  -1868466.41548  -1455950.68544  23428835.837    23428836.614
 02  1  3  1 37 30.0000000  0  7G 1G 4G25G22G20G13G29
 -18803231.08849 -14651860.57846  21506574.073    21506574.566
  -2764176.23248  -2153903.99144  24794676.861    24794677.227
 -15962317.30049 -12438165.34546  22038617.455    22038617.572
 -20131130.79649 -15686594.54947  20479466.675    20479467.829
 -24783525.95849 -19311835.34347  20648963.466    20648963.611
  -5146188.17748  -4010011.08744  24138026.954    24138026.180
  -1786947.48948  -1392429.62444  23444348.860    23444347.987
 02  1  3  1 38  0.0000000  0  7G 1G 4G22G25G20G13G29
 -18864238.22049 -14699398.59646  21494964.838    21494965.051
  -2773863.04548                  24792834.029
 -20176444.36249 -15721903.82047  20470843.770    20470844.956
 -15893787.01249 -12384765.15746  22051658.110    22051658.635
 -24766762.49049 -19298772.92147  20652153.564    20652153.719
  -5237759.25348  -4081365.08644  24120600.574    24120598.778
  -1705259.01048  -1328776.44645  23459893.311    23459897.773
 02  1  3  1 38 30.0000000  0  7G 1G 4G22G25G20G13G29
 -18925069.57749 -14746799.63546  21483388.813    21483389.593
  -2783034.94148  -2168599.04244  24791089.272    24791089.277
 -20221157.02949 -15756744.85147  20462335.028    20462336.397
 -15825099.78149 -12331242.68146  22064729.048    22064729.167
 -24749406.57849 -19285248.85447  20655456.204    20655456.563
  -5329316.34648  -4152708.17844  24103177.449    24103176.582
  -1623411.20248  -1264999.11245  23475468.997    23475470.349
 02  1  3  1 39  0.0000000  0  7G 1G 4G25G22G20G13G29
 -18985706.40549 -14794049.10546  21471849.750    21471850.313
  -2791674.43548  -2175331.06144  24789444.442    24789447.728
 -15756239.63849 -12277585.46646  22077832.556    22077832.812
 -20265249.50849 -15791102.60047  20453944.710    20453946.064
 -24731441.37349 -19271250.01647  20658874.514    20658874.881
  -5420841.11948  -4224026.13244  24085762.027    24085761.707
  -1541386.94848  -1201084.29045  23491077.575    23491079.602
 02  1  3  1 39 30.0000000  0  7G 1G 4G25G22G20G13G29
 -19046159.13449 -14841155.12546  21460346.401    21460346.894
  -2799793.32148  -2181657.41644  24787899.079    24787901.554
 -15687219.44949 -12223803.53146  22090966.824    22090966.883
 -20308732.07549 -15824985.10747  20445670.457    20445671.838
 -24712878.83249 -19256785.71947  20662406.473    20662406.850
  -5512344.19648  -4295327.12644  24068348.324    24068348.150
  -1459198.42348  -1137041.52144  23506717.214    23506720.563
 02  1  3  1 40  0.0000000  0  7G 1G 4G22G25G20G13G29
 -19106423.43149 -14888114.31546  21448878.613    21448879.086
  -2807388.51248                  24786451.977
 -20351599.93149 -15858388.61947  20437512.723    20437513.785
 -15618037.64949 -12169895.66846  22104131.808    22104132.144
 -24693716.29049 -19241853.88947  20666053.315    20666053.602
  -5603821.57848  -4366608.12944  24050941.704    24050939.669
  -1376842.83748  -1072868.51344  23522389.736    23522392.433
 02  1  3  1 40 30.0000000  0  7G 1G 4G22G25G20G13G29
 -19166511.29749 -14934936.02346  21437443.778    21437444.397
  -2814473.32348                  24785102.868
 -20393864.61649 -15891322.11747  20429470.130    20429471.287
 -15548708.73049 -12115873.17246  22117324.292    22117324.174
 -24673967.32049 -19226465.10147  20669811.725    20669812.072
  -5695285.50048  -4437878.68044  24033535.853    24033534.978
  -1294333.77948  -1008575.91845  23538091.219    23538092.359
 02  1  3  1 41  0.0000000  0  7G 1G25G 4G22G20G13G29
 -19226405.03649 -14981606.46646  21426046.758    21426047.244
 -15479217.06649 -12061723.85846  22130548.381    22130548.189
  -2821031.44148                  24783854.913
 -20435508.12349 -15923771.59247  20421545.293    20421546.745
 -24653615.47749 -19210606.54347  20673684.398    20673684.813
  -5786718.50448  -4509125.09544  24016136.523    24016135.954
  -1211655.20148   -944151.25145  23553823.078    23553825.958
 02  1  3  1 41 30.0000000  0  8G 1G25G 4G22G 6G20G13G29
 -19286061.52649 -15028092.04647  21414694.179    21414695.085
 -15409522.46149 -12007416.40946  22143810.940    22143811.132
  -2827021.23848                  24782715.133
 -20476487.01249 -15955703.18447  20413747.373    20413748.640
         -.65358                  25532292.565
 -24632619.54549 -19194246.10247  20677679.846    20677680.284
  -5878077.85548  -4580314.14344  23998751.939    23998750.167
  -1128765.81448   -879562.32444  23569597.266    23569600.853
 02  1  3  1 42  0.0000000  0  8G 1G25G 4G22G 6G20G13G29
 -19345490.56249 -15074400.38147  21403384.901    21403385.481
 -15339636.73749 -11952960.03846  22157109.591    22157109.966
  -2832453.96848                  24781682.338
 -20516810.84449 -15987124.34147  20406074.022    20406075.124
    -11462.15148                  25530111.431
 -24610991.01149 -19177392.72147  20681795.617    20681796.028
  -5969373.64648  -4651453.68544  23981378.043    23981378.353
  -1045677.01048   -814818.01444  23585409.652    23585413.535
 02  1  3  1 42 30.0000000  0  8G 1G25G 4G22G 6G20G13G29
 -19404719.72149 -15120552.97047  21392114.737    21392115.313
 -15269590.59949 -11898378.67246  22170439.126    22170439.566
  -2837358.57148  -2210928.87444  24780749.473    24780752.771
 -20556507.03949 -16018056.43647  20398520.192    20398521.529
    -22461.31648                  25528018.299
 -24588759.13349 -19160069.20147  20686026.130    20686026.515
  -6060633.46348  -4722565.12144  23964013.314    23964012.934
   -962418.07548   -749941.13145  23601252.604    23601257.423
 02  1  3  1 43  0.0000000  0  8G 1G25G 4G22G 6G20G13G29
 -19463758.67849 -15166557.35147  21380879.247    21380879.980
 -15199395.83049 -11843681.49046  22183796.690    22183796.653
  -2841746.44948                  24779914.799
 -20595585.04849 -16048506.82447  20391083.754    20391085.101
    -33008.05748                  25526011.236
 -24565935.54249 -19142284.60647  20690369.359    20690369.900
  -6151867.59548  -4793656.59344  23946650.519    23946650.346
   -879000.56848   -684940.67144  23617126.805    23617129.623
 02  1  3  1 43 30.0000000  0  8G 1G25G 4G22G 6G20G13G29
 -19522595.75649 -15212404.43347  21369683.338    21369683.881
 -15129043.35449 -11788861.41946  22197184.776    22197184.603
  -2845607.28848                  24779180.527
 -20634032.95749 -16078466.22447  20383767.875    20383769.079
    -43090.97848                  25524092.790
 -24542510.00149 -19124030.96547  20694826.983    20694827.452
  -6243064.63648  -4864719.13344  23929297.121    23929296.936
   -795414.36348   -619808.80944  23633032.603    23633033.805
 02  1  3  1 44  0.0000000  0  8G 1G25G 4G22G 6G20G13G29
 -19581230.43049 -15258093.79447  21358525.888    21358526.395
 -15058535.11149 -11733919.97546  22210601.688    22210602.266
  -2848941.97448  -2219954.86844  24778546.394    24778545.605
 -20671850.11649 -16107934.12747  20376571.292    20376572.487
    -52709.80348                  25522262.203
 -24518483.90549 -19105309.35847  20699399.195    20699399.692
  -6334223.95548  -4935752.32544  23911949.786    23911948.405
   -711660.65948   -554546.40844  23648971.131    23648972.182
 02  1  3  1 44 30.0000000  0  8G 1G25G 4G22G 6G20G13G29
 -19639652.74849 -15303617.68847  21347408.053    21347408.836
 -14987863.61349 -11678851.31746  22224050.183    22224050.577
  -2851742.33948                  24778013.492
 -20709026.24049 -16136902.52047  20369496.755    20369498.212
    -61854.98248                  25520522.032
 -24493849.15849 -19086113.48247  20704086.868    20704087.399
  -6425335.90248  -5006748.58344  23894611.169    23894614.226
   -627731.11948   -489146.94844  23664942.115    23664945.855
 02  1  3  1 45  0.0000000  0  8G 1G25G 4G22G 6G20G13G29
 -19697896.16349 -15349002.17747  21336324.867    21336325.467
 -14917064.65149 -11623683.32946  22237522.775    22237523.043
  -2854043.26448                  24777575.099
 -20745594.99849 -16165397.64647  20362537.537    20362538.928
    -70560.56348                  25518865.402
 -24468641.05049 -19066470.82847  20708884.003    20708884.494
  -6516434.20648  -5077734.24144  23877276.434    23877279.639
   -543660.98348   -423638.03344  23680940.204    23680943.327
 02  1  3  1 45 30.0000000  0  8G 1G25G 4G22G 6G20G13G29
 -19755949.89249 -15394238.86047  21325277.431    21325278.057
 -14846129.80149 -11568409.45946  22251021.246    22251021.654
  -2855835.64648                  24777233.612
 -20781545.46549 -16193410.98847  20355696.666    20355698.040
    -78815.96248                  25517294.432
 -24442850.78349 -19046374.54847  20713791.924    20713792.500
  -6607508.46648  -5148701.20144  23859944.574    23859942.739
   -459441.20748   -358012.43844  23696967.674    23696968.531
 02  1  3  1 46  0.0000000  0  8G 1G25G 4G22G 6G20G13G29
 -19813797.29049 -15439314.74947  21314269.181    21314269.660
 -14775044.90749 -11513018.67846  22264548.397    22264548.790
  -2857104.32248                  24776992.748
 -20816860.83449 -16220929.44247  20348976.576    20348977.894
    -86604.89148                  25515812.389
 -24416463.33949 -19025812.93247  20718813.459    20718813.934
  -6698542.20748  -5219636.49944  23842622.510    23842622.157
   -375056.87248   -292258.69444  23713024.722    23713030.960
 02  1  3  1 46 30.0000000  0  8G 1G25G 4G22G 6G20G13G29
 -19871428.87849 -15484222.46647  21303302.639    21303303.163
 -14703803.38549 -11457505.83946  22278105.268    22278105.650
  -2857841.78648                  24776852.417
 -20851532.02549 -16247945.94947  20342378.761    20342379.902
    -93918.56848                  25514420.443
 -24389471.40749 -19004780.28947  20723949.792    20723950.206
  -6789526.26148  -5290533.11744  23825308.246    23825307.976
   -290500.59148   -226370.87844  23729116.469    23729118.115
 02  1  3  1 47  0.0000000  0  8G 1G25G 4G22G 6G20G13G29
 -19928838.22649 -15528957.01347  21292378.275    21292378.664
 -14632401.50949 -11401868.06346  22291692.570    22291692.975
  -2858043.49048                  24776812.961
 -20885552.67849 -16274455.56347  20335904.994    20335906.150
   -100751.04747    -78506.99044  25513120.172    25513117.683
 -24361870.66149 -18983273.24347  20729201.840    20729202.262
  -6880454.69148  -5361386.42444  23808005.581    23808005.374
   -205767.67348   -160345.49144  23745239.286    23745240.589
 02  1  3  1 47 30.0000000  0  8G 1G25G 4G22G 6G20G13G29
 -19986036.20049 -15573526.86347  21281493.685    21281494.224
 -14560852.20249 -11346115.40146  22305308.067    22305308.093
  -2857721.91048                  24776873.107
 -20918933.44749 -16300466.55847  20329553.039    20329554.065
   -107113.58747                  25511909.462
 -24333674.04449 -18961301.88247  20734567.808    20734568.196
  -6971338.44248  -5432204.91644  23790710.103    23790711.592
   -120870.50848    -94192.14544  23761395.726    23761398.886
 02  1  3  1 48  0.0000000  0  8G 1G25G 4G22G 6G20G13G29
 -20043038.26549 -15617944.05947  21270646.514    21270647.166
 -14489173.39749 -11290261.83246  22318947.983    22318948.303
  -2856894.18848                  24777031.414
 -20951689.84849 -16325991.03747  20323319.521    20323320.575
   -113021.91747                  25510785.199
 -24304898.83749 -18938879.66947  20740043.411    20740043.915
  -7062192.87848  -5503000.48844  23773421.499    23773421.452
    -35826.43748    -27924.27044  23777579.060    23777584.058
 02  1  3  1 48 30.0000000  0  8G 1G25G 4G22G 6G20G13G29
 -20099831.09549 -15662198.21947  21259839.376    21259839.821
 -14417353.88349 -11234298.61846  22332615.032    22332615.336
  -2855548.51448                  24777286.566
 -20983808.65349 -16351018.68847  20317207.818    20317209.040
   -118463.28647                  25509749.607
 -24275533.62449 -18915997.70847  20745631.550    20745631.966
  -7153004.86048  -5573763.03144  23756141.000    23756140.357
     49376.28548     38467.18344  23793792.361    23793798.479
 02  1  3  1 49  0.0000000  0  8G 1G25G 4G22G 6G20G13G29
 -20156393.65349 -15706272.94347  21249075.416    21249076.312
 -14345375.57249 -11178211.67346  22346311.535    22346312.013
  -2853665.99248                  24777644.197
 -21015269.25849 -16375533.44847  20311220.944    20311222.232
   -123417.57547                  25508807.034
 -24245559.67249 -18892641.41047  20751334.989    20751335.471
  -7243753.98448  -5644476.59844  23738870.737    23738869.666
    134756.57348    104996.99944  23810039.863    23810044.681
 02  1  3  1 49 30.0000000  0  8G 1G25G 4G22G 6G20G13G29
 -20212733.69249 -15750174.27547  21238354.550    21238355.234
 -14273248.75149 -11122009.02146  22360037.103    22360037.550
  -2851256.27148                  24778103.196
 -21046079.56549 -16399541.47647  20305357.694    20305358.921
   -127893.13647                  25507955.658
 -24214987.07649 -18868818.63747  20757152.816    20757153.238
  -7334448.13948  -5715147.38844  23721613.527    23721611.887
    220304.85648    171657.72644  23826320.146    23826323.006
 02  1  3  1 50  0.0000000  0  8G 1G25G 4G22G 6G20G13G29
 -20268847.24449 -15793899.13047  21227676.595    21227677.079
 -14200972.01249 -11065689.54846  22373791.570    22373791.618
  -2848317.26148                  24778662.286
 -21076235.91049 -16423039.92747  20299619.243    20299620.475
   -131886.67247                  25507195.627
 -24183813.77149 -18844527.78947  20763085.099    20763085.552
  -7425083.30048  -5785772.21544  23704365.399    23704365.855
    306023.17648    238450.86644  23842630.919    23842635.530
 02  1  3  1 50 30.0000000  0  8G 1G25G 4G22G 6G20G13G29
 -20324756.78349 -15837465.01047  21217037.133    21217037.623
 -14128569.94449 -11009272.42746  22387568.761    22387569.299
  -2844873.03948                  24779319.051
 -21105760.87849 -16446046.40547  20294000.735    20294002.043
   -135421.20047                  25506523.106
 -24152064.38649 -18819788.05047  20769126.811    20769127.170
  -7515682.82848  -5856369.24845  23687125.475    23687125.371
    391887.60548    305357.95144  23858971.801    23858974.918
 02  1  3  1 51  0.0000000  0  8G 1G25G 4G22G 6G20G13G29
 -20380450.68349 -15880862.85947  21206439.182    21206439.677
 -14056033.65049 -10952750.70346  22401371.826    22401372.817
  -2840914.14548                  24780071.310
 -21134643.24949 -16468552.15747  20288504.514    20288505.707
   -138485.96848                  25505939.890
 -24119729.84049 -18794592.34447  20775279.501    20775280.021
  -7606234.83548  -5926929.14244  23669893.012    23669892.438
    477907.48848    372386.16144  23875341.132    23875344.496
 02  1  3  1 51 30.0000000  0  8G 1G25G 4G22G 6G20G13G29
 -20435923.72549 -15924088.61447  21195883.104    21195883.571
 -13983360.04249 -10896121.98846  22415201.404    22415201.586
  -2836437.44948                  24780923.786
 -21162878.23749 -16490553.45347  20283131.621    20283132.781
   -141076.57548   -109930.28444  25505446.768    25505449.671
 -24086806.93549 -18768938.17847  20781544.931    20781545.533
  -7696734.30848  -5997448.26844  23652671.941    23652670.940
    564086.42648    439538.24744  23891740.502    23891743.129
 02  1  3  1 52  0.0000000  0  8G 1G25G 4G22G 6G20G13G29
 -20491165.71649 -15967134.32147  21185370.613    21185371.159
 -13910541.84349 -10839380.60446  22429058.195    22429059.138
  -2831434.56548                  24781876.465
 -21190456.02149 -16512042.64747  20277883.794    20277885.069
   -143183.44548                  25505045.812
 -24053287.89349 -18742819.48747  20787923.804    20787924.266
  -7787171.33148  -6067918.72744  23635463.309    23635463.564
    650432.58648    506820.70244  23908170.777    23908178.631
 02  1  3  1 52 30.0000000  0  8G 1G25G 4G22G 6G20G13G29
 -20546186.33649 -16010007.53947  21174900.450    21174901.177
 -13837591.16849 -10782535.99746  22442940.142    22442940.905
  -2825917.42348                  24782926.817
 -21217386.78649 -16533027.66147  20272758.920    20272760.058
   -144816.94048                  25504735.051
 -24019184.51249 -18716245.46947  20794412.931    20794413.467
  -7877556.21848  -6138348.50844  23618262.103    23618259.775
    736934.29648    574224.27244  23924632.796    23924636.583
 02  1  3  1 53  0.0000000  0  8G 1G 4G22G 6G25G20G13G29
 -20600980.62549 -16052704.39447  21164473.511    21164474.082
  -2819883.03648                  24784075.254
 -21243665.91349 -16553504.90347  20267758.084    20267759.242
   -145972.86248                  25504515.009
 -13764505.33149 -10725586.06046  22456848.529    22456848.973
 -23984494.39249 -18689214.25047  20801014.294    20801015.038
  -7967883.74148  -6208733.57044  23601075.250    23601074.073
    823594.73848    641751.65844  23941124.111    23941126.426
 02  1  3  1 53 30.0000000  0  8G 1G 4G22G 6G25G20G13G29
 -20655556.23949 -16095230.86547  21154088.068    21154088.713
  -2813340.79248  -2192213.36344  24785319.723    24785317.263
 -21269301.40549 -16573480.61547  20262879.988    20262881.031
   -146659.58848                  25504384.423
 -13691294.55749 -10668538.77946  22470779.583    22470780.921
 -23949227.30449 -18661733.44647  20807725.760    20807726.359
  -8058161.96948  -6279080.28544  23583894.133    23583895.799
    910404.47348    709395.24744  23957643.186    23957645.290
 02  1  3  1 54  0.0000000  0  8G 1G 4G22G 6G25G20G13G29
 -20709903.69349 -16137579.54347  21143746.231    21143746.778
  -2806283.37448  -2186714.07344  24786663.700    24786662.973
 -21294284.29449 -16592947.80747  20258125.927    20258127.011
   -146868.29948   -114443.45944  25504344.403    25504345.689
 -13617951.62749 -10611388.52046  22484736.370    22484736.968
 -23913376.16849 -18633797.54247  20814548.340    20814548.882
  -8148381.39048  -6349381.19244  23566727.287    23566727.686
    997371.13948    777161.16044  23974193.123    23974195.298
 02  1  3  1 54 30.0000000  0  8G 1G 4G22G 6G25G20G13G29
 -20764017.21549 -16179745.94247  21133448.667    21133449.304
  -2798707.41848  -2180810.67944  24788105.190    24788105.971
 -21318609.45749 -16611902.48047  20253496.823    20253498.011
   -146594.36248   -114229.92144  25504396.843    25504398.556
 -13544473.16849 -10554132.66646  22498719.158    22498719.970
 -23876937.78649 -18605404.04947  20821481.895    20821482.713
  -8238536.65148  -6419632.07744  23549570.789    23549568.995
   1084498.32448    845052.18344  23990772.265    23990775.844
 02  1  3  1 55  0.0000000  0  8G 1G 4G22G 6G25G20G13G29
 -20817898.52149 -16221731.40747  21123195.466    21123196.140
  -2790616.68548                  24789644.588
 -21342279.04249 -16630346.31547  20248992.597    20248993.740
   -145840.26748   -113642.35344  25504540.277    25504543.435
 -13470863.62749 -10496774.66046  22512726.511    22512727.476
 -23839916.19749 -18576556.11047  20828526.661    20828527.274
  -8328629.26648  -6489834.11644  23532426.304    23532426.822
   1171782.62348    913065.57844  24007382.904    24007388.548
 02  1  3  1 55 30.0000000  0  8G 1G 4G22G 6G25G20G13G29
 -20871544.29849 -16263533.33147  21112987.328    21112987.979
  -2782009.98348                  24791283.308
 -21365290.47449 -16648277.30047  20244614.001    20244615.037
   -144603.84948   -112678.90844  25504775.723    25504782.621
 -13397121.99249 -10439313.73746  22526759.072    22526760.144
 -23802310.59949 -18547253.09947  20835683.048    20835683.786
  -8418656.64948  -6559985.32445  23515296.106    23515294.945
   1259225.14948    981202.32244  24024023.149    24024028.317
 02  1  3  1 56  0.0000000  0  8G 1G 4G22G 6G25G20G13G29
 -20924951.58749 -16305149.43947  21102824.079    21102824.709
  -2772886.52548  -2160690.49144  24793019.854    24793020.037
 -21387641.40149 -16665693.61847  20240360.569    20240361.755
   -142882.80248   -111337.87844  25505103.205    25505109.391
 -13323247.97149 -10381749.64546  22540816.868    22540817.635
 -23764120.50649 -18517494.63647  20842950.247    20842951.145
  -8508615.85548  -6630083.43044  23498175.780    23498175.967
   1346827.25048   1049463.31944  24040693.401    24040700.456
 02  1  3  1 56 30.0000000  0  8G 1G 4G22G 6G25G20G13G29
 -20978128.75449 -16346586.22147  21092705.047    21092705.656
  -2763257.18448  -2153187.06444  24794851.994    24794848.954
 -21409341.13049 -16682602.50347  20236231.446    20236232.417
   -140686.75148   -109626.72244  25505521.224    25505524.878
 -13249252.47649 -10324090.90146  22554897.700    22554899.151
 -23725357.12249 -18487289.45547  20850326.510    20850327.190
  -8598515.27448  -6700134.93445  23481070.160    23481068.341
   1434578.07248   1117840.28844  24057391.866    24057397.332
 02  1  3  1 57  0.0000000  0  8G 1G 4G22G 6G25G20G13G29
 -21031085.82849 -16387851.47547  21082627.441    21082628.029
  -2753134.03648  -2145298.84444  24796778.079    24796779.610
 -21430400.21449 -16699012.18947  20232223.985    20232225.158
   -138026.56248   -107553.89144  25506027.591    25506031.206
 -13175148.02049 -10266347.26146  22568999.571    22569000.838
 -23686032.89149 -18456647.24247  20857810.424    20857810.911
  -8688365.63848  -6770148.28144  23463971.185    23463969.771
   1522465.90548   1186323.95544  24074116.607    24074121.020
 02  1  3  1 57 30.0000000  0  8G 1G 4G22G 6G25G20G13G29
 -21083803.27249 -16428929.99947  21072595.655    21072596.317
  -2742499.81348                  24798802.144
 -21450799.85549 -16714908.03047  20228342.163    20228343.299
   -134883.48948                  25506625.762
 -13100916.70649 -10208504.77146  22583125.261    22583125.868
 -23646130.58949 -18425554.58847  20865403.348    20865404.012
  -8778147.01948  -6840107.80744  23446886.801    23446885.612
   1610508.33648   1254928.07444  24090870.853    24090874.097
 02  1  3  1 58  0.0000000  0  8G 1G 4G22G 6G25G20G13G29
 -21136268.22649 -16469811.78747  21062611.428    21062612.096
  -2731343.72548  -2128319.37644  24800925.122    24800923.165
 -21470527.84449 -16730280.50147  20224587.777    20224588.844
   -131245.76348                  25507317.943
 -13026548.79949 -10150555.84846  22597277.236    22597278.322
 -23605640.02349 -18394003.54747  20873108.028    20873108.903
  -8867846.63048  -6910003.58845  23429817.686    23429817.277
   1698716.34548   1323661.22944  24107656.172    24107659.853
 02  1  3  1 58 30.0000000  0  8G 1G 4G22G 6G25G20G13G29
 -21188487.44849 -16510502.11047  21052674.929    21052675.543
  -2719675.03048                  24803145.221
 -21489591.53849 -16745135.34147  20220960.236    20220961.440
   -127121.13848                  25508102.836
 -12952053.49449 -10092507.66346  22611453.269    22611454.405
 -23564570.53349 -18362001.39847  20880923.942    20880924.414
  -8957471.87448  -6979841.43945  23412761.848    23412761.175
   1787081.34248   1392516.72344  24124472.228    24124476.349
 02  1  3  1 59  0.0000000  0  8G 1G 4G22G 6G25G20G13G29
 -21240472.57249 -16551010.01047  21042782.751    21042783.360
  -2707507.75148  -2109745.84544  24805460.781    24805462.542
 -21508003.81649 -16759482.58147  20217456.480    20217457.630
   -122522.54548                  25508978.252
 -12877444.93949 -10034371.23246  22625651.333    22625652.052
 -23522936.67749 -18329559.48347  20888846.534    20888846.999
  -9047034.35448  -7049630.40344  23395719.671    23395718.901
   1875589.29048   1461483.64844  24141314.084    24141320.588
 02  1  3  1 59 30.0000000  0  8G 1G 4G22G 6G25G20G13G29
 -21292204.79949 -16591320.85347  21032938.034    21032938.614
  -2694825.40548  -2099863.43744  24807873.150    24807872.365
 -21525746.60949 -16773308.14547  20214080.073    20214081.473
   -117432.11848                  25509946.680
 -12802706.79149  -9976133.81846  22639873.148    22639873.692
 -23480722.13249 -18296665.08447  20896879.522    20896880.260
  -9136515.41348  -7119355.88245  23378690.693    23378691.123
   1964257.07348   1530575.02144  24158187.987    24158192.514
 02  1  3  2  0  0.0000000  0  8G 1G 4G22G 6G25G20G13G29
 -21343700.87449 -16631447.67847  21023138.428    21023139.245
  -2681647.18548  -2089594.68744  24810380.859    24810382.273
 -21542837.45249 -16786625.70147  20210827.763    20210829.043
   -111867.71448                  25511005.721
 -12727857.99149  -9917810.19246  22654116.583    22654117.369
 -23437946.49249 -18263333.46747  20905019.720    20905020.370
  -9225931.86748  -7189031.00645  23361676.920    23361674.719
   2053066.01348   1599776.44244  24175087.837    24175093.249
 02  1  3  2  0 30.0000000  0  7G 1G 4G22G25G20G13G29
 -21394956.96849 -16671387.49047  21013384.738    21013385.821
  -2667971.56248  -2078938.32944  24812983.209    24812983.985
 -21559273.49149 -16799433.00947  20207700.388    20207701.536
 -12652896.93849  -9859399.08046  22668381.776    22668382.557
 -23394608.49349 -18229563.64947  20913266.713    20913267.408
  -9315280.16148  -7258653.06145  23344672.804    23344672.213
   2142017.92348                  24192016.053
 02  1  3  2  1  0.0000000  0  7G 1G 4G22G25G20G13G29
 -21445959.87349 -16711130.02447  21003679.402    21003680.175
  -2653787.63448  -2067885.88944  24815681.927    24815685.801
 -21575042.49349 -16811720.55047  20204699.463    20204700.528
 -12577812.88649  -9800892.13246  22682669.420    22682670.487
 -23350697.78649 -18195347.56647  20921622.477    20921623.328
  -9404546.95548  -7328211.57745  23327686.991    23327686.972
   2231124.08448                  24208971.948
 02  1  3  2  1 30.0000000  0  7G 1G 4G22G25G20G13G29
 -21496701.90749 -16750669.28347  20994023.594    20994024.445
  -2639090.51948  -2056433.50644  24818478.571    24818478.162
 -21590137.95349 -16823483.25447  20201827.086    20201828.332
 -12502600.95049  -9742285.54346  22696982.069    22696982.651
 -23306209.62149 -18160681.52047  20930088.356    20930089.334
  -9493724.66248  -7397700.68045  23310715.849    23310715.714
   2320389.94548   1808079.63344  24225958.901    24225963.610
 02  1  3  2  2  0.0000000  0  7G 1G 4G22G25G20G13G29
 -21547209.52449 -16790025.87347  20984412.337    20984412.959
  -2623909.26848  -2044603.97744  24821367.698    24821367.215
 -21604587.28049 -16834742.47947  20199077.347    20199078.468
 -12427289.95449  -9683601.75146  22711313.216    22711314.282
 -23261173.14149 -18125588.21747  20938658.805    20938659.420
  -9582840.71348  -7467141.75845  23293758.485    23293758.223
   2409786.92748                  24242970.713
 02  1  3  2  2 30.0000000  0  7G 1G 4G22G25G20G13G29
 -21597476.79949 -16829195.20447  20974846.894    20974847.545
  -2608240.20848  -2032394.25144  24824348.124    24824352.477
 -21618385.50649 -16845494.34847  20196451.668    20196452.938
 -12351876.19249  -9624837.89746  22725663.551    22725665.404
 -23215585.29749 -18090065.28547  20947333.525    20947334.514
  -9671888.63148  -7536529.72545  23276812.742    23276813.776
   2499319.00548                  24260008.898
 02  1  3  2  3  0.0000000  0  7G 1G 4G22G25G20G13G29
 -21647477.64249 -16868156.92447  20965331.943    20965332.605
  -2592059.90648                  24827425.955
 -21631507.77549 -16855719.49747  20193954.371    20193955.574
 -12276336.10049  -9565975.59946  22740038.661    22740040.244
 -23169422.74149 -18054094.52347  20956118.032    20956118.852
  -9760842.69148  -7605844.56645  23259885.562    23259885.855
   2589010.18448                  24277076.405
 02  1  3  2  3 30.0000000  0  8G 1G 4G22G27G25G20G13G29
 -21697221.93249 -16906918.71947  20955865.914    20955866.655
  -2575380.76148  -2006789.41244  24830600.155    24830598.744
 -21643965.11549 -16865426.52647  20191583.963    20191585.224
          .00958          .68654  25580043.636    25580045.872
 -12200682.19949  -9507024.62646  22754435.336    22754436.256
 -23122698.65749 -18017686.20247  20965009.882    20965010.450
  -9849712.66348  -7675093.86445  23242974.871    23242973.039
   2678848.65248   2087396.51244  24294172.265    24294179.532
 02  1  3  2  4  0.0000000  0  8G 1G 4G22G27G25G20G13G29
 -21746717.33249 -16945486.58047  20946447.549    20946448.431
  -2558213.20248  -1993412.09344  24833866.864    24833873.315
 -21655766.42449 -16874622.36447  20189338.329    20189339.589
    -84743.47448    -66033.22444  25563918.323    25563921.051
 -12124924.31049  -9447992.62446  22768851.558    22768853.636
 -23075423.42249 -17980848.41047  20974005.912    20974006.897
  -9938506.77648  -7744284.09045  23226077.281    23226077.071
   2768824.53748                  24311294.420
 02  1  3  2  4 30.0000000  0  8G20G 1G 4G22G27G25G13G29
 -23027591.93749 -17943577.18247  20983107.845    20983108.864
 -21795956.09649 -16983854.47547  20937077.422    20937078.265
  -2540551.89548  -1979650.01344  24837227.151    24837230.911
 -21666904.86149 -16883301.68047  20187218.668    20187219.847
   -169430.85548   -132023.45744  25547801.268    25547803.278
 -12049057.01349  -9388875.37246  22783289.052    22783290.352
 -10027217.37948  -7813409.22745  23209196.345    23209194.918
   2858943.53748                  24328443.871
 02  1  3  2  5  0.0000000  0  8G20G 1G 4G22G27G25G13G29
 -22979197.12149 -17905866.98947  20992317.394    20992318.154
 -21844927.83049 -17022014.28547  20927758.331    20927759.304
  -2522389.17948  -1965497.20444  24840683.967    24840687.706
 -21677371.58549 -16891457.57947  20185226.882    20185228.170
   -254052.73648   -197962.61144  25531699.658    25531700.864
 -11973072.78749  -9329666.99546  22797748.488    22797749.512
 -10115833.81948  -7882460.98945  23192333.206    23192332.841
   2949213.72748                  24345622.035
 02  1  3  2  5 30.0000000  0  8G20G 1G 4G22G27G25G13G29
 -22930246.86149 -17867723.98647  21001632.372    21001633.428
 -21893637.28549 -17059969.71447  20918489.470    20918490.364
  -2503732.56348  -1950959.57144  24844235.382    24844235.703
 -21687172.40649 -16899094.59347  20183361.769    20183363.136
   -338614.92448   -263855.25944  25515607.592    25515608.508
 -11896978.51349  -9270372.87946  22812228.653    22812229.861
 -10204361.06748  -7951443.23645  23175486.819    23175486.205
   3039628.34348                  24362827.205
 02  1  3  2  6  0.0000000  0  8G20G 1G 4G22G27G25G13G29
 -22880748.17949 -17829153.64047  21011050.890    21011052.205
 -21942088.69049 -17097724.07747  20909269.458    20909270.283
  -2484588.74148  -1936042.28144  24847878.247    24847880.534
 -21696312.95349 -16906217.10947  20181622.463    20181623.669
   -423122.61648   -329705.44044  25499527.343    25499527.068
 -11820780.53649  -9210997.94746  22826728.999    22826731.154
 -10292803.64549  -8020359.52145  23158657.417    23158656.678
   3130181.08848   2439081.87145  24380059.615    24380060.327
 02  1  3  2  6 30.0000000  0  8G20G 1G 4G22G27G25G13G29
 -22830707.96349 -17790161.32247  21020574.189    21020574.936
 -21990285.92649 -17135280.38247  20900097.978    20900098.764
  -2464964.63848  -1920750.76944  24851613.029    24851612.698
 -21704798.52749 -16912829.25547  20180007.809    20180009.086
   -507581.07348   -395517.23244  25483454.618    25483454.951
 -11744485.68049  -9151547.53646  22841247.249    22841248.836
 -10381165.39448  -8089212.82645  23141841.920    23141840.650
   3220865.84448                  24397316.282
 02  1  3  2  7  0.0000000  0  8G20G 1G 4G22G27G25G13G29
 -22780110.43949 -17750734.73547  21030202.293    21030203.571
 -22038210.07749 -17172623.88147  20890978.161    20890978.965
  -2444843.77948  -1905072.17444  24855442.782    24855445.922
 -21712611.29349 -16918917.13447  20178521.039    20178522.183
   -591972.09548   -461276.53644  25467395.411    25467396.986
 -11668077.13849  -9092008.53346  22855786.871    22855787.869
 -10469427.71149  -8157988.64545  23125046.817    23125046.483
   3311699.48448                  24414602.163
 02  1  3  2  7 30.0000000  0  8G20G 1G 4G22G27G25G13G29
 -22728967.27249 -17710882.98147  21039934.131    21039935.544
 -22085869.91049 -17209761.44247  20881908.738    20881909.775
  -2424237.69148  -1889015.43544  24859364.143    24859363.628
 -21719761.53549 -16924488.76247  20177160.587    20177161.665
   -676305.61248   -526990.91044  25451348.184    25451349.378
 -11591566.02749  -9032389.60646  22870347.409    22870349.060
 -10557598.81649  -8226693.40845  23108268.076    23108266.747
   3402671.36248                  24431914.597
 02  1  3  2  8  0.0000000  0  8G20G 1G 4G22G27G25G13G29
 -22677271.05149 -17670600.27147  21049772.392    21049773.181
 -22133254.80949 -17246684.77547  20872891.733    20872892.867
  -2403138.67248                  24863379.185
 -21726240.12949 -16929537.03847  20175927.754    20175928.894
   -760572.05848   -592653.08344  25435311.551    25435311.783
 -11514944.25949  -8972684.46946  22884927.537    22884930.579
 -10645668.62749  -8295319.23945  23091508.882    23091508.675
   3493789.63248                  24449253.203
 02  1  3  2  8 30.0000000  0  8G20G 1G 4G22G27G25G13G29
 -22625045.56149 -17629905.14547  21059710.551    21059711.612
 -22180385.25049 -17283409.81347  20863922.903    20863923.971
  -2381569.94048  -1855767.70644  24867483.738    24867481.331
 -21732068.96449 -16934079.00647  20174818.317    20174819.661
   -844793.33948   -658280.07444  25419285.680    25419288.009
 -11438234.73049  -8912910.92746  22899524.990    22899526.262
 -10733657.78649  -8363882.22345  23074766.384    23074763.683
   3585031.72448                  24466616.565
 02  1  3  2  9  0.0000000  0  8G20G 1G 4G22G27G25G13G29
 -22572283.17449 -17588791.66246  21069750.376    21069751.705
 -22227250.54449 -17319928.26247  20855004.904    20855005.883
  -2359523.49948  -1838588.67144  24871678.581    24871677.151
 -21737238.79849 -16938107.45847  20173834.500    20173835.963
   -928959.38548   -723864.03844  25403269.134    25403268.954
 -11361428.82449  -8853062.29146  22914140.933    22914141.679
 -10821555.64548  -8432374.06045  23058037.464    23058037.642
   3676406.14848                  24484005.409
 02  1  3  2  9 30.0000000  0  8G20G 1G 4G22G27G25G13G29
 -22518980.87849 -17547257.47147  21079894.165    21079895.034
 -22273844.51649 -17356235.27947  20846138.732    20846139.808
  -2336996.14848  -1821034.87344  24875965.122    24875965.531
 -21741745.03649 -16941618.82447  20172977.066    20172978.314
  -1013065.34748   -789401.09344  25387264.633    25387266.704
 -11284523.30649  -8793136.03946  22928775.465    22928777.275
 -10909355.67149  -8500789.65545  23041331.969    23041331.149
   3767916.99348                  24501418.744
 02  1  3  2 10  0.0000000  0  8G20G 1G 4G22G27G25G13G29
 -22465139.70049 -17505303.37647  21090139.451    21090140.461
 -22320165.10649 -17392329.27347  20837323.870    20837324.928
  -2313988.50548  -1803106.73344  24880343.159    24880342.378
 -21745586.94549 -16944612.53947  20172246.067    20172247.408
  -1097109.99148   -854890.44144  25371271.402    25371274.393
 -11207517.83749  -8733131.90846  22943429.211    22943431.331
 -10997056.07649  -8569127.63245  23024642.205    23024642.309
   3859564.22348                  24518859.063
 02  1  3  2 10 30.0000000  0  7G20G 1G22G27G25G13G29
 -22410767.74449 -17462935.68946  21100485.781    21100486.981
 -22366217.01149 -17428213.89847  20828560.473    20828561.543
 -21748770.93749 -16947093.58747  20171640.139    20171641.398
  -1181099.28448   -920336.65644  25355288.082    25355290.513
 -11130419.91449  -8673055.71545  22958100.712    22958102.244
 -11084662.04649  -8637392.00145  23007971.404    23007970.988
   3951340.79548                  24536323.677
 02  1  3  2 11  0.0000000  0  7G20G 1G22G27G25G13G29
 -22355862.69649 -17420152.60246  21110934.674    21110935.755
 -22411994.83349 -17463884.94947  20819849.523    20819850.365
 -21751293.30849 -16949059.08747  20171160.060    20171161.294
  -1265028.93448   -985736.38044  25339317.953    25339320.021
 -11053226.12449  -8612904.82745  22972790.321    22972792.346
 -11172167.98449  -8705578.45945  22991319.746    22991318.053
   4043249.92248                  24553814.033
 02  1  3  2 11 30.0000000  0  8G20G 1G 3G22G27G25G13G29
 -22300440.11949 -17376966.25246  21121481.053    21121481.901
 -22457510.65349 -17499351.84647  20811187.978    20811188.765
          .08858                  25223042.958
 -21753167.82049 -16950519.76247  20170803.546    20170805.024
  -1348912.22848  -1051099.99244  25323354.415    25323355.619
 -10975951.37048  -8552690.86445  22987494.835    22987496.468
 -11259585.99549  -8773696.37645  22974684.012    22974683.646
   4135277.28448                  24571327.494
 02  1  3  2 12  0.0000000  0  8G20G 1G 3G22G27G25G13G29
 -22244472.94249 -17333355.53546  21132131.177    21132132.404
 -22502733.98449 -17534590.83547  20802582.586    20802583.423
    -89356.36648                  25206038.632
 -21754365.71249 -16951453.20047  20170575.635    20170577.006
  -1432719.75448  -1116404.53044  25307406.697    25307408.666
 -10898567.49348  -8492391.85345  23002220.804    23002222.907
 -11346885.27449  -8841721.77145  22958072.448    22958072.402
   4227451.08648                  24588865.974
 02  1  3  2 12 30.0000000  0  8G20G 1G 3G22G27G25G13G29
 -22187954.12249 -17289314.96746  21142886.372    21142887.638
 -22547654.75349 -17569594.05747  20794034.302    20794035.147
   -178759.28648                  25189026.213
 -21754878.39749 -16951852.71547  20170477.922    20170479.360
  -1516442.41148  -1181642.92944  25291474.864    25291475.320
 -10821066.58748  -8432001.65445  23016969.203    23016970.053
 -11434056.46849  -8909647.37545  22941483.337    22941482.900
   4319779.30648                  24606437.047
 02  1  3  2 13  0.0000000  0  8G20G 1G 3G22G27G25G13G29
 -22130908.03249 -17244863.54046  21153742.080    21153743.359
 -22592294.02749 -17604377.94047  20785539.752    20785540.520
   -268228.53748                  25172000.321
 -21754728.70649 -16951736.09447  20170506.320    20170507.759
  -1600102.46348  -1246832.55744  25275554.637    25275554.973
 -10743471.84948  -8371538.36045  23031734.334    23031737.025
 -11521120.27049  -8977489.32445  22924916.311    22924915.697
   4412238.82048                  24624031.886
 02  1  3  2 13 30.0000000  0  8G20G 1G 3G22G27G25G13G29
 -22073331.80549 -17199999.02046  21164698.227    21164699.348
 -22636645.67149 -17638937.69647  20777100.269    20777100.974
   -357756.58248                  25154963.661
 -21753912.24249 -16951099.91447  20170661.659    20170663.219
  -1683694.96348  -1311969.55544  25259648.127    25259649.510
 -10665779.41448  -8310998.95545  23046519.612    23046521.542
 -11608070.57649  -9045242.83245  22908369.378    22908369.060
   4504833.51048                  24641652.166
 02  1  3  2 14  0.0000000  0  8G20G 1G 3G22G27G25G13G29
 -22015222.17149 -17154718.86146  21175756.056    21175757.418
 -22680702.85649 -17673268.00047  20768716.129    20768716.811
   -447335.60648   -348571.86744  25137917.327    25137922.919
 -21752424.10049 -16949940.35147  20170944.880    20170946.455
  -1767214.23448  -1377049.52044  25243754.240    25243756.165
 -10587985.18348  -8250380.21645  23061323.412    23061325.235
 -11694900.54549  -9112902.54945  22891846.630    22891846.657
   4597567.79448                  24659300.006
 02  1  3  2 14 30.0000000  0  7G20G 1G22G27G25G13G29
 -21956584.00149 -17109026.85246  21186914.953    21186916.308
 -22724466.79649 -17707369.79947  20760387.942    20760388.879
 -21750267.53149 -16948259.93547  20171355.271    20171356.843
  -1850662.84348  -1442074.37344  25227875.047    25227878.457
 -10510093.21448  -8189685.30845  23076145.121    23076148.065
 -11781611.62449  -9180469.63845  22875346.416    22875345.573
   4690438.04448                  24676971.853
 02  1  3  2 15  0.0000000  0  7G20G25G 1G22G27G13G29
 -21897439.41849 -17062940.23846  21198169.719    21198171.198
 -10432124.32448  -8128930.47545  23090983.039    23090985.508
 -22767956.47549 -17741257.88847  20752112.322    20752113.372
 -21747462.97549 -16946074.59347  20171889.085    20171890.587
  -1934060.67648  -1507059.69044  25212004.108    25212007.203
 -11868222.70949  -9247958.81845  22858864.378    22858863.665
   4783423.35148                  24694666.877
 02  1  3  2 15 30.0000000  0  8G20G25G 1G 3G22G27G13G29
 -21837791.38849 -17016461.33546  21209520.194    21209521.718
 -10354080.30448  -8068117.09045  23105834.684    23105835.748
 -22811171.22149 -17774931.74347  20743888.795    20743889.815
        -1.09658                  25086708.439
 -21744011.93749 -16943385.49847  20172545.953    20172547.726
  -2017408.50448  -1572006.04544  25196144.239    25196146.678
 -11954733.37449  -9315369.75745  22842402.898    22842401.377
   4876521.91848                  24712383.072
 02  1  3  2 16  0.0000000  0  8G20G 1G 3G22G27G25G13G29
 -21777646.92349 -16969595.59446  21220965.373    21220967.027
 -22854114.75449 -17808394.26947  20735716.831    20735717.919
    -89835.63848                  25069615.161
 -21739920.06649 -16940197.05247  20173324.445    20173326.003
  -2100711.00548  -1636917.08444  25180292.356    25180294.470
 -10275967.28548  -8007249.96045  23120698.144    23120700.837
 -12041146.97849  -9382705.07145  22825958.016    22825958.402
   4969727.81248                  24730119.931
 02  1  3  2 16 30.0000000  0  8G20G25G 1G 3G22G27G13G29
 -21716996.90449 -16922335.91946  21232506.962    21232508.401
 -10197774.49348  -7946320.66045  23135578.881    23135580.360
 -22896774.46249 -17841635.63947  20727599.248    20727600.283
   -179725.14648                  25052508.674
 -21735176.64549 -16936500.90747  20174226.975    20174228.680
  -2183956.62448  -1701783.72844  25164451.117    25164452.710
 -12127451.02049  -9449955.02145  22809535.343    22809534.975
   5063051.39048                  24747879.273
 02  1  3  2 17  0.0000000  0  8G20G25G 1G 3G22G27G13G29
 -21655833.39449 -16874676.12346  21244145.912    21244147.567
 -10119492.80548  -7885322.09645  23150475.054    23150476.833
 -22939138.87449 -17874646.91347  20719537.811    20719538.742
   -269656.99548                  25035395.206
 -21729772.08049 -16932289.58247  20175255.394    20175257.153
  -2267135.22848  -1766598.26044  25148623.260    25148626.035
 -12213634.02949  -9517110.64645  22793135.291    22793134.564
   5156501.86548                  24765662.874
 02  1  3  2 17 30.0000000  0  8G20G25G 1G 3G22G27G13G29
 -21594155.68449 -16826615.65146  21255882.931    21255884.731
 -10041120.68548  -7824253.07345  23165389.085    23165391.681
 -22981203.80349 -17907424.82147  20711533.321    20711534.369
   -359625.69048                  25018274.861
 -21723704.25449 -16927561.43247  20176409.812    20176411.670
  -2350243.54648  -1831357.97444  25132808.095    25132806.369
 -12299691.64549  -9584168.55245  22776758.922    22776758.428
   5250081.31148                  24783470.153
 02  1  3  2 18  0.0000000  0  8G20G25G 1G 3G22G27G13G29
 -21531964.16349 -16778154.80846  21267717.759    21267719.166
  -9962656.97448  -7763112.67845  23180320.808    23180322.435
 -23022966.10849 -17939966.90547  20703585.807    20703586.745
   -449626.65648                  25001146.181
 -21716972.00349 -16922315.55247  20177691.234    20177693.101
  -2433279.54948  -1896061.30644  25117006.909    25117009.556
 -12385620.89449  -9651126.43745  22760407.395    22760407.223
   5343790.32648                  24801302.620
 02  1  3  2 18 30.0000000  0  8G20G25G 1G 3G22G27G13G29
 -21469249.55449 -16729286.36446  21279651.707    21279653.650
  -9884091.46348  -7701892.97045  23195270.851    23195272.746
 -23064412.97949 -17972263.19347  20695698.625    20695699.760
   -539645.46248                  24984018.087
 -21709564.55149 -16916543.54447  20179101.267    20179102.907
  -2516231.68448  -1960699.28744  25101221.235    25101220.256
 -12471408.64849  -9717974.08045  22744082.373    22744081.336
   5437639.63748                  24819162.240
 02  1  3  2 19  0.0000000  0  8G20G25G 1G 3G22G27G13G29
 -21406025.30649 -16680020.79846  21291683.379    21291684.717
  -9805436.08248  -7640603.21145  23210238.675    23210241.103
 -23105554.29449 -18004321.39047  20687869.700    20687870.818
   -629691.00048                  24966882.655
 -21701493.82249 -16910254.69847  20180636.555    20180638.389
  -2599111.03648  -2025280.55744  25085450.345    25085452.139
 -12557064.86149  -9784719.22345  22727782.772    22727782.249
   5531617.16148                  24837045.380
 02  1  3  2 19 30.0000000  0  8G20G25G13G 1G 3G22G27G29
 -21342306.27049 -16630369.68246  21303808.461    21303810.160
  -9726704.63248  -7579254.18645  23225221.379    23225221.636
 -12642600.65749  -9851370.51445  22711505.240    22711505.210
 -23146401.23749 -18036150.20047  20680097.049    20680098.084
   -719773.14648                  24949741.086
 -21692773.26249 -16903459.48747  20182295.886    20182297.753
  -2681929.96248  -2089814.75444  25069689.858    25069691.786
   5625709.16348                  24854951.891
 02  1  3  2 20  0.0000000  0  7G20G25G13G 1G 3G22G27
 -21278094.57849 -16580334.67846  21316027.382    21316029.033
  -9647897.85048  -7517846.45245  23240217.238    23240220.384
 -12728014.70449  -9917926.93745  22695252.617    22695251.031
 -23186952.28449 -18067748.45547  20672380.627    20672381.559
   -809889.04948                  24932592.801
 -21683403.56649 -16896158.46047  20184079.160    20184081.209
  -2764688.21248  -2154301.63944  25053941.406    25053943.820
 02  1  3  2 20 30.0000000  0  7G20G25G13G 1G 3G22G27
 -21213371.02649 -16529900.82046  21328344.216    21328346.008
  -9568994.97348  -7456363.85145  23255232.402    23255234.610
 -12813284.09049  -9984370.66345  22679025.648    22679026.089
 -23227184.66049 -18099098.42247  20664724.659    20664725.514
   -900014.66248                  24915442.118
 -21673363.99549 -16888335.44947  20185989.472    20185991.554
  -2847364.18148  -2218724.45345  25038209.136    25038211.363
 02  1  3  2 21  0.0000000  0  8G20G25G13G 1G 3G22G27G 4
 -21148163.20849 -16479089.61446  21340753.033    21340754.769
  -9490022.41048  -7394826.97545  23270260.907    23270262.739
 -12898432.37549 -10050719.99945  22662822.258    22662821.884
 -23267122.59249 -18130218.95947  20657124.952    20657125.647
   -990172.43448                  24898284.709
 -21662680.91749 -16880011.00447  20188022.724    20188024.594
  -2929983.22048  -2283102.92444  25022486.731    25022489.156
         -.09158         -.02754  24999180.170    24999182.342
 02  1  3  2 21 30.0000000  0  8G20G25G13G 1G 3G22G27G 4
 -21082470.58249 -16427900.63546  21353253.846    21353255.393
  -9410978.18748  -7333234.23945  23285301.459    23285303.651
 -12983455.62149 -10116971.91646  22646644.028    22646642.152
 -23306761.45149 -18161106.42947  20649581.820    20649582.741
  -1080356.82348                  24881124.209
 -21651352.04649 -16871183.34847  20190178.577    20190180.347
  -3012542.00648  -2347434.43944  25006776.979    25006779.420
     33605.02448                  25005574.098
 02  1  3  2 22  0.0000000  0  8G20G25G13G 1G 3G22G27G 4
 -21016296.71149 -16376336.66046  21365846.537    21365848.244
  -9331864.08348  -7271587.05745  23300357.475    23300358.886
 -13068353.57249 -10183126.19745  22630486.882    22630487.187
 -23346101.08149 -18191760.73047  20642095.776    20642096.659
  -1170566.39348                  24863957.289
 -21639379.67049 -16861854.25847  20192456.859    20192458.809
  -3095041.51948  -2411719.71945  24991077.246    24991080.404
     67641.11148                  25012050.063
 02  1  3  2 22 30.0000000  0  8G20G25G13G 1G 3G22G27G 4
 -20949650.75349 -16324404.82946  21378529.056    21378530.558
  -9252688.18748  -7209891.70245  23315424.407    23315426.004
 -13153131.37049 -10249186.83546  22614355.818    22614354.459
 -23385147.12549 -18222186.25447  20634665.668    20634666.417
  -1260804.96448                  24846785.946
 -21626771.42349 -16852029.68947  20194856.360    20194858.116
  -3177488.42548  -2475964.00144  24975388.538    24975389.013
    102099.25248     79557.94044  25018607.679    25018609.936
 02  1  3  2 23  0.0000000  0  8G20G25G13G 1G 3G22G27G 4
 -20882512.19349 -16272089.15346  21391304.921    21391306.496
  -9173428.74548  -7148131.28445  23330506.514    23330509.661
 -13237764.74549 -10315134.93845  22598249.495    22598248.796
 -23423875.51249 -18252364.24347  20627295.939    20627296.687
  -1351047.49048                  24829612.736
 -21613505.77349 -16841692.85747  20197380.663    20197382.414
  -3259859.93348  -2540149.59544  24959712.994    24959716.106
    137000.27548                  25025249.884
 02  1  3  2 23 30.0000000  0  8G20G25G13G 1G 3G22G27G 4
 -20814869.32549 -16219380.51546  21404176.913    21404178.815
  -9094072.63748  -7086295.53345  23345607.848    23345610.156
 -13322238.44349 -10380958.62746  22582175.236    22582174.863
 -23462270.72849 -18282282.63947  20619989.437    20619990.138
  -1441276.64548                  24812443.224
 -21599569.31549 -16830833.31447  20200032.759    20200034.609
  -3342141.75648  -2604265.28644  24944055.828    24944057.328
    172356.18948    134303.59244  25031979.222    25031978.640
 02  1  3  2 24  0.0000000  0  8G20G25G13G 1G 3G22G27G 4
 -20746728.18749 -16166283.61846  21417144.102    21417145.752
  -9014623.79048  -7024387.52345  23360726.656    23360729.572
 -13406554.52249 -10446659.49446  22566130.643    22566130.552
 -23500335.09749 -18311943.23947  20612746.061    20612746.981
  -1531493.46548                  24795275.004
 -21584966.78949 -16819454.76047  20202811.277    20202813.076
  -3424337.36748  -2668313.84444  24928414.057    24928414.034
    208161.41548                  25038792.848
 02  1  3  2 24 30.0000000  0  8G20G25G13G 1G 3G22G27G 4
 -20678120.56449 -16112823.22546  21430199.368    21430201.367
  -8935112.74748  -6962431.05845  23375856.187    23375859.828
 -13490740.85449 -10512259.24845  22550109.752    22550109.020
 -23538096.31449 -18341367.60947  20605560.563    20605561.452
  -1621724.18648                  24778104.912
 -21569728.50549 -16807580.81547  20205711.091    20205712.975
  -3506475.87848  -2732317.93044  24912784.360    24912784.116
    244384.66948    190429.70844  25045685.167    25045686.356
 02  1  3  2 25  0.0000000  0  8G20G25G13G 1G 3G22G27G 4
 -20609051.99949 -16059003.66546  21443342.944    21443344.945
  -8855543.67748  -6900429.35545  23390999.159    23391002.260
 -13574799.01649 -10577759.15046  22534115.068    22534114.773
 -23575556.21049 -18370557.17247  20598432.077    20598433.148
  -1711969.10048                  24760932.695
 -21553858.76049 -16795214.81947  20208730.906    20208732.794
  -3588560.31648  -2796279.91444  24897163.242    24897163.829
    281020.51548                  25052656.310
 02  1  3  2 25 30.0000000  0  8G20G25G13G 1G 3G22G27G 4
 -20539518.97149 -16004822.19546  21456574.629    21456576.433
  -8775911.46248  -6838378.45345  23406152.056    23406156.331
 -13658721.75249 -10643153.51746  22518144.365    22518144.046
 -23612707.83349 -18399506.52347  20591362.419    20591363.305
  -1802219.97948                  24743758.041
 -21537352.90049 -16782353.15247  20211872.011    20211873.843
  -3670585.01348  -2860195.28644  24881555.666    24881558.365
    318072.73848                  25059706.476
 02  1  3  2 26  0.0000000  0  8G20G25G13G 1G 3G22G27G 4
 -20469525.49049 -15950281.92346  21469894.292    21469896.033
  -8696218.24348  -6776280.03145  23421316.873    23421319.883
 -13742508.72049 -10708442.08046  22502200.458    22502198.970
 -23649551.14349 -18428215.64647  20584351.574    20584352.720
  -1892475.39348                  24726583.287
 -21520213.27149 -16768997.63647  20215133.773    20215135.671
  -3752550.74748  -2924064.76044  24865956.977    24865956.699
    355537.71048                  25066834.990
 02  1  3  2 26 30.0000000  0  8G20G25G13G 1G 3G22G27G 4
 -20399051.35749 -15895367.12046  21483305.282    21483307.052
  -8616442.52248  -6714117.32045  23436499.003    23436502.188
 -13826135.97649 -10773606.22546  22486286.907    22486285.715
 -23686062.13549 -18456665.82747  20577403.623    20577404.843
  -1982709.95948                  24709411.473
 -21502418.45449 -16755131.58847  20218520.178    20218521.870
  -3834434.95248  -2987870.68944  24850376.447    24850379.762
    393436.25348                  25074047.497
 02  1  3  2 27  0.0000000  0  8G20G25G13G 1G 3G22G27G 4
 -20328097.04749 -15840078.14546  21496807.624    21496809.245
  -8536582.81248  -6651889.15245  23451694.600    23451699.138
 -13909600.11949 -10838643.24246  22470403.776    22470404.158
 -23722237.37049 -18484854.38547  20570519.660    20570520.994
  -2072918.74748                  24692245.979
 -21483967.66549 -16740754.39347  20222031.440    20222033.162
  -3916235.34548  -3051611.38644  24834808.950    24834810.395
    431767.98348    336442.68944  25081342.872    25081344.612
 02  1  3  2 27 30.0000000  0  8G20G25G13G 1G 3G22G27G 4
 -20256662.35049 -15784414.84646  21510401.138    21510402.921
  -8456637.27848  -6589594.13945  23466908.891    23466911.935
 -13992896.70449 -10903549.73046  22454554.468    22454552.764
 -23758072.74749 -18512778.11747  20563700.284    20563701.663
  -2163096.31648                  24675085.521
 -21464859.35449 -16725864.84647  20225667.565    20225669.337
  -3997949.07748  -3115284.39844  24819260.401    24819260.992
    470533.64148                  25088720.875
 02  1  3  2 28  0.0000000  0  8G20G25G13G 1G 3G22G27G 4
 -20184767.20949 -15728392.75246  21524082.256    21524084.048
  -8376624.40648  -6527246.63145  23482134.491    23482137.428
 -14076041.66649 -10968338.05846  22438731.040    22438730.760
 -23793584.50249 -18540449.68047  20556942.729    20556944.169
  -2253257.20048  -1755782.89144  24657928.901    24657934.616
 -21445112.19749 -16710477.49847  20229425.422    20229427.317
  -4079593.36248  -3178903.39744  24803724.205    24803726.135
    509713.34348                  25096174.987
 02  1  3  2 28 30.0000000  0  8G20G25G 1G 3G22G27G13G 4
 -20112416.00149 -15672015.28646  21537850.358    21537852.036
  -8296546.93848  -6464848.80645  23497372.434    23497376.367
 -23828773.29949 -18567869.58847  20550246.406    20550247.931
  -2343400.70748                  24640775.026
 -21424729.34449 -16694594.80347  20233304.267    20233306.069
  -4161170.35448  -3242469.96544  24788199.691    24788201.310
 -14159035.60849 -11033008.69346  22422938.245    22422938.467
    549303.44448                  25103708.903
 02  1  3  2 29  0.0000000  0  8G20G25G 1G 3G22G27G13G 4
 -20039612.46449 -15615285.35246  21551704.460    21551706.415
  -8216406.88648  -6402402.20645  23512623.890    23512626.983
 -23863638.91749 -18595037.66447  20543611.934    20543613.259
  -2433525.02748                  24623624.553
 -21403713.25949 -16678218.68147  20237303.380    20237305.184
  -4242680.91948  -3305984.73944  24772690.049    24772689.183
 -14241877.98649 -11097561.25146  22407174.173    22407173.604
    589300.08948                  25111318.262
 02  1  3  2 29 30.0000000  0  8G20G25G 1G 3G22G27G13G 4
 -19966357.66349 -15558203.79146  21565644.489    21565646.048
  -8136203.57648  -6339906.30545  23527885.173    23527888.956
 -23898178.57449 -18621951.74447  20537039.453    20537040.769
  -2523626.13348                  24606478.937
 -21382063.83149 -16661349.04847  20241423.195    20241425.083
  -4324123.47548  -3369446.56144  24757191.044    24757193.345
 -14324566.02049 -11161993.53646  22391438.742    22391438.331
    629702.77048                  25119006.976
 02  1  3  2 30  0.0000000  0  8G20G25G 1G 3G22G27G13G 4
 -19892658.59949 -15500776.05546  21579669.088    21579671.064
  -8055942.02248  -6277365.07145  23543158.907    23543162.204
 -23932394.92149 -18648613.89647  20530528.266    20530529.696
  -2613705.14148                  24589338.189
 -21359786.45249 -16643990.10347  20245662.323    20245664.200
  -4405501.91248  -3432858.43844  24741705.403    24741710.117
 -14407102.02649 -11226307.37246  22375734.012    22375733.521
    670505.00648                  25126771.760
 02  1  3  2 30 30.0000000  0  8G20G25G 1G 3G22G27G13G 4
 -19818513.15849 -15443000.50046  21593778.235    21593780.418
  -7975618.63548  -6214775.64745  23558444.768    23558447.409
 -23966282.25149 -18675019.67747  20524079.858    20524081.355
  -2703754.98348                  24572202.190
 -21336878.18549 -16626139.56247  20250021.627    20250023.514
  -4486811.62048  -3496216.70344  24726232.289    24726235.561
 -14489480.32949 -11290498.31246  22360056.408    22360056.738
    711709.01348                  25134613.653
 02  1  3  2 31  0.0000000  0  8G20G 1G 3G22G27G25G13G 4
 -19743907.58649 -15384866.39546  21607975.182    21607977.390
 -23999822.89749 -18701155.31247  20517697.414    20517698.855
  -2793756.23048                  24555074.438
 -21313323.84449 -16607785.58447  20254503.968    20254505.906
  -4568036.28348  -3559508.68444  24710777.158    24710779.906
  -7895218.05548  -6152126.06345  23573743.867    23573748.210
 -14571682.58849 -11354552.06146  22344414.567    22344413.497
    753328.95248                  25142533.739
 02  1  3  2 31 30.0000000  0  8G20G 1G 3G22G27G25G13G 4
 -19668837.14249 -15326370.05446  21622261.281    21622263.344
 -24033007.86449 -18727013.77047  20511382.341    20511383.725
  -2883698.61048                  24537959.507
 -21289117.48849 -16588923.54547  20259110.443    20259112.312
  -4649168.10748  -3622728.34844  24695337.037    24695340.165
  -7814732.98348  -6089410.64045  23589059.877    23589064.194
 -14653699.88949 -11418461.69246  22328807.605    22328806.433
    795370.04048                  25150533.995
 02  1  3  2 32  0.0000000  0  8G20G 1G 3G22G27G25G13G 4
 -19593326.01749 -15267530.33246  21636630.294    21636632.826
 -24065857.63349 -18752611.05247  20505131.174    20505132.560
  -2973600.69648                  24520851.552
 -21264282.11049 -16569571.35747  20263836.314    20263838.349
  -4730228.89848  -3685892.65544  24679912.037    24679913.192
  -7734186.41348  -6026647.33245  23604388.520    23604391.432
 -14735552.32549 -11482242.84646  22313230.008    22313231.035
    837808.41748                  25158608.667
 02  1  3  2 32 30.0000000  0  8G20G 1G 3G22G27G25G13G 4
 -19517377.51049 -15208349.79046  21651083.246    21651085.136
 -24098371.37449 -18777946.47147  20498944.073    20498945.411
  -3063460.30148                  24503751.467
 -21238820.03149 -16549730.83547  20268681.711    20268683.728
  -4811219.06548  -3749001.98044  24664501.683    24664502.855
  -7653579.66648  -5963837.10645  23619726.339    23619730.752
 -14817238.92749 -11545894.76546  22297687.672    22297686.392
    880640.78148                  25166758.246
 02  1  3  2 33  0.0000000  0  8G20G 1G 3G22G27G25G13G 4
 -19441005.68549 -15148839.39146  21665616.237    21665618.576
 -24130559.21449 -18803027.94247  20492818.800    20492820.260
  -3153286.47048                  24486658.132
 -21212743.90349 -16529411.83147  20273643.846    20273645.839
  -4892149.96448                  24649098.579
  -7572924.78248  -5900989.39645  23635075.267    23635079.880
 -14898769.76349 -11609425.32646  22282171.728    22282171.300
    923853.74348                  25174981.467
 02  1  3  2 33 30.0000000  0  8G20G 1G 3G22G27G25G13G 4
 -19364207.54649 -15088996.79846  21680230.686    21680232.906
 -24162414.20649 -18827850.07447  20486756.954    20486758.358
  -3243070.16648                  24469572.948
 -21186049.58149 -16508611.12247  20278723.695    20278725.655
  -4973015.57848  -3875077.31844  24633710.844    24633713.767
  -7492216.69148  -5838100.20445  23650434.015    23650438.486
 -14980137.26549 -11672828.62046  22266687.563    22266688.110
    967450.48348                  25183278.042
 02  1  3  2 34  0.0000000  0  8G20G 1G 3G22G27G25G13G 4
 -19286977.23549 -15028817.44946  21694927.115    21694929.407
 -24193926.56849 -18852405.21647  20480760.444    20480761.975
  -3332800.15248                  24452497.381
 -21158730.29649 -16487323.42847  20283922.522    20283924.454
  -5053807.59448                  24618336.952
  -7411448.11648  -5775163.91245  23665804.067    23665807.605
 -15061331.34949 -11736096.78646  22251238.116    22251237.293
   1011437.11048                  25191650.071
 02  1  3  2 34 30.0000000  0  8G20G 1G 3G22G27G25G13G 4
 -19209314.97549 -14968301.52446  21709705.587    21709707.791
 -24225092.35249 -18876690.30547  20474830.155    20474831.565
  -3422471.24548                  24435434.027
 -21130784.99249 -16465547.92547  20289240.541    20289242.398
  -5134523.31648                  24602977.591
  -7330617.23348  -5712179.08745  23681185.699    23681190.495
 -15142348.10249 -11799226.77546  22235819.916    22235820.114
   1055813.81448                  25200094.931
 02  1  3  2 35  0.0000000  0  8G20G 1G 3G22G27G25G13G 4
 -19131227.68449 -14907454.39446  21724565.653    21724568.166
 -24255914.29949 -18900707.46747  20468964.864    20468966.329
  -3512084.55048                  24418380.390
 -21102219.30249 -16443289.00947  20294676.359    20294678.502
  -5215166.63548  -4063765.48944  24587630.264    24587628.493
  -7249729.09348  -5649149.61545  23696578.695    23696582.260
 -15223190.10049 -11862220.60046  22220437.092    22220436.538
   1100574.09247                  25208610.310
 02  1  3  2 35 30.0000000  0  8G20G 1G 3G22G27G25G13G 4
 -19052727.54049 -14846285.56546  21739503.414    21739505.351
 -24286400.86649 -18924463.30347  20463163.503    20463165.094
  -3601646.94248                  24401336.848
 -21073044.64549 -16420555.57547  20300227.900    20300229.949
  -5295747.44948  -4126551.07746  24572298.647    24572299.216
  -7168794.03348  -5586083.61445  23711979.816    23711983.776
 -15303865.27749 -11925084.42346  22205084.640    22205085.056
   1145705.97647                  25217198.050
 02  1  3  2 36  0.0000000  0  8G20G 1G 3G22G27G25G13G 4
 -18973802.25549 -14784785.46346  21754522.845    21754524.948
 -24316535.30749 -18947944.74847  20457429.363    20457430.896
  -3691139.99748                  24384307.644
 -21043247.17649 -16397336.83347  20305898.116    20305899.994
  -5376250.03748  -4189282.23145  24556978.948    24556979.384
  -7087797.63348  -5522969.82545  23727394.141    23727397.888
 -15384356.54349 -11987804.90446  22189767.724    22189767.859
   1191222.21547                  25225860.550
 02  1  3  2 36 30.0000000  0  8G20G 1G 3G22G27G25G13G 4
 -18894442.06549 -14722946.47146  21769624.575    21769626.783
 -24346304.24949 -18971141.38947  20451764.295    20451765.856
  -3780548.80948                  24367293.044
 -21012816.44249 -16373624.63847  20311689.118    20311691.200
  -5456662.10548                  24541676.283
  -7006728.09548  -5459799.03845  23742820.846    23742825.451
 -15464650.09149 -12050371.33846  22174488.935    22174488.433
   1237132.85748                  25234598.260
 02  1  3  2 37  0.0000000  0  8G20G 1G 3G22G27G25G13G 4
 -18814664.87149 -14660782.54846  21784805.641    21784808.210
 -24375721.35249 -18994063.86647  20446166.231    20446167.793
  -3869885.58648                  24350293.393
 -20981769.14249 -16349432.00547  20317597.152    20317599.272
  -5536998.51448  -4314546.33944  24526389.998    24526392.801
  -6925601.31548  -5396583.64145  23758258.428    23758264.130
 -15544759.68349 -12112794.43846  22159243.680    22159244.401
   1283420.31448                  25243406.806
 02  1  3  2 37 30.0000000  0  8G20G 1G 3G22G27G25G13G 4
 -18734472.54049 -14598295.13346  21800065.741    21800067.958
 -24404784.45449 -19016710.50347  20440635.842    20440637.465
  -3959146.44848                  24333308.189
 -20950105.89349 -16324759.41147  20323622.584    20323624.616
  -5617258.35248  -4377086.51044  24511115.850    24511119.000
  -6844417.19548  -5333323.57445  23773707.347    23773710.381
 -15624682.42549 -12175071.93146  22144035.560    22144035.222
   1330083.02147                  25252284.847
 02  1  3  2 38  0.0000000  0  7G20G 1G22G27G25G13G 4
 -18653861.58549 -14535481.52746  21815405.722    21815408.095
 -24433486.00649 -19039075.41347  20435174.232    20435175.893
 -20917822.35349 -16299603.47247  20329766.247    20329768.243
  -5697435.11748  -4439561.95444  24495859.139    24495863.090
  -6763170.22448  -5270014.51745  23789169.470    23789172.560
 -15704410.35649 -12237197.62046  22128863.417    22128863.184
   1377124.96847                  25261236.591
 02  1  3  2 38 30.0000000  0  8G20G 1G 3G22G27G25G13G 4
 -18572850.94649 -14472356.48246  21830821.535    21830823.611
 -24461840.95949 -19061170.24547  20429778.761    20429780.345
          .06958          .77054  24299382.667    24299391.603
 -20884936.29049 -16273978.03647  20336024.495    20336026.386
  -5777545.09348  -4501985.34444  24480615.273    24480616.463
  -6681877.12848  -5206669.03245  23804637.652    23804640.324
 -15783958.23149 -12299183.03346  22113726.142    22113726.354
   1424527.26747                  25270257.067
 02  1  3  2 39  0.0000000  0  8G20G 1G 3G22G27G25G13G 4
 -18491432.57649 -14408913.70746  21846314.833    21846317.448
 -24489836.96649 -19082985.38347  20424451.669    20424453.156
    -89018.61648                  24282442.702
 -20851438.70149 -16247876.08447  20342398.651    20342400.578
  -5857577.27148  -4564348.15744  24465386.425    24465388.797
  -6600527.83148  -5143279.87044  23820119.012    23820122.183
 -15863313.33849 -12361018.25146  22098626.340    22098625.865
   1472298.30348                  25279348.960
 02  1  3  2 39 30.0000000  0  8G20G 1G 3G22G27G25G13G 4
 -18409611.86149 -14345157.43346  21861884.878    21861887.449
 -24517475.19049 -19104521.73247  20419192.245    20419193.731
   -177951.44848                  24265518.820
 -20817333.85849 -16221300.94647  20348888.727    20348890.744
  -5937534.08148  -4626652.26744  24450170.230    24450173.360
  -6519125.94448  -5079850.05244  23835609.998    23835614.823
 -15942476.60549 -12422703.96246  22083560.804    22083561.197
   1520433.24048                  25288509.533
 02  1  3  2 40  0.0000000  0  8G20G13G 1G 3G22G27G25G 4
 -18327388.70149 -14281087.56846  21877531.540    21877534.163
 -16021443.24749 -12484236.46246  22068534.758    22068534.205
 -24544751.48149 -19125776.04847  20414001.687    20414003.172
   -266792.55448                  24248613.757
 -20782620.68549 -16194251.78947  20355494.742    20355496.593
  -6017412.35348  -4688895.11644  24434970.805    24434973.890
  -6437668.87148  -5016377.31944  23851109.117    23851115.122
   1568932.41847                  25297737.552
 02  1  3  2 40 30.0000000  0  7G20G 1G 3G22G27G25G13
 -18244766.94749 -14216707.09546  21893254.232    21893256.806
 -24571665.78349 -19146748.29947  20408880.026    20408881.676
   -355540.09948                  24231725.188
 -20747302.13849 -16166730.91347  20362215.618    20362217.513
  -6097213.20648  -4751077.66644  24419784.671    24419787.817
  -6356158.46348  -4952862.98845  23866621.902    23866624.504
 -16100212.76149 -12545615.36246  22053545.331    22053544.922
 02  1  3  2 41  0.0000000  0  7G20G 1G 3G22G27G25G13
 -18161735.16449 -14152007.12546  21909054.999    21909058.037
 -24598202.64849 -19167426.43547  20403830.146    20403831.820
   -444177.12248   -346111.90944  24214858.229    24214865.718
 -20711365.91449 -16138728.73047  20369053.904    20369056.019
  -6176922.43248  -4813188.81444  24404617.045    24404617.691
  -6274581.40448  -4889296.77745  23882145.835    23882151.688
 -16178769.63549 -12606828.57646  22038595.802    22038596.434
 02  1  3  2 41 30.0000000  0  7G20G13G 1G 3G22G27G25
 -18078324.09949 -14087011.61846  21924927.387    21924929.668
 -16257139.57749 -12667896.11246  22023683.525    22023682.680
 -24624388.22249 -19187830.83247  20398847.124    20398848.926
   -532728.12448                  24198007.410
 -20674841.24349 -16110268.01547  20376004.380    20376006.588
  -6256567.42148  -4875249.91844  24389460.652    24389463.792
  -6192965.76148  -4825700.48345  23897675.830    23897679.922
 02  1  3  2 42  0.0000000  0  7G20G13G 1G 3G22G27G25
 -17994534.05349 -14021720.80646  21940872.507    21940875.255
 -16335318.27749 -12728814.63246  22008806.261    22008806.261
 -24650218.95249 -19207958.74347  20393931.610    20393933.318
   -621187.75348                  24181174.558
 -20637727.88849 -16081348.58347  20383066.976    20383068.850
  -6336145.77948  -4937259.09244  24374318.051    24374320.220
  -6111310.08648  -4762073.01145  23913215.779    23913218.967
 02  1  3  2 42 30.0000000  0  7G20G13G 1G 3G22G27G25
 -17910347.19549 -13956120.79546  21956892.783    21956895.840
 -16413283.58349 -12789566.87446  21993969.800    21993969.580
 -24675672.64849 -19227792.85547  20389088.226    20389089.859
   -709532.19048   -552882.49444  24164363.310    24164371.749
 -20600006.82349 -16051955.61147  20390245.142    20390247.271
  -6415636.52348  -4999199.99544  24359190.655    24359193.797
  -6029594.44648  -4698398.82545  23928766.074    23928771.083
 02  1  3  2 43  0.0000000  0  7G20G 1G 3G22G27G25G13
 -17825784.04049 -13890227.57746  21972985.084    21972987.344
 -24700765.90849 -19247346.10247  20384313.213    20384314.968
   -797776.18048   -621644.04244  24147570.790    24147580.470
 -20561697.82649 -16022104.50947  20397534.982    20397537.208
  -6495057.37848  -5061086.40144  24344077.859    24344080.888
  -5947837.22848  -4634692.24645  23944323.009    23944331.696
 -16491051.46349 -12850165.27546  21979171.396    21979171.110
 02  1  3  2 43 30.0000000  0  7G20G13G 1G 3G22G27G25
 -17740839.31149 -13824037.03046  21989148.962    21989152.173
 -16568611.94149 -12910602.06946  21964411.966    21964412.447
 -24725489.06249 -19266610.96747  20379608.770    20379610.343
   -885908.73748   -690318.81644  24130800.593    24130808.464
 -20522794.54249 -15991790.33147  20404937.815    20404940.017
  -6574399.92948  -5122911.83444  24328979.909    24328981.428
  -5866030.67648  -4570947.20645  23959891.876    23959896.139
 02  1  3  2 44  0.0000000  0  7G20G 1G 3G22G27G25G13
 -17655514.94949 -13757550.64846  22005386.255    22005389.234
 -24749840.16349 -19285585.91447  20374975.013    20374976.551
   -973925.97648   -758903.65344  24114049.960    24114058.896
 -20483298.23849 -15961014.06147  20412453.798    20412456.079
  -6653663.44448  -5184675.71244  24313895.652    24313898.413
  -5784174.62048  -4507163.59745  23975468.365    23975472.266
 -16645962.44749 -12970875.23946  21949692.893    21949692.905
 02  1  3  2 44 30.0000000  0  7G20G13G 1G 3G22G27G25
 -17569816.75449 -13690772.95346  22021693.912    22021696.867
 -16723103.74149 -13030985.38546  21935013.277    21935013.659
 -24773820.82549 -19304272.20747  20370411.701    20370413.263
  -1061827.90448   -827398.55344  24097323.997    24097334.422
 -20443213.53949 -15929779.30147  20420081.783    20420083.991
  -6732850.56048  -5246379.99844  24298827.741    24298829.858
  -5702272.74448  -4443344.30945  23991053.587    23991062.027
 02  1  3  2 45  0.0000000  0  7G20G 1G 3G22G27G25G13
 -17483734.87449 -13623696.29946  22038074.567    22038077.687
 -24797416.73549 -19322658.69247  20365921.651    20365923.285
  -1149598.49548   -895791.11544  24080620.935    24080632.602
 -20402529.70849 -15898077.68447  20427823.586    20427825.833
  -6811948.39348  -5308014.70744  24283775.235    24283777.033
  -5620312.64448  -4379479.67445  24006651.546    24006656.938
 -16800021.64749 -13090921.46946  21920376.447    21920376.447
 02  1  3  2 45 30.0000000  0  7G20G13G 1G 3G22G27G25
 -17397278.08549 -13556327.51746  22054527.481    22054530.414
 -16876720.07149 -13150686.53846  21905781.459    21905781.499
 -24820632.70849 -19340749.13047  20361503.704    20361505.374
  -1237241.07248   -964083.89344  24063943.027    24063953.701
 -20361254.73249 -15865915.43747  20435677.846    20435679.972
  -6890962.87048  -5369584.47244  24268739.867    24268742.844
  -5538300.97248  -4315574.81645  24022257.026    24022265.217
 02  1  3  2 46  0.0000000  0  7G20G 1G 3G22G27G25G13
 -17310458.26849 -13488675.85446  22071048.330    22071051.526
 -24843476.39849 -19358549.47747  20357156.624    20357158.232
  -1324761.37548  -1032281.33744  24047289.436    24047298.372
 -20319399.44849 -15833301.00247  20443642.638    20443644.936
  -6969902.83348  -5431096.23544  24253717.344    24253721.155
  -5456247.49648  -4251637.40645  24037871.156    24037878.203
 -16953206.44549 -13210286.37346  21891225.994    21891226.184
 02  1  3  2 46 30.0000000  0  7G20G13G 1G 3G22G27G25
 -17223265.10949 -13420733.27246  22087641.078    22087644.190
 -17029465.89949 -13269709.38546  21876714.962    21876715.033
 -24865933.41349 -19376048.52347  20352883.170    20352884.981
  -1412143.48248  -1100371.13644  24030659.485    24030666.229
 -20276952.88749 -15800225.83547  20451720.143    20451722.412
  -7048754.88148  -5492539.45945  24238712.903    24238715.707
  -5374139.65448  -4187657.63645  24053497.562    24053501.465
 02  1  3  2 47  0.0000000  0  7G20G13G 1G 3G22G27G25
 -17135714.19949 -13352511.92446  22104301.450    22104304.281
 -17105509.03449 -13328963.82946  21862244.380    21862244.336
 -24888014.96749 -19393255.00247  20348681.111    20348682.891
  -1499396.86948  -1168360.60144  24014056.926    24014064.781
 -20233929.71949 -15766701.36347  20459907.371    20459909.582
  -7127531.44548  -5553923.88844  24223721.869    24223725.098
  -5291990.76048  -4123645.87445  24069129.377    24069134.177
 02  1  3  2 47 30.0000000  0  7G20G13G 1G 3G22G27G25
 -17047810.01749 -13284015.28446  22121028.771    22121031.866
 -17181335.64449 -13388049.56446  21847814.759    21847815.282
 -24909721.50249 -19410169.26047  20344550.609    20344552.370
  -1586519.96748  -1236248.60244  23997477.450    23997486.137
 -20190333.58049 -15732730.42647  20468203.387    20468205.864
  -7206234.04248  -5615250.65344  24208745.355    24208747.008
  -5209802.95048  -4059603.80945  24084769.611    24084775.233
 02  1  3  2 48  0.0000000  0  7G20G13G 1G 3G22G27G25
 -16959553.96649 -13215244.48446  22137823.839    22137826.824
 -17256942.48549 -13446964.04546  21833427.702    21833427.275
 -24931050.13549 -19426789.05347  20340492.145    20340493.867
  -1673508.53248  -1304031.71544  23980923.914    23980933.346
 -20146164.87549 -15698313.33447  20476608.451    20476611.059
  -7284860.96148  -5676518.47844  24193783.952    24193785.457
  -5127575.00948  -3995530.42645  24100417.294    24100424.023
 02  1  3  2 48 30.0000000  0  7G20G13G 1G 3G22G27G25
 -16870938.77849 -13146193.85246  22154686.594    22154690.105
 -17332317.50049 -13505697.89646  21819083.914    21819083.982
 -24951989.28049 -19443105.34047  20336507.668    20336509.432
  -1760349.34648  -1371699.75444  23964398.259    23964407.195
 -20101415.45849 -15663443.74047  20485124.140    20485127.037
  -7363401.92948  -5737719.32344  24178837.144    24178840.997
  -5045297.48148  -3931418.47345  24116074.222    24116083.406
 02  1  3  2 49  0.0000000  0  7G20G 1G 3G22G27G25G13
 -16781976.73749 -13076872.91846  22171615.710    22171618.555
 -24972547.18649 -19459124.55047  20332595.645    20332597.414
  -1847048.73748  -1439257.54444  23947899.826    23947908.017
 -20056097.06049 -15628130.78547  20493747.818    20493750.658
  -7441866.34548  -5798860.47744  24163906.730    24163911.911
  -4962980.48748  -3867275.75345  24131739.340    24131746.395
 -17407468.20649 -13564256.95846  21804783.917    21804784.263
 02  1  3  2 49 30.0000000  0  7G20G13G 1G 3G22G27G25
 -16692664.49649 -13007279.09046  22188611.471    22188614.392
 -17482386.58749 -13622634.98846  21790527.103    21790527.391
 -24992716.37349 -19474840.86747  20328757.530    20328759.288
  -1933597.27548                  23931429.227
 -20010205.34549 -15592371.09147  20502480.709    20502483.577
  -7520247.63948  -5859936.87944  24148990.500    24148993.445
  -4880618.00648  -3803097.56445  24147412.698    24147418.250
 02  1  3  2 50  0.0000000  0  7G20G 1G 3G22G27G25G13
 -16603022.19549 -12937428.07946  22205669.777    22205673.140
 -25012512.78649 -19490266.71447  20324990.433    20324992.329
  -2020009.06448                  23914985.949
 -19963759.77249 -15556179.82047  20511319.006    20511321.775
  -7598562.87248  -5920961.79444  24134088.624    24134088.701
  -4798228.09048  -3738898.03945  24163090.659    24163098.072
 -17557087.88749 -13680843.86646  21776311.918    21776311.462
 02  1  3  2 50 30.0000000  0  7G20G13G 1G 3G22G27G25
 -16513048.75149 -12867319.06346  22222791.682    22222795.008
 -17631566.29849 -13738879.07246  21762139.693    21762139.622
 -25031930.93249 -19505397.80447  20321295.573    20321297.380
  -2106277.38048  -1641253.52544  23898569.160    23898575.054
 -19916758.32649 -15519555.40147  20520263.250    20520265.928
  -7676807.90848  -5981931.99544  24119197.856    24119201.050
  -4715806.96148  -3674674.18045  24178775.994    24178783.841
 02  1  3  2 51  0.0000000  0  7G20G13G 1G 3G22G27G25
 -16422710.60749 -12796925.87145  22239982.120    22239985.209
 -17705783.50949 -13796710.74346  21748016.404    21748016.730
 -25050933.16049 -19520204.80747  20317679.707    20317681.488
  -2192362.75748  -1708332.96044  23882187.665    23882194.066
 -19869166.85649 -15482471.22847  20529319.776    20529322.589
  -7754946.25848  -6042819.10144  24104328.988    24104331.786
  -4633318.98148  -3610398.25645  24194473.044    24194480.578
 02  1  3  2 51 30.0000000  0  8G20G13G 1G 3G22G27G25G 2
 -16332031.67249 -12726267.12646  22257237.824    22257242.504
 -17779758.47249 -13854353.64346  21733939.113    21733939.620
 -25069539.16949 -19534703.06647  20314139.053    20314140.912
  -2278282.90748  -1775283.60344  23865838.066    23865848.491
 -19821008.39249 -15444945.24647  20538484.239    20538487.090
  -7832998.56548  -6103639.18044  24089476.569    24089480.225
  -4550785.73848  -3546087.03945  24210178.856    24210186.646
         -.56857                  24910528.665
 02  1  3  2 52  0.0000000  0  8G20G13G 1G 3G22G27G25G 2
 -16241018.54449 -12655347.98046  22274557.256    22274561.181
 -17853493.02749 -13911809.20346  21719908.310    21719908.316
 -25087751.20149 -19548894.32547  20310673.477    20310675.564
  -2364038.34148  -1842105.87644  23849519.087    23849527.774
 -19772288.58249 -15406981.85147  20547755.600    20547758.479
  -7910968.18748  -6164394.81345  24074639.455    24074642.770
  -4468211.18148  -3481743.64245  24225892.999    24225900.708
    -98833.26247                  24891721.298
 02  1  3  2 52 30.0000000  0  8G20G13G 1G 3G22G27G25G 2
 -16149672.96249 -12584169.75845  22291940.243    22291943.410
 -17926984.11149 -13969075.05046  21705923.527    21705923.828
 -25105566.85149 -19562776.72147  20307283.304    20307285.371
  -2449624.78348  -1908796.49844  23833232.516    23833241.700
 -19723008.73449 -15368582.06247  20557133.379    20557136.095
  -7988853.83248  -6225085.00044  24059818.343    24059820.837
  -4385594.72148  -3417367.60245  24241614.238    24241621.002
   -197575.89548                  24872932.125
 02  1  3  2 53  0.0000000  0  8G20G13G 1G 3G22G27G25G 2
 -16057994.37449 -12512732.04445  22309386.267    22309389.619
 -18000226.35049 -14026146.98246  21691985.925    21691986.520
 -25122981.34349 -19576346.52747  20303969.326    20303971.398
  -2535035.75148  -1975350.41644  23816978.937    23816989.114
 -19673167.26549 -15329744.65047  20566617.927    20566620.842
  -8066652.00448  -6285707.04145  24045014.023    24045017.045
  -4302933.21248  -3352956.49845  24257344.486    24257352.677
   -296223.35147                  24854159.297
 02  1  3  2 53 30.0000000  0  7G20G13G 1G 3G22G27G25
 -15965994.45049 -12441043.94345  22326892.850    22326896.417
 -18073226.57549 -14083030.32546  21678094.474    21678094.582
 -25140002.53449 -19589609.86447  20300730.265    20300732.461
  -2620277.28848  -2041772.25744  23800758.750    23800769.423
 -19622775.56249 -15290478.48647  20576207.157    20576209.978
  -8144371.29548  -6346267.61545  24030225.311    24030226.695
  -4220236.47748  -3288517.89745  24273082.300    24273087.909
 02  1  3  2 54  0.0000000  0  7G20G 1G 3G22G27G25G13
 -15873682.21249 -12369112.46845  22344459.769    22344462.974
 -25156634.87049 -19602570.19947  20297565.363    20297567.632
  -2705351.71748                  23784569.330
 -19571841.52049 -15250789.71947  20585899.555    20585902.400
  -8222017.33748  -6406771.10044  24015448.982    24015452.518
  -4137510.31348  -3224056.36045  24288823.643    24288832.082
 -18145988.93549 -14139728.34146  21664248.080    21664248.102
 02  1  3  2 54 30.0000000  0  7G20G13G 1G 3G22G27G25
 -15781053.61848 -12296934.51045  22362086.012    22362089.476
 -18218504.28149 -14196233.88446  21650448.889    21650449.607
 -25172870.09349 -19615221.10447  20294475.857    20294478.167
  -2790249.29448  -2174217.76044  23768413.808    23768423.489
 -19520360.46849 -15210674.71347  20595696.403    20595699.225
  -8299582.97748  -6467211.93745  24000689.889    24000693.102
  -4054748.62548  -3159567.24645  24304573.413    24304582.101
 02  1  3  2 55  0.0000000  0  8G20G13G 1G 3G22G27G25G 2
 -15688121.60148 -12224520.10545  22379770.701    22379774.321
 -18290780.95949 -14252553.44146  21636695.090    21636695.538
 -25188717.10749 -19627569.50547  20291460.455    20291462.676
  -2874976.99148  -2240239.25644  23752291.365    23752297.862
 -19468344.81349 -15170143.13347  20605594.905    20605597.565
  -8377078.22048  -6527597.95345  23985941.854    23985946.043
  -3971961.82848  -3095058.50945  24320328.449    24320334.801
         -.40857                  24779237.181
 02  1  3  2 55 30.0000000  0  8G20G13G 1G 3G22G27G25G 2
 -15594884.87548 -12151868.27945  22397513.524    22397516.738
 -18362812.77849 -14308682.17846  21622988.208    21622988.373
 -25204170.39549 -19639611.10447  20288519.894    20288522.187
  -2959527.25348  -2306122.45644  23736201.350    23736207.204
 -19415792.53149 -15129193.40547  20615594.991    20615597.966
  -8454498.47248  -6587925.52045  23971210.938    23971211.626
  -3889145.95548  -3030527.10045  24336086.882    24336096.066
    -98209.66548                  24760549.228
 02  1  3  2 56  0.0000000  0  8G20G13G 1G 3G22G27G25G 2
 -15501314.69348 -12078956.61445  22415319.212    22415323.264
 -18434566.02149 -14364593.86746  21609333.950    21609334.167
 -25219197.05749 -19651320.26547  20285660.451    20285662.729
  -3043865.71748  -2371840.63844  23720151.881    23720159.571
 -19362674.16949 -15087802.57847  20625702.664    20625705.755
  -8531812.08748  -6648169.98445  23956498.057    23956501.883
  -3806269.92948  -2965948.87045  24351858.992    24351869.417
   -196295.83247                  24741883.233
 02  1  3  2 56 30.0000000  0  8G20G13G 1G 3G22G27G25G 2
 -15407425.54548 -12005796.39245  22433185.906    22433189.594
 -18506050.34549 -14420296.02346  21595730.953    21595731.499
 -25233807.19249 -19662704.87047  20282880.420    20282882.665
  -3128000.48948  -2437400.12644  23704142.908    23704149.066
 -19309003.41249 -15045981.31647  20635916.414    20635919.336
  -8609030.32448  -6708340.16544  23941803.727    23941805.977
  -3723345.53448  -2901332.92445  24367639.150    24367648.583
   -294268.32348                  24723240.803
 02  1  3  2 57  0.0000000  0  8G20G13G 1G 3G22G27G25G 2
 -15313239.01848 -11932404.46345  22451109.144    22451112.595
 -18577282.04749 -14475801.31946  21582176.203    21582176.587
 -25248018.08449 -19673778.37047  20280176.271    20280178.409
  -3211946.82148  -2502812.79444  23688167.125    23688177.054
 -19254801.16349 -15003745.90247  20646230.856    20646233.704
  -8686171.27148  -6768450.09145  23927125.238    23927126.539
  -3640392.06148  -2836694.34445  24383424.423    24383433.358
   -392144.13947                  24704615.125
 02  1  3  2 57 30.0000000  0  8G20G13G 1G 3G22G27G25G 2
 -15218754.15348 -11858780.02245  22469089.395    22469091.861
 -18648255.57749 -14531105.45546  21568669.940    21568670.529
 -25261824.83549 -19684536.94147  20277549.052    20277551.235
  -3295698.40548  -2568073.65745  23672229.908    23672238.595
 -19200066.04449 -14961095.27347  20656646.654    20656649.645
  -8763231.23148  -6828496.90545  23912459.630    23912463.657
  -3557406.20848  -2772030.57445  24399216.448    24399223.128
   -489917.92648                  24686009.406
 02  1  3  2 58  0.0000000  0  8G20G13G 1G 3G22G27G25G 2
 -15123983.50648 -11784932.91745  22487123.734    22487126.759
 -18718978.36349 -14586214.20846  21555212.667    21555212.949
 -25275235.60549 -19694986.96547  20274997.069    20274999.231
  -3379261.21548  -2633187.46845  23656328.330    23656336.769
 -19144809.73649 -14918038.52047  20667161.621    20667164.551
  -8840219.38448  -6888487.75645  23897810.996    23897813.187
  -3474397.74748  -2707349.13145  24415013.495    24415021.016
   -587597.57848                  24667421.269
 02  1  3  2 58 30.0000000  0  8G13G20G 1G 3G22G27G25G 2
 -18789439.96149 -14641119.41946  21541803.845    21541804.538
 -15028921.47748 -11710858.76245  22505213.105    22505216.135
 -25288240.88349 -19705121.02347  20272522.302    20272524.568
  -3462623.48548  -2698145.01345  23640465.875    23640472.364
 -19089026.17449 -14874570.91847  20677777.024    20677780.162
  -8917127.02748  -6948415.91945  23883175.449    23883177.330
  -3391358.39148  -2642643.62644  24430814.231    24430822.919
   -685173.00548                  24648853.696
 02  1  3  2 59  0.0000000  0  8G13G20G 1G 3G22G27G25G 2
 -18859632.43549 -14695814.92846  21528447.076    21528447.501
 -14933564.86748 -11636555.10145  22523359.259    22523362.445
 -25300833.34449 -19714933.40447  20270126.083    20270128.393
  -3545776.32648  -2762939.34845  23624641.250    23624648.993
 -19032711.61249 -14830689.55147  20688493.249    20688496.413
  -8993947.92748  -7008276.50744  23868557.167    23868560.328
  -3308282.75748  -2577909.87545  24446624.457    24446633.145
   -782636.40848                  24630306.587
 02  1  3  2 59 30.0000000  0  7G13G20G 1G22G27G25G 2
 -18929543.91449 -14750291.46946  21515143.706    21515144.026
 -14837906.95148 -11562016.61145  22541561.930    22541566.508
 -25313001.79649 -19724415.39247  20267810.555    20267812.846
 -18975858.51349 -14786388.54747  20699312.042    20699315.206
  -9070671.92448  -7068061.58645  23853957.525    23853959.356
  -3225161.45848  -2513140.54044  24462442.148    24462450.587
   -879976.33248                  24611783.425
 02  1  3  3  0  0.0000000  0  8G13G20G 1G31G22G27G25G 2
 -18999179.33149 -14804552.91646  21501891.457    21501892.053
 -14741957.69548 -11487251.12845  22559821.181    22559824.528
 -25324752.13049 -19733571.57347  20265574.619    20265576.874
         -.21358                  25250901.423
 -18918476.35349 -14741675.28947  20710231.921    20710235.097
  -9147305.94548  -7127776.51345  23839372.917    23839377.188
  -3142002.07148  -2448341.51944  24478266.929    24478277.106
   -977198.09548                  24593283.482
 02  1  3  3  0 30.0000000  0  8G13G20G 1G31G22G27G25G 2
 -19068553.12449 -14858610.49646  21488690.786    21488691.227
 -14645736.54448 -11412273.79645  22578131.644    22578136.118
 -25336099.50549 -19742413.75347  20263415.328    20263417.620
   -103558.57348    -80694.77444  25231195.109    25231205.286
 -18860583.87049 -14696564.38147  20721248.558    20721251.732
  -9223865.92948  -7187433.77045  23824806.508    23824807.621
  -3058821.09748  -2383525.73544  24494096.343    24494106.023
  -1074316.51548                  24574801.608
 02  1  3  3  1  0.0000000  0  7G13G20G 1G22G27G25G 2
 -19137643.76549 -14912447.44346  21475543.750    21475543.929
 -14549226.90348 -11337071.68745  22596496.974    22596500.161
 -25347023.11649 -19750925.73547  20261336.599    20261338.827
 -18802163.71249 -14651042.29947  20732365.479    20732368.687
  -9300332.33148  -7247018.11244  23810253.306    23810256.897
  -2975599.23648  -2318678.01644  24509934.052    24509942.988
  -1171310.32748                  24556345.560
 02  1  3  3  1 30.0000000  0  7G13G20G 1G22G27G25G 2
 -19206454.98949 -14966066.65346  21462449.048    21462449.671
 -14452437.15448 -11261651.29445  22614915.422    22614920.305
 -25357527.55849 -19759111.08847  20259337.647    20259340.080
 -18743224.08149 -14605115.44047  20743581.543    20743584.654
  -9376710.40948  -7306533.58244  23795720.850    23795723.348
  -2892342.75648                  24525776.621
  -1268183.36348                  24537910.144
 02  1  3  3  2  0.0000000  0  8G13G20G 1G31G22G27G25G 2
 -19275006.73149 -15019483.66246  21449404.106    21449404.504
 -14355392.89448 -11186032.57345  22633382.828    22633386.100
 -25367634.08249 -19766986.37847  20257414.440    20257416.757
         -.64658                  25171942.073
 -18683789.70949 -14558803.06047  20754891.547    20754894.790
  -9453022.37148  -7365997.56445  23781197.948    23781202.075
  -2809074.62248                  24541622.686
  -1364956.41248                  24519495.542
 02  1  3  3  2 30.0000000  0  8G13G20G 1G31G22G27G25G 2
 -19343280.49649 -15072684.07346  21436412.042    21436412.469
 -14258079.99048 -11110204.51145  22651901.160    22651904.571
 -25377324.50049 -19774537.42547  20255570.698    20255573.198
   -104037.62848                  25152144.562
 -18623846.31149 -14512094.04147  20766298.466    20766301.662
  -9529251.23148  -7425396.76645  23766692.741    23766695.138
  -2725777.88448  -2124013.66944  24557474.153    24557485.819
  -1461611.01548  -1138917.21244  24501102.585    24501110.189
 02  1  3  3  3  0.0000000  0  7G13G20G 1G22G27G25G 2
 -19411256.70149 -15125652.61446  21423476.752    21423477.365
 -14160484.06648 -11034155.91445  22670472.807    22670477.132
 -25386580.05849 -19781749.61947  20253809.409    20253811.699
 -18563378.52049 -14464976.41147  20777805.234    20777808.438
  -9605379.10348  -7484717.28644  23752205.671    23752208.083
  -2642435.42148  -2059072.04344  24573334.418    24573342.857
  -1558127.89348                  24482735.468
 02  1  3  3  3 30.0000000  0  7G13G20G 1G22G27G25G 2
 -19478932.05749 -15178386.73946  21410598.606    21410599.087
 -14062606.66648 -10957887.96045  22689098.579    22689101.691
 -25395398.31349 -19788621.05847  20252131.414    20252133.670
 -18502387.59549 -14417451.13847  20789411.600    20789414.809
  -9681404.34048  -7543957.81744  23737738.479    23737742.752
  -2559046.29248                  24589201.973
  -1654504.18548                  24464396.712
 02  1  3  3  4  0.0000000  0  8G13G20G 1G31G22G27G25G 2
 -19546324.31249 -15230900.26246  21397774.500    21397775.145
 -13964471.44748 -10881419.14845  22707773.208    22707778.488
 -25403798.55349 -19795166.77847  20250533.000    20250535.270
         -.29958          .30554  25092641.955    25092648.392
 -18440896.41749 -14369536.05847  20801112.843    20801116.064
  -9757347.31448  -7603134.23145  23723287.718    23723292.081
  -2475631.50748                  24605076.638
  -1750758.75748  -1364227.35144  24446080.021    24446083.203
 02  1  3  3  4 30.0000000  0  8G13G 1G31G22G27G25G20G 2
 -19613445.36849 -15283202.46546  21385001.697    21385002.187
 -25411792.97849 -19801396.27747  20249011.692    20249013.920
   -104452.74748                  25072764.608
 -18378920.55349 -14321243.30247  20812906.473    20812909.792
  -9833220.99048  -7662256.61245  23708849.104    23708852.259
  -2392204.82248  -1864088.83044  24620952.342    24620963.511
 -13866094.64348 -10804762.06545  22726493.289    22726497.159
  -1846903.29248                  24427783.477
 02  1  3  3  5  0.0000000  0  8G13G 1G31G22G27G25G20G 2
 -19680276.71149 -15335278.91146  21372284.044    21372284.598
 -25419364.06449 -19807295.89947  20247571.077    20247573.454
   -209005.58348                  25052868.165
 -18316446.40949 -14272562.27947  20824794.919    20824798.269
  -9909009.05048  -7721312.31245  23694426.843    23694428.906
  -2308750.07048  -1799059.66244  24636833.518    24636844.440
 -13767462.54048 -10727906.04745  22745263.426    22745269.038
  -1942919.82848                  24409514.147
 02  1  3  3  5 30.0000000  0  8G13G 1G31G22G27G25G20G 2
 -19746812.25849 -15387124.85046  21359622.739    21359623.495
 -25426506.53949 -19812861.53847  20246211.773    20246214.005
   -313652.02248                  25032955.398
 -18253472.31649 -14223491.68747  20836778.720    20836782.065
  -9984707.01648  -7780297.79645  23680022.588    23680023.915
  -2225263.61948  -1734005.90844  24652721.234    24652732.403
 -13668574.32748 -10650850.44245  22764080.262    22764086.821
  -2038802.48248                  24391266.688
 02  1  3  3  6  0.0000000  0  7G13G 1G31G22G27G25G20
 -19813059.05949 -15438745.79246  21347016.414    21347017.530
 -25433228.64349 -19818099.62847  20244932.670    20244935.241
   -418398.51648                  25013022.319
 -18190009.90949 -14174040.59347  20848855.276    20848858.732
 -10060323.76248  -7839219.96445  23665632.922    23665636.718
  -2141754.93848                  24668613.196
 -13569442.19648 -10573604.79745  22782944.576    22782949.115
 02  1  3  3  6 30.0000000  0  8G13G 1G31G22G27G25G20G 2
 -19879011.11649 -15490137.08446  21334466.426    21334467.072
 -25439524.99649 -19823005.96847  20243734.468    20243736.930
   -523238.23448                  24993071.424
 -18126057.54449 -14124207.71247  20861025.254    20861028.680
 -10135855.06348  -7898075.55845  23651259.779    23651264.037
  -2058220.05648                  24684509.156
 -13470065.10848 -10496168.27744  22801856.135    22801859.707
         -.35058                  24354848.768
 02  1  3  3  7  0.0000000  0  8G13G 1G31G22G27G25G20G 2
 -19944666.51749 -15541297.21946  21321972.879    21321973.362
 -25445394.68549 -19827579.84347  20242617.651    20242620.296
   -628168.60248   -489480.69544  24973104.167    24973115.089
 -18061617.85849 -14073995.09747  20873287.785    20873291.310
 -10211300.70948  -7956864.43445  23636903.731    23636905.278
  -1974660.06248  -1538732.09444  24700410.924    24700420.853
 -13370446.18348 -10418543.32044  22820813.193    22820817.802
    -95491.47348                  24336677.714
 02  1  3  3  7 30.0000000  0  8G13G 1G31G22G27G25G20G 2
 -20010012.36649 -15592216.12646  21309537.587    21309538.371
 -25450825.91949 -19831812.06047  20241584.178    20241586.794
   -733176.26048                  24953121.659
 -17996682.83649 -14023396.51247  20885644.663    20885648.158
 -10286649.81048  -8015578.07845  23622564.653    23622567.450
  -1891064.10948  -1473592.96744  24716319.478    24716330.648
 -13270577.62548 -10340723.86444  22839817.783    22839822.112
   -190836.85248                  24318533.901
 02  1  3  3  8  0.0000000  0  8G13G 1G31G22G27G25G20G 2
 -20075042.32749 -15642888.90246  21297162.911    21297163.992
 -25455813.06449 -19835698.23447  20240635.196    20240637.929
   -838253.86748                  24933126.346
 -17931250.47049 -13972410.38647  20898095.977    20898099.467
 -10361897.83848  -8074212.96745  23608245.692    23608248.934
  -1807427.99248                  24732235.055
 -13170457.99648 -10262708.75044  22858868.737    22858876.585
   -286030.64748                  24300419.846
 02  1  3  3  8 30.0000000  0  8G13G 1G31G22G27G25G20G 2
 -20139770.43749 -15693326.47346  21284846.083    21284847.116
 -25460371.21349 -19839250.12047  20239767.796    20239770.644
   -943414.63248                  24913114.979
 -17865339.39449 -13921051.24447  20910638.374    20910642.307
 -10437060.69148  -8132781.51545  23593942.789    23593945.985
  -1723768.58248  -1343234.03944  24748155.130    24748166.548
 -13070106.55048 -10184512.99644  22877966.252    22877969.975
   -381087.37848   -296951.80444  24282331.101    24282338.160
 02  1  3  3  9  0.0000000  0  8G13G 1G31G22G27G25G20G 2
 -20204185.74649 -15743520.28746  21272588.049    21272588.730
 -25464490.44049 -19842459.99547  20238983.862    20238986.608
  -1048646.88748                  24893090.399
 -17798943.24849 -13869314.12447  20923273.495    20923277.063
 -10512129.04948  -8191276.42745  23579657.729    23579660.931
  -1640077.09748  -1278020.46144  24764082.241    24764092.914
 -12969517.19548 -10106131.89244  22897106.874    22897113.199
   -475996.18748   -370906.84044  24264269.723    24264277.285
 02  1  3  3  9 30.0000000  0  8G13G 1G31G22G27G25G20G 2
 -20268288.99749 -15793470.94546  21260389.097    21260390.129
 -25468172.61949 -19845329.31247  20238283.377    20238286.413
  -1153950.57248   -899180.17044  24873050.562    24873059.002
 -17732067.45049 -13817203.25447  20935999.621    20936003.601
 -10587105.71048  -8249699.91445  23565390.784    23565393.189
  -1556356.87148  -1212784.47644  24780013.395    24780024.813
 -12868695.93748 -10027570.01044  22916293.971    22916302.410
   -570758.64248                  24246238.474
 02  1  3  3 10  0.0000000  0  8G13G 1G31G22G27G25G20G 2
 -20332089.41749 -15843185.63246  21248249.056    21248250.075
 -25471428.00449 -19847866.07447  20237663.950    20237666.964
  -1259334.23448                  24852997.003
 -17664725.78149 -13764729.36547  20948814.499    20948818.150
 -10662001.48948  -8308060.35345  23551138.044    23551141.154
  -1472619.02848                  24795948.481
 -12767656.96748  -9948838.52844  22935519.838    22935523.852
   -665384.32848                  24228230.954
 02  1  3  3 10 30.0000000  0  8G13G 1G31G22G27G25G20G 2
 -20395590.65149 -15892667.18446  21236165.188    21236166.292
 -25474261.40549 -19850074.02147  20237124.727    20237127.588
  -1364800.79848                  24832926.399
 -17596926.70049 -13711899.05647  20961716.477    20961720.203
 -10736822.16848  -8366362.25545  23536900.129    23536903.367
  -1388870.11848  -1082276.58044  24811886.755    24811897.677
 -12666409.11048  -9869944.24344  22954787.965    22954791.172
   -759877.35548                  24210250.464
 02  1  3  3 11  0.0000000  0  8G13G 1G31G22G27G25G20G 2
 -20458775.21149 -15941901.98047  21224141.170    21224142.415
 -25476655.96249 -19851940.00747  20236669.250    20236672.232
  -1470331.67948                  24812844.579
 -17528657.06849 -13658702.08547  20974707.563    20974711.569
 -10811551.62148  -8424593.07445  23522680.362    23522683.665
  -1305094.52048  -1016997.60444  24827829.257    24827837.945
 -12564939.77348  -9790877.37144  22974096.485    22974100.042
   -854220.81047                  24192295.158
 02  1  3  3 11 30.0000000  0  8G22G 1G31G27G25G20G13G 2
 -17459930.17949 -13605148.82147  20987785.886    20987789.822
 -25478621.41649 -19853471.63047  20236295.254    20236298.371
  -1575934.78948  -1227998.26844  24792749.001    24792758.433
 -10886200.09748  -8482760.78345  23508474.493    23508477.588
  -1221303.52948                  24843774.165
 -12463262.70248  -9711648.62644  22993445.224    22993456.146
 -20521651.68549 -15990896.71447  21212176.412    21212177.468
   -948423.77347                  24174371.943
 02  1  3  3 12  0.0000000  0  7G22G13G 1G31G27G25G20
 -17390720.29049 -13551219.19147  21000956.438    21000960.260
 -20584189.53149 -16039627.57947  21200276.225    21200277.299
 -25480128.45549 -19854646.03747  20236008.787    20236011.876
  -1681579.01248  -1310318.24944  24772645.873    24772657.291
 -10960739.30748  -8540843.35145  23494291.319    23494293.595
  -1137469.28548                  24859727.761
 -12361352.38048  -9632238.16944  23012838.383    23012841.973
 02  1  3  3 12 30.0000000  0  8G22G13G 1G31G27G25G20G 2
 -17321045.82949 -13496927.56246  21014215.088    21014218.810
 -20646402.68949 -16088105.44847  21188437.436    21188438.513
 -25481192.04649 -19855474.90147  20235806.463    20235809.562
  -1787277.31548                  24752531.692
 -11035184.63548  -8598852.74345  23480124.153    23480126.888
  -1053607.53848                  24875686.967
 -12259227.90248  -9552660.87644  23032272.404    23032277.173
         -.46257                  24138612.328
 02  1  3  3 13  0.0000000  0  8G22G13G 1G31G27G25G20G 2
 -17250927.43949 -13442290.01846  21027558.273    21027562.168
 -20708306.90749 -16136342.60047  21176657.678    21176658.763
 -25481829.10049 -19855971.40047  20235685.202    20235688.277
  -1893044.75148                  24732404.806
 -11109554.06548  -8656803.00845  23465971.881    23465975.547
   -969736.21848                  24891647.643
 -12156910.08848  -9472932.89444  23051742.655    23051747.251
    -93737.13247                  24120774.475
 02  1  3  3 13 30.0000000  0  8G22G13G 1G31G27G25G20G 2
 -17180354.20449 -13387298.05546  21040988.279    21040991.998
 -20769886.70149 -16184326.94947  21164939.441    21164940.742
 -25482025.06349 -19856124.19247  20235647.941    20235651.027
  -1998864.78548                  24712267.120
 -11183833.87148  -8714683.47145  23451837.711    23451839.824
   -885842.65448                  24907611.907
 -12054388.41648  -9393046.05844  23071251.973    23071260.164
   -187319.00047                  24102966.532
 02  1  3  3 14  0.0000000  0  8G22G13G 1G31G27G25G20G 2
 -17109315.23249 -13331943.17546  21054506.785    21054510.702
 -20831126.50149 -16232046.35947  21153286.244    21153287.359
 -25481765.56349 -19855922.08447  20235697.432    20235700.610
  -2104721.14148  -1640038.77544  24692123.532    24692134.701
 -11258010.13348  -8772483.23045  23437721.470    23437725.380
   -801913.99148                  24923584.216
 -11951652.56948  -9312992.34844  23090802.576    23090809.847
   -280730.78748                  24085193.527
 02  1  3  3 14 30.0000000  0  8G22G13G 1G31G27G25G20G 2
 -17037827.18249 -13276238.36746  21068110.019    21068114.472
 -20892038.49549 -16279510.34647  21141694.628    21141695.884
 -25481063.57149 -19855375.17547  20235831.077    20235834.271
  -2210624.84848  -1722561.03144  24671971.067    24671978.839
 -11332096.60548  -8830213.03845  23423623.902    23423627.122
   -717964.02848   -559497.78944  24939560.005    24939570.430
 -11848719.70148                  23110390.137
   -373985.17947                  24067444.879
 02  1  3  3 15  0.0000000  0  8G22G13G 1G31G27G25G20G 2
 -16965896.99349 -13220189.03946  21081798.554    21081802.825
 -20952624.73349 -16326720.49047  21130165.449    21130166.624
 -25479922.47649 -19854486.10547  20236048.172    20236051.366
  -2316577.44848                  24651809.225
 -11406097.38848  -8887876.08945  23409542.033    23409545.305
   -633997.56748   -494070.02944  24955538.429    24955547.365
 -11745596.88948                  23130013.475
   -467085.04848   -363963.55944  24049730.933    24049735.485
 02  1  3  3 15 30.0000000  0  8G22G13G 1G31G27G25G20G 2
 -16893511.39849 -13163784.83846  21095573.233    21095577.488
 -21012867.12049 -16373662.68747  21118702.072    21118703.175
 -25478325.30549 -19853241.65347  20236352.030    20236355.235
  -2422560.05148                  24631641.242
 -11479996.34448  -8945459.76645  23395479.574    23395483.346
   -549998.74048                  24971523.525
 -11642271.26148                  23149675.279
   -560013.09548                  24032046.613
 02  1  3  3 16  0.0000000  0  8G22G13G 1G31G27G25G20G 2
 -16820679.59849 -13107032.94846  21109432.168    21109436.862
 -21072770.52649 -16420340.74847  21107302.544    21107303.676
 -25476277.96049 -19851646.42147  20236741.789    20236744.954
  -2528576.28348  -1970315.23944  24611467.662    24611479.080
 -11553799.93948  -9002969.16745  23381435.442    23381438.544
   -465974.67048                  24987513.854
 -11538752.54148  -8991253.09644  23169375.062    23169378.023
   -652774.24348                  24014395.115
 02  1  3  3 16 30.0000000  0  8G22G13G 1G31G27G25G20G 2
 -16747416.82449 -13049945.23346  21123373.775    21123378.184
 -21132345.38749 -16466762.80747  21095966.190    21095967.549
 -25473792.04649 -19849709.44147  20237214.900    20237218.121
  -2634635.73148                  24591284.190
 -11627520.23048  -9060413.65345  23367406.656    23367410.278
   -381938.00648                  25003505.184
 -11435056.14448  -8910450.91144  23189107.879    23189116.814
   -745379.43248                  23996772.919
 02  1  3  3 17  0.0000000  0  8G22G13G 1G31G27G25G20G 2
 -16673730.32149 -12992527.33746  21137396.144    21137400.756
 -21191593.78749 -16512930.46947  21084691.377    21084692.781
 -25470871.25849 -19847433.60247  20237770.716    20237773.917
  -2740740.10948  -2135637.67344  24571093.777    24571102.713
 -11701161.69148  -9117796.69445  23353393.220    23353396.796
   -297893.78748                  25019499.459
 -11331189.68948  -8829516.31344  23208873.584    23208877.206
   -837831.83548   -652857.15444  23979179.203    23979187.394
 02  1  3  3 17 30.0000000  0  8G22G13G 1G31G27G25G20G 2
 -16599605.32649 -12934767.75946  21151501.684    21151506.231
 -21250496.50649 -16558828.77147  21073482.563    21073484.093
 -25467497.30649 -19844804.65047  20238412.822    20238416.064
  -2846868.85248                  24550896.334
 -11774706.57648  -9175104.47345  23339398.475    23339400.928
   -213824.88848                  25035496.812
 -11227138.78748  -8748437.93844  23228673.676    23228679.179
   -930112.79448                  23961618.938
 02  1  3  3 18  0.0000000  0  8G22G13G 1G31G27G25G20G 2
 -16525037.56449 -12876663.16946  21165691.892    21165696.085
 -21309044.58649 -16604450.74147  21062341.623    21062343.004
 -25463662.22649 -19841816.38047  20239143.012    20239146.308
  -2953011.91348                  24530699.153
 -11848147.63548  -9232331.38845  23325422.740    23325426.257
   -129724.59148                  25051501.789
 -11122899.29548  -8667212.63244  23248510.985    23248513.331
  -1022213.49648   -796531.18944  23944093.097    23944100.958
 02  1  3  3 18 30.0000000  0  8G22G13G 1G31G27G25G20G 2
 -16450045.20749 -12818227.72546  21179962.622    21179967.273
 -21367251.50749 -16649806.88247  21051264.991    21051266.536
 -25459380.67649 -19838480.19847  20239958.006    20239961.298
  -3059182.06348  -2383774.23644  24510495.588    24510505.268
 -11921500.20648  -9289489.34745  23311464.698    23311468.380
    -45608.50348                  25067508.555
 -11018490.04648  -8585855.00244  23268379.175    23268383.369
  -1114147.99048                  23926597.863
 02  1  3  3 19  0.0000000  0  8G22G13G 1G31G27G25G20G 2
 -16374634.60349 -12759466.37546  21194312.817    21194317.309
 -21425118.71149 -16694898.29947  21040253.279    21040254.580
 -25454655.51749 -19834798.35347  20240857.050    20240860.274
  -3165379.89348  -2466525.80844  24490287.163    24490297.092
 -11994767.49248  -9346580.84545  23297522.299    23297525.512
     38519.58448                  25083518.561
 -10913917.62948  -8504370.28844  23288278.237    23288284.081
  -1205918.47848   -939677.82944  23909135.101    23909141.453
 02  1  3  3 19 30.0000000  0  8G22G13G 1G31G27G25G20G 2
 -16298795.12549 -12700370.84146  21208744.501    21208749.258
 -21482631.03349 -16739713.18047  21029309.170    21029310.395
 -25449472.65249 -19830759.85547  20241843.187    20241846.413
  -3271589.13948                  24470076.043
 -12067935.97748  -9403595.34745  23283598.513    23283602.633
    122672.50548                  25099532.985
 -10809171.72448  -8422750.34244  23308210.754    23308214.601
  -1297510.06748                  23891705.356
 02  1  3  3 20  0.0000000  0  8G22G13G 1G31G27G25G20G 2
 -16222531.31649 -12640944.65846  21223257.058    21223262.155
 -21539788.19149 -16784251.30347  21018432.972    21018434.499
 -25443833.10749 -19826365.50247  20242916.568    20242919.894
  -3377808.10448                  24449863.333
 -12141007.19349  -9460534.03245  23269695.265    23269697.973
    206848.03748                  25115551.125
 -10704257.05048  -8340998.89144  23328176.178    23328182.450
  -1388923.06848                  23874310.182
 02  1  3  3 20 30.0000000  0  8G22G13G 1G31G27G25G20G 2
 -16145845.40849 -12581189.56346  21237850.070    21237854.880
 -21596587.86749 -16828510.87247  21007624.353    21007625.908
 -25437735.50249 -19821614.21747  20244077.211    20244080.501
  -3484033.67448                  24429648.911
 -12213980.41849  -9517396.36545  23255807.856    23255811.101
    291046.66248                  25131574.365
 -10599176.29848  -8259118.04144  23348171.976    23348176.687
  -1480155.84048                  23856949.003
 02  1  3  3 21  0.0000000  0  8G22G13G 1G31G27G25G20G 2
 -16068740.61849 -12521108.07746  21252522.749    21252527.668
 -21653028.12449 -16872490.37047  20996883.700    20996885.391
 -25431179.66349 -19816505.87147  20245324.787    20245328.062
  -3590263.59048                  24409434.080
 -12286856.09448  -9574182.70645  23241939.164    23241942.866
    375267.35948                  25147601.486
 -10493932.94848  -8177110.50644  23368199.585    23368205.573
  -1571207.48348  -1224318.66344  23839622.585    23839625.547
 02  1  3  3 21 30.0000000  0  8G22G 1G31G27G25G20G13G 2
 -15991217.73149 -12460700.79846  21267275.212    21267280.466
 -25424162.95249 -19811038.40347  20246660.036    20246663.250
  -3696492.69948  -2880379.53944  24389219.116    24389230.286
 -12359632.08049  -9630891.39845  23228091.724    23228095.652
    459512.00848                  25163633.616
 -10388528.21448                  23388257.236
 -21709105.42549 -16916187.05347  20986213.312    20986214.912
  -1662074.74448  -1295124.38544  23822331.405    23822334.946
 02  1  3  3 22  0.0000000  0  8G22G 1G31G27G25G20G13G 2
 -15913299.94949 -12399985.80346  21282102.615    21282107.247
 -25416705.03849 -19805227.14447  20248079.156    20248082.357
  -3802738.58948                  24369001.561
 -12432328.43548  -9687538.03945  23214257.482    23214261.227
    543759.56948                  25179666.087
 -10282985.62048  -8012736.46344  23408342.260    23408349.679
 -21764838.15349 -16959615.24247  20975607.686    20975609.426
  -1752776.44748  -1365801.46644  23805070.576    23805075.136
 02  1  3  3 22 30.0000000  0  8G22G 1G31G27G25G20G13G 2
 -15834985.25149 -12338961.52846  21297005.541    21297010.523
 -25408800.26249 -19799067.66947  20249583.584    20249587.027
  -3908993.57948                  24348781.277
 -12504939.89248  -9744118.51045  23200439.753    23200444.053
    628014.70548                  25195699.788
 -10177303.20148  -7930386.73644  23428451.943    23428458.766
 -21820219.18849 -17002769.38147  20965068.518    20965070.286
  -1843306.53548  -1436344.01644  23787844.099    23787849.441
 02  1  3  3 23  0.0000000  0  8G22G 1G31G27G25G20G13G 2
 -15756269.66349 -12277624.87846  21311984.629    21311989.770
 -25400441.35549 -19792554.32647  20251174.431    20251177.679
  -4015247.83548  -3128759.61144  24328562.074    24328571.754
 -12577459.59849  -9800627.47645  23186641.020    23186644.193
    712284.09848                  25211736.026
 -10071477.53348  -7847925.41544  23448591.147    23448597.956
 -21875240.23749 -17045643.01147  20954598.731    20954600.531
  -1933656.81148  -1506746.92344  23770651.134    23770657.787
 02  1  3  3 23 30.0000000  0  8G22G 1G31G27G25G20G13G 2
 -15677136.42649 -12215962.79146  21327043.673    21327048.428
 -25391608.19549 -19785671.43347  20252855.254    20252858.517
  -4121478.78448  -3211536.73544  24308346.498    24308354.937
 -12649867.90548  -9857049.64445  23172861.077    23172864.949
    796586.80248                  25227779.143
  -9965491.83648  -7765339.44344  23468758.770    23468767.954
 -21929879.36749 -17088219.03647  20944201.102    20944202.746
  -2023806.40548  -1576993.43044  23753495.553    23753500.310
 02  1  3  3 24  0.0000000  0  8G22G 1G31G27G25G20G13G 2
 -15597599.83249 -12153986.39846  21342178.857    21342183.806
 -25382311.68949 -19778427.49147  20254624.537    20254627.927
  -4227694.93648  -3294302.32344  24288134.382    24288144.062
 -12722176.02148  -9913393.70245  23159101.240    23159106.205
    880911.00448                  25243826.286
  -9859360.93648                  23488955.595
 -21984146.42749 -17130505.13547  20933874.552    20933876.332
  -2113765.48448  -1647091.51244  23736377.867    23736386.306
 02  1  3  3 24 30.0000000  0  8G22G 1G31G27G25G20G13G 2
 -15517660.19049 -12091695.94846  21357391.005    21357395.627
 -25372548.65449 -19770820.03247  20256482.526    20256485.915
  -4333890.69648                  24267925.079
 -12794381.14849  -9969657.54245  23145362.667    23145366.186
    965258.78148                  25259877.438
  -9753085.19548                  23509178.774
 -22038036.82849 -17172497.73047  20923619.501    20923621.243
  -2203530.25548  -1717038.20244  23719295.428    23719304.364
 02  1  3  3 25  0.0000000  0  8G22G 1G31G27G25G20G13G 2
 -15437320.97349 -12029094.13846  21372679.089    21372684.185
 -25362319.14349 -19762849.09247  20258429.089    20258432.316
  -4440063.99048                  24247721.703
 -12866484.04648 -10025841.71545  23131640.071    23131645.017
   1049629.06448                  25275933.027
  -9646668.68548                  23529429.610
 -22091549.54449 -17214196.02647  20913436.462    20913438.238
  -2293100.19248  -1786833.05944  23702251.188    23702262.109
 02  1  3  3 25 30.0000000  0  8G22G 1G31G27G25G20G13G 2
 -15356596.19549 -11966191.88446  21388040.847    21388045.487
 -25351633.61049 -19754522.80247  20260462.853    20260466.116
  -4546222.86348  -3542505.35044  24227519.917    24227530.342
 -12938495.62749 -10081954.70445  23117938.412    23117942.918
   1134010.29748                  25291990.030
  -9540125.62348                  23549704.491
 -22144693.53349 -17255607.00547  20903323.497    20903325.467
  -2382485.17048  -1856483.81444  23685242.714    23685250.268
 02  1  3  3 26  0.0000000  0  8G22G 1G31G27G25G20G13G 2
 -15275486.15149 -11902989.42846  21403475.582    21403480.645
 -25340489.14749 -19745838.90947  20262583.541    20262586.773
  -4652361.89048                  24207322.091
 -13010413.11749 -10137994.39945  23104252.724    23104255.911
   1218404.98148                  25308050.690
  -9433456.51648                  23570003.083
 -22197464.92349 -17296727.64647  20893281.747    20893283.471
  -2471681.28148  -1925987.41944  23668268.405    23668274.558
 02  1  3  3 26 30.0000000  0  8G22G 1G31G27G25G20G13G 2
 -15194008.60649 -11839500.60746  21418980.404    21418985.697
 -25328899.92949 -19736808.45747  20264788.703    20264792.137
  -4758492.91948  -3707910.18244  24187125.202    24187134.386
 -13082251.15348 -10193972.15945  23090581.172    23090586.441
   1302797.62448                  25324110.788
  -9326679.07048                  23590322.968
 -22249875.85949 -17337567.41547  20883308.150    20883309.928
  -2560701.65648  -1995353.99445  23651329.026    23651335.388
 02  1  3  3 27  0.0000000  0  8G22G 1G31G27G25G20G13G 2
 -15112151.45049 -11775715.98446  21434557.692    21434562.717
 -25316850.55649 -19727419.44247  20267081.827    20267085.196
  -4864598.03148  -3790589.28444  24166934.605    24166946.271
 -13153994.69549 -10249876.30645  23076930.710    23076933.996
   1387202.88248                  25340172.895
  -9219781.60648                  23610664.295
 -22301909.83849 -17378113.45247  20873406.609    20873408.521
  -2649530.57548  -2064571.42945  23634425.511    23634432.939
 02  1  3  3 27 30.0000000  0  8G22G 1G31G27G25G20G13G 2
 -15029913.50549 -11711634.64246  21450206.934    21450212.360
 -25304336.50849 -19717668.34147  20269463.356    20269466.775
  -4970670.32848  -3873242.87444  24146749.871    24146758.311
 -13225639.48649 -10305703.49545  23063296.422    23063301.067
   1471624.58748                  25356237.721
  -9112763.33948  -7100877.91244  23631029.979    23631038.666
 -22353561.19849 -17418361.34547  20863577.407    20863579.411
  -2738162.80648  -2133635.61644  23617558.668    23617565.873
 02  1  3  3 28  0.0000000  0  8G22G 1G31G27G25G20G13G 2
 -14947298.62649 -11647259.59746  21465928.236    21465933.038
 -25291358.10949 -19707555.41147  20271933.102    20271936.447
  -5076707.84848  -3955869.36344  24126571.098    24126579.538
 -13297186.39848 -10361454.39745  23049680.260    23049684.786
   1556061.05848                  25372306.775
  -9005628.27748  -7017396.35444  23651418.200    23651426.110
 -22404828.69849 -17458310.13247  20853821.740    20853823.689
  -2826598.09548  -2202546.35645  23600730.458    23600737.368
 02  1  3  3 28 30.0000000  0  8G22G 1G31G27G25G20G13G 2
 -14864317.90949 -11582599.48146  21481718.759    21481724.495
 -25277923.26749 -19697086.81847  20274489.910    20274493.417
  -5182715.59348                  24106398.640
 -13368643.31549 -10417135.19646  23036085.219    23036088.316
   1640503.77848                  25388375.702
  -8898387.72448  -6933832.56244  23671824.133    23671829.781
 -22455719.14949 -17497965.10847  20844137.892    20844139.780
  -2914843.23148  -2271308.88445  23583938.478    23583945.947
 02  1  3  3 29  0.0000000  0  8G22G 1G31G27G25G20G13G 2
 -14780963.21049 -11517647.94846  21497580.944    21497586.624
 -25264020.64649 -19686253.72247  20277135.525    20277139.090
  -5288679.82748  -4121042.00344  24086233.670    24086244.840
 -13439999.35149 -10472737.38446  23022504.906    23022508.580
   1724963.70648                  25404448.161
  -8791034.02948  -6850180.64944  23692254.738    23692260.637
 -22506219.42649 -17537316.04947  20834528.223    20834530.253
  -3002886.21648  -2339913.88444  23567183.766    23567190.738
 02  1  3  3 29 30.0000000  0  8G22G 1G31G27G25G20G13G 2
 -14697236.69249 -11452406.69046  21513513.920    21513518.940
 -25249649.00849 -19675055.14547  20279870.457    20279873.912
  -5394596.61248  -4203574.38544  24066079.202    24066085.222
 -13511253.49649 -10528260.17145  23008945.779    23008950.581
   1809440.75848                  25420523.928
  -8683569.45048  -6766442.24744  23712703.224    23712711.911
 -22556326.56449 -17576360.64147  20824993.131    20824995.015
  -3090725.04448  -2408359.78244  23550469.289    23550473.385
 02  1  3  3 30  0.0000000  0  8G22G 1G31G27G25G20G13G 2
 -14613135.62849 -11386873.57946  21529517.859    21529523.393
 -25234802.34149 -19663486.42347  20282695.787    20282699.192
  -5500457.03448                  24045933.836
 -13582399.70349 -10583698.86946  22995408.523    22995412.276
   1893940.67848   1475736.75645  25436604.616    25436608.817
  -8575991.04048  -6682615.19544  23733176.176    23733187.346
 -22606033.55549 -17615093.44047  20815533.878    20815536.001
  -3178352.89848  -2476641.34244  23533794.129    23533801.550
 02  1  3  3 30 30.0000000  0  7G22G 1G27G25G20G13G 2
 -14528666.09449 -11321053.36246  21545591.799    21545598.200
 -25219483.37649 -19651549.66847  20285611.049    20285614.408
 -13653441.19449 -10639055.96646  22981888.529    22981892.733
   1978459.55848   1541597.07245  25452688.228    25452694.784
  -8468305.60848  -6598704.73044  23753667.060    23753677.982
 -22655341.51949 -17653515.29747  20806151.251    20806153.366
  -3265771.89448  -2544760.12944  23517158.113    23517167.049
 02  1  3  3 31  0.0000000  0  7G22G 1G27G25G20G13G 2
 -14443829.05549 -11254946.77746  21561736.055    21561741.648
 -25203689.74749 -19639243.05147  20288616.381    20288619.881
 -13724375.89849 -10694329.83346  22968390.182    22968394.414
   2062998.96548                  25468775.958
  -8360514.15548  -6514711.63144  23774180.322    23774190.499
 -22704246.92649 -17691623.48447  20796844.794    20796846.723
  -3352978.61548  -2612713.51645  23500564.360    23500569.302
 02  1  3  3 31 30.0000000  0  7G22G 1G27G25G20G13G 2
 -14358650.87349 -11188574.37346  21577945.310    21577950.753
 -25187444.56949 -19626584.58347  20291707.843    20291711.406
 -13795226.97849 -10749538.55546  22954908.658    22954911.839
   2147535.41748                  25484863.567
  -8252643.34348  -6430656.68744  23794706.848    23794717.769
 -22752771.34949 -17729434.80147  20787611.026    20787613.003
  -3439995.57248  -2680519.01844  23484005.204    23484012.303
 02  1  3  3 32  0.0000000  0  7G22G 1G27G25G20G13G 2
 -14273115.42049 -11121923.57546  21594222.204    21594228.223
 -25170728.49149 -19613559.18247  20294888.777    20294892.350
 -13865975.36949 -10804667.24846  22941444.953    22941448.998
   2232087.34748                  25500953.335
  -8144677.35848  -6346527.59744  23815252.396    23815259.011
 -22800894.05249 -17766933.08447  20778453.509    20778455.537
  -3526802.72548  -2748161.03644  23467486.408    23467493.498
 02  1  3  3 32 30.0000000  0  7G22G 1G27G25G20G13G 2
 -14187220.61449 -11054992.76946  21610567.669    21610573.836
 -25153536.27049 -19600162.75147  20298160.262    20298163.979
 -13936615.85249 -10859711.86146  22928002.907    22928006.605
   2316659.13848                  25517047.642
  -8036614.11948  -6262322.73744  23835816.540    23835821.245
 -22848608.18149 -17804112.99647  20769373.782    20769375.779
  -3613393.69048  -2815634.52945  23451009.511    23451014.245
 02  1  3  3 33  0.0000000  0  6G22G27G20G 2G 1G13
 -14100967.09849 -10987782.43546  21626980.975    21626987.420
 -14007145.99649 -10914670.50946  22914581.744    22914585.826
  -7928454.63348  -6178042.88044  23856398.606    23856409.775
  -3699765.24448  -2882937.08745  23434572.360    23434579.317
 -25135865.29849 -19586393.26647  20301523.224    20301526.803
 -22895909.52749 -17840971.25947  20760373.103    20760375.056
 02  1  3  3 33 30.0000000  0  6G22G 1G27G20G13G 2
 -14014359.82049 -10920296.45646  21643462.339    21643468.259
 -25117717.35349 -19572252.11447  20304976.954    20304980.605
 -14077567.73149 -10969544.63346  22901180.104    22901184.219
  -7820203.94948  -6093691.95444  23876998.584    23877008.016
 -22942798.44149 -17877508.14047  20751450.462    20751452.305
  -3785918.40748  -2950069.46545  23418178.895    23418185.087
 02  1  3  3 34  0.0000000  0  7G22G 1G 8G27G20G13G 2
 -13927436.21849 -10852563.99146  21660003.471    21660009.730
 -25099126.52649 -19557765.85647  20308514.772    20308518.541
         -.20858                  25098827.043
 -14147915.34849 -11024361.00746  22887794.219    22887798.431
  -7711899.79648  -6009299.37344  23897608.182    23897616.041
 -22989307.68349 -17913749.18647  20742599.981    20742601.875
  -3871886.43148  -3017057.62045  23401819.094    23401826.107
 02  1  3  3 34 30.0000000  0  8G22G 1G 8G27G31G20G13G 2
 -13840178.48149 -10784571.16246  21676608.088    21676614.472
 -25080072.08749 -19542918.33247  20312140.559    20312144.321
    -93067.22148                  25081116.160
 -14218168.05249 -11079103.47246  22874425.702    22874429.858
         -.05258                  23865142.410
  -7603524.64948  -5924851.47444  23918231.001    23918242.171
 -23035414.98349 -17949677.03347  20733826.205    20733827.806
  -3957647.54348  -3083884.54845  23385499.890    23385507.554
 02  1  3  3 35  0.0000000  0  8G22G 1G 8G27G31G20G13G 2
 -13752573.48349 -10716307.74846  21693278.934    21693285.197
 -25060537.56549 -19527696.73447  20315857.974    20315861.878
   -186100.45848                  25063413.902
 -14288309.61349 -11133759.28946  22861077.601    22861083.161
   -105217.45348    -81986.90744  23845119.862    23845126.668
  -7495065.33248  -5840338.00344  23938871.229    23938882.895
 -23081101.93249 -17985277.31547  20725132.604    20725134.433
  -4043184.61148  -3150536.88445  23369222.365    23369230.121
 02  1  3  3 35 30.0000000  0  8G22G 1G 8G27G31G20G13G 2
 -13664634.82649 -10647784.34546  21710013.221    21710019.573
 -25040533.49049 -19512109.25647  20319664.736    20319668.676
   -279110.38548                  25045714.009
 -14358350.62949 -11188336.76046  22847749.772    22847753.562
   -210354.65248   -163911.91844  23825113.022    23825124.440
  -7386535.62448  -5755769.55444  23959523.384    23959532.071
 -23126377.74049 -18020557.21347  20716516.637    20716518.605
  -4128507.27748  -3217022.13245  23352986.899    23352995.090
 02  1  3  3 36  0.0000000  0  8G22G 1G 8G27G31G20G13G 2
 -13576366.08849 -10579003.72446  21726810.580    21726817.010
 -25020060.44549 -19496156.35147  20323560.675    20323564.594
   -372097.46948                  25028018.968
 -14428291.37049 -11242836.07646  22834440.263    22834445.164
   -315409.24548                  23805121.110
  -7277939.61848  -5671149.58244  23980189.189    23980198.621
 -23171241.53349 -18055516.06247  20707979.439    20707981.294
  -4213615.26648  -3283340.10145  23336790.743    23336798.934
 02  1  3  3 36 30.0000000  0  8G22G 1G 8G27G31G20G13G 2
 -13487755.76349 -10509956.93646  21743672.453    21743678.957
 -24999103.79949 -19479826.61447  20327548.573    20327552.562
   -465046.93648                  25010331.027
 -14498117.35549 -11297245.97146  22821152.243    22821157.651
   -420363.86548                  23785150.494
  -7169265.83448  -5586468.92144  24000868.813    24000879.486
 -23215677.11549 -18090141.25247  20699523.548    20699525.511
  -4298493.03248  -3349478.68245  23320639.093    23320646.593
 02  1  3  3 37  0.0000000  0  8G 1G 8G22G27G31G20G13G 2
 -24977679.73249 -19463132.64147  20331625.498    20331629.493
   -557975.39948                  24992648.376
 -13398823.21249 -10440659.06146  21760595.783    21760602.998
 -14567844.97349 -11351579.24346  22807884.789    22807889.039
   -525231.78648   -409270.58244  23765193.871    23765202.559
  -7060533.91048  -5501743.00744  24021560.371    24021567.016
 -23259699.20349 -18124444.23147  20691146.542    20691148.545
  -4383155.95448  -3415449.83045  23304528.677    23304535.657
 02  1  3  3 37 30.0000000  0  8G22G 1G 8G27G31G20G13G 2
 -13309563.42549 -10371106.19946  21777581.789    21777588.274
 -24955780.07449 -19446068.07947  20335793.038    20335797.134
   -650874.45648                  24974970.776
 -14637466.04749 -11405829.50246  22794635.895    22794640.025
   -630002.19548   -490909.82144  23745256.269    23745267.687
  -6951739.02848  -5416968.02444  24042263.522    24042271.961
 -23303298.04449 -18158417.40347  20682849.789    20682851.755
  -4467595.14248  -3481246.69245  23288459.622    23288468.558
 02  1  3  3 38  0.0000000  0  8G22G 1G 8G27G31G20G13G 2
 -13219991.83949 -10301310.36646  21794626.775    21794633.659
 -24933417.31049 -19428642.65847  20340048.545    20340052.708
   -743756.31348                  24957295.190
 -14706992.88549 -11460006.33846  22781405.131    22781409.237
   -734684.47948                  23725336.078
  -6842896.59648  -5332156.04344  24062975.829    24062986.254
 -23346484.52449 -18192069.26147  20674631.390    20674633.631
  -4551821.81148  -3546877.92545  23272432.765    23272440.248
 02  1  3  3 38 30.0000000  0  8G 1G 8G22G27G31G20G13G 2
 -24910581.31849 -19410848.49347  20344393.980    20344398.218
   -836610.56348                  24939625.633
 -13130101.22049 -10231265.94646  21811732.544    21811739.060
 -14776415.18549 -11514101.69746  22768195.192    22768198.759
   -839265.35248   -653971.97445  23705435.464    23705444.648
  -6733999.69748  -5247301.54444  24083698.143    24083708.072
 -23389246.80649 -18225390.58447  20666494.483    20666496.801
  -4635824.87448  -3612334.91345  23256447.051    23256455.738
 02  1  3  3 39  0.0000000  0  8G 1G 8G22G27G31G20G13G 2
 -24887257.67849 -19392674.33347  20348832.394    20348836.633
   -929422.82448                  24921964.922
 -13039880.27249 -10160964.11346  21828901.552    21828907.544
 -14845718.43049 -11568104.28046  22755006.300    22755012.212
   -943727.76448                  23685556.849
  -6625037.17948  -5162395.97944  24104433.631    24104442.070
 -23431568.78749 -18258368.80947  20658440.913    20658443.147
  -4719588.95448  -3677605.65345  23240507.673    23240515.045
 02  1  3  3 39 30.0000000  0  8G 1G 8G22G27G31G20G13G 2
 -24863457.39149 -19374128.76847  20353361.424    20353365.866
  -1022203.94648                  24904309.038
 -12949342.91049 -10090415.72646  21846129.833    21846137.484
 -14914913.54449 -11622022.60146  22741839.333    22741844.110
  -1048079.65248   -816684.44245  23665699.567    23665709.743
  -6516023.04748  -5077450.11044  24125178.009    24125187.441
 -23473459.90449 -18291011.29947  20650469.653    20650471.820
  -4803124.47448  -3742698.34245  23224611.248    23224619.439
 02  1  3  3 40  0.0000000  0  8G 1G 8G22G27G31G20G13G 2
 -24839186.37649 -19355216.40647  20357980.094    20357984.527
  -1114959.80648                  24886658.375
 -12858498.14149 -10019627.79846  21863417.392    21863424.783
 -14984006.34549 -11675861.19246  22728692.223    22728696.181
  -1152324.04748   -897913.87345  23645862.687    23645872.864
  -6406966.49148  -4992471.21144  24145931.129    24145938.473
 -23514924.64049 -18323321.54347  20642578.846    20642580.961
  -4886436.46148  -3807616.80745  23208757.622    23208766.806
 02  1  3  3 40 30.0000000  0  8G 1G 8G22G27G31G20G13G 2
 -24814439.94149 -19335933.58147  20362689.426    20362693.835
  -1207685.62748                  24869013.519
 -12767344.34949  -9948599.07146  21880763.616    21880771.411
 -15052992.24949 -11729616.47846  22715563.882    22715568.627
  -1256453.21948   -979053.52245  23626047.554    23626057.731
  -6297866.22948  -4907458.22944  24166692.306    24166700.746
 -23555956.64149 -18355294.59147  20634770.543    20634772.916
  -4969519.30148  -3872356.72445  23192947.464    23192954.058
 02  1  3  3 41  0.0000000  0  8G 1G 8G22G27G31G20G13G 2
 -24789211.95949 -19316275.51847  20367490.268    20367494.658
  -1300374.87048                  24851375.319
 -12675878.45049  -9877327.14346  21898168.950    21898175.634
 -15121865.04549 -11783283.63646  22702457.317    22702463.449
  -1360457.92448  -1060096.18145  23606256.158    23606265.590
  -6188719.42348  -4822409.01644  24187462.511    24187470.048
 -23596548.30249 -18386924.52047  20627046.384    20627048.499
  -5052365.84148  -3936912.51345  23177182.115    23177191.795
 02  1  3  3 41 30.0000000  0  8G 1G 8G22G27G31G20G13G 2
 -24763500.82549 -19296240.95347  20372383.100    20372387.506
  -1393026.09248                  24833744.532
 -12584101.69949  -9805812.99646  21915633.603    21915641.794
 -15190622.87949 -11836861.20946  22689373.952    22689378.543
  -1464333.69448  -1141038.40945  23586489.238    23586499.415
  -6079527.31548  -4737324.49344  24208240.956    24208252.125
 -23636696.41949 -18418208.83047  20619406.626    20619408.790
  -5134973.52948  -4001282.17345  23161462.545    23161471.729
 02  1  3  3 42  0.0000000  0  8G 1G 8G22G27G31G20G13G 2
 -24737328.78049 -19275847.24347  20377363.487    20377367.971
  -1485660.73548                  24816117.403
 -12492038.93649  -9734075.98946  21933152.772    21933159.963
 -15259287.41649 -11890366.09246  22676307.373    22676312.491
  -1568099.52548  -1221894.96845  23566743.635    23566754.805
  -5970314.88448  -4652224.09844  24229023.901    24229030.034
 -23676421.33749 -18449163.37147  20611847.610    20611849.592
  -5217363.54148  -4065482.20045  23145784.555    23145791.584
 02  1  3  3 42 30.0000000  0  8G 1G 8G22G27G31G20G13G 2
 -24710689.21649 -19255089.23647  20382432.935    20382437.431
  -1578272.31048                  24798493.484
 -12399686.61649  -9662113.34346  21950726.981    21950734.704
 -15327852.22049 -11943793.28046  22663259.647    22663264.973
  -1671745.92148  -1302658.46645  23547019.581    23547030.254
  -5861078.74948  -4567105.24844  24249811.331    24249818.454
 -23715714.85449 -18479781.76647  20604370.094    20604372.098
  -5299528.34648  -4129506.73945  23130148.646    23130157.085
 02  1  3  3 43  0.0000000  0  8G 1G 8G22G27G31G20G13G 2
 -24683571.81849 -19233958.89247  20387593.354    20387597.921
  -1670850.26348                  24780877.014
 -12307037.45549  -9589919.38646  21968357.653    21968365.505
 -15396306.85549 -11997134.62046  22650233.775    22650238.031
  -1775259.37448  -1383318.38445  23527322.468    23527331.900
  -5751811.96248                  24270603.101
 -23754565.04749 -18510054.70447  20596977.026    20596979.226
  -5381456.79848  -4193347.10345  23114558.754    23114566.433
 02  1  3  3 43 30.0000000  0  8G 1G 8G22G27G31G20G13G 2
 -24655986.94349 -19212464.28747  20392843.003    20392847.299
  -1763404.57748                  24763264.250
 -12214104.62249  -9517504.39146  21986042.403    21986049.705
 -15464661.32249 -12050397.89946  22637225.588    22637230.252
  -1878646.93748  -1463880.19245  23507648.107    23507658.532
  -5642527.98448  -4396806.37844  24291400.370    24291409.306
 -23792980.72149 -18539989.06347  20589666.968    20589669.181
  -5463158.35948  -4257010.65845  23099011.423    23099019.309
 02  1  3  3 44  0.0000000  0  8G 1G 8G22G27G31G20G13G 2
 -24627923.49349 -19190596.76447  20398183.261    20398187.599
  -1855923.87248                  24745658.476
 -12120879.73349  -9444861.82546  22003782.517    22003789.937
 -15532904.07949 -12103574.13646  22624239.726    22624244.507
  -1981894.44048  -1544332.87245  23488001.355    23488011.780
  -5533218.28848  -4311630.18044  24312201.149    24312210.085
 -23830949.01649 -18569574.82047  20582442.024    20582444.107
  -5544620.71448  -4320487.82545  23083508.966    23083517.157
 02  1  3  3 44 30.0000000  0  8G 1G 8G22G27G31G20G13G 2
 -24599384.21449 -19168358.46747  20403613.810    20403618.390
  -1948410.67048                  24728059.752
 -12027368.45849  -9371996.10446  22021577.481    22021584.890
 -15601037.73349 -12156665.36646  22611275.382    22611279.976
  -2085001.53848  -1624676.16945  23468380.128    23468389.312
  -5423888.52848                  24333006.237
 -23868471.22949 -18598812.98147  20575301.898    20575304.178
  -5625845.63648  -4383779.95545  23068052.900    23068060.653
 02  1  3  3 45  0.0000000  0  8G 1G 8G22G27G31G20G13G 2
 -24570364.91149 -19145746.12747  20409136.040    20409140.700
  -2040860.33748                  24710466.784
 -11933569.34449  -9298906.09346  22039427.213    22039434.955
 -15669057.82649 -12209668.11546  22598331.207    22598336.395
  -2187960.81448  -1704904.24445  23448788.153    23448796.592
  -5314537.58048  -4141230.04344  24353814.932    24353823.123
 -23905541.14249 -18627698.69847  20568247.938    20568249.972
  -5706827.92148  -4446883.04245  23052642.318    23052650.757
 02  1  3  3 45 30.0000000  0  8G 1G 8G22G27G31G20G13G 2
 -24540871.90149 -19122764.67047  20414748.623    20414753.121
  -2133278.89848                  24692880.580
 -11839491.57149  -9225598.93146  22057329.894    22057337.161
 -15736970.27349 -12262586.94446  22585407.382    22585412.007
  -2290775.50548  -1785019.69145  23429223.299    23429233.476
  -5205174.79648                  24374625.854
 -23942163.36949 -18656235.57147  20561278.811    20561280.859
  -5787572.86348  -4509801.16845  23037277.437    23037284.454
 02  1  3  3 46  0.0000000  0  8G 1G 8G22G27G31G20G13G 2
 -24510901.32349 -19099411.08447  20420452.215    20420456.638
  -2225662.09948                  24675300.569
 -11745133.89249  -9152073.65846  22075285.219    22075293.658
 -15804771.01049 -12315418.71946  22572505.906    22572510.390
  -2393438.65248  -1865017.00845  23409686.831    23409696.263
  -5095799.33648                  24395439.539
 -23978332.52049 -18684419.39347  20554395.807    20554398.104
  -5868075.62348  -4572530.58145  23021957.427    23021965.867
 02  1  3  3 46 30.0000000  0  8G 1G 8G22G27G31G20G13G 2
 -24480455.78349 -19075687.39047  20426245.628    20426250.218
  -2318012.45548                  24657727.281
 -11650501.86549  -9078334.61646  22093293.819    22093300.336
 -15872462.51949 -12368165.41746  22559624.567    22559629.415
  -2495949.45348  -1944895.61645  23390180.124    23390190.797
  -4986416.75948                  24416254.601
 -24014049.50749 -18712250.87947  20547599.566    20547601.734
  -5948338.04048  -4635072.71245  23006684.639    23006691.826
 02  1  3  3 47  0.0000000  0  8G 1G 8G22G27G31G20G13G 2
 -24449538.66849 -19051596.23447  20432128.789    20432133.541
  -2410332.71148                  24640159.835
 -11555601.54149  -9004386.51246  22111352.363    22111359.945
 -15940047.54349 -12420829.14146  22546763.563    22546767.933
  -2598308.05648  -2024655.62445  23370701.406    23370711.831
  -4877033.05248                  24437069.580
 -24049316.06749 -18739731.37747  20540888.542    20540890.752
  -6028362.33848  -4697429.32645  22991456.641    22991464.832
 02  1  3  3 47 30.0000000  0  8G 1G 8G22G27G31G20G13G 2
 -24418153.26749 -19027140.18547  20438101.363    20438106.101
  -2502625.71448                  24622595.944
 -11460438.77449  -8930233.92946  22129461.863    22129469.156
 -16007528.89249 -12473412.04846  22533922.528    22533927.200
  -2700514.27948  -2104296.84245  23351252.513    23351261.946
  -4767654.28748                  24457884.096
 -24084133.67149 -18766862.03747  20534262.909    20534265.125
  -6108150.74848  -4759602.12345  22976272.839    22976281.279
 02  1  3  3 48  0.0000000  0  8G 1G 8G22G27G31G20G13G 2
 -24386300.86949 -19002320.23747  20444163.115    20444167.666
  -2594892.40648                  24605039.142
 -11365017.72849  -8855880.08646  22147619.433    22147627.872
 -16074907.42549 -12525914.83446  22521100.427    22521105.112
  -2802566.17148  -2183817.82345  23331832.628    23331843.798
  -4658284.91748                  24478696.759
 -24118502.08849 -18793642.68647  20527722.787    20527725.227
  -6187703.40048  -4821591.21545  22961135.224    22961142.284
 02  1  3  3 48 30.0000000  0  8G 1G 8G22G27G31G20G13G 2
 -24353967.43549 -18977125.45647  20450316.103    20450320.575
  -2687118.27348                  24587489.372
 -11269326.85049  -8781315.98446  22165829.300    22165837.491
 -16142168.57749 -12578326.14546  22508301.311    22508306.008
  -2904446.56648  -2263205.15945  23312445.504    23312456.177
  -4548913.43548                  24499508.909
 -24152405.29849 -18820060.83647  20521271.095    20521273.442
  -6267005.38548  -4883384.97445  22946043.623    22946052.558
 02  1  3  3 49  0.0000000  0  8G 1G 8G22G27G31G20G13G 2
 -24321150.75849 -18951554.13147  20456560.672    20456565.472
  -2779300.69548                  24569947.391
 -11173366.66249  -8706542.04546  22184089.750    22184098.189
 -16209309.90449 -12630644.09546  22495525.128    22495529.788
  -3006149.74148  -2342454.41845  23293091.990    23293103.656
  -4439540.61248                  24520322.483
 -24185839.44349 -18846113.46647  20514908.949    20514911.446
  -6346053.59848  -4944980.98545  22931001.747    22931010.434
 02  1  3  3 49 30.0000000  0  8G 1G 8G22G27G31G20G13G 2
 -24287840.18649 -18925597.96147  20462899.573    20462904.435
  -2871428.66048                  24552416.835
 -11077129.03549  -8631551.89846  22202403.990    22202411.777
 -16276320.31649 -12682860.04946  22482773.008    22482777.872
  -3107661.75448  -2421554.68945  23273774.747    23273785.916
  -4330158.60548                  24541137.478
 -24218792.15449 -18871790.95947  20508638.281    20508640.660
  -6424836.20048  -5006370.04645  22916009.233    22916017.920
 02  1  3  3 50  0.0000000  0  8G 1G 8G22G27G31G20G13G 2
 -24254062.70649 -18899277.95847  20469327.398    20469332.144
  -2963528.20248                  24534890.623
 -10980643.61149  -8556368.65946  22220763.929    22220772.368
 -16343226.19349 -12734994.53846  22470040.928    22470045.474
  -3209006.08148  -2500524.27845  23254489.607    23254500.280
  -4220796.91448                  24561948.003
 -24251288.64649 -18897112.96147  20502454.524    20502456.978
  -6503378.91348  -5067572.18345  22901063.971    22901071.199
 02  1  3  3 50 30.0000000  0  8G 1G 8G22G27G31G20G13G 2
 -24219808.94249 -18872586.81747  20475845.663    20475850.608
  -3055589.85748                  24517372.041
 -10883903.62549  -8480987.07246  22239173.444    22239181.309
 -16410017.68549 -12787039.91046  22457331.760    22457336.515
  -3310170.07048  -2579353.33845  23235238.671    23235250.089
  -4111448.84848                  24582757.127
 -24283317.73449 -18922070.75547  20496359.707    20496362.115
  -6581671.27548  -5128579.24845  22886165.188    22886172.947
 02  1  3  3 51  0.0000000  0  8G 1G 8G22G27G31G20G13G 2
 -24185086.18849 -18845530.22347  20482453.320    20482458.134
  -3147620.24548  -2452697.77144  24499859.372    24499869.549
 -10786918.87049  -8405414.74246  22257629.423    22257638.359
 -16476701.50049 -12839001.35346  22444641.950    22444646.728
  -3411157.88148  -2658045.11345  23216021.929    23216031.361
  -4002124.59848                  24603560.412
 -24314885.25149 -18946668.88447  20490352.714    20490355.117
  -6659719.56448  -5189396.11746  22871313.067    22871321.507
 02  1  3  3 51 30.0000000  0  8G 1G 8G22G27G31G20G13G 2
 -24149887.68349 -18818102.91547  20489151.671    20489156.409
  -3239612.10648                  24482353.104
 -10689685.14449  -8329648.42646  22276132.940    22276140.667
 -16543270.41049 -12890873.26146  22431974.143    22431978.865
  -3511959.14848  -2736591.51345  23196839.597    23196851.263
  -3892820.00548  -3033400.63444  24624361.323    24624368.265
 -24345982.23149 -18970900.35447  20484435.279    20484437.445
  -6737515.83548  -5250016.61746  22856508.587    22856516.008
 02  1  3  3 52  0.0000000  0  8G 1G 8G22G27G31G20G13G 2
 -24114210.27649 -18790302.44647  20495940.649    20495945.799
  -3331561.86448                  24464856.958
 -10592202.02349  -8253687.79046  22294682.868    22294691.555
 -16609720.77549 -12942652.79446  22419329.600    22419334.097
  -3612567.60348  -2814987.68345  23177694.427    23177704.107
  -3783534.83948  -2948243.57144  24645156.756    24645166.188
 -24376604.44149 -18994761.87547  20478608.180    20478610.265
  -6815056.18749  -5310437.69346  22841754.169    22841760.640
 02  1  3  3 52 30.0000000  0  8G 1G 8G22G27G31G20G13G 2
 -24078056.52749 -18762130.80147  20502820.320    20502825.452
  -3423471.28148                  24447366.824
 -10494474.40649  -8177536.62146  22313279.997    22313288.933
 -16676054.34449 -12994341.32546  22406706.708    22406711.399
  -3712982.10948  -2893232.74145  23158586.588    23158596.765
  -3674274.23448                  24665949.178
 -24406752.21649 -19018253.70347  20472871.191    20472873.442
  -6892341.85449  -5370660.33446  22827046.330    22827055.265
 02  1  3  3 53  0.0000000  0  8G 1G 8G22G27G31G20G13G 2
 -24041433.66449 -18733593.62247  20509789.494    20509794.745
  -3515346.94548  -2739238.93044  24429884.481    24429890.037
 -10396511.80249  -8101202.36046  22331922.171    22331930.610
 -16742277.67949 -13045943.96046  22394104.656    22394109.714
  -3813206.18248  -2971329.38045  23139513.726    23139522.661
  -3565047.66348                  24686734.082
 -24436430.99849 -19041380.08047  20467223.241    20467225.576
  -6969378.76949  -5430689.12746  22812387.302    22812394.317
 02  1  3  3 53 30.0000000  0  8G 1G 8G22G27G31G20G13G 2
 -24004328.06849 -18704680.29247  20516850.764    20516856.091
  -3607174.62348                  24412409.732
 -10298303.05649  -8024676.29746  22350610.975    22350619.414
 -16808376.58649 -13097449.65246  22381526.531    22381531.294
  -3913222.91048  -3049264.48645  23120482.121    23120491.801
  -3455844.06448                  24707514.663
 -24465625.33249 -19064128.96647  20461667.869    20461670.280
  -7046152.16149  -5490512.57346  22797777.128    22797785.567
 02  1  3  3 54  0.0000000  0  8G 1G 8G22G27G31G20G13G 2
 -23966749.81349 -18675398.66247  20524001.828    20524007.052
  -3698963.81448  -2882317.48544  24394942.843    24394953.517
 -10199860.73949  -7947968.22346  22369343.623    22369353.055
 -16874360.47049 -13148865.71346  22368970.102    22368974.913
  -4013038.61048                  23101487.140
  -3346676.24548  -2607835.20144  24728289.551    24728299.728
 -24494343.65049 -19086506.93347  20456203.136    20456205.496
  -7122671.01849  -5550137.67046  22783216.650    22783224.365
 02  1  3  3 54 30.0000000  0  8G 1G 8G22G27G31G20G13G 2
 -23928711.45149 -18645758.49547  20531240.294    20531245.615
  -3790726.28648  -2953820.94744  24377481.915    24377489.219
 -10101199.83549  -7871089.81646  22388118.464    22388128.641
 -16940241.17849 -13200201.38846  22356433.644    22356438.304
  -4112662.39248  -3204671.86345  23082529.255    23082540.425
  -3237559.42348                  24749053.653
 -24522596.56349 -19108522.24047  20450827.136    20450829.637
  -7198946.84249  -5609573.38046  22768701.638    22768710.077
 02  1  3  3 55  0.0000000  0  8G 1G 8G22G27G31G20G13G 2
 -23890197.19949 -18615747.50147  20538569.321    20538574.724
  -3882445.76348                  24360026.569
 -10002306.95548  -7794030.67246  22406936.986    22406946.418
 -17006002.42949 -13251443.98846  22343919.846    22343924.833
  -4212074.99248  -3282136.26145  23063612.277    23063622.951
  -3128480.29848                  24769810.778
 -24550366.72349 -19130161.37447  20445542.607    20445545.160
  -7274962.67649  -5668806.49946  22754236.397    22754243.360
 02  1  3  3 55 30.0000000  0  8G 1G 8G22G27G31G20G13G 2
 -23851209.55849 -18585367.63947  20545988.224    20545993.812
  -3974124.00448  -3096728.74344  24342583.267    24342589.604
  -9903186.90948  -7716794.50446  22425799.256    22425808.192
 -17071645.87549 -13302594.76346  22331427.496    22331433.219
  -4311275.58848  -3359435.42045  23044734.661    23044744.094
  -3019443.78648  -2352849.57244  24790560.532    24790571.206
 -24577654.63849 -19151424.73747  20440349.684    20440352.418
  -7350719.95949  -5727838.13446  22739820.224    22739827.980
 02  1  3  3 56  0.0000000  0  8G 1G 8G22G27G31G20G13G 2
 -23811748.12049 -18554618.59147  20553497.871    20553503.333
  -4065759.72648  -3168133.42644  24325144.795    24325153.979
  -9803841.64548  -7639382.85146  22444704.159    22444714.584
 -17137170.37749 -13353652.87646  22318959.125    22318964.616
  -4410260.11948  -3436566.25945  23025898.779    23025908.956
  -2910452.02648                  24811300.622
 -24604458.44749 -19172310.88447  20435248.940    20435251.579
  -7426217.06649  -5786667.03046  22725453.238    22725460.695
 02  1  3  3 56 30.0000000  0  8G 1G 8G22G27G31G20G13G 2
 -23771814.41049 -18523501.54047  20561097.414    20561102.756
  -4157354.02848  -3239505.78644  24307715.484    24307722.701
  -9704275.10748  -7561798.78645  22463651.211    22463660.892
 -17202576.67749 -13404618.87046  22306513.312    22306518.613
  -4509026.62948  -3513527.20945  23007103.687    23007114.857
  -2801508.92148                  24832031.667
 -24630777.59449 -19192819.36847  20430240.789    20430243.421
  -7501454.41149  -5845293.53946  22711136.202    22711144.889
 02  1  3  3 57  0.0000000  0  8G 1G 8G22G27G31G20G13G 2
 -23731411.47249 -18492018.84947  20568785.782    20568791.121
  -4248908.79748  -3310847.41744  24290293.280    24290302.712
  -9604492.48448  -7484046.32845  22482639.185    22482650.355
 -17267867.04449 -13455494.52046  22294088.018    22294093.308
  -4607574.15848  -3590317.54445  22988351.698    22988360.385
  -2692619.84548                  24852753.869
 -24656613.14949 -19212951.02447  20425324.747    20425327.500
  -7576433.60549  -5903718.89346  22696868.037    22696876.725
 02  1  3  3 57 30.0000000  0  8G 1G 8G22G27G31G20G13G 2
 -23690535.46049 -18460167.52347  20576564.078    20576569.912
  -4340419.55348  -3382154.67744  24272879.512    24272887.228
  -9504492.30248  -7406124.37845  22501668.778    22501678.459
 -17333036.82849 -13506276.20146  22281687.164    22281692.165
  -4705895.27448                  22969640.912
  -2583783.53448                  24873463.706
 -24681959.73549 -19232701.66947  20420501.498    20420504.039
  -7651149.86649  -5961939.36046  22682650.595    22682657.892
 02  1  3  3 58  0.0000000  0  8G 1G 8G22G27G31G20G13G 2
 -23649172.48749 -18427936.74847  20584435.177    20584440.937
  -4431871.84548  -3453416.38444  24255476.647    24255483.833
  -9404262.90348  -7328023.78545  22520741.994    22520752.667
 -17398071.46749 -13556952.60546  22269311.969    22269316.296
  -4803972.84148  -3743355.60845  22950977.821    22950987.998
  -2474988.32248                  24894167.054
 -24706801.59549 -19252059.02847  20415774.326    20415776.781
  -7725588.09049  -6019943.17646  22668484.775    22668493.215
 02  1  3  3 58 30.0000000  0  8G 1G 8G22G27G31G20G13G 2
 -23607336.41849 -18395337.32547  20592396.754    20592402.246
  -4523278.82148  -3524642.79444  24238082.118    24238089.574
  -9303820.47248  -7249757.21745  22539856.199    22539865.135
 -17462983.85049 -13607533.70146  22256959.038    22256964.164
  -4901816.96548  -3819597.88445  22932358.429    22932368.358
  -2366250.85048  -1843869.47144  24914860.249    24914867.156
 -24731150.90749 -19271032.57247  20411140.878    20411143.329
  -7799761.08149  -6077740.32446  22654370.719    22654378.910
 02  1  3  3 59  0.0000000  0  8G 1G 8G22G27G31G20G13G 2
 -23565023.21849 -18362366.12147  20600448.647    20600454.156
  -4614635.45648  -3595829.95845  24220698.664    24220704.168
  -9203162.99348  -7171323.09345  22559010.316    22559020.990
 -17527769.03549 -13658015.69046  22244630.937    22244636.136
  -4999419.79648  -3895652.08045  22913785.189    22913796.111
  -2257569.14848                  24935541.271
 -24755001.72349 -19289617.69247  20406602.087    20406604.476
  -7873663.41749  -6135326.58646  22640307.186    22640315.874
 02  1  3  3 59 30.0000000  0  8G 1G 8G22G27G31G20G13G 2
 -23522250.44049 -18329036.81847  20608588.154    20608594.059
  -4705958.19348  -3666990.67344  24203320.370    24203326.807
  -9102310.31248  -7092736.86545  22578203.069    22578211.260
 -17592443.93449 -13708411.76346  22232324.005    22232329.130
  -5096795.10548  -3971529.01645  22895255.857    22895266.779
  -2148962.86148                  24956208.506
 -24778369.88549 -19307826.72747  20402155.250    20402158.041
  -7947311.41449  -6192714.66346  22626292.285    22626300.724
 02  1  3  4  0  0.0000000  0  8G 1G 8G22G27G31G20G13G 2
 -23479004.63849 -18295338.91647  20616817.569    20616823.493
  -4797232.99548  -3738114.01944  24185951.598    24185957.858
  -9001251.16148  -7013989.73045  22597433.453    22597444.622
 -17656994.22649 -13758710.76446  22220040.287    22220045.547
  -5193925.85948                  22876771.580
  -2040421.02148                  24976863.892
 -24801239.85649 -19325647.55247  20397803.326    20397806.068
  -8020690.41149  -6249893.12046  22612328.938    22612337.626
 02  1  3  4  0 30.0000000  0  8G 1G 8G22G27G31G20G13G 2
 -23435291.39449 -18261276.77147  20625136.293    20625141.952
  -4888464.57848  -3809203.75444  24168590.969    24168599.657
  -8899993.04148  -6935087.58245  22616702.692    22616711.876
 -17721424.31449 -13808916.07946  22207779.569    22207784.841
  -5290813.94648  -4122712.62545  22858335.251    22858345.428
  -1931951.52648                  24997504.458
 -24823615.49049 -19343083.17647  20393545.412    20393548.044
  -8093804.70849  -6306865.32546  22598415.590    22598424.526
 02  1  3  4  1  0.0000000  0  8G 1G 8G22G27G31G20G13G 2
 -23391105.70349 -18226846.47547  20633544.406    20633550.235
  -4979646.98548  -3880255.13344  24151238.987    24151250.405
  -8798533.15348  -6856028.18945  22636010.341    22636020.270
 -17785728.29749 -13859023.13246  22195543.185    22195548.589
  -5387450.57648                  22839945.552
  -1823551.42248  -1420988.13544  25018132.925    25018143.350
 -24845490.14049 -19360128.42447  20389382.703    20389385.533
  -8166648.20849  -6363626.51946  22584554.644    22584562.489
 02  1  3  4  1 30.0000000  0  8G 1G 8G22G27G31G20G13G 2
 -23346445.54249 -18192046.45747  20642042.776    20642048.861
  -5070777.35448  -3951265.98244  24133898.749    24133905.862
  -8696871.59848  -6776811.67345  22655355.467    22655366.637
 -17849903.32449 -13909029.68846  22183330.736    22183336.636
  -5483830.08748  -4273114.90345  22821605.537    22821615.714
  -1715221.12648                  25038747.462
 -24866859.71849 -19376780.11847  20385316.220    20385319.170
  -8239217.43549  -6420173.95546  22570744.240    22570752.680
 02  1  3  4  2  0.0000000  0  8G 1G 8G22G27G31G20G13G 2
 -23301316.03149 -18156880.72347  20650630.930    20650636.706
  -5161859.62948  -4022239.29845  24116565.744    24116572.360
  -8595015.51148                  22674738.920
 -17913953.34449 -13958938.84346  22171142.709    22171148.127
  -5579953.92248  -4348016.64345  22803314.198    22803324.871
  -1606967.78348                  25059347.780
 -24887727.43649 -19393040.75347  20381345.409    20381348.434
  -8311516.25249  -6476510.68946  22556986.954    22556994.414
 02  1  3  4  2 30.0000000  0  7G 1G 8G22G27G31G13G 2
 -23255724.51249 -18121354.98347  20659306.948    20659312.793
  -5252900.40748  -4093180.28144  24099241.411    24099252.332
  -8492974.27348  -6617931.21945  22694156.167    22694167.337
 -17977884.74949 -14008755.58046  22158977.035    22158982.555
  -5675825.46048                  22785069.678
 -24908098.92149 -19408914.71247  20377468.914    20377471.979
  -8383550.92049  -6532641.62146  22543279.140    22543287.331
 02  1  3  4  3  0.0000000  0  7G 1G 8G22G27G31G13G 2
 -23209659.95249 -18085460.65947  20668072.891    20668078.750
  -5343887.60848  -4164079.53844  24081927.633    24081934.919
  -8390738.86848  -6538267.53145  22713612.128    22713620.567
 -18041685.53349 -14058470.51946  22146835.766    22146841.306
  -5771429.89448  -4497218.75445  22766877.251    22766886.931
 -24927961.44349 -19424392.07647  20373689.342    20373692.396
  -8455308.93849  -6588557.00046  22529623.748    22529631.939
 02  1  3  4  3 30.0000000  0  8G 1G 8G22G27G31G 3G13G 2
 -23163125.64449 -18049200.28747  20676927.917    20676933.920
  -5434823.61648  -4234938.92545  24064622.359    24064631.543
  -8288314.72948                  22733102.010
 -18105358.09049 -14108085.53846  22134719.590    22134724.890
  -5866766.69448  -4571507.15945  22748735.487    22748746.161
          .20759          .56756  22118668.001    22118676.440
 -24947316.55649 -19439474.04847  20370006.300    20370009.381
  -8526792.60049  -6644258.57846  22516021.102    22516029.293
 02  1  3  4  4  0.0000000  0  8G 1G 8G22G27G31G 3G13G 2
 -23116130.83149 -18012581.07747  20685871.064    20685877.015
  -5525716.66748  -4305764.76744  24047325.978    24047332.913
  -8185713.07648  -6378507.75545  22752627.764    22752636.700
 -18168910.42549 -14157606.88746  22122626.606    22122631.266
  -5961841.34948  -4645591.27745  22730643.046    22730653.471
    -32089.08549    -25004.10046  22112562.053    22112571.237
 -24966171.31549 -19454166.13447  20366418.215    20366421.305
  -8598009.80249  -6699752.54446  22502468.993    22502477.432
 02  1  3  4  4 30.0000000  0  8G 1G 8G22G27G31G 3G13G 2
 -23068681.62149 -17975607.78147  20694900.476    20694906.439
  -5616572.01948  -4376561.26645  24030037.256    24030043.519
  -8082941.99748                  22772183.861
 -18232347.62549 -14207038.51546  22110554.297    22110559.411
  -6056655.96848  -4719472.77645  22712600.161    22712611.082
    -63645.61649    -49593.61646  22106557.579    22106566.763
 -24984530.15549 -19468471.78647  20362924.619    20362927.684
  -8668965.33349  -6755042.60846  22488966.659    22488975.843
 02  1  3  4  5  0.0000000  0  8G 1G 8G22G27G31G 3G13G 2
 -23020773.66749 -17938277.03047  20704017.124    20704023.074
  -5707384.07748  -4447324.10145  24012756.872    24012765.311
  -7979998.75448  -6218211.48145  22791773.843    22791784.268
 -18295664.25049 -14256376.19346  22098505.441    22098511.091
  -6151202.24448                  22694608.705
    -94662.71149    -73762.78946  22100655.487    22100663.678
 -25002387.06149 -19482386.32447  20359526.843    20359529.995
  -8739653.33849  -6810124.18246  22475515.000    22475523.191
 02  1  3  4  5 30.0000000  0  8G 1G 8G22G27G31G 3G13G 2
 -22972378.61649 -17900566.72547  20713226.410    20713232.363
  -5798123.51748  -4518030.35144  23995489.125    23995498.805
  -7876857.05348  -6137841.61445  22811401.247    22811411.920
 -18358830.78249 -14305596.90646  22086485.492    22086490.731
  -6245448.10548  -4866583.39945  22676673.890    22676685.308
   -125109.83049    -97487.82646  22094861.908    22094869.820
 -25019711.76749 -19495886.15347  20356229.949    20356233.081
  -8810044.32749  -6864974.29746  22462120.074    22462128.761
 02  1  3  4  6  0.0000000  0  8G 1G 8G22G27G31G 3G13G 2
 -22923508.15249 -17862485.97747  20722526.105    20722532.332
  -5888800.74948  -4588688.08545  23978234.408    23978239.614
  -7773530.51648  -6057327.75145  22831063.499    22831074.172
 -18421857.63449 -14354708.78146  22074492.605    22074497.417
  -6339401.38048                  22658795.389
   -154996.69949   -120776.31046  22089173.535    22089181.727
 -25036514.01749 -19508978.87747  20353032.721    20353035.864
  -8880148.75749  -6919601.13446  22448779.621    22448787.192
 02  1  3  4  6 30.0000000  0  8G 1G 8G22G27G31G 3G13G 2
 -22874164.94349 -17824036.86147  20731916.319    20731922.398
  -5979417.36448  -4659298.62145  23960989.780    23960995.127
  -7670023.45048  -5976673.17445  22850761.254    22850770.686
 -18484746.24449 -14403712.94046  22062525.235    22062530.163
  -6433060.73348  -5012774.88245  22640973.213    22640983.638
   -184323.61649   -143628.46746  22083592.605    22083599.884
 -25052794.59249 -19521665.09647  20349934.617    20349937.777
  -8949967.92149  -6974005.70346  22435493.575    22435502.015
 02  1  3  4  7  0.0000000  0  8G 1G 8G22G27G31G 3G13G 2
 -22824376.53049 -17785240.82347  20741390.738    20741396.635
  -6069999.73748  -4729882.44345  23943753.956    23943758.743
  -7566365.21048                  22870485.909
 -18547523.07449 -14452630.00546  22050578.282    22050584.146
  -6526449.92548  -5085545.59846  22623201.262    22623211.687
   -213116.34349   -166064.36346  22078114.123    22078121.932
 -25068578.95449 -19533964.65847  20346930.812    20346933.906
  -9019527.82649  -7028208.23546  22422257.034    22422265.225
 02  1  3  4  7 30.0000000  0  8G 1G 8G22G27G31G 3G13G 2
 -22774132.32249 -17746089.62047  20750951.854    20750957.874
  -6160536.33948  -4800430.45844  23926524.542    23926534.719
  -7462547.25248                  22890242.984
 -18610176.34149 -14501450.77946  22038656.092    22038661.491
  -6619554.49048  -5158094.49645  22605484.088    22605494.265
   -241362.01949   -188073.99246  22072739.676    22072747.195
 -25083855.07549 -19545868.19447  20344023.860    20344026.918
  -9088816.69049  -7082199.54046  22409071.219    22409079.906
 02  1  3  4  8  0.0000000  0  8G 1G 8G22G27G31G 3G13G 2
 -22723432.53549 -17706583.40747  20760599.800    20760605.902
  -6251026.22548  -4870942.20645  23909305.730    23909315.162
  -7358571.50848  -5733984.30145  22910028.467    22910039.885
 -18672705.05649 -14550174.51146  22026758.556    22026762.969
  -6712370.70348  -5230418.71946  22587821.727    22587833.393
   -269058.90349   -209655.98746  22067469.059    22067476.482
 -25098621.31849 -19557374.42547  20341213.966    20341217.128
  -9157833.31949  -7135978.72146  22395938.032    22395945.762
 02  1  3  4  8 30.0000000  0  8G 1G 8G22G27G31G 3G13G 2
 -22672265.12249 -17666712.81947  20770336.891    20770343.185
  -6341456.04248  -4941407.18245  23892096.469    23892106.894
  -7254427.56348  -5652833.49445  22929847.343    22929859.009
 -18735095.81249 -14598790.73046  22014885.899    22014890.867
  -6804882.57248                  22570217.037
   -296192.94949   -230799.40146  22062305.438    22062313.630
 -25112863.75849 -19568472.49947  20338503.901    20338507.045
  -9226564.35949  -7189535.38446  22382859.026    22382867.465
 02  1  3  4  9  0.0000000  0  8G 1G 8G22G27G31G 3G13G 2
 -22620627.04049 -17626475.49747  20780162.849    20780169.301
  -6431821.41148  -5011821.83644  23874900.945    23874907.630
  -7150114.00148                  22949696.981
 -18797344.21249 -14647296.02946  22003038.894    22003044.946
  -6897082.68848  -5374349.90246  22552671.983    22552681.911
   -322758.44849   -251499.80046  22057250.032    22057258.223
 -25126577.02249 -19579158.23447  20335894.552    20335897.614
  -9295005.14249  -7242865.86946  22369835.061    22369843.501
 02  1  3  4  9 30.0000000  0  8G 1G 8G22G27G31G 3G13G 2
 -22568519.52849 -17585872.36447  20790079.096    20790085.637
  -6522122.40748  -5082186.39945  23857717.998    23857726.437
  -7045634.03648  -5490137.88545  22969579.626    22969590.300
 -18859450.30649 -14695690.42246  21991221.415    21991226.798
  -6988968.56948  -5445949.17746  22535185.962    22535197.132
   -348755.02249   -271756.87646  22052303.035    22052311.474
 -25139760.85149 -19589431.41847  20333386.093    20333389.164
  -9363155.79349  -7295970.26646  22356866.945    22356875.136
 02  1  3  4 10  0.0000000  0  8G 1G 8G22G27G31G 3G13G 2
 -22515953.80349 -17544912.16747  20800082.073    20800088.639
  -6612369.16248  -5152508.65244  23840544.174    23840553.110
  -6941000.34548                  22989491.053
 -18921424.04849 -14743981.67946  21979428.969    21979433.749
  -7080547.43048  -5517309.20346  22517759.924    22517769.108
   -374192.03749   -291577.93146  22047462.517    22047471.453
 -25152424.67049 -19599299.40047  20330976.146    20330979.079
  -9431025.98649  -7348856.13046  22343950.919    22343960.103
 02  1  3  4 10 30.0000000  0  8G 1G 8G22G27G31G 3G13G 2
 -22462939.70749 -17503602.57247  20810170.322    20810176.866
  -6702570.16248  -5222795.29745  23823380.934    23823386.325
  -6836224.43048                  23009429.020
 -18983273.88249 -14792176.38846  21967658.568    21967663.853
  -7171825.14948  -5588434.58646  22500390.276    22500400.950
   -399076.91749   -310968.74646  22042727.025    22042735.713
 -25164576.35449 -19608768.31447  20328663.824    20328666.926
  -9498624.15849  -7401530.00746  22331087.992    22331095.653
 02  1  3  4 11  0.0000000  0  8G 1G 8G22G27G31G 3G13G 2
 -22409472.00849 -17461939.53447  20820344.822    20820351.424
  -6792719.08148  -5293041.35244  23806223.589    23806232.524
  -6731302.86148  -5245205.45845  23029396.129    23029406.554
 -19044993.32249 -14840269.49046  21955913.433    21955918.790
  -7262792.79848                  22483079.081
   -423402.54349   -329923.78446  22038098.262    22038106.950
 -25176209.12049 -19617832.87547  20326450.114    20326453.163
  -9565943.92049  -7453986.94446  22318276.798    22318285.982
 02  1  3  4 11 30.0000000  0  8G 1G 8G22G27G31G 3G13G 2
 -22355547.14849 -17419920.28947  20830606.306    20830613.497
  -6882810.82948  -5363242.84445  23789081.829    23789089.623
  -6626233.51648                  23049389.164
 -19106577.29149 -14888257.03646  21944194.447    21944200.190
  -7353442.49248  -5729954.32646  22465829.359    22465838.046
   -447163.14449   -348438.54446  22033576.482    22033586.162
 -25187317.19549 -19626488.58647  20324336.295    20324339.481
  -9632980.36849  -7506223.12146  22305520.314    22305529.250
 02  1  3  4 12  0.0000000  0  8G 1G 8G22G27G31G 3G13G 2
 -22301155.38049 -17377537.22047  20840957.095    20840963.817
  -6972834.29248  -5433391.06344  23771950.541    23771958.980
  -6521008.19248  -5081340.17445  23069414.714    23069422.485
 -19168014.48449 -14936130.19746  21932503.972    21932509.377
  -7443760.45748  -5800331.83346  22448641.703    22448652.873
   -470347.17249   -366504.02646  22029165.101    22029173.004
 -25197889.20349 -19634726.58047  20322324.744    20322327.796
  -9699722.15349  -7558229.70946  22292819.885    22292827.781
 02  1  3  4 12 30.0000000  0  8G 1G 8G22G27G31G 3G13G 2
 -22246312.73149 -17334802.80147  20851393.101    20851399.884
  -7062804.44748  -5503497.87945  23754829.726    23754838.910
  -6415644.70948                  23089463.695
 -19229319.80849 -14983900.59246  21920837.837    21920843.673
  -7533758.61949  -5870460.16246  22431516.074    22431526.499
   -492968.60349   -384131.11946  22024860.384    22024868.575
 -25207939.35049 -19642557.93647  20320412.221    20320415.330
  -9766184.16549  -7610018.28046  22280172.113    22280181.297
 02  1  3  4 13  0.0000000  0  8G 1G 8G22G27G31G 3G13G 2
 -22191012.80049 -17291712.03947  20861916.701    20861923.634
  -7152713.39648  -5573556.92645  23737720.646    23737731.816
  -6310138.06148  -4917026.46845  23109542.325    23109553.247
 -19290485.43349 -15031562.12546  21909197.666    21909203.456
  -7623426.71248                  22414452.327
   -515019.00949   -401313.26046  22020664.232    22020672.423
 -25217459.31449 -19649976.15947  20318600.665    20318603.791
  -9832358.49349  -7661582.65946  22267580.592    22267588.783
 02  1  3  4 13 30.0000000  0  8G 1G 8G22G27G31G 3G13G 2
 -22135265.49749 -17248272.68247  20872524.919    20872531.620
  -7242569.58348  -5643574.84045  23720620.959    23720630.143
  -6204499.60348                  23129643.840
 -19351519.72549 -15079121.33846  21897583.510    21897588.971
  -7712770.43949  -6009949.62046  22397451.650    22397461.330
   -536506.07649   -418056.43546  22016575.119    22016582.952
 -25226457.15949 -19656987.53147  20316888.307    20316891.459
  -9898253.43449  -7712929.31846  22255040.376    22255049.312
 02  1  3  4 14  0.0000000  0  8G 1G 8G22G27G31G 3G13G 2
 -22079067.36349 -17204482.04247  20883219.178    20883226.031
  -7332368.28148  -5713547.97345  23703533.845    23703543.774
  -6098727.49048                  23149772.821
 -19412417.79049 -15126574.41146  21885995.619    21886000.946
  -7801782.35749  -6079309.44546  22380512.774    22380522.702
   -557424.47349   -434356.48446  22012594.636    22012602.827
 -25234927.47249 -19663587.83947  20315276.826    20315279.934
  -9963864.19449  -7764054.56046  22242555.165    22242563.356
 02  1  3  4 14 30.0000000  0  8G 1G 8G22G27G31G 3G13G 2
 -22022419.23149 -17160340.75147  20893999.245    20894006.009
  -7422109.01148  -5783475.88945  23686456.246    23686465.926
  -5992824.11348  -4669769.91445  23169925.763    23169936.933
 -19473178.93349 -15173920.80146  21874432.981    21874438.745
  -7890459.47348  -6148408.36146  22363636.987    22363648.653
   -577773.33549   -450212.73046  22008722.486    22008730.289
 -25242869.50449 -19669776.49647  20313765.096    20313768.256
 -10029190.28649  -7814957.97546  22230123.990    22230132.429
 02  1  3  4 15  0.0000000  0  8G 1G 8G22G27G31G 3G13G 2
 -21965308.50249 -17115838.99147  20904867.350    20904873.962
  -7511777.72148  -5853347.72845  23669394.246    23669404.919
  -5886778.05648                  23190105.167
 -19533789.00949 -15221149.46446  21862898.234    21862904.620
  -7978784.90849  -6217233.24746  22346830.293    22346838.980
   -597537.94949   -465613.72346  22004961.338    22004969.529
 -25250268.86249 -19675542.29347  20312357.056    20312360.266
 -10094217.68649  -7865628.66946  22217750.056    22217758.495
 02  1  3  4 15 30.0000000  0  8G 1G 8G22G27G31G 3G13G 2
 -21907743.68849 -17070983.39847  20915821.176    20915828.268
  -7601381.29748  -5923168.78545  23652341.991    23652352.167
  -5780599.51048  -4504400.83445  23210311.595    23210322.765
 -19594254.92949 -15268265.79646  21851392.279    21851398.340
  -8066762.98549  -6285787.46846  22330088.116    22330097.796
   -616724.69649   -480564.41946  22001309.969    22001318.408
 -25257132.16949 -19680890.38547  20311051.295    20311054.520
 -10158953.60049  -7916072.25846  22205430.704    22205439.391
 02  1  3  4 16  0.0000000  0  8G 1G 8G22G27G31G 3G13G 2
 -21849716.67649 -17025767.65447  20926863.402    20926870.552
  -7690910.21348  -5992931.60345  23635305.866    23635312.741
  -5674281.39548                  23230542.595
 -19654566.94349 -15315262.19646  21839915.749    21839921.236
  -8154381.60448  -6354061.58646  22313414.069    22313424.494
   -635323.62449   -495057.07646  21997770.525    21997779.213
 -25263449.31249 -19685812.89147  20309848.845    20309852.042
 -10223388.19649  -7966281.03046  22193169.818    22193177.508
 02  1  3  4 16 30.0000000  0  8G 1G 8G22G27G31G 3G13G 2
 -21791250.07549 -16980209.36347  20937990.082    20937996.486
  -7780385.51248  -6062652.70745  23618279.361    23618288.296
  -5567847.71148  -4338620.96845  23250797.514    23250808.684
 -19714745.99849 -15362154.97846  21828463.886    21828469.496
  -8241658.90649  -6422069.75046  22296806.871    22296816.551
   -653355.27349   -509107.68846  21994339.057    21994347.249
 -25269240.93149 -19690325.90347  20308747.183    20308750.488
 -10287542.42849  -8016271.32746  22180961.280    22180969.720
 02  1  3  4 17  0.0000000  0  8G 1G 8G22G27G31G 3G13G 2
 -21732346.93949 -16934310.89647  20949198.146    20949205.555
  -7869808.87948  -6132333.31545  23601262.767    23601271.206
  -5461302.97648                  23271072.005
 -19774793.52349 -15408945.25346  21817037.429    21817043.012
  -8328593.95649  -6489811.24246  22280263.229    22280272.164
   -670820.72549   -522717.10846  21991015.385    21991024.072
 -25274508.51449 -19694430.57747  20307744.947    20307748.237
 -10351418.17949  -8066044.64346  22168806.431    22168814.870
 02  1  3  4 17 30.0000000  0  8G 1G 8G22G27G31G 3G13G 2
 -21672998.56449 -16888065.49547  20960492.274    20960499.198
  -7959169.94448  -6201965.34645  23584258.770    23584266.961
  -5354639.81248                  23291369.784
 -19834699.27849 -15455625.08146  21805637.711    21805643.262
  -8415173.86149  -6557275.99046  22263786.784    22263797.457
   -687709.47449   -535877.15246  21987801.711    21987810.646
 -25279241.41249 -19698118.61347  20306844.314    20306847.522
 -10415005.07749  -8115592.88546  22156705.806    22156714.494
 02  1  3  4 18  0.0000000  0  8G 1G 8G22G27G31G 3G13G 2
 -21613201.14149 -16841470.18847  20971871.865    20971878.367
  -8048463.62348  -6271544.90645  23567265.660    23567276.085
  -5247855.79148  -4089277.76245  23311690.050    23311700.723
 -19894457.90049 -15502190.26846  21794265.973    21794271.794
  -8501390.83849  -6624457.94246  22247381.446    22247389.637
   -704015.97149   -548583.49046  21984698.669    21984707.605
 -25283434.29649 -19701385.86247  20306046.386    20306049.668
 -10478297.81249  -8164911.90446  22144662.230    22144669.977
 02  1  3  4 18 30.0000000  0  8G 1G 8G22G27G31G 3G13G 2
 -21552956.05449 -16794526.04147  20983335.659    20983342.548
  -8137689.66448  -6341071.75445  23550286.370    23550296.051
  -5140953.32948                  23332033.117
 -19954069.05449 -15548640.52746  21782922.473    21782928.142
  -8587242.16149  -6691354.99846  22231043.083    22231054.004
   -719739.35049   -560835.45446  21981706.841    21981715.032
 -25287086.41949 -19704231.73847  20305351.519    20305354.837
 -10541296.61849  -8214001.90846  22132673.571    22132682.259
 02  1  3  4 19  0.0000000  0  8G 1G 8G22G27G31G 3G13G 2
 -21492267.04749 -16747235.98447  20994884.174    20994891.490
  -8226850.02448  -6410547.39145  23533320.409    23533328.350
  -5033937.61348  -3922589.03345  23352398.141    23352409.311
 -20013534.72049 -15594977.41746  21771606.557    21771612.019
  -8672727.23349  -6757966.66546  22214775.875    22214785.058
   -734881.62449   -572634.61046  21978825.448    21978833.639
 -25290199.72949 -19706657.75347  20304759.040    20304762.323
 -10604003.63549  -8262864.52446  22120741.038    22120749.229
 02  1  3  4 19 30.0000000  0  8G 1G 8G22G27G31G 3G13G 2
 -21431131.51549 -16699597.97847  21006518.334    21006525.578
  -8315940.48748  -6479968.60445  23516366.856    23516374.628
  -4926806.89448                  23372784.316
 -20072850.52749 -15641197.53046  21760319.286    21760324.891
  -8757838.99049  -6824287.45646  22198580.652    22198589.339
   -749438.11549   -583977.31646  21976055.449    21976064.137
 -25292769.65949 -19708660.35347  20304270.254    20304273.462
 -10666414.56049  -8311496.41546  22108864.553    22108872.992
 02  1  3  4 20  0.0000000  0  8G 1G 8G22G27G31G 3G13G 2
 -21369547.57249 -16651610.56647  21018237.765    21018244.634
  -8404957.89448  -6549332.90545  23499427.895    23499438.072
  -4819560.70348                  23393193.569
 -20132012.83849 -15687298.03046  21749060.810    21749066.231
  -8842571.52949  -6890312.74746  22182455.468    22182465.397
   -763405.09549   -594860.67746  21973397.465    21973405.905
 -25294792.66149 -19710236.78147  20303885.257    20303888.553
 -10728526.09749  -8359895.02046  22097044.806    22097052.997
 02  1  3  4 20 30.0000000  0  8G 1G 8G22G27G31G 3G13G 2
 -21307522.03949 -16603279.05147  21030040.174    21030047.472
  -8493907.24148  -6618644.19245  23482500.280    23482510.208
  -4712207.13148                  23413621.734
 -20191026.95949 -15733283.06746  21737830.766    21737836.224
  -8926927.66049  -6956044.73846  22166404.098    22166413.034
   -776787.75149   -605288.72646  21970851.037    21970858.442
 -25296273.87249 -19711391.03047  20303603.294    20303606.698
 -10790343.43749  -8408064.34346  22085281.894    22085289.520
 02  1  3  4 21  0.0000000  0  8G 1G 8G22G27G31G 3G13G 2
 -21245060.01849 -16554607.42447  21041926.808    21041933.681
  -8582792.02948  -6687905.11945  23465586.887    23465596.319
  -4604752.46148                  23434070.552
 -20249896.25449 -15779155.25846  21726628.535    21726633.972
  -9010908.13149  -7021484.02746  22150422.619    22150431.803
   -789589.15249   -615263.85146  21968415.465    21968422.899
 -25297216.69649 -19712125.75547  20303423.596    20303427.002
 -10851870.32049  -8456007.34846  22073572.965    22073581.652
 02  1  3  4 21 30.0000000  0  8G 1G 8G22G27G31G 3G13G 2
 -21182158.25349 -16505593.12647  21053896.373    21053903.494
  -8671607.32648  -6757111.89245  23448685.948    23448695.629
  -4497194.56448                  23454538.277
 -20308615.71049 -15824910.70146  21715454.869    21715460.344
  -9094505.80549  -7086625.01146  22134514.256    22134524.929
   -801804.31449   -624782.17946  21966090.612    21966099.051
 -25297616.05549 -19712436.99847  20303347.632    20303350.950
 -10913101.89949  -8503720.25446  22061921.930    22061929.455
 02  1  3  4 22  0.0000000  0  8G 1G 8G22G27G31G 3G13G 2
 -21118817.56049 -16456236.79847  21065949.459    21065956.758
  -8760352.23748  -6826263.81745  23431797.273    23431806.705
  -4389535.23948                  23475025.838
 -20367184.29149 -15870548.58646  21704309.226    21704314.912
  -9177717.25849  -7151465.05146  22118680.104    22118689.040
   -813432.28149   -633842.95746  21963877.953    21963886.144
 -25297470.88749 -19712323.93847  20303375.561    20303379.195
 -10974037.52249  -8551202.53346  22050325.509    22050333.949
 02  1  3  4 22 30.0000000  0  8G 1G 8G22G27G31G 3G13G 2
 -21055045.44749 -16406544.29347  21078085.580    21078092.350
  -8849032.49248  -6895365.39645  23414923.366    23414932.550
  -4281782.97548                  23495530.021
 -20425607.46149 -15916073.14846  21693191.744    21693196.999
  -9260545.53949  -7216006.52146  22102918.122    22102927.554
   -824478.63149   -642450.53246  21961775.539    21961783.730
 -25296787.03849 -19711791.12647  20303505.785    20303509.269
 -11034682.99849  -8598458.72946  22038785.631    22038793.232
 02  1  3  4 23  0.0000000  0  8G 1G 8G22G27G31G 3G13G 2
 -20990856.54049 -16356527.01747  21090299.986    21090307.159
  -8937661.02648  -6964426.64645  23398056.336    23398067.506
  -4173953.51948                  23516050.289
 -20483898.20349 -15961494.54747  21682100.053    21682104.973
  -9343001.12449  -7280257.56946  22087227.137    22087237.066
   -834956.12749   -650614.85746  21959782.356    21959790.266
 -25295576.93949 -19710848.24347  20303736.006    20303739.301
 -11095051.70549  -8645499.27346  22027297.306    22027305.497
 02  1  3  4 23 30.0000000  0  8G 1G 8G22G27G31G 3G13G 2
 -20926225.04849 -16306164.87147  21102599.056    21102606.549
  -9026210.20648  -7033426.04345  23381207.162    23381214.684
  -4066021.93548                  23536588.324
 -20542028.67049 -16006791.04147  21671038.172    21671043.074
  -9425053.78049  -7344194.64046  22071612.993    22071622.921
   -844836.79849   -658314.12446  21957901.656    21957909.847
 -25293813.23649 -19709473.98747  20304072.032    20304075.413
 -11155116.09449  -8692302.65846  22015868.102    22015875.376
 02  1  3  4 24  0.0000000  0  8G 1G 8G22G27G31G 3G13G 2
 -20861144.93249 -16255453.14147  21114983.685    21114990.985
  -9114672.02948  -7102357.36845  23364373.177    23364383.106
  -3957983.28648                  23557148.806
 -20599990.87449 -16051956.41447  21660007.738    21660013.284
  -9506693.29449  -7407809.79246  22056077.446    22056087.127
   -854112.99149   -665542.37346  21956136.942    21956145.629
 -25291487.93649 -19707662.12747  20304514.621    20304517.915
 -11214868.52349  -8738862.98046  22004496.956    22004504.753
 02  1  3  4 24 30.0000000  0  8G 1G 8G22G27G31G 3G13G 2
 -20795627.72649 -16204400.82347  21127450.866    21127458.160
  -9203056.52048  -7171228.39245  23347553.940    23347565.606
  -3849850.12648                  23577725.957
 -20657794.40749 -16096998.16347  21649007.853    21649013.598
  -9587926.91149  -7471108.63846  22040618.545    22040629.218
   -862794.67549   -672307.37046  21954484.710    21954493.149
 -25288611.24649 -19705420.61547  20305062.099    20305065.459
 -11274318.93549  -8785187.96246  21993184.052    21993191.889
 02  1  3  4 25  0.0000000  0  8G 1G 8G22G27G31G 3G13G 2
 -20729681.21549 -16153013.99047  21140000.476    21140007.539
  -9291369.55548  -7240043.77145  23330747.704    23330757.136
  -3741630.92248                  23598318.806
 -20715445.10549 -16141920.81547  21638037.780    21638043.058
  -9668758.25849  -7534094.02046  22025237.573    22025246.261
   -870887.80649   -678613.75746  21952945.043    21952952.763
 -25285188.83649 -19702753.86347  20305713.453    20305716.758
 -11333473.71349  -8831282.59146  21981926.952    21981935.143
 02  1  3  4 25 30.0000000  0  8G 1G 8G22G27G31G 3G13G 2
 -20663306.94849 -16101293.85747  21152630.940    21152638.404
  -9379610.89748                  23313956.428
  -3633328.33548                  23618929.695
 -20772942.61749 -16186724.10547  21627096.392    21627101.705
  -9749184.57649  -7596763.79246  22009932.536    22009942.465
   -878391.97849   -684461.22146  21951516.918    21951524.657
 -25281220.30649 -19699661.55947  20306468.728    20306472.092
 -11392332.59049  -8877146.63746  21970727.067    21970734.448
 02  1  3  4 26  0.0000000  0  8G 1G 8G22G27G31G 3G13G 2
 -20596500.95049 -16049237.30947  21165343.697    21165351.020
  -9467774.81148  -7377502.45445  23297181.378    23297188.675
  -3524939.36048                  23639555.647
 -20830281.25549 -16231403.60547  21616184.876    21616190.288
  -9829197.76049  -7659111.63146  21994706.826    21994716.010
   -885301.54349   -689845.35646  21950202.603    21950210.427
 -25276700.09449 -19696139.37447  20307328.829    20307332.262
 -11450890.17949  -8922775.90146  21959583.086    21959591.525
 02  1  3  4 26 30.0000000  0  8G 1G 8G22G27G31G 3G13G 2
 -20529267.35149 -15996847.57747  21178138.304    21178145.188
  -9555863.28548  -7446142.85845  23280417.159    23280426.839
  -3416468.86748                  23660196.644
 -20887462.69149 -16275960.58147  21605303.672    21605309.666
  -9908797.59049  -7721137.38546  21979559.293    21979568.229
   -891618.74349   -694767.91146  21949000.299    21949008.490
 -25271630.85149 -19692189.38247  20308293.503    20308297.070
 -11509148.69149  -8968172.12146  21948497.655    21948505.389
 02  1  3  4 27  0.0000000  0  8G 1G 8G22G27G31G 3G13G 2
 -20461613.00949 -15944130.00547  21191012.135    21191019.496
  -9643881.55448  -7514728.48345  23263667.614    23263676.798
  -3307924.47548                  23680852.370
 -20944491.91649 -16320398.95847  21594451.611    21594457.080
  -9987986.53749  -7782842.95146  21964489.764    21964498.948
   -897348.81549   -699232.95946  21947909.637    21947918.076
 -25266017.27649 -19687815.23547  20309361.801    20309365.384
 -11567113.60449  -9013339.58746  21937466.711    21937475.398
 02  1  3  4 27 30.0000000  0  8G 1G 8G22G27G31G 3G13G 2
 -20393530.76249 -15891079.02147  21203968.184    21203975.232
  -9731820.48448  -7583252.33645  23246935.172    23246942.073
  -3199300.21548                  23701522.778
 -21001359.94749 -16364711.72947  21583629.987    21583635.857
 -10066753.37849  -7844219.59946  21949501.086    21949509.773
   -902482.88549   -703233.59346  21946932.953    21946941.145
 -25259850.78649 -19683010.24247  20310535.176    20310538.574
 -11624776.36949  -9058271.57946  21926494.166    21926502.357
 02  1  3  4 28  0.0000000  0  8G 1G 8G22G27G31G 3G13G 2
 -20325025.05449 -15837698.06447  21217004.269    21217011.243
  -9819682.75548  -7651716.49145  23230213.779    23230222.466
  -3090601.10448                  23722208.915
 -21058069.08749 -16408900.68847  21572838.546    21572844.369
 -10145098.32949  -7905267.49646  21934592.220    21934602.149
   -907023.53949   -706771.82446  21946068.757    21946076.622
 -25253134.44749 -19677776.79147  20311813.225    20311816.807
 -11682139.74649  -9102970.26646  21915577.908    21915585.739
 02  1  3  4 28 30.0000000  0  8G 1G 8G22G27G31G 3G13G 2
 -20256101.66149 -15783991.63647  21230120.162    21230127.455
  -9907472.11948  -7720123.79345  23213509.297    23213516.726
  -2981833.70348                  23742906.241
 -21114622.98149 -16452968.67347  21562076.772    21562082.652
 -10223022.82049  -7965987.77146  21919763.522    21919772.706
   -910974.85349   -709850.83246  21945317.488    21945325.341
 -25245871.61849 -19672117.51147  20313195.348    20313198.909
 -11739207.91149  -9147438.93446  21904718.250    21904726.441
 02  1  3  4 29  0.0000000  0  8G 1G 8G22G27G31G 3G13G 2
 -20186761.70649 -15729960.61047  21243315.315    21243322.653
  -9995187.52348  -7788473.49145  23196816.924    23196826.853
  -2872999.77048                  23763617.193
 -21171020.62349 -16496914.90547  21551344.906    21551350.183
 -10300523.57449  -8026377.86146  21905016.260    21905024.451
   -914336.40349   -712470.28646  21944677.169    21944685.360
 -25238061.83449 -19666032.03247  20314681.283    20314684.861
 -11795980.24949  -9191677.07746  21893914.979    21893922.913
 02  1  3  4 29 30.0000000  0  8G 1G 8G22G27G31G 3G13G 2
 -20117012.25049 -15675610.48947  21256588.174    21256595.503
 -10082834.23248  -7856769.62345  23180138.273    23180147.705
  -2764107.24348                  23784339.368
 -21227267.15949 -16540743.40247  21540641.109    21540647.138
 -10377603.49249  -8086440.03846  21890347.869    21890357.550
   -917113.74649   -714634.51746  21944148.875    21944157.563
 -25229710.50649 -19659524.57047  20316270.707    20316274.241
 -11852462.38949  -9235689.12246  21883166.661    21883174.298
 02  1  3  4 30  0.0000000  0  8G 1G 8G22G27G31G 3G13G 2
 -20046837.05649 -15620928.63047  21269941.789    21269949.980
 -10170394.03848  -7924998.06945  23163476.959    23163486.392
  -2655140.54248                  23805075.225
 -21283344.09949 -16584439.73746  21529970.048    21529975.526
 -10454242.01649  -8146158.26646  21875763.936    21875773.368
   -919289.13449   -716329.68146  21943734.874    21943743.562
 -25220799.85049 -19652581.26847  20317966.520    20317969.907
 -11908636.29349  -9279460.93746  21872477.267    21872485.706
 02  1  3  4 30 30.0000000  0  8G 1G 8G22G27G31G 3G13G 2
 -19976236.47949 -15565915.30847  21283377.184    21283384.318
 -10257865.19648  -7993157.46145  23146831.376    23146840.560
  -2546100.54748                  23825825.099
 -21339249.61949 -16628002.50447  21519331.988    21519337.730
 -10530435.07549  -8205529.38346  21861265.354    21861273.793
   -920860.85449   -717554.45646  21943435.757    21943443.657
 -25211328.34449 -19645200.94047  20319769.079    20319772.559
 -11964500.84549  -9322991.69446  21861846.218    21861853.982
 02  1  3  4 31  0.0000000  0  8G 1G 8G22G27G31G 3G13G 2
 -19905217.05449 -15510575.61047  21296890.837    21296899.028
 -10345252.28148  -8061251.32545  23130201.711    23130211.888
  -2436994.64148                  23846588.201
 -21394988.04249 -16671435.06647  21508725.528    21508730.911
 -10606184.80249  -8264555.04746  21846849.821    21846859.253
   -921833.92949   -718312.74846  21943250.779    21943258.970
 -25201300.63349 -19637387.20347  20321677.245    20321680.592
 -12020060.84949  -9366285.16646  21851274.046    21851281.642
 02  1  3  4 31 30.0000000  0  8G 1G 8G22G27G31G 3G13G 2
 -19833788.02849 -15454916.75747  21310484.455    21310491.974
 -10432562.29748  -8129285.12145  23113587.806    23113595.997
  -2327832.55548                  23867360.318
 -21450566.46049 -16714742.95247  21498148.728    21498154.455
 -10681496.28449  -8323239.22246  21832518.961    21832528.145
   -922215.58049   -718610.19646  21943178.178    21943186.030
 -25190724.52749 -19629146.14747  20323689.954    20323693.502
 -12075323.88849  -9409347.22846  21840757.175    21840765.366
 02  1  3  4 32  0.0000000  0  8G 1G 8G22G27G31G 3G13G 2
 -19761939.00549 -15398930.63246  21324156.786    21324164.303
 -10519783.17348  -8197249.44845  23096990.628    23097000.060
  -2218604.60948                  23888147.192
 -21505972.44749 -16757916.49847  21487605.284    21487611.195
 -10756355.09049  -8381570.67246  21818273.615    21818282.799
   -921994.31549   -718437.83546  21943219.859    21943228.795
 -25179587.96749 -19620468.37847  20325809.259    20325812.810
 -12130277.87649  -9452168.46446  21830300.227    21830308.109
 02  1  3  4 32 30.0000000  0  7G 1G 8G22G27G31G13G 2
 -19689677.59749 -15342623.17946  21337907.684    21337915.126
 -10606920.09748  -8265148.34345  23080409.076    23080419.004
  -2109319.08248                  23908943.104
 -21561211.17249 -16800959.69547  21477094.191    21477099.891
 -10830764.38149  -8439551.84446  21804113.919    21804123.848
 -25167896.89049 -19611358.51947  20328034.160    20328037.646
 -12184928.90149  -9494753.63346  21819899.911    21819908.102
 02  1  3  4 33  0.0000000  0  7G 1G 8G22G27G31G13G 2
 -19616989.84249 -15285983.50746  21351739.749    21351747.940
 -10693957.15248  -8332969.39745  23063846.154    23063853.983
  -1999962.39048                  23929753.817
 -21616266.37849 -16843859.88847  21466617.666    21466623.436
 -10904705.79149  -8497168.45146  21790043.778    21790051.969
 -25155635.62849 -19601804.36247  20330367.429    20330370.931
 -12239261.33449  -9537090.55146  21809561.266    21809569.458
 02  1  3  4 33 30.0000000  0  7G 1G 8G22G27G31G13G 2
 -19543919.53649 -15229045.74946  21365644.979    21365652.306
 -10780935.87648  -8400745.01145  23047294.218    23047303.651
  -1890579.10448                  23950568.559
 -21671179.77449 -16886649.57647  21456167.852    21456173.250
 -10978218.75649  -8554451.19746  21776053.323    21776062.755
 -25142846.33949 -19591838.75447  20332801.103    20332804.807
 -12293317.29749  -9579212.04146  21799274.924    21799282.406
 02  1  3  4 34  0.0000000  0  7G 1G 8G22G27G31G13G 2
 -19470450.42449 -15171797.22746  21379625.583    21379633.309
 -10867838.00848  -8468460.92845  23030757.425    23030767.353
  -1781153.28848                  23971392.853
 -21725932.77549 -16929314.27447  21445748.892    21445754.345
 -11051282.77949  -8611384.13146  21762150.950    21762159.390
 -25129511.18649 -19581447.79247  20335338.782    20335342.424
 -12347078.96949  -9621104.22246  21789043.906    21789052.097
 02  1  3  4 34 30.0000000  0  7G 1G 8G22G27G31G13G 2
 -19396573.52849 -15114230.96446  21393683.618    21393691.809
 -10954652.50148  -8536108.56845  23014237.452    23014246.139
  -1671676.74248                  23992224.630
 -21780514.26549 -16971845.33747  21435362.039    21435368.059
 -11123884.70949  -8667956.99646  21748334.840    21748344.024
 -25115619.50749 -19570623.17847  20337982.320    20337985.942
 -12400535.76149  -9662758.84346  21778871.270    21778879.461
 02  1  3  4 35  0.0000000  0  7G 1G 8G22G27G31G13G 2
 -19322285.28049 -15056344.15946  21407820.574    21407828.765
 -11041373.50848  -8603683.35845  22997734.560    22997743.495
  -1562146.13048                  24013068.838
 -21834918.26049 -17014238.09647  21425009.428    21425015.073
 -11196016.73449  -8724163.69546  21734607.718    21734617.398
 -25101165.87949 -19559360.68647  20340732.837    20340736.342
 -12453682.15249  -9704171.55446  21768758.299    21768765.905
 02  1  3  4 35 30.0000000  0  7G 1G 8G22G27G31G13G 2
 -19247597.69649 -14998146.20346  21422033.151    21422041.343
 -11128010.80648  -8671192.91045  22981247.989    22981256.429
  -1452573.78448                  24033920.026
 -21889154.34349 -17056500.01347  21414688.600    21414694.722
 -11267686.51549  -8780010.20846  21720970.449    21720979.385
 -25086160.72849 -19547668.43547  20343588.216    20343591.892
 -12506528.48149  -9745350.44646  21758702.408    21758709.460
 02  1  3  4 36  0.0000000  0  7G 1G 8G22G27G31G13G 2
 -19172491.90449 -14939622.38646  21436325.604    21436333.544
 -11214543.25948  -8738620.76745  22964781.589    22964790.277
  -1342941.34048                  24054782.171
 -21943201.13849 -17098614.42547  21404404.091    21404409.848
 -11338870.84849  -8835478.45646  21707424.224    21707432.911
 -25070583.63049 -19535530.51047  20346552.387    20346556.214
 -12559054.19849  -9786279.47746  21748705.914    21748714.105
