     2.11           OBSERVATION DATA    G (GPS)             RINEX VERSION / TYPE
teqc  2019Feb25     Salamtina Y.M.      20230920 03:20:33UTCPGM / RUN BY / DATE
OBSERVATION MODE: Permanent                                 COMMENT
CHUM Chumysh (CHUM)                                         MARKER NAME
25601M001                                                   MARKER NUMBER
4549261325          TRIMBLE NETRS        1.3-2              REC # / TYPE / VERS
237                 AOAD/M_T        NONE                    ANT # / TYPE
        0.0900        0.0000        0.0000                  ANTENNA: DELTA H/E/N
  1228950.3094  4508080.0136  4327868.5440                  APPROX POSITION XYZ
  74.75110458  42.99850160  716.3396  LonLatAlt  S/W        COMMENT
ANT ADDED FROM RCV_ANT.txt                                  COMMENT
Linux 2.6.32-573.12.1.x86_64|x86_64|gcc|Linux 64|=+         COMMENT
BIT 2 OF LLI FLAGS DATA COLLECTED UNDER A/S CONDITION       COMMENT
Konovalov S.M.      RS_RAS                                  OBSERVER / AGENCY
     1     1                                                WAVELENGTH FACT L1/2
     7    L1    L2    C1    P1    P2    S1    S2            # / TYPES OF OBSERV
    30.0000                                                 INTERVAL
    18                                                      LEAP SECONDS
TIME: 2023.01.06                                            COMMENT
TOUR: cont                                                  COMMENT
RSET: RAS02                                                 COMMENT
ASET: DS24                                                  COMMENT
OPER: skon (Konovalov S.M.)                                 COMMENT
SOUR: chum202301060000d.dat                                 COMMENT
SUPP: chum202301060000d.eph                                 COMMENT
SUPP: chum202301060000d.ion                                 COMMENT
SUPP: chum202301060000d.mes                                 COMMENT
Forced Modulo Decimation to 30 seconds                      COMMENT
 SNR is mapped to RINEX snr flag value [0-9]                COMMENT
  L1 & L2: min(max(int(snr_dBHz/6), 0), 9)                  COMMENT
  2023     1     6     0     0    0.0000000     GPS         TIME OF FIRST OBS
  2023     1     6    23    59   30.0000000     GPS         TIME OF LAST OBS
                                                            END OF HEADER
 23  1  6  0  0  0.0000000  0  9G23G24G08G22G27G10G21G18G32
 -13351430.55647 -12225600.04046  21494530.6174                   21494519.7304
        46.2504         39.0004
 -13808343.63246 -11418027.81947  22434990.1564                   22434982.1994
        39.7504         43.0004
 -10250527.37046  -7961711.92346  23451617.7424                   23451608.6134
        40.2504         38.7504
  -7055303.77747  -5956261.46444  22453095.5084                   22453084.9734
        42.2504         27.2504
 -10603924.82746  -8233145.50046  23419802.2274                   23419793.3914
        38.7504         37.7504
 -28078602.15448 -21775239.10149  20510785.7734                   20510776.6454
        53.0004         54.7504
  -8579266.57346  -5072088.01943  24106928.6884                   24106916.6294
        41.2504         22.5004
 -13336064.26646 -10134515.89944  23578209.5394                   23578200.8794
        37.0004         26.5004
 -16532813.62748 -19260690.96649  20846313.9844                   20846304.7384
        52.0004         55.0004
 23  1  6  0  0 30.0000000  0  9G23G24G08G22G27G10G21G18G32
 -13296080.26747 -12182469.95046  21505063.4454                   21505052.7344
        45.7504         39.2504
 -13759785.61146 -11380190.41147  22444231.4694                   22444222.5744
        40.5004         43.0004
 -10219847.94946  -7937805.88646  23457454.9224                   23457447.1994
        38.7504         38.5004
  -7135147.75947  -6018477.51444  22437902.1954                   22437891.3094
        43.0004         28.0004
 -10524341.28346  -8171132.35646  23434946.8284                   23434938.1684
        39.0004         37.7504
 -28079964.00048 -21776300.27849  20510526.7194                   20510517.4734
        53.0004         55.2504
  -8661065.79746  -5135827.69343  24091363.1334                   24091350.1374
        40.2504         22.0004
 -13227413.84846 -10049853.26644  23598886.5004                   23598876.3754
        38.0004         27.7504
 -16571506.35648 -19290841.11949  20838950.6334                   20838941.4454
        50.7504         54.7504
 23  1  6  0  1  0.0000000  0  9G23G24G08G22G27G10G21G18G32
 -13240484.59647 -12139148.65546  21515643.0944                   21515632.1484
        46.0004         39.0004
 -13710641.67846 -11341896.41347  22453583.3834                   22453574.4884
        40.5004         43.0004
 -10188666.32746  -7913508.53246  23463388.6804                   23463380.4884
        40.0004         38.7504
  -7214706.69647  -6080471.46544  22422762.3914                   22422751.7384
        43.0004         28.5004
 -10444468.17946  -8108893.60346  23450144.6094                   23450137.7664
        38.2504         37.5004
 -28081045.33248 -21777142.87649  20510320.9384                   20510311.6914
        53.0004         54.7504
  -8742670.99046  -5199416.12343  24075834.2584                   24075821.3794
        39.7504         22.5004
 -13118573.68646  -9965042.73844  23619597.0394                   23619588.0864
        37.2504         26.0004
 -16609781.65048 -19320666.00649  20831667.5164                   20831657.7424
        52.0004         54.7504
 23  1  6  0  1 30.0000000  0  9G23G24G08G22G27G10G21G18G32
 -13184644.39147 -12095636.81046  21526269.2584                   21526258.2544
        46.2504         39.0004
 -13660914.19146 -11303147.75147  22463046.0004                   22463037.5164
        39.7504         42.7504
 -10156984.92046  -7888821.72046  23469417.6414                   23469409.6844
        39.7504         38.7504
  -7293979.89247  -6142242.75144  22407677.3364                   22407666.6254
        43.0004         27.7504
 -10364309.25946  -8046432.13846  23465399.7664                   23465390.8134
        39.0004         37.0004
 -28081846.15748 -21777766.89749  20510168.6024                   20510159.1214
        53.0004         55.0004
  -8824081.17346  -5262852.63243  24060342.4534                   24060329.3404
        40.2504         22.7504
 -13009546.42346  -9880086.46844  23640345.5004                   23640334.9064
        39.0004         26.0004
 -16647640.06148 -19350166.04949  20824463.3834                   20824453.8444
        51.7504         55.0004
 23  1  6  0  2  0.0000000  0  9G23G24G08G22G27G10G21G18G32
 -13128560.72647 -12051935.25146  21536941.5004                   21536930.4384
        46.5004         39.0004
 -13610605.84946 -11263946.42247  22472618.9454                   22472610.9304
        39.7504         42.5004
 -10124806.12346  -7863747.36046  23475541.2894                   23475533.1564
        39.7504         38.7504
  -7372967.49847  -6203791.51644  22392646.8834                   22392635.1174
        43.0004         27.7504
 -10283868.51146  -7983751.03846  23480707.1024                   23480698.7934
        39.5004         38.0004
 -28082366.61548 -21778172.44549  20510069.5704                   20510060.0314
        53.5004         55.0004
  -8905294.68846  -5326135.86843  24044887.0164                   24044875.2504
        39.5004         23.0004
 -12900334.93746  -9794986.61644  23661128.7734                   23661117.8874
        39.5004         25.7504
 -16685082.34148 -19379341.83949  20817337.9454                   20817328.4654
        52.2504         55.0004
 23  1  6  0  2 30.0000000  0  9G23G24G08G22G27G10G21G18G32
 -13072233.50447 -12008043.90646  21547660.8444                   21547649.5474
        46.2504         38.7504
 -13559717.97446 -11224293.53747  22482303.7584                   22482294.3954
        40.7504         42.7504
 -10092131.34046  -7838286.51446  23481758.9844                   23481750.7934
        39.5004         38.5004
  -7451667.93847  -6265116.51044  22377669.8594                   22377659.1484
        42.2504         28.0004
 -10203148.58546  -7920852.42646  23496067.4614                   23496059.0944
        39.5004         37.7504
 -28082606.20848 -21778359.13849  20510023.8834                   20510014.4614
        53.5004         54.7504
  -8986309.08546  -5389263.94044  24029471.0944                   24029459.2704
        40.0004         24.5004
 -12790941.01646  -9709744.64744  23681944.5084                   23681934.6174
        37.7504         26.5004
 -16722108.13448 -19408193.09049  20810292.3054                   20810282.8244
        51.2504         55.0004
 23  1  6  0  3  0.0000000  0  9G23G24G08G22G27G10G21G18G32
 -13015663.52347 -11963963.40846  21558425.5004                   21558414.1454
        46.0004         39.0004
 -13508253.04846 -11184190.97747  22492096.2344                   22492087.8094
        41.0004         42.5004
 -10058962.86946  -7812440.96446  23488070.4454                   23488062.2544
        39.2504         38.7504
  -7530080.77147  -6326217.41044  22362748.6254                   22362737.6804
        42.7504         28.2504
 -10122153.27246  -7857739.21146  23511480.2034                   23511471.5434
        39.2504         37.7504
 -28082564.43248 -21778326.58849  20510031.8524                   20510022.3714
        53.5004         54.7504
  -9067123.22146  -5452235.99944  24014092.3754                   24014079.8484
        41.5004         24.0004
 -12681367.42246  -9624362.62344  23702796.4694                   23702785.6414
        39.0004         25.5004
 -16758717.89548 -19436720.16449  20803325.6804                   20803316.4344
        51.7504         54.7504
 23  1  6  0  3 30.0000000  0  9G23G24G08G22G27G10G21G18G32
 -12958849.63047 -11919692.84946  21569236.5704                   21569225.5084
        45.7504         39.0004
 -13456211.37446 -11143639.03147  22501999.2504                   22501991.1174
        40.0004         42.2504
 -10025301.41546  -7786211.28346  23494476.7734                   23494468.0554
        41.2504         38.7504
  -7608203.69747  -6387092.37844  22347882.0634                   22347871.2344
        42.5004         28.2504
 -10040884.21546  -7794412.67446  23526945.5234                   23526936.9804
        39.2504         37.5004
 -28082239.85048 -21778073.66049  20510093.3364                   20510083.9144
        53.2504         55.0004
  -9147733.87646  -5515049.46644  23998752.8594                   23998740.8594
        40.5004         24.2504
 -12571614.63946  -9538841.00544  23723679.3364                   23723670.5004
        37.0004         24.5004
 -16794910.14248 -19464921.89649  20796438.3674                   20796429.2384
        51.5004         55.0004
 23  1  6  0  4  0.0000000  0  9G23G24G08G22G27G10G21G18G32
 -12901793.12047 -11875233.23746  21580093.9694                   21580083.3164
        45.7504         38.5004
 -13403596.04746 -11102640.07547  22512012.0234                   22512003.2464
        39.7504         42.2504
  -9991149.61046  -7759599.52246  23500975.4454                   23500966.6094
        40.2504         38.5004
  -7686037.20547  -6447741.85144  22333070.7894                   22333060.0204
        43.0004         28.7504
  -9959345.57646  -7730876.11846  23542461.8364                   23542453.0594
        39.0004         37.0004
 -28081632.99548 -21777600.78849  20510209.1484                   20510199.7274
        53.2504         54.7504
  -9228140.24246  -5577703.75144  23983452.6254                   23983439.9804
        40.7504         24.5004
 -12461686.10546  -9453182.44844  23744600.2734                   23744588.7424
        39.0004         24.0004
 -16830686.03448 -19492799.19249  20789630.4844                   20789621.1804
        51.5004         54.7504
 23  1  6  0  4 30.0000000  0  9G23G24G08G22G27G10G21G18G32
 -12844493.72947 -11830584.35646  21590997.9774                   21590986.9734
        46.2504         38.7504
 -13350408.29046 -11061195.05447  22522133.9304                   22522124.8014
        40.7504         42.2504
  -9956508.94846  -7732606.80946  23507566.7034                   23507559.0394
        40.7504         38.5004
  -7763579.53147  -6508164.41544  22318314.7114                   22318304.2344
        42.5004         28.7504
  -9877539.98946  -7667131.50946  23558029.1174                   23558019.6374
        39.5004         37.5004
 -28080742.79848 -21776907.12549  20510378.5394                   20510369.0594
        52.0004         55.0004
  -9308339.78246  -5640196.89244  23968190.9454                   23968178.1254
        41.0004         25.5004
 -12351583.16746  -9367387.94744  23765551.7504                   23765540.9804
        37.7504         24.2504
 -16866044.90948 -19520351.54449  20782902.1414                   20782892.6024
        52.5004         54.7504
 23  1  6  0  5  0.0000000  0  9G23G24G08G22G27G10G21G18G32
 -12786951.93747 -11785746.60346  21601947.4694                   21601936.5234
        45.7504         38.5004
 -13296650.21746 -11019305.65347  22532362.8834                   22532354.6334
        39.5004         42.0004
  -9921381.65046  -7705234.90746  23514251.8134                   23514243.3284
        41.5004         38.2504
  -7840830.00247  -6568359.55944  22303615.0004                   22303603.9964
        43.5004         28.2504
  -9795470.75546  -7603181.47646  23573646.0554                   23573637.8634
        38.5004         37.0004
 -28079568.99748 -21775992.47149  20510601.7584                   20510592.4534
        53.5004         54.7504
  -9388330.33046  -5702527.16444  23952969.0474                   23952956.5784
        41.5004         25.2504
 -12241308.23146  -9281459.46044  23786536.6804                   23786526.6134
        39.0004         25.2504
 -16900987.07448 -19547579.19149  20776252.6804                   20776243.1994
        51.7504         55.0004
 23  1  6  0  5 30.0000000  0  9G23G24G08G22G27G10G21G18G32
 -12729167.23147 -11740719.56046  21612943.2504                   21612932.5984
        45.7504         38.2504
 -13242323.06746 -10976972.82247  22542700.5004                   22542692.8954
        39.0004         42.0004
  -9885768.40846  -7677484.35246  23521028.3444                   23521020.2704
        41.5004         38.5004
  -7917786.76047  -6628325.84044  22288969.9614                   22288959.4844
        42.5004         28.7504
  -9713140.33446  -7539027.90446  23589312.7344                   23589304.5434
        38.7504         37.2504
 -28078110.73548 -21774856.16249  20510879.0944                   20510869.6134
        52.0004         55.0004
  -9468109.54047  -5764692.74544  23937787.7734                   23937775.2464
        42.0004         24.7504
 -12130862.72046  -9195398.03943  23807554.1564                   23807542.6254
        39.2504         22.5004
 -16935511.76348 -19574481.53049  20769682.7194                   20769673.5314
        51.5004         55.0004
 23  1  6  0  6  0.0000000  0  9G23G24G08G22G27G10G21G18G32
 -12671140.55247 -11695503.98046  21623985.4844                   21623974.8914
        45.5004         38.0004
 -13187429.39346 -10934198.52846  22553147.7114                   22553138.2304
        40.2504         41.7504
  -9849672.20846  -7649357.46446  23527897.4924                   23527889.1844
        41.2504         38.5004
  -7994449.64147  -6688063.13144  22274382.6254                   22274371.0944
        43.7504         29.7504
  -9630552.50746  -7474673.76146  23605029.1094                   23605020.2734
        38.7504         37.0004
 -28076367.80148 -21773498.03049  20511210.7974                   20511201.4344
        52.2504         54.7504
  -9547676.83846  -5826693.22644  23922646.4144                   23922634.0634
        41.2504         25.2504
 -12020249.29146  -9109205.79243  23828601.6884                   23828592.3244
        38.0004         22.7504
 -16969619.68648 -19601059.12549  20763192.6094                   20763183.0124
        52.5004         54.7504
 23  1  6  0  6 30.0000000  0  9G23G24G08G22G27G10G21G18G32
 -12612872.88247 -11650100.60146  21635073.7274                   21635062.8404
        45.7504         38.5004
 -13131971.93946 -10890984.90847  22563700.7814                   22563691.5944
        40.0004         42.0004
  -9813095.56147  -7620856.19046  23534858.2114                   23534849.3754
        42.5004         38.5004
  -8070818.45147  -6747571.26345  22259849.6254                   22259838.3874
        44.2504         30.2504
  -9547711.03246  -7410121.98146  23620793.4304                   23620784.9454
        38.5004         36.7504
 -28074340.36848 -21771918.21649  20511596.6334                   20511587.0354
        53.0004         54.7504
  -9627029.99747  -5888526.84244  23907546.3834                   23907533.6214
        42.0004         25.7504
 -11909470.94246  -9022885.01443  23849681.9384                   23849672.5164
        37.5004         22.7504
 -17003311.61848 -19627312.56449  20756781.0164                   20756771.8874
        51.7504         55.0004
 23  1  6  0  7  0.0000000  0 10G23G24G08G22G27G10G21G18G31G32
 -12554363.15947 -11604508.62546  21646207.7664                   21646196.6454
        46.0004         38.7504
 -13075951.28846 -10847332.45646  22574360.2584                   22574352.5354
        39.0004         41.7504
  -9776038.83747  -7591980.83146  23541909.0394                   23541901.5514
        42.0004         38.5004
  -8146891.18747  -6806848.70545  22245373.3134                   22245362.7774
        44.5004         30.0004
  -9464617.87546  -7345374.05746  23636605.1484                   23636596.5474
        38.0004         36.5004
 -28072026.96148 -21770115.55449  20512036.8524                   20512027.6054
        53.5004         55.0004
  -9706166.09647  -5950191.30544  23892487.0234                   23892473.9104
        42.0004         25.0004
 -11798528.40246  -8936436.28843  23870793.9304                   23870784.6254
        37.2504         22.2504
    198103.86255    183704.68854  25304866.7274                   25304855.8404
        35.5004         29.7504
 -17036586.29148 -19653240.86849  20750448.6564                   20750439.3524
        52.0004         55.0004
 23  1  6  0  7 30.0000000  0 10G23G24G08G22G27G10G21G18G31G32
 -12495613.98647 -11558730.05246  21657387.6484                   21657376.5274
        45.7504         38.5004
 -13019371.90646 -10803244.63546  22585126.8754                   22585119.2114
        39.7504         41.7504
  -9738506.46046  -7562734.85646  23549051.5634                   23549043.4304
        41.5004         38.2504
  -8222669.27847  -6865896.54644  22230953.5864                   22230942.4064
        44.2504         29.7504
  -9381278.50746  -7280434.32345  23652464.2504                   23652455.5904
        38.0004         35.7504
 -28069429.31848 -21768091.41849  20512531.3524                   20512522.1054
        53.2504         55.0004
  -9785085.63846  -6011687.04444  23877468.5944                   23877455.8914
        40.7504         25.5004
 -11687426.25746  -8849863.20443  23891936.3834                   23891926.6094
        37.5004         23.0004
     80260.39245     91878.64044  25282442.7274                   25282431.4304
        33.2504         28.5004
 -17069446.12648 -19678845.91549  20744195.9924                   20744186.6294
        52.0004         54.7504
 23  1  6  0  8  0.0000000  0 10G23G24G08G22G27G10G21G18G31G32
 -12436622.16847 -11512762.41146  21668613.3444                   21668602.2814
        45.5004         38.2504
 -12962232.31646 -10758720.26846  22596000.8754                   22595991.9804
        40.2504         41.7504
  -9700497.39547  -7533117.42246  23556285.1804                   23556275.9344
        42.0004         38.2504
  -8298148.34247  -6924711.39645  22216589.8134                   22216578.9844
        43.7504         30.2504
  -9297692.61846  -7215302.45346  23668370.3754                   23668362.0084
        38.0004         36.0004
 -28066543.10449 -21765842.42049  20513080.3444                   20513071.0394
        54.0004         54.7504
  -9863783.11046  -6073009.73344  23862493.5314                   23862480.8284
        41.5004         26.7504
 -11576163.10646  -8763164.65743  23913108.2424                   23913099.0554
        36.7504         22.7504
    -37673.06145       -17.55844  25260001.4694                   25259989.3524
        34.7504         29.0004
 -17101887.71548 -19704125.07049  20738022.5474                   20738013.2424
        52.0004         55.0004
 23  1  6  0  8 30.0000000  0 10G23G24G08G22G27G10G21G18G31G32
 -12377388.81347 -11466606.55546  21679884.9774                   21679873.7974
        45.7504         38.0004
 -12904535.34646 -10713761.59046  22606980.2274                   22606971.2154
        39.2504         41.5004
  -9662014.38747  -7503130.68446  23563607.4304                   23563599.3554
        42.0004         38.2504
  -8373328.18847  -6983293.06045  22202283.9534                   22202272.3634
        44.2504         31.0004
  -9213864.07546  -7149981.54145  23684322.0234                   23684313.2464
        37.5004         34.7504
 -28063369.10348 -21763369.17249  20513684.6024                   20513674.8874
        52.2504         54.7504
  -9942257.73346  -6134158.77444  23847560.0554                   23847547.5864
        40.0004         25.2504
 -11464741.91146  -8676342.95044  23934312.6334                   23934302.0984
        37.7504         25.2504
   -155694.69755    -91982.47555  25237540.7274                   25237530.9534
        34.2504         31.0004
 -17133912.03348 -19729079.06449  20731928.0554                   20731919.1604
        51.2504         54.7504
 23  1  6  0  9  0.0000000  0 10G23G24G08G22G27G10G21G18G31G32
 -12317914.83847 -11420263.20646  21691202.7504                   21691191.1024
        45.7504         38.0004
 -12846283.77146 -10668370.74646  22618065.6564                   22618056.5864
        40.0004         41.5004
  -9623059.66946  -7472776.37046  23571020.5084                   23571012.1994
        41.7504         38.5004
  -8448208.74347  -7041641.53045  22188034.1804                   22188023.6454
        44.7504         30.5004
  -9129796.81846  -7084474.57245  23700319.1884                   23700311.5234
        38.2504         34.7504
 -28059907.47049 -21760671.79849  20514343.0944                   20514333.6134
        54.0004         54.7504
 -10020507.61346  -6195132.70444  23832669.3984                   23832657.2814
        40.2504         26.7504
 -11353165.48646  -8589400.30043  23955543.3204                   23955534.2504
        37.5004         22.0004
   -273802.68046   -184014.51844  25215068.8594                   25215055.5704
        37.0004         29.2504
 -17165519.75748 -19753708.44449  20725913.5314                   20725904.6374
        52.0004         55.0004
 23  1  6  0  9 30.0000000  0 10G23G24G08G22G27G10G21G18G31G32
 -12258201.10347 -11373733.02446  21702565.6024                   21702554.3054
        45.5004         38.5004
 -12787480.22246 -10622549.79746  22629254.7584                   22629246.3324
        40.0004         41.7504
  -9583635.76647  -7442056.46646  23578523.0784                   23578514.7114
        42.7504         38.5004
  -8522789.87047  -7099756.66145  22173842.0634                   22173831.1764
        44.5004         31.0004
  -9045494.50546  -7018784.49445  23716361.5234                   23716353.3324
        37.2504         34.0004
 -28056158.34448 -21757750.40449  20515056.3054                   20515047.1764
        53.5004         55.0004
 -10098531.83746  -6255930.79144  23817822.3914                   23817809.9804
        40.5004         26.0004
 -11241436.56346  -8502338.84543  23976804.8674                   23976795.5044
        36.5004         22.5004
   -391995.03355   -276112.57455  25192576.0944                   25192563.9774
        34.0004         30.5004
 -17196711.68048 -19778013.82449  20719978.0704                   20719968.8834
        51.7504         54.7504
 23  1  6  0 10  0.0000000  0 10G23G24G08G22G27G10G21G18G31G32
 -12198247.11047 -11327015.63546  21713974.5634                   21713963.2074
        46.0004         38.0004
 -12728126.10246 -10576299.82746  22640549.3524                   22640540.8674
        39.7504         41.0004
  -9543744.38947  -7410972.29246  23586113.8834                   23586105.5744
        42.2504         38.0004
  -8597069.77747  -7157637.09645  22159706.5634                   22159696.3794
        44.2504         30.2504
  -8960959.61346  -6952913.12245  23732448.2734                   23732439.8484
        37.5004         34.5004
 -28052120.47548 -21754604.00649  20515824.9224                   20515815.5594
        53.7504         55.0004
 -10176327.45746  -6316550.73644  23803017.7734                   23803005.4804
        39.2504         25.5004
 -11129556.58946  -8415159.63943  23998096.8134                   23998085.5744
        38.0004         22.0004
   -510268.08046   -368273.33945  25170070.2664                   25170056.0984
        36.7504         31.0004
 -17227487.10248 -19801994.66449  20714121.7974                   20714112.1994
        52.5004         54.7504
 23  1  6  0 10 30.0000000  0 10G23G24G08G22G27G10G21G18G31G32
 -12138052.99147 -11280111.13246  21725429.4454                   21725418.2074
        46.0004         38.0004
 -12668223.27546 -10529622.29946  22651949.2664                   22651939.8444
        39.2504         41.0004
  -9503387.54747  -7379525.42046  23593792.7034                   23593785.0394
        42.5004         37.7504
  -8671047.78647  -7215282.28045  22145629.5474                   22145618.7194
        45.0004         31.0004
  -8876195.11846  -6886862.88345  23748578.3984                   23748570.0314
        37.5004         33.7504
 -28047793.23448 -21751232.13149  20516648.3204                   20516639.2504
        52.2504         55.0004
 -10253892.44546  -6376990.98644  23788257.2734                   23788245.0984
        40.7504         26.0004
 -11017527.53546  -8327864.28143  24019413.0784                   24019404.1254
        37.2504         22.5004
   -628619.44346   -460495.06945  25147552.6644                   25147538.9654
        39.2504         32.0004
 -17257846.05948 -19825650.97849  20708344.5474                   20708335.0664
        52.5004         54.7504
 23  1  6  0 11  0.0000000  0 11G23G24G08G22G27G10G21G18G31G01G32
 -12077619.98847 -11233020.47346  21736928.8754                   21736917.9304
        46.0004         38.2504
 -12607774.93146 -10482519.68946  22663452.1884                   22663442.8244
        39.7504         41.5004
  -9462567.98347  -7347717.98346  23601561.2274                   23601552.8594
        42.5004         38.0004
  -8744723.81047  -7272692.14845  22131609.2344                   22131598.3484
        44.0004         30.2504
  -8791205.14346  -6820636.92445  23764751.6724                   23764742.6604
        38.0004         33.7504
 -28043177.03148 -21747635.09549  20517526.6484                   20517517.6954
        52.0004         54.7504
 -10331225.91646  -6437250.80944  23773540.8984                   23773529.8364
        40.5004         24.2504
 -10905352.44746  -8240455.16044  24040761.0474                   24040750.5124
        39.0004         24.5004
   -747048.17356   -552777.32255  25125011.2424                   25125001.0594
        37.2504         31.5004
    365442.35415                  25361120.578
        30.750
 -17287789.65548 -19848983.64249  20702646.3444                   20702637.1564
        51.7504         55.0004
 23  1  6  0 11 30.0000000  0 11G23G24G08G22G27G10G21G18G31G01G32
 -12016945.58347 -11185741.73046  21748475.5164                   21748464.1604
        46.2504         37.5004
 -12546780.42746 -10434991.47946  22675058.4534                   22675050.0274
        39.0004         41.0004
  -9421285.21847  -7315549.61246  23609417.4224                   23609408.2934
        42.0004         37.7504
  -8818094.34147  -7329863.97545  22117647.4384                   22117636.4344
        45.0004         31.2504
  -8705990.04546  -6754235.54245  23780967.2664                   23780958.8404
        36.5004         32.2504
 -28038268.51148 -21743810.27349  20518460.9224                   20518451.5594
        53.2504         54.7504
 -10408323.11346  -6497326.55244  23758871.5944                   23758858.3054
        41.5004         25.0004
 -10793030.77546  -8152931.80043  24062135.3054                   24062124.0084
        38.0004         22.7504
   -865548.11256   -645114.97955  25102461.9844                   25102450.2194
        37.5004         30.5004
    252524.697 5                  25339633.172
        32.250
 -17317315.25548 -19871990.58549  20697027.7734                   20697018.2344
        51.5004         54.7504
 23  1  6  0 12  0.0000000  0 11G23G24G08G22G27G10G21G18G31G01G32
 -11956034.46547 -11138278.52146  21760065.9224                   21760054.9774
        45.5004         37.5004
 -12485246.27846 -10387042.80846  22686768.2114                   22686759.4344
        39.2504         40.7504
  -9379545.88247  -7283025.47946  23617359.7034                   23617351.9224
        42.5004         38.0004
  -8891162.98447  -7386800.57145  22103742.7194                   22103731.9494
        44.5004         31.2504
  -8620557.39646  -6687664.67945  23797225.7664                   23797216.4614
        37.7504         33.5004
 -28033071.76848 -21739760.86449  20519449.6484                   20519440.6954
        52.7504         54.7504
 -10485186.52046  -6557220.09244  23744243.5554                   23744231.4964
        40.7504         25.5004
 -10680569.09046  -8065299.33343  24083535.7034                   24083524.9924
        38.0004         23.0004
   -984122.17155   -737510.59355  25079896.7664                   25079885.7624
        34.0004         30.2504
    139674.62355    295275.49952  25318158.0784                   25318152.9964
        30.0004         15.5004
 -17346427.41748 -19894675.38449  20691487.8674                   20691478.7974
        52.0004         54.7504
 23  1  6  0 12 30.0000000  0 11G23G24G08G22G27G10G21G18G31G01G32
 -11894883.94047 -11090628.76646  21771702.4064                   21771691.4024
        46.0004         37.2504
 -12423171.81146 -10338673.08045  22698580.7894                   22698571.8364
        39.0004         34.2504
  -9337348.68947  -7250144.56146  23625389.6564                   23625381.1724
        43.0004         38.2504
  -8963926.16147  -7443499.12145  22089896.2814                   22089885.3954
        44.0004         30.5004
  -8534907.46446  -6620924.43445  23813522.9384                   23813514.8634
        36.5004         32.7504
 -28027583.37948 -21735484.19449  20520494.2114                   20520484.7894
        53.0004         55.0004
 -10561811.30046  -6616927.68844  23729662.7814                   23729651.1914
        41.0004         25.2504
 -10567966.62246  -7977557.14543  24104962.9304                   24104952.2194
        38.0004         22.7504
  -1102762.92856   -829957.93455  25057321.4224                   25057309.4224
        36.5004         31.5004
     26897.16445    207396.92942  25296697.5394                   25296692.6914
        30.5004         16.2504
 -17375123.40948 -19917035.88349  20686027.3914                   20686017.8524
        52.0004         54.7504
 23  1  6  0 13  0.0000000  0 11G23G24G08G22G27G10G21G18G31G01G32
 -11833494.43047 -11042792.79546  21783385.1724                   21783373.4654
        45.5004         37.5004
 -12360559.28446 -10289884.09744  22710495.5554                   22710486.6024
        39.2504         29.2504
  -9294696.33147  -7216908.97846  23633506.2344                   23633497.6334
        42.5004         37.7504
  -9036383.05947  -7499959.01345  22076108.8984                   22076097.6024
        45.5004         31.7504
  -8449043.42245  -6554017.41845  23829862.1024                   23829854.2034
        35.0004         32.5004
 -28021802.78648 -21730979.83949  20521594.1414                   20521585.0704
        52.5004         54.7504
 -10638195.33046  -6676447.69944  23715127.6724                   23715114.7344
        41.2504         25.0004
 -10455225.57246  -7889707.01344  24126418.2664                   24126406.5594
        40.0004         25.2504
  -1221468.50446   -922455.79645  25034733.1804                   25034721.1804
        36.5004         33.0004
                                  25275250.6024                   25275245.0474
        29.0004         14.7504
 -17403403.49448 -19939072.29849  20680646.0234                   20680636.4264
        52.7504         54.7504
 23  1  6  0 13 30.0000000  0 11G23G24G08G22G27G10G21G18G31G01G32
 -11771866.65847 -10994771.15946  21795111.8984                   21795100.8954
        45.5004         37.2504
 -12297411.37646 -10240677.93145  22722512.0084                   22722503.4654
        39.2504         30.0004
  -9251591.35747  -7183320.69946  23641708.3834                   23641700.1914
        42.5004         37.5004
  -9108533.15847  -7556179.84645  22062378.2114                   22062367.7934
        45.0004         30.7504
  -8362968.96646  -6486946.41645  23846242.0704                   23846233.6454
        37.2504         32.5004
 -28015730.08448 -21726247.85849  20522749.8054                   20522740.4414
        52.7504         55.0004
 -10714337.53247  -6735779.28044  23700638.2974                   23700624.8324
        42.0004         26.0004
 -10342348.52246  -7801750.90444  24147897.2814                   24147886.3364
        38.7504         24.5004
  -1340237.16245  -1015002.85745  25012130.2504                   25012119.6564
        34.7504         31.5004
                                  25253818.9844                   25253812.3164
        31.5004         15.5004
 -17431268.36548 -19960785.17349  20675343.2894                   20675334.0434
        52.0004         54.7504
 23  1  6  0 14  0.0000000  0 10G23G24G08G22G27G10G21G18G31G32
 -11710000.74647 -10946563.96746  21806884.4694                   21806873.4654
        45.0004         37.7504
 -12233730.21746 -10191056.24244  22734629.7344                   22734621.4264
        38.2504         29.5004
  -9208035.52447  -7149381.10946  23649997.6954                   23649988.5664
        43.0004         37.0004
  -9180375.67447  -7612161.01345  22048708.2114                   22048696.5044
        45.0004         31.0004
  -8276687.15546  -6419713.84345  23862661.3594                   23862652.1724
        37.2504         32.2504
 -28009364.42548 -21721287.61049  20523960.9384                   20523951.6334
        51.7504         54.7504
 -10790235.75847  -6794920.73544  23686195.4694                   23686183.1764
        42.2504         27.0004
 -10229337.70346  -7713690.52844  24169402.5084                   24169391.9734
        39.0004         24.2504
  -1459066.05145  -1107596.81445  24989517.5474                   24989507.9494
        35.2504         31.7504
 -17458718.10748 -19982174.56749  20670119.8204                   20670110.5744
        51.5004         55.0004
 23  1  6  0 14 30.0000000  0 11G23G24G08G22G27G10G21G18G31G01G32
 -11647898.24447 -10898172.41446  21818702.2664                   21818691.6134
        45.0004         37.2504
 -12169519.32546 -10141021.78644  22746847.6484                   22746840.1604
        37.7504         29.2504
  -9164033.01147  -7115093.45346  23658370.2734                   23658362.1414
        42.2504         37.2504
  -9251911.00747  -7667902.79645  22035094.7274                   22035083.8404
        44.2504         30.5004
  -8190202.33646  -6352323.08845  23879118.5944                   23879110.0514
        37.0004         32.7504
 -28002706.78948 -21716099.84149  20525227.8914                   20525218.8794
        51.5004         54.7504
 -10865888.92147  -6853871.22444  23671799.2274                   23671786.1724
        42.5004         26.0004
 -10116196.33646  -7625528.47544  24190933.0944                   24190921.7384
        39.7504         25.0004
  -1577953.76845  -1200236.63045  24966893.2664                   24966883.9024
        33.5004         31.0004
   -423453.13955    -95389.27453  25211000.4224                   25210987.6024
        33.0004         18.5004
 -17485754.18148 -20003241.63549  20664974.8364                   20664965.4144
        51.2504         54.7504
 23  1  6  0 15  0.0000000  0 11G23G24G08G22G27G10G21G18G31G01G32
 -11585555.89447 -10849593.96446  21830565.6804                   21830554.9104
        44.7504         37.0004
 -12104777.39646 -10090573.51544  22759169.3134                   22759159.8914
        39.0004         29.0004
  -9119581.41147  -7080455.86046  23666828.9304                   23666821.7344
        42.2504         37.5004
  -9323135.01547  -7723401.99845  22021541.3674                   22021530.2464
        44.2504         31.5004
  -8103514.10946  -6284773.84345  23895614.5704                   23895606.3794
        37.0004         33.5004
 -27995753.44648 -21710681.65649  20526551.0394                   20526541.8524
        51.2504         54.7504
 -10941291.99347  -6912626.85844  23657451.8134                   23657437.9384
        42.0004         27.0004
 -10002923.17646  -7537263.65743  24212486.8914                   24212476.8244
        38.0004         22.7504
  -1696894.02245  -1292917.38445  24944261.5944                   24944250.3554
        35.5004         31.7504
                                  25189614.1414                   25189606.4184
        30.0004         13.7504
 -17512373.27848 -20023983.78349  20659909.5234                   20659900.2194
        51.2504         54.7504
 23  1  6  0 15 30.0000000  0 11G23G24G08G22G27G10G21G18G31G01G32
 -11522976.98047 -10800831.18946  21842473.3674                   21842463.1844
        44.5004         36.7504
 -12039509.73746 -10039715.59944  22771588.2034                   22771580.4224
        37.5004         28.2504
  -9074686.60047  -7045472.92646  23675372.9224                   23675364.2624
        42.5004         36.7504
  -9394050.49547  -7778660.78645  22008046.3204                   22008035.4924
        44.5004         31.0004
  -8016628.68346  -6217070.89845  23912149.2344                   23912140.3404
        37.2504         33.5004
 -27988506.23548 -21705034.47849  20527930.0704                   20527920.6484
        52.0004         54.7504
 -11016445.80746  -6971188.23044  23643148.9774                   23643136.8014
        41.5004         25.7504
  -9889523.34346  -7448900.19843  24234066.2894                   24234057.0434
        39.2504         23.7504
  -1815887.36245  -1385639.46545  24921614.7424                   24921606.3754
        32.7504         31.7504
                                  25168245.5864                   25168238.8594
        30.5004         17.2504
 -17538578.66448 -20044403.54749  20654923.1334                   20654913.5944
        51.5004         55.0004
 23  1  6  0 16  0.0000000  0 11G23G24G08G22G27G10G21G18G31G01G32
 -11460162.96847 -10751885.22246  21854426.8134                   21854416.5124
        44.7504         36.7504
 -11973719.79646  -9988450.69344  22784108.3364                   22784100.1454
        38.5004         28.0004
  -9029352.12147  -7010147.37546  23683999.8444                   23683991.1254
        42.7504         36.5004
  -9464657.13947  -7833678.92445  21994610.5944                   21994599.5904
        44.5004         30.5004
  -7929550.41346  -6149217.73345  23928717.7274                   23928710.4734
        36.5004         33.2504
 -27980966.38348 -21699159.27149  20529364.9384                   20529355.7504
        53.0004         55.0004
 -11091349.37446  -7029554.63744  23628894.5084                   23628882.4494
        41.5004         27.0004
  -9776000.18146  -7360440.61643  24255669.5164                   24255658.7464
        39.5004         23.2504
  -1934931.96745  -1478401.57745  24898965.6644                   24898952.9024
        35.2504         30.5004
   -760338.27155   -357897.33552  25146893.4924                   25146887.0594
        32.0004         16.2504
 -17564371.72148 -20064502.02149  20650014.6024                   20650005.1804
        51.5004         54.7504
 23  1  6  0 16 30.0000000  0 11G23G24G08G22G27G10G21G18G31G01G32
 -11397109.00347 -10702752.27246  21866426.6414                   21866415.5784
        45.0004         36.7504
 -11907404.76146  -9936776.65344  22796727.6884                   22796719.0274
        38.2504         28.2504
  -8983575.00447  -6974476.92346  23692711.0554                   23692701.8674
        42.5004         36.5004
  -9534949.52447  -7888452.18245  21981233.9774                   21981223.3834
        44.5004         31.0004
  -7842277.23546  -6081212.66745  23945327.7974                   23945318.0234
        36.7504         33.0004
 -27973128.21348 -21693051.60249  20530856.5474                   20530847.5354
        52.2504         55.0004
 -11165995.67147  -7087720.56144  23614690.7194                   23614678.1914
        42.2504         26.2504
  -9662350.72146  -7271882.61943  24277296.6954                   24277285.6334
        38.7504         23.0004
  -2054020.45846  -1571197.80045  24876303.6094                   24876290.8484
        36.5004         31.5004
                                  25125557.320
        32.250
 -17589747.62948 -20084275.45449  20645185.7814                   20645176.2424
        51.7504         55.0004
 23  1  6  0 17  0.0000000  0 11G23G24G08G22G27G10G21G18G31G01G32
 -11333820.54947 -10653436.59246  21878469.4224                   21878458.4184
        44.5004         36.5004
 -11840572.20546  -9884699.32844  22809444.7424                   22809436.5514
        38.0004         28.2504
  -8937362.52046  -6938467.19845  23701505.4384                   23701495.7814
        41.5004         35.5004
  -9604931.98747  -7942983.94745  21967916.8984                   21967905.8954
        44.5004         31.0004
  -7754817.62445  -6013062.31345  23961969.8284                   23961961.0514
        35.7504         32.5004
 -27964996.42748 -21686715.15249  20532404.0394                   20532394.8524
        51.5004         54.7504
 -11240388.10146  -7145688.65344  23600533.3204                   23600521.9654
        41.5004         25.5004
  -9548582.38346  -7183231.99343  24298945.9694                   24298935.4344
        39.2504         23.7504
  -2173155.10945  -1664029.99145  24853630.9534                   24853620.4774
        34.0004         32.2504
                                  25104242.6254                   25104234.0824
        30.5004         16.7504
 -17614711.84648 -20103728.07949  20640435.2504                   20640425.4774
        51.5004         55.0004
 23  1  6  0 17 30.0000000  0 11G23G24G08G22G27G10G21G18G31G01G32
 -11270298.65447 -10603939.03446  21890556.8444                   21890546.4844
        44.2504         36.5004
 -11773225.14846  -9832221.10244  22822261.5554                   22822252.6024
        38.5004         28.7504
  -8890717.55646  -6902120.49746  23710381.0944                   23710372.8444
        41.5004         36.2504
  -9674604.56547  -7997274.23745  21954658.9694                   21954648.0824
        45.0004         31.5004
  -7667175.34245  -5944769.65145  23978646.2734                   23978639.1374
        35.2504         32.0004
 -27956571.02048 -21680149.89349  20534007.3834                   20533998.4304
        52.5004         54.7504
 -11314525.51346  -7203458.03444  23586425.5784                   23586413.4024
        41.5004         26.7504
  -9434698.06546  -7094490.97343  24320616.8914                   24320606.8834
        38.2504         22.7504
  -2292333.98345  -1756896.68445  24830952.9144                   24830941.6764
        35.0004         31.7504
  -1096401.82255   -572440.77552  25082942.8444                   25082935.2974
        32.5004         17.7504
 -17639265.38048 -20122860.70149  20635762.9614                   20635753.1294
        51.7504         55.0004
 23  1  6  0 18  0.0000000  0 10G23G24G08G22G27G10G21G18G31G32
 -11206534.20747 -10554252.46146  21902691.7664                   21902680.4104
        45.0004         36.2504
 -11705356.58646  -9779336.47944  22835176.0314                   22835167.9574
        38.0004         28.0004
  -8843633.31046  -6865431.50446  23719340.4924                   23719333.7074
        41.0004         36.0004
  -9743957.10647  -8051315.16145  21941460.8364                   21941450.6524
        45.0004         32.0004
  -7579344.29646  -5876329.90345  23995361.0634                   23995352.3444
        36.5004         32.0004
 -27947842.06948 -21673348.11749  20535668.2584                   20535659.2464
        53.0004         54.7504
 -11388396.61446  -7261019.93744  23572368.0784                   23572356.1374
        40.7504         27.0004
  -9320690.50746  -7005653.97344  24342313.0474                   24342301.9844
        39.7504         24.2504
  -2411544.83645  -1849788.26845  24808267.3754                   24808257.0164
        35.0004         32.0004
 -17663399.13948 -20141666.21549  20631170.4534                   20631160.8554
        52.5004         54.7504
 23  1  6  0 18 30.0000000  0 11G23G24G08G22G27G10G21G18G31G01G32
 -11142537.09547 -10504384.58945  21914869.8754                   21914858.7544
        44.5004         35.7504
 -11636978.52746  -9726054.91644  22848188.7734                   22848179.4694
        38.7504         26.2504
  -8796121.74646  -6828409.54145  23728381.4534                   23728373.7894
        41.2504         35.7504
  -9812998.50847  -8105113.61845  21928322.6414                   21928312.3984
        43.7504         32.2504
  -7491337.14745  -5807752.92345  24012107.7584                   24012099.7424
        34.7504         32.7504
 -27938819.23848 -21666317.33449  20537385.3984                   20537376.2704
        52.2504         55.0004
 -11462009.19046  -7318380.34144  23558359.7894                   23558348.4924
        40.5004         26.5004
  -9206571.51846  -6916730.06944  24364027.5784                   24364018.0984
        37.7504         24.5004
  -2530794.84345  -1942710.34545  24785575.3524                   24785564.3484
        35.7504         32.7504
                                  25040400.1094                   25040393.0904
        31.5004         14.7504
 -17687123.06148 -20160152.38249  20626655.7504                   20626646.2704
        52.0004         54.7504
 23  1  6  0 19  0.0000000  0 11G23G24G08G22G27G10G21G18G31G01G32
 -11078305.12647 -10454333.72046  21927092.2734                   21927081.4454
        44.2504         36.0004
 -11568090.78046  -9672376.13244  22861297.5784                   22861288.0394
        39.2504         27.5004
  -8748182.21646  -6791054.07945  23737504.8914                   23737495.5864
        41.7504         35.2504
  -9881725.80447  -8158667.33445  21915244.5164                   21915233.8634
        45.0004         31.2504
  -7403154.58345  -5739039.22745  24028888.2274                   24028880.6214
        35.0004         32.2504
 -27929499.10448 -21659054.89349  20539158.6094                   20539149.4224
        50.7504         55.0004
 -11535358.48846  -7375535.62744  23544402.0944                   23544390.1524
        40.7504         26.5004
  -9092340.79246  -6827719.14744  24385765.4224                   24385755.4144
        38.5004         24.5004
  -2650078.74446  -2035658.86345  24762876.3364                   24762865.1564
        36.5004         32.5004
                                  25019158.3284                   25019152.1294
        28.7504         15.5004
 -17710434.95448 -20178317.48249  20622219.8134                   20622209.9224
        51.7504         54.7504
 23  1  6  0 19 30.0000000  0 11G23G24G08G22G27G10G21G18G31G01G32
 -11013838.24147 -10404099.80145  21939360.4614                   21939348.6374
        44.7504         35.7504
 -11498695.56046  -9618301.92144  22874501.6724                   22874493.9494
        37.5004         27.0004
  -8699816.95046  -6753366.85445  23746708.8984                   23746698.8914
        41.2504         35.2504
  -9950138.18847  -8211975.67045  21902226.2194                   21902215.5664
        44.7504         32.2504
  -7314799.50545  -5670191.11445  24045702.5164                   24045694.0314
        35.2504         32.2504
 -27919880.79348 -21651560.10349  20540988.8674                   20540979.9734
        52.0004         55.0004
 -11608442.05046  -7432483.84444  23530494.8054                   23530482.9224
        41.5004         26.7504
  -8978000.27246  -6738622.64643  24407524.4144                   24407514.1724
        39.0004         22.5004
  -2769393.40046  -2128631.33545  24740171.4064                   24740160.2274
        36.2504         32.2504
                                  24997936.4694                   24997930.5044
        30.5004         14.7504
 -17733334.79448 -20196161.51349  20617862.1644                   20617851.9804
        52.7504         55.0004
 23  1  6  0 20  0.0000000  0 11G23G24G08G22G27G10G21G18G31G01G32
 -10949136.07147 -10353682.53945  21951672.2504                   21951661.3634
        44.2504         35.7504
 -11428794.36546  -9563833.48044  22887803.9924                   22887795.5084
        38.0004         27.2504
  -8651028.12546  -6715349.59945  23755991.5474                   23755984.4694
        39.5004         35.0004
 -10018233.91247  -8265037.24845  21889267.7814                   21889257.2464
        45.0004         32.7504
  -7226274.20445  -5601210.38445  24062547.7974                   24062539.5474
        35.2504         30.7504
 -27909963.31048 -21643832.18849  20542876.4224                   20542866.7664
        50.7504         55.2504
 -11681257.59647  -7489223.21344  23516639.1644                   23516626.7544
        42.0004         27.5004
  -8863551.25246  -6649441.65644  24429302.3594                   24429292.9384
        37.7504         24.5004
  -2888735.52146  -2221625.18245  24717462.0474                   24717450.8094
        36.5004         33.2504
                                  24976734.2424                   24976726.0514
        26.2504         16.2504
 -17755822.22548 -20213684.17449  20613582.4534                   20613572.8554
        51.2504         54.7504
 23  1  6  0 20 30.0000000  0 11G23G24G08G22G27G10G21G18G31G01G32
 -10884201.51547 -10303084.20346  21964029.1564                   21964018.3874
        44.5004         36.2504
 -11358392.51846  -9508974.91444  22901202.1094                   22901192.3364
        38.7504         28.2504
  -8601820.57646  -6677006.10545  23765356.2664                   23765349.2464
        40.5004         35.0004
 -10086015.05247  -8317853.69845  21876370.3284                   21876358.8554
        45.5004         32.7504
  -7137584.62045  -5532101.61245  24079425.5704                   24079416.9694
        35.5004         31.7504
 -27899749.04848 -21635873.02449  20544820.2584                   20544811.0124
        51.0004         54.7504
 -11753805.88246  -7545754.32544  23502833.4224                   23502820.5434
        41.5004         26.0004
  -8748998.72646  -6560179.94344  24451101.9924                   24451091.1054
        39.2504         25.2504
  -3008104.89446  -2314640.28445  24694746.8204                   24694734.9964
        37.0004         32.5004
    653175.70955   -954062.41553  24955554.6254                   24955547.8984
        31.7504         19.0004
 -17777900.25248 -20230887.82349  20609381.4454                   20609371.7894
        52.0004         55.0004
 23  1  6  0 21  0.0000000  0 11G23G24G08G22G27G10G21G18G31G01G32
 -10819028.60047 -10252300.12045  21976431.0784                   21976420.1334
        44.5004         35.5004
 -11287485.95646  -9453723.03444  22914694.0864                   22914685.7774
        38.0004         26.0004
  -8552190.00646  -6638332.95445  23774801.6724                   23774793.2464
        41.5004         35.5004
 -10153474.73747  -8370419.66245  21863532.3754                   21863521.7234
        45.5004         33.0004
  -7048727.49245  -5462862.29145  24096334.0164                   24096326.0594
        34.5004         31.7504
 -27889230.75348 -21627676.95149  20546821.7584                   20546812.1604
        52.5004         55.0004
 -11826078.47147  -7602070.63544  23489081.0394                   23489068.5124
        42.5004         26.0004
  -8634338.39746  -6470834.24543  24472920.0864                   24472910.6054
        38.0004         23.0004
  -3127492.58246  -2407669.65745  24672027.5944                   24672016.7074
        37.0004         32.2504
                                  24934397.6954                   24934390.3244
        30.7504         14.7504
 -17799562.90648 -20247767.80749  20605259.1024                   20605249.3284
        52.7504         54.7504
 23  1  6  0 21 30.0000000  0 11G23G24G08G22G27G10G21G18G31G01G32
 -10753623.39847 -10201335.03146  21988877.0784                   21988866.1914
        44.2504         36.0004
 -11216082.99546  -9398084.36844  22928280.8674                   22928272.8524
        37.7504         26.5004
  -8502144.86546  -6599336.75445  23784323.3984                   23784315.2664
        39.5004         34.5004
 -10220618.09847  -8422739.14445  21850756.0784                   21850744.8984
        45.5004         33.2504
  -6959711.89845  -5393499.50045  24113271.6884                   24113265.5474
        34.5004         31.7504
 -27878413.77848 -21619248.13949  20548880.2664                   20548870.6094
        50.7504         54.7504
 -11898079.17046  -7658175.06544  23475378.5084                   23475366.9184
        41.5004         26.2504
  -8519578.35746  -6381410.87043  24494757.8754                   24494748.9224
        37.2504         22.7504
  -3246901.44946  -2500715.54445  24649305.6564                   24649293.6564
        37.2504         33.0004
                                  24913259.9844                   24913253.7274
        30.5004         15.5004
 -17820816.35248 -20264328.93049  20601214.9454                   20601205.1134
        51.5004         54.7504
 23  1  6  0 22  0.0000000  0 11G23G24G08G22G27G10G21G18G31G01G32
 -10687984.52047 -10150187.87446  22001367.9144                   22001357.4964
        44.5004         36.2504
 -11144184.48746  -9342059.56744  22941964.2584                   22941955.0704
        38.2504         26.5004
  -8451685.72046  -6560017.95545  23793926.3364                   23793916.7384
        40.2504         34.7504
 -10287442.81847  -8474810.34845  21838039.2894                   21838028.4024
        45.7504         32.7504
  -6870539.12845  -5324014.22345  24130241.3754                   24130233.6524
        35.0004         30.2504
 -27867296.31848 -21610585.17849  20550995.9384                   20550986.5744
        50.5004         54.7504
 -11969804.63747  -7714065.01344  23461729.9224                   23461717.6884
        42.0004         26.5004
  -8404719.10646  -6291910.17644  24516616.1414                   24516605.7234
        38.7504         24.5004
  -3366326.90546  -2593774.36445  24626579.4534                   24626568.3324
        37.2504         33.5004
                                  24892145.0474                   24892139.7274
        30.7504         16.7504
 -17841659.25648 -20280570.14249  20597248.2664                   20597238.5514
        51.2504         54.7504
 23  1  6  0 22 30.0000000  0 11G23G24G08G22G27G10G21G18G31G01G32
 -10622114.88247 -10098860.89246  22013902.6564                   22013892.0044
        44.5004         36.0004
 -11071795.36646  -9285652.44944  22955738.7584                   22955730.2154
        38.2504         27.0004
  -8400817.60046  -6520380.48745  23803606.2194                   23803597.9694
        40.2504         35.0004
 -10353951.26647  -8526635.07745  21825383.0004                   21825372.3484
        46.2504         33.5004
  -6781215.05845  -5254411.04945  24147239.3284                   24147231.8404
        35.0004         30.5004
 -27855880.16148 -21601689.47249  20553168.1884                   20553158.8244
        50.5004         54.7504
 -12041255.44647  -7769740.97144  23448134.0704                   23448121.0164
        42.2504         28.0004
  -8289765.31646  -6202335.82943  24538490.3204                   24538480.7234
        37.0004         22.5004
  -3485769.21846  -2686846.31945  24603849.1644                   24603838.8054
        36.7504         34.2504
    209120.45355  -1300079.76152  24871053.2424                   24871047.5704
        32.2504         16.2504
 -17862094.62948 -20296493.80149  20593359.6564                   20593350.1764
        51.2504         55.0004
 23  1  6  0 23  0.0000000  0 11G23G24G08G22G27G10G21G18G31G01G32
 -10556007.21547 -10047348.44445  22026482.4304                   22026471.6024
        46.0004         35.5004
 -10998910.70946  -9228859.21744  22969607.0554                   22969598.9224
        36.5004         27.5004
  -8349535.60246  -6480420.50245  23813364.4224                   23813357.6374
        39.2504         35.5004
 -10420134.90747  -8578206.73545  21812789.0634                   21812777.9414
        46.0004         33.5004
  -6691735.12745  -5184686.45345  24164266.1254                   24164259.6914
        34.2504         31.2504
 -27844157.52148 -21592554.94949  20555398.7344                   20555389.7234
        50.5004         54.7504
 -12112422.00346  -7825195.41344  23434591.2034                   23434579.1454
        41.7504         28.5004
  -8174711.78746  -6112683.72343  24560384.9384                   24560374.1094
        38.2504         22.5004
  -3605217.88046  -2779923.20645  24581120.5704                   24581108.8054
        38.5004         34.7504
                                  24849987.5164                   24849979.9104
        32.2504         15.5004
 -17882115.30148 -20312094.31549  20589549.8054                   20589540.4414
        51.2504         55.0004
 23  1  6  0 23 30.0000000  0 11G23G24G08G22G27G10G21G18G31G01G32
 -10489671.41947  -9995658.22045  22039105.2974                   22039094.8794
        45.5004         35.7504
 -10925542.48546  -9171689.16444  22983570.9924                   22983561.4534
        39.0004         27.0004
  -8297851.16946  -6440146.96945  23823199.5634                   23823192.4844
        39.2504         33.5004
 -10486002.71247  -8629532.27445  21800254.3204                   21800243.5514
        46.2504         33.0004
  -6602112.20246  -5114850.40445  24181323.1954                   24181314.1254
        36.0004         31.0004
 -27832137.21048 -21583188.47149  20557686.1094                   20557677.2154
        51.5004         54.7504
 -12183311.81847  -7880434.22144  23421101.5704                   23421088.3984
        42.7504         27.7504
  -8059570.12546  -6022962.98543  24582294.6804                   24582285.5514
        36.5004         23.2504
  -3724679.88546  -2873010.52245  24558386.3284                   24558375.7344
        36.7504         33.7504
    -12177.90645  -1472520.04142  24828943.1094                   24828935.6214
        33.7504         16.7504
 -17901731.25148 -20327379.46449  20585817.1174                   20585807.5204
        52.0004         54.7504
 23  1  6  0 24  0.0000000  0 11G23G24G08G22G27G10G21G18G31G01G32
 -10423101.10047  -9943785.26445  22051773.4534                   22051762.6844
        46.0004         35.5004
 -10851686.63746  -9114139.17244  22997622.8364                   22997615.3484
        37.2504         26.5004
  -8245760.61746  -6399556.95645  23833112.7814                   23833103.5944
        38.5004         32.5004
 -10551547.40647  -8680606.03945  21787782.1564                   21787771.0944
        46.7504         33.7504
  -6512342.68145  -5044900.12745  24198404.1414                   24198396.2424
        35.0004         30.7504
 -27819812.25248 -21573584.61949  20560031.7814                   20560022.3594
        52.0004         55.0004
 -12253916.45247  -7935450.82144  23407665.8984                   23407652.8444
        42.5004         28.0004
  -7944335.92146  -5933170.14443  24604224.4064                   24604213.4614
        38.7504         22.2504
  -3844145.49346  -2966100.61445  24535654.0634                   24535642.3554
        38.5004         34.5004
   -122636.30145  -1558591.53642  24807923.5234                   24807915.2734
        32.2504         17.2504
 -17920936.21148 -20342344.36049  20582162.4454                   20582153.3164
        53.0004         54.7504
 23  1  6  0 24 30.0000000  0 11G23G24G08G22G27G10G21G18G31G01G32
 -10356298.10347  -9891730.98745  22064486.1724                   22064474.9344
        46.0004         35.5004
 -10777347.14346  -9056212.31144  23011771.1954                   23011761.7154
        38.5004         25.2504
  -8193268.04246  -6358653.64645  23843102.5784                   23843092.6884
        40.2504         33.5004
 -10616770.08647  -8731428.88145  21775369.7894                   21775359.2544
        46.0004         34.2504
  -6422431.16245  -4974839.22045  24215514.6174                   24215505.8984
        35.7504         31.5004
 -27807183.62848 -21563744.13649  20562434.9144                   20562425.5514
        50.5004         54.7504
 -12324235.66647  -7990244.98744  23394283.6334                   23394271.6334
        42.0004         28.0004
  -7829012.85546  -5843308.01343  24626169.1644                   24626159.3914
        38.2504         22.5004
  -3963613.61546  -3059192.69445  24512920.0944                   24512908.3874
        38.7504         35.0004
   -232963.53645  -1644560.74142  24786928.5164                   24786921.7304
        32.2504         17.2504
 -17939732.12748 -20356990.52249  20578585.6024                   20578576.1804
        51.7504         54.7504
 23  1  6  0 25  0.0000000  0 11G23G24G08G22G27G10G21G18G31G01G32
 -10289263.94947  -9839496.59945  22077242.1334                   22077231.1294
        45.7504         35.5004
 -10702527.78346  -8997911.48044  23026008.1174                   23025998.6374
        37.5004         26.0004
  -8140376.23646  -6317439.27245  23853166.4304                   23853158.5314
        38.7504         33.2504
 -10681671.43247  -8782001.35145  21763020.0944                   21763008.9734
        46.2504         34.0004
  -6332382.01246  -4904671.07645  24232650.0394                   24232642.1994
        37.0004         31.5004
 -27794251.94848 -21553667.49649  20564895.9534                   20564886.3554
        50.2504         55.5004
 -12394268.42647  -8044815.95644  23380957.9064                   23380944.7934
        43.0004         28.5004
  -7713604.38246  -5753379.35343  24648129.8754                   24648120.6884
        37.0004         22.5004
  -4083082.53146  -3152285.38245  24490185.6254                   24490173.8594
        38.7504         35.0004
   -343157.98545  -1730426.57343  24765960.1644                   24765951.8554
        34.2504         18.5004
 -17958120.63148 -20371319.21249  20575086.3054                   20575077.0004
        51.0004         55.0004
 23  1  6  0 25 30.0000000  0 11G23G24G08G22G27G10G21G18G31G01G32
 -10221997.07347  -9787080.86545  22090043.0234                   22090031.3754
        46.2504         35.7504
 -10627229.22746  -8939237.31244  23040337.0704                   23040328.0004
        38.5004         25.0004
  -8087086.89746  -6275915.15845  23863306.5234                   23863299.5044
        37.5004         33.0004
 -10746248.71047  -8832321.29245  21750731.2194                   21750720.4494
        46.5004         34.0004
  -6242196.55546  -4834396.69345  24249812.1334                   24249803.5314
        37.0004         31.0004
 -27781014.95048 -21543352.95649  20567414.8204                   20567405.3404
        50.5004         55.0004
 -12464011.04347  -8099160.84544  23367685.2974                   23367673.2974
        42.0004         27.0004
  -7598110.70746  -5663384.30943  24670109.1414                   24670098.3714
        38.7504         23.0004
  -4202547.72046  -3245375.15645  24467451.3054                   24467440.4774
        37.5004         34.5004
   -453215.35045  -1816185.56842  24745014.9924                   24745008.6764
        32.0004         17.2504
 -17976100.35948 -20385329.38249  20571664.9224                   20571655.6174
        51.7504         55.0004
 23  1  6  0 26  0.0000000  0 11G23G24G08G22G27G10G21G18G31G01G32
 -10154499.42147  -9734485.30246  22102887.1724                   22102876.2274
        46.2504         36.0004
 -10551455.66046  -8880192.97444  23054756.5554                   23054746.9574
        38.2504         25.5004
  -8033404.06346  -6234084.41445  23873522.7734                   23873514.6994
        38.0004         33.2504
 -10810503.31347  -8882389.79445  21738504.3914                   21738493.2114
        46.2504         34.0004
  -6151879.51345  -4764019.80845  24266998.7114                   24266990.3444
        35.7504         31.5004
 -27767473.95248 -21532801.53149  20569991.7814                   20569982.3014
        52.0004         54.7504
 -12533462.85647  -8153279.14344  23354470.5864                   23354457.4144
        43.0004         28.5004
  -7482535.71746  -5573325.88843  24692100.8914                   24692091.4104
        37.5004         22.2504
  -4322007.72546  -3338460.87645  24444719.5784                   24444707.9304
        38.2504         35.5004
   -563134.65745  -1901836.94042  24724099.6094                   24724092.1804
        34.2504         16.7504
 -17993673.26848 -20399022.55049  20568320.9534                   20568311.4144
        52.7504         55.0004
 23  1  6  0 26 30.0000000  0 11G23G24G08G22G27G10G21G18G31G01G32
 -10086770.91747  -9681709.85845  22115775.9774                   22115764.1524
        46.0004         35.5004
 -10475209.26846  -8820780.20144  23069265.8204                   23069255.9304
        38.0004         26.5004
  -7979329.15746  -6191948.13745  23883812.6254                   23883804.3164
        38.0004         33.0004
 -10874434.41247  -8932206.21645  21726338.7344                   21726327.2034
        46.2504         35.0004
  -6061433.53746  -4693542.44945  24284210.9144                   24284201.7854
        37.5004         31.7504
 -27753627.74348 -21522012.28049  20572626.5164                   20572617.3284
        51.0004         54.7504
 -12602621.92646  -8207169.32644  23341308.5634                   23341296.9144
        41.5004         27.5004
  -7366881.15946  -5483205.48443  24714109.6024                   24714099.5354
        37.0004         22.2504
  -4441459.44446  -3431540.10445  24421987.5704                   24421976.8014
        38.2504         34.5004
   -672912.74445  -1987378.27942  24703208.1564                   24703202.0164
        32.5004         17.7504
 -18010839.48648 -20412398.81849  20565054.2274                   20565044.6884
        52.7504         54.7504
 23  1  6  0 27  0.0000000  0 11G23G24G08G22G27G10G21G18G31G01G32
 -10018811.89947  -9628754.78745  22128707.5554                   22128696.4344
        46.2504         35.7504
 -10398492.70246  -8761001.07244  23083864.8284                   23083855.6414
        38.5004         26.0004
  -7924865.38646  -6149508.83945  23894176.5004                   23894168.1334
        37.2504         32.2504
 -10938041.24747  -8981769.97245  21714234.4144                   21714223.2934
        46.2504         34.2504
  -5970861.85946  -4622967.13145  24301445.0704                   24301437.4654
        36.0004         31.7504
 -27739476.07848 -21510985.00949  20575318.9224                   20575310.0864
        51.5004         55.2504
 -12671486.45147  -8260829.96844  23328203.9844                   23328191.9264
        42.5004         28.5004
  -7251149.31446  -5393024.86443  24736132.7734                   24736123.3524
        38.0004         22.7504
  -4560900.12146  -3524610.77345  24399259.4694                   24399248.4654
        38.2504         34.7504
   -782547.27845  -2072807.76542  24682346.3984                   24682339.4384
        34.2504         17.7504
 -18027599.54448 -20425458.59749  20561865.1644                   20561855.3914
        52.5004         54.7504
 23  1  6  0 27 30.0000000  0 11G23G24G08G22G27G10G21G18G31G01G32
  -9950622.40547  -9575620.13245  22141683.7034                   22141672.7584
        46.5004         35.5004
 -10321308.24346  -8700857.34244  23098551.3364                   23098542.7934
        37.5004         26.0004
  -7870014.52446  -6106767.95245  23904614.1644                   23904606.6174
        36.5004         32.0004
 -11001323.09147  -9031080.48445  21702192.1254                   21702181.7074
        45.2504         34.0004
  -5880167.36646  -4552296.08845  24318704.2344                   24318694.5784
        36.7504         32.5004
 -27725018.20448 -21499719.13349  20578070.6884                   20578061.5004
        50.5004         54.7504
 -12740053.86447  -8314259.12744  23315156.8284                   23315144.0664
        42.5004         27.7504
  -7135342.04045  -5302785.43343  24758168.8054                   24758160.4964
        35.0004         21.7504
  -4680326.82446  -3617670.53245  24376533.2894                   24376521.8754
        37.5004         34.5004
   -892035.12645  -2158123.03742  24661510.5784                   24661503.8524
        31.7504         16.7504
 -18043953.60948 -20438202.01349  20558753.0944                   20558743.8484
        53.0004         55.0004
 23  1  6  0 28  0.0000000  0 11G23G24G08G22G27G10G21G18G31G01G32
  -9882202.20647  -9522305.69845  22154703.2114                   22154692.6174
        45.5004         35.0004
 -10243657.89646  -8640350.56844  23113328.7584                   23113318.8674
        38.5004         26.5004
  -7814778.81946  -6063727.17045  23915125.8444                   23915118.0044
        37.5004         32.0004
 -11064278.99547  -9080137.01045  21690212.5554                   21690200.8484
        46.5004         33.5004
  -5789352.46146  -4481531.26645  24335985.4144                   24335976.9884
        37.0004         31.5004
 -27710253.13648 -21488213.88849  20580879.8054                   20580870.3834
        52.0004         54.7504
 -12808322.38447  -8367455.35544  23302165.3914                   23302153.1564
        42.0004         28.5004
  -7019460.88545  -5212488.48943  24780220.3204                   24780211.4264
        35.7504         22.2504
  -4799735.85146  -3710716.50945  24353809.6094                   24353799.1914
        36.5004         34.7504
  -1001373.30746  -2243321.59743  24640706.6804                   24640697.6094
        36.0004         18.5004
 -18059901.59248 -20450629.01149  20555717.7504                   20555708.7384
        52.7504         54.7504
 23  1  6  0 28 30.0000000  0 11G23G24G08G22G27G10G21G18G31G01G32
  -9813553.41847  -9468813.15245  22167767.2814                   22167756.1604
        46.2504         35.0004
 -10165546.12646  -8579484.25944  23128192.8134                   23128183.0984
        38.2504         26.5004
  -7759162.45746  -6020389.76345  23925708.7034                   23925700.8054
        37.0004         31.5004
 -11126910.06747  -9128940.42345  21678293.7114                   21678282.5314
        45.7504         34.5004
  -5698422.12246  -4410676.48845  24353289.1564                   24353280.2624
        37.0004         31.7504
 -27695182.18948 -21476470.28549  20583747.7114                   20583738.6994
        52.2504         55.0004
 -12876291.28647  -8420418.12744  23289231.6954                   23289219.0514
        42.5004         28.5004
  -6903510.02346  -5122137.18543  24802286.8284                   24802276.1764
        37.2504         22.0004
  -4919126.24646  -3803747.97845  24331092.4614                   24331079.8754
        37.5004         34.7504
  -1110560.78145  -2328402.73542  24619927.2424                   24619920.1054
        33.0004         17.7504
 -18075445.78348 -20462741.36049  20552759.9694                   20552750.7814
        52.7504         54.7504
 23  1  6  0 29  0.0000000  0 11G23G24G08G22G27G10G21G18G31G01G32
  -9744674.11147  -9415140.97645  22180874.2814                   22180863.4534
        45.7504         35.5004
 -10086973.30846  -8518258.69344  23143145.1884                   23143135.8244
        38.7504         25.5004
  -7703166.23545  -5976756.34445  23936363.3754                   23936356.2384
        34.7504         31.5004
 -11189213.58247  -9177488.59045  21666438.2504                   21666426.7194
        46.5004         34.5004
  -5607377.22246  -4339732.42845  24370614.3204                   24370605.4844
        37.0004         32.2504
 -27679802.19748 -21464485.87749  20586674.2584                   20586665.2464
        51.5004         55.2504
 -12943956.92947  -8473144.61344  23276355.1094                   23276342.8164
        42.2504         28.0004
  -6787489.16745  -5031731.33143  24824363.3204                   24824354.6024
        34.2504         22.5004
  -5038493.17046  -3896761.14645  24308375.8834                   24308364.5864
        37.0004         34.7504
  -1219592.81645  -2413362.74843  24599180.0864                   24599171.8954
        35.0004         19.0004
 -18090584.45348 -20474537.71349  20549879.5394                   20549870.2934
        52.7504         54.7504
 23  1  6  0 29 30.0000000  0 11G23G24G08G22G27G10G21G18G31G01G32
  -9675566.50047  -9361290.90045  22194024.9454                   22194013.7664
        45.7504         35.0004
 -10007943.93146  -8456677.37544  23158183.3364                   23158174.0314
        38.7504         26.5004
  -7646794.11445  -5932830.08045  23947091.7034                   23947084.3914
        35.5004         31.5004
 -11251191.23047  -9225782.84445  21654643.5784                   21654632.6334
        45.7504         34.5004
  -5516222.67446  -4268702.91345  24387961.0004                   24387952.1054
        36.2504         32.0004
 -27664115.08448 -21452262.16249  20589660.2344                   20589650.8134
        52.5004         55.0004
 -13011318.40447  -8525634.06244  23263536.1954                   23263524.1954
        42.2504         29.0004
  -6671402.49045  -4941274.19343  24846454.0084                   24846445.3484
        35.7504         22.0004
  -5157835.26946  -3989754.98045  24285666.2274                   24285655.5164
        37.5004         34.5004
  -1328468.37745  -2498200.86443  24578461.4614                   24578453.0354
        34.5004         19.2504
 -18105319.94648 -20486019.91649  20547075.2034                   20547065.8984
        53.2504         55.0004
 23  1  6  0 30  0.0000000  0 11G23G24G08G22G27G10G21G18G31G01G32
  -9606229.25047  -9307261.89545  22207219.5634                   22207208.8524
        45.5004         34.7504
  -9928458.96246  -8394741.05044  23173309.3594                   23173299.4694
        38.7504         26.0004
  -7590046.92845  -5888611.49745  23957890.5164                   23957882.9104
        35.7504         32.5004
 -11312840.52447  -9273821.23445  21642912.4694                   21642900.9384
        45.7504         34.7504
  -5424960.00646  -4197589.17745  24405327.6954                   24405318.7424
        37.0004         32.2504
 -27648118.29748 -21439797.12549  20592703.9384                   20592694.6914
        52.0004         54.7504
 -13078372.58747  -8577884.07144  23250776.8284                   23250763.8324
        42.5004         29.0004
  -6555250.52646  -4850766.23343  24868557.8204                   24868548.7504
        36.5004         21.2504
  -5277148.20546  -4082726.06545  24262962.5474                   24262950.4884
        37.2504         34.2504
  -1437183.46845  -2582913.86943  24557773.1564                   24557765.8444
        35.0004         18.2504
 -18119651.20348 -20497187.11349  20544348.2344                   20544338.9304
        53.5004         54.7504
 23  1  6  0 30 30.0000000  0 11G23G24G08G22G27G10G21G18G31G01G32
  -9536664.31447  -9253055.47845  22220457.5084                   22220446.3284
        46.0004         35.0004
  -9848522.68046  -8332453.01644  23188520.3444                   23188510.7464
        38.5004         26.7504
  -7532929.24145  -5844104.21645  23968758.5004                   23968751.3634
        34.5004         30.5004
 -11374162.77047  -9321604.77345  21631242.9454                   21631231.9414
        46.0004         34.5004
  -5333593.85246  -4126394.78245  24422714.1804                   24422705.5784
        37.2504         31.7504
 -27631813.42648 -21427092.03449  20595806.7424                   20595797.2034
        52.2504         54.7504
 -13145119.43447  -8629894.59044  23238074.0554                   23238062.6994
        42.2504         29.0004
  -6439036.98245  -4760210.25943  24890671.8524                   24890662.5474
        35.7504         20.5004
  -5396430.65646  -4175673.41845  24240262.7814                   24240251.4264
        37.0004         34.5004
  -1545736.60045  -2667500.75743  24537115.9454                   24537107.8134
        35.0004         18.5004
 -18133580.27148 -20508040.92049  20541697.4694                   20541688.1054
        53.2504         55.0004
 23  1  6  0 31  0.0000000  0 11G23G24G08G22G27G10G21G18G31G01G32
  -9466870.62547  -9198670.79045  22233739.1334                   22233727.2504
        45.5004         34.5004
  -9768136.41746  -8269814.37244  23203816.9844                   23203808.2074
        38.5004         26.5004
  -7475442.32445  -5799309.27845  23979699.4534                   23979691.4384
        34.7504         30.2504
 -11435156.19247  -9369132.10045  21619636.6094                   21619625.1954
        47.0004         34.7504
  -5242126.02746  -4055121.16245  24440119.3444                   24440111.2114
        36.5004         32.2504
 -27615198.34448 -21414145.22349  20598968.2734                   20598959.3204
        52.5004         55.0004
 -13211555.59647  -8681663.02145  23225433.2034                   23225420.4414
        43.5004         30.0004
  -6322762.82146  -4669607.06443  24912799.8054                   24912789.6214
        36.5004         21.5004
  -5515678.67746  -4268593.96445  24217570.4844                   24217559.4224
        36.2504         33.7504
  -1654124.31046  -2751958.73843  24516491.1804                   24516483.1644
        36.7504         19.0004
 -18147106.41448 -20518580.76549  20539123.3444                   20539114.2734
        53.2504         55.0004
 23  1  6  0 31 30.0000000  0 11G23G24G08G22G27G10G21G18G31G01G32
  -9396849.98947  -9144109.27345  22247063.0634                   22247052.2344
        45.7504         34.7504
  -9687304.23546  -8206828.28544  23219199.6174                   23219190.2544
        39.2504         26.0004
  -7417589.99545  -5754229.53445  23990709.1024                   23990700.6174
        35.7504         31.0004
 -11495821.83547  -9416403.98845  21608091.2584                   21608080.5474
        45.0004         34.5004
  -5150560.91146  -3983771.72645  24457543.7194                   24457535.1174
        36.5004         31.7504
 -27598274.27748 -21400957.63449  20602189.8444                   20602180.5394
        52.0004         54.7504
 -13277680.46047  -8733188.88844  23212849.6484                   23212836.4184
        43.5004         29.0004
  -6206431.55645  -4578959.32943  24934935.3594                   24934925.7624
        34.5004         20.0004
  -5634890.46946  -4361486.23945  24194885.2814                   24194874.5704
        36.7504         34.0004
  -1762344.88246  -2836286.44143  24495897.1174                   24495888.4574
        36.0004         19.5004
 -18160231.52448 -20528808.11349  20536625.2034                   20536615.9574
        53.0004         54.7504
 23  1  6  0 32  0.0000000  0 11G23G24G08G22G27G10G21G18G31G01G32
  -9326601.44547  -9089370.16345  22260430.6334                   22260420.1564
        45.5004         34.7504
  -9606027.59146  -8143495.82344  23234666.1804                   23234656.1134
        39.0004         25.7504
  -7359373.79445  -5708866.26745  24001786.5554                   24001778.4224
        34.7504         31.0004
 -11556157.71147  -9463418.92745  21596610.5084                   21596599.3874
        45.5004         35.0004
  -5058900.37946  -3912347.98145  24474985.8754                   24474977.3324
        37.0004         31.0004
 -27581039.17348 -21387527.69049  20605468.6174                   20605459.4884
        52.5004         55.2504
 -13343490.86247  -8784469.70545  23200326.5474                   23200313.9614
        43.2504         30.5004
  -6090044.08746  -4488267.83643  24957084.3834                   24957073.9064
        36.0004         20.7504
  -5754062.26446  -4454347.38545  24172207.8284                   24172196.1214
        37.5004         34.2504
  -1870394.61246  -2920481.03442  24475337.0004                   24475327.5784
        37.5004         17.7504
 -18172954.95348 -20538722.46649  20534204.7664                   20534195.4614
        53.0004         55.0004
 23  1  6  0 32 30.0000000  0 11G23G24G08G22G27G10G21G18G31G01G32
  -9256126.21347  -9034454.40545  22273842.2974                   22273831.1764
        45.5004         34.5004
  -9524309.91446  -8079819.71544  23250216.3204                   23250206.6054
        38.2504         25.5004
  -7300796.96745  -5663222.03644  24012931.9774                   24012925.3094
        32.0004         29.7504
 -11616164.57547  -9510177.50045  21585191.4064                   21585180.5784
        45.7504         34.5004
  -4967148.34246  -3840852.87045  24492445.7114                   24492437.9304
        36.2504         31.5004
 -27563493.27648 -21373855.56349  20608807.6334                   20608798.3874
        52.0004         55.0004
 -13408985.61547  -8835504.58245  23187863.8594                   23187850.9224
        44.2504         30.0004
  -5973603.43846  -4397534.91543  24979242.8594                   24979232.4414
        36.0004         20.0004
  -5873191.71446  -4547175.54145  24149539.4064                   24149527.3484
        37.7504         34.7504
  -1978271.42746  -3004540.92243  24454808.5234                   24454799.1024
        37.5004         20.0004
 -18185278.08449 -20548324.90149  20531859.5784                   20531850.3914
        54.0004         55.0004
 23  1  6  0 33  0.0000000  0 11G23G24G08G22G27G10G21G18G31G01G32
  -9185423.69147  -8979361.53545  22287295.7974                   22287285.0274
        45.2504         34.2504
  -9442153.15146  -8015801.48344  23265850.1804                   23265841.4614
        39.5004         26.0004
  -7241861.39246  -5617298.23645  24024150.5314                   24024139.8794
        36.0004         30.5004
 -11675841.02347  -9556678.59446  21573835.4454                   21573824.4414
        46.5004         36.0004
  -4875307.04746  -3769288.25645  24509923.1484                   24509914.4884
        36.5004         31.0004
 -27545635.43548 -21359940.35949  20612206.0314                   20612196.6094
        52.0004         55.0004
 -13474162.39047  -8886291.65945  23175459.4454                   23175447.7974
        43.5004         30.2504
  -5857110.85346  -4306761.51443  25001410.4454                   25001399.5594
        36.0004         20.2504
  -5992274.98346  -4639967.68645  24126876.6414                   24126866.1644
        37.5004         34.2504
  -2085971.90246  -3088463.27543  24434313.0004                   24434304.2234
        38.2504         19.0004
 -18197200.54648 -20557615.12349  20529591.0864                   20529581.7234
        53.5004         55.0004
 23  1  6  0 33 30.0000000  0 11G23G24G08G22G27G10G21G18G31G01G32
  -9114495.72947  -8924093.01645  22300793.5554                   22300782.6094
        45.0004         34.5004
  -9359561.32346  -7951444.19144  23281567.1024                   23281557.5044
        39.2504         26.7504
  -7182571.13345  -5571098.03845  24035430.7664                   24035423.1024
        34.7504         31.2504
 -11735188.02047  -9602922.98145  21562542.0784                   21562530.9574
        46.7504         35.0004
  -4783380.90546  -3697657.49345  24527416.7584                   24527407.2194
        36.2504         30.2504
 -27527466.80048 -21345782.98349  20615663.0234                   20615653.6604
        52.0004         55.0004
 -13539020.31147  -8936830.29145  23163118.7034                   23163105.4734
        44.2504         30.5004
  -5740570.01345  -4215950.44543  25023587.6954                   25023576.8674
        35.7504         20.7504
  -6111310.55146  -4732722.69345  24104226.5164                   24104214.5744
        38.5004         35.0004
  -2193494.57746  -3172247.19043  24413852.9534                   24413843.7664
        38.2504         19.5004
 -18208724.42548 -20566594.75949  20527397.8674                   20527388.7384
        53.2504         54.7504
 23  1  6  0 34  0.0000000  0 11G23G24G08G22G27G10G21G18G31G01G32
  -9043341.45047  -8868648.14345  22314334.1254                   22314322.8874
        45.5004         34.7504
  -9276536.09346  -7886749.20344  23297365.5864                   23297357.1024
        39.0004         25.0004
  -7122927.96245  -5524622.85344  24046780.1724                   24046772.4494
        33.5004         29.7504
 -11794203.95047  -9648909.39345  21551311.5704                   21551300.8014
        45.7504         35.5004
  -4691371.92346  -3625962.20145  24544924.6564                   24544916.2894
        36.7504         30.7504
 -27508985.77448 -21331382.18749  20619179.9534                   20619170.9414
        52.0004         55.0004
 -13603556.20847  -8987118.01845  23150837.3134                   23150824.8444
        44.0004         31.0004
  -5623981.87845  -4125102.60043  25045770.9224                   25045763.3754
        33.5004         20.7504
  -6230294.23546  -4825437.29245  24081584.0704                   24081572.6564
        38.0004         35.0004
  -2300835.73646  -3255889.63943  24393426.2894                   24393417.5124
        39.0004         19.7504
 -18219849.11548 -20575263.34249  20525280.8284                   20525271.5234
        53.7504         55.0004
 23  1  6  0 34 30.0000000  0 11G23G24G08G22G27G10G21G18G31G01G32
  -8971961.19847  -8813027.17745  22327916.6644                   22327905.7774
        45.0004         34.2504
  -9193080.00746  -7821718.49244  23313246.2114                   23313237.7854
        39.0004         25.5004
  -7062934.39745  -5477874.66145  24058197.7664                   24058189.2234
        34.5004         31.5004
 -11852888.33347  -9694637.45445  21540144.5944                   21540133.4144
        47.0004         35.7504
  -4599282.99646  -3554204.61644  24562447.8754                   24562439.5084
        36.2504         29.2504
 -27490191.47448 -21316737.28249  20622756.4454                   20622747.3754
        51.7504         54.7504
 -13667768.64147  -9037153.64445  23138618.0634                   23138606.0634
        43.5004         30.2504
  -5507348.55246  -4034219.60443  25067968.7504                   25067957.7464
        37.2504         19.2504
  -6349223.54346  -4918109.49745  24058952.6724                   24058941.5514
        38.5004         35.5004
  -2407992.49246  -3339388.39643  24373034.2894                   24373025.9804
        37.5004         19.2504
 -18230575.17248 -20583621.30449  20523240.0554                   20523230.5744
        53.5004         54.7504
 23  1  6  0 35  0.0000000  0 11G23G24G08G22G27G10G21G18G31G01G32
  -8900355.70447  -8757230.72345  22341543.2194                   22341531.9224
        45.0004         34.2504
  -9109196.28946  -7756354.54844  23329210.4454                   23329200.6134
        39.0004         25.0004
  -7002593.39145  -5430855.69945  24069680.7814                   24069671.7114
        33.7504         30.7504
 -11911241.42047  -9740107.36245  21529040.1724                   21529029.1684
        46.5004         35.5004
  -4507117.72446  -3482387.50044  24579987.1414                   24579978.0704
        36.0004         29.7504
 -27471084.13948 -21301848.45249  20626392.3754                   20626383.0124
        52.2504         54.7504
 -13731655.93247  -9086935.93745  23126461.8674                   23126448.0514
        45.5004         31.2504
  -5390672.80446  -3943303.45843  25090172.6484                   25090161.4104
        38.5004         21.0004
  -6468095.93446  -5010737.35446  24036331.4614                   24036320.8094
        37.2504         36.0004
  -2514962.62846  -3422741.68543  24352679.4144                   24352669.6994
        38.2504         19.5004
 -18240903.62848 -20591669.44349  20521274.6804                   20521265.0234
        53.7504         54.7504
 23  1  6  0 35 30.0000000  0 11G23G24G08G22G27G10G21G18G31G01G32
  -8828525.03847  -8701258.78145  22355211.8444                   22355200.3714
        45.0004         34.2504
  -9024887.32346  -7690659.27544  23345252.0394                   23345243.6134
        39.0004         24.7504
  -6941907.25545  -5383567.84844  24081227.3914                   24081219.3164
        33.0004         29.7504
 -11969262.40847  -9785318.50246  21517999.8444                   21517987.8444
        47.2504         36.0004
  -4414878.67945  -3410512.95944  24597538.7734                   24597530.9344
        35.0004         29.7504
 -27451662.99148 -21286715.09149  20630088.2424                   20630078.8794
        51.2504         55.0004
 -13795215.93147  -9136463.21745  23114365.7344                   23114353.4414
        43.5004         30.5004
 -16301896.27155 -12445555.53753  25112380.4924                   25112372.8874
        35.0004         20.2504
  -6586908.09446  -5103318.29446  24013722.5084                   24013711.5634
        37.5004         36.5004
  -2621742.92346  -3505947.08843  24332359.4924                   24332350.7734
        38.0004         19.5004
 -18250834.68548 -20599407.92249  20519384.7114                   20519375.2304
        53.2504         55.2504
 23  1  6  0 36  0.0000000  0 11G23G24G08G22G27G10G21G18G31G01G32
  -8756469.99547  -8645112.02745  22368923.3914                   22368912.3284
        45.2504         34.7504
  -8940156.41146  -7624635.16343  23361378.3444                   23361367.3984
        40.7504         23.2504
  -6880879.28245  -5336013.59045  24092840.8444                   24092832.8874
        33.2504         30.5004
 -12026951.54347  -9830271.04046  21507020.8594                   21507009.7974
        45.5004         36.0004
  -4322569.49546  -3338583.71444  24615104.9064                   24615096.4224
        36.0004         29.2504
 -27431927.95848 -21271337.14749  20633843.8754                   20633834.2774
        50.5004         55.0004
 -13858447.38047  -9185734.44545  23102333.4844                   23102321.1914
        44.2504         30.7504
 -16185141.57945 -12354577.89243  25134596.6254                   25134589.3714
        34.7504         20.5004
  -6705657.22846  -5195850.08546  23991127.4534                   23991114.3404
        40.0004         37.0004
  -2728331.30946  -3589002.94343  24312076.6484                   24312067.4024
        38.7504         20.0004
 -18260369.56148 -20606837.69449  20517570.2894                   20517560.8094
        52.7504         55.0004
 23  1  6  0 36 30.0000000  0 11G23G24G08G22G27G10G21G18G31G01G32
  -8684190.70447  -8588790.50545  22382677.0474                   22382667.2154
        45.0004         34.0004
  -8855005.94246  -7558284.12843  23377579.2734                   23377570.0864
        37.7504         23.2504
  -6819512.11545  -5288195.03045  24104520.3754                   24104510.8954
        34.5004         30.7504
 -12084307.86347  -9874964.25746  21496107.5394                   21496095.3054
        47.7504         36.0004
  -4230192.87945  -3266601.94944  24632682.6564                   24632676.1054
        35.0004         29.2504
 -27411878.08048 -21255713.86349  20637658.9454                   20637649.9344
        49.7504         55.0004
 -13921347.78947  -9234747.75845  23090364.2974                   23090350.9494
        44.2504         30.7504
 -16068350.85045 -12263572.16043  25156822.3364                   25156813.3244
        34.2504         20.5004
  -6824340.31346  -5288330.43646  23968540.8364                   23968529.4224
        38.2504         36.0004
  -2834724.59646  -3671906.76243  24291830.4454                   24291821.9024
        37.7504         20.2504
 -18269508.58348 -20613959.00749  20515831.2504                   20515822.0044
        52.0004         54.7504
 23  1  6  0 37  0.0000000  0 11G23G24G08G22G27G10G21G18G31G01G32
  -8611687.33947  -8532294.40045  22396475.1174                   22396463.7034
        45.7504         34.2504
  -8769438.45946  -7491608.19243  23393863.3834                   23393853.8444
        38.5004         22.7504
  -6757807.84845  -5240113.83545  24116260.2344                   24116253.6254
        33.0004         31.0004
 -12141331.01347  -9919397.86646  21485255.3754                   21485244.0784
        46.5004         36.0004
  -4137751.81946  -3194569.98644  24650276.4924                   24650266.7774
        36.7504         28.7504
 -27391513.31648 -21239845.21749  20641534.5314                   20641525.0514
        50.7504         54.7504
 -13983915.33547  -9283501.66745  23078456.4614                   23078444.9304
        42.7504         31.0004
 -15951525.86446 -12172539.94643  25179057.9614                   25179046.3714
        38.7504         20.5004
  -6942954.46246  -5380757.08046  23945968.8364                   23945958.7114
        39.0004         37.0004
  -2940920.02546  -3754656.38043  24271621.4384                   24271613.1294
        38.2504         20.7504
 -18278252.16148 -20620772.17449  20514167.4384                   20514158.0164
        52.5004         55.0004
 23  1  6  0 37 30.0000000  0 11G23G24G08G22G27G10G21G18G31G01G32
  -8538960.92947  -8475624.46545  22410313.9144                   22410303.2034
        44.5004         33.5004
  -8683457.50846  -7424610.02144  23410224.9144                   23410216.0204
        38.2504         25.2504
  -6695770.48045  -5191773.06945  24128067.4534                   24128058.2074
        34.2504         30.5004
 -12198021.51947  -9963572.25446  21474467.6724                   21474456.4344
        46.5004         36.0004
  -4045249.86945  -3122490.52544  24667875.8524                   24667868.7154
        33.5004         27.7504
 -27370833.15448 -21223730.81249  20645469.6884                   20645460.0904
        50.7504         55.2504
 -14046148.85947  -9331995.32345  23066615.6334                   23066603.1644
        44.5004         31.5004
 -15834669.47255 -12081482.89353  25201291.1484                   25201282.4884
        34.7504         18.2504
  -7061497.33046  -5473128.18546  23923411.2114                   23923400.7344
        38.5004         37.7504
  -3046915.33746  -3837250.12443  24251449.7974                   24251442.5434
        38.0004         21.7504
 -18286601.63048 -20627278.25049  20512578.3984                   20512569.1524
        52.5004         55.0004
 23  1  6  0 38  0.0000000  0 11G23G24G08G22G27G10G21G18G31G01G32
  -8466011.10747  -8418780.47045  22424196.2424                   22424185.2384
        44.5004         33.7504
  -8597065.01346  -7357291.20743  23426663.7974                   23426655.3714
        36.5004         23.7504
  -6633401.65045  -5143173.96944  24139934.7274                   24139926.1844
        33.7504         29.7504
 -12254378.11747 -10007486.47846  21463743.9384                   21463732.2304
        47.0004         36.7504
  -3952689.45345  -3050365.55944  24685491.8204                   24685483.3364
        35.2504         29.5004
 -27349836.90548 -21207370.10149  20649465.1804                   20649455.8754
        51.7504         55.0004
 -14108045.73747  -9380226.65845  23054836.1564                   23054824.0394
        43.0004         30.7504
 -15717783.18946 -11990402.94943  25223536.7344                   25223526.3164
        38.0004         20.2504
  -7179964.95046  -5565440.63046  23900867.8914                   23900856.9454
        39.0004         38.0004
  -3152707.09346  -3919685.18043  24231320.9774                   24231311.0274
        37.2504         21.0004
 -18294556.87648 -20633477.14049  20511064.2814                   20511055.2704
        52.7504         55.0004
 23  1  6  0 38 30.0000000  0 11G23G24G08G22G27G10G21G18G31G01G32
  -8392839.09347  -8361763.32945  22438120.4304                   22438109.3674
        45.2504         34.0004
  -8510264.66246  -7289654.55744  23443183.5314                   23443173.1134
        39.0004         24.0004
  -6570704.59745  -5094319.16545  24151864.9534                   24151857.3484
        33.0004         30.2504
 -12310401.23547 -10051140.82146  21453082.8134                   21453071.3984
        47.0004         36.2504
  -3860074.20845  -2978197.86144  24703115.1644                   24703106.2704
        34.5004         28.0004
 -27328524.75448 -21190763.22849  20653520.3204                   20653511.3674
        51.5004         55.0004
 -14169604.61047  -9428194.58645  23043121.4384                   23043109.4384
        43.0004         31.0004
 -15600870.75254 -11916327.35053  25245778.7344                   25245773.0634
        25.2504         19.7504
  -7298355.14846  -5657692.71346  23878340.1334                   23878328.0744
        40.2504         38.5004
  -3258293.33746  -4001960.15343  24211227.7504                   24211218.9734
        37.0004         21.2504
 -18302119.40248 -20639370.01149  20509625.5474                   20509615.8324
        52.5004         54.7504
 23  1  6  0 39  0.0000000  0 11G23G24G08G22G27G10G21G18G31G01G32
  -8319442.44247  -8304571.16945  22452086.7274                   22452076.7194
        45.0004         34.2504
  -8423056.39346  -7221700.08343  23459777.8594                   23459768.3204
        37.0004         23.0004
  -6507679.56745  -5045208.78645  24163859.3754                   24163850.9494
        33.7504         31.7504
 -12366088.03647 -10094533.12146  21442485.6484                   21442474.1764
        46.5004         36.5004
  -3767404.59945  -2905987.75344  24720750.2664                   24720741.0204
        34.5004         27.7504
 -27306893.52048 -21173907.72749  20657636.7034                   20657627.5744
        51.0004         55.0004
 -14230821.60147  -9475896.14745  23031473.3364                   23031460.6334
        45.0004         32.0004
                                  25268040.1024                   25268026.4614
        39.5004         18.2504
  -7416662.68646  -5749880.43446  23855826.2034                   23855814.9654
        39.7504         39.0004
  -3363668.54946  -4084070.64643  24191174.8984                   24191166.7074
        37.5004         21.0004
 -18309287.11648 -20644955.23649  20508261.3054                   20508252.1174
        52.0004         55.2504
 23  1  6  0 39 30.0000000  0 11G23G24G08G22G27G10G21G18G31G01G32
  -8245827.67247  -8247209.03445  22466096.4694                   22466084.6454
        45.0004         33.0004
  -8335449.17046  -7153434.71644  23476449.2274                   23476439.1024
        38.0004         24.0004
  -6444335.85745  -4995850.05945  24175913.4454                   24175905.0204
        33.5004         31.0004
 -12421444.21847 -10137667.79146  21431951.6804                   21431940.3244
        46.7504         36.0004
  -3674689.55545  -2833742.31644  24738392.3754                   24738384.1254
        33.0004         26.0004
 -27284949.12148 -21156808.20549  20661812.6564                   20661803.6454
        50.5004         55.2504
 -14291700.42647  -9523334.18745  23019887.5474                   23019876.0744
        43.0004         31.0004
 -15366968.87745 -11749503.29053  25290292.8054                   25290282.2704
        34.7504         18.2504
  -7534890.55446  -5842006.01646  23833328.6954                   23833317.1054
        41.0004         39.5004
  -3468836.06146  -4166019.33243  24171160.6954                   24171153.1484
        36.0004         21.5004
 -18316066.77448 -20650238.08249  20506971.4454                   20506962.1414
        52.2504         55.2504
 23  1  6  0 40  0.0000000  0 11G23G24G08G22G27G10G21G18G31G01G32
  -8171989.07347  -8189672.45945  22480146.4064                   22480134.9344
        45.0004         34.0004
  -8247439.65246  -7084855.85944  23493196.3754                   23493186.9534
        38.0004         24.0004
  -6380669.65245  -4946240.07945  24188027.5864                   24188019.8634
        32.0004         30.0004
 -12476463.55547 -10180539.98246  21421481.8204                   21421470.2894
        47.0004         37.0004
  -3581926.21745  -2761459.21144  24756044.9064                   24756036.3054
        34.2504         27.0004
 -27262684.72048 -21139459.31649  20666049.4534                   20666040.2074
        49.5004         54.7504
 -14352233.35247  -9570502.68145  23008368.7664                   23008357.0004
        43.7504         31.0004
 -15249985.47246 -11658347.46043  25312556.2274                   25312544.1094
        36.5004         19.0004
  -7653029.45546  -5934062.30646  23810847.9454                   23810835.6524
        41.0004         39.7504
  -3573786.93946  -4247799.20643  24151190.7664                   24151182.5744
        37.0004         20.5004
 -18322453.00548 -20655214.36249  20505755.9924                   20505746.6294
        51.0004         55.0004
 23  1  6  0 40 30.0000000  0 11G23G24G08G22G27G10G21G18G31G01G32
  -8097929.98747  -8131964.10745  22494239.4064                   22494228.9304
        45.2504         34.5004
  -8159033.67046  -7015968.06343  23510019.3674                   23510010.4144
        37.0004         23.0004
  -6316686.61745  -4896383.18945  24200204.2114                   24200195.5514
        33.2504         31.2504
 -12531148.53847 -10223151.62646  21411075.9064                   21411064.9614
        46.5004         36.7504
  -3489120.41545  -2689142.99744  24773705.6024                   24773696.4144
        34.2504         26.5004
 -27240102.90248 -21121863.10749  20670346.7664                   20670337.6374
        50.5004         55.2504
 -14412421.69247  -9617402.69445  22996915.8914                   22996902.6604
        44.0004         32.2504
 -15132983.75545 -11567177.45542  25334819.6254                   25334808.9144
        35.2504         17.2504
  -7771079.44346  -6026049.32246  23788381.7894                   23788371.6054
        40.0004         39.7504
  -3678521.39146  -4329410.40143  24131260.7344                   24131251.1374
        37.0004         20.5004
 -18328449.45548 -20659886.91549  20504615.1484                   20504605.5514
        52.2504         54.7504
 23  1  6  0 41  0.0000000  0 11G23G24G08G22G27G10G21G18G31G01G32
  -8023650.07747  -8074083.67645  22508374.5004                   22508365.1374
        44.5004         34.0004
  -8070233.16746  -6946772.87344  23526917.4774                   23526908.2304
        37.5004         24.7504
  -6252389.52445  -4846281.58745  24212439.5314                   24212431.1054
        33.5004         31.2504
 -12585498.22147 -10265502.03046  21400733.3204                   21400722.0234
        47.2504         36.5004
  -3396274.35245  -2616795.42644  24791373.2194                   24791364.6174
        33.7504         27.0004
 -27217202.78148 -21104018.85849  20674704.5394                   20674695.4694
        50.0004         55.2504
 -14472263.17447  -9664032.42245  22985527.7424                   22985515.7424
        43.0004         31.5004
 -15015965.25845 -11475994.29343  25357084.8834                   25357077.3954
        32.5004         19.0004
  -7889037.10046  -6117964.35046  23765936.4774                   23765924.9454
        41.7504         40.0004
  -3783035.86446  -4410850.26343  24111372.5394                   24111363.2934
        36.0004         20.7504
 -18334056.02048 -20664255.66349  20503548.1254                   20503538.7034
        52.2504         54.7504
 23  1  6  0 41 30.0000000  0 11G23G24G08G22G27G10G21G18G31G01G32
  -7949149.14447  -8016031.02145  22522551.0864                   22522541.0784
        44.5004         33.2504
  -7981040.40946  -6877272.03044  23543889.3834                   23543881.1914
        36.7504         24.5004
  -6187779.95145  -4795936.51945  24224733.4454                   24224725.8984
        32.5004         30.5004
 -12639511.93947 -10307590.61046  21390454.5164                   21390443.6884
        46.5004         36.5004
  -3303390.49245  -2544418.40244  24809048.3674                   24809038.8874
        32.0004         25.2504
 -27193982.92248 -21085925.45749  20679123.1174                   20679114.1054
        51.2504         55.0004
 -14531754.89447  -9710389.58645  22974206.9844                   22974194.5744
        44.0004         31.7504
 -14898931.57846 -11384799.39642  25379359.4694                   25379348.2894
        36.5004         17.7504
  -8006898.45346  -6209804.35346  23743506.9774                   23743496.5594
        40.7504         40.0004
  -3887327.00545  -4492116.05043  24091525.8134                   24091517.9144
        35.7504         20.0004
 -18339272.89448 -20668320.75149  20502555.5164                   20502546.1524
        52.5004         55.0004
 23  1  6  0 42  0.0000000  0 11G23G24G08G22G27G10G21G18G31G01G32
  -7874428.97147  -7957807.52445  22536770.7504                   22536759.8634
        45.2504         33.5004
  -7891459.69346  -6807468.91844  23560937.7034                   23560928.3404
        38.0004         26.0004
  -6122862.16545  -4745351.22645  24237085.7734                   24237079.1054
        32.2504         31.2504
 -12693190.51247 -10349418.04646  21380239.8984                   21380228.9534
        46.5004         36.0004
  -3210473.31445  -2472015.41444  24826730.4144                   24826721.3444
        34.0004         27.0004
 -27170444.52248 -21067583.85749  20683601.9534                   20683592.8244
        51.0004         55.0004
 -14590896.24647  -9756473.75945  22962952.8364                   22962940.3094
        45.0004         31.7504
 -14781886.12255 -11293595.37453  25401631.2974                   25401622.2274
        33.2504         18.5004
  -8124662.24146  -6301568.32246  23721099.0314                   23721086.9144
        41.7504         40.2504
  -3991393.42646  -4573206.77543  24071724.4924                   24071714.4844
        37.7504         20.7504
 -18344102.15348 -20672083.80449  20501636.5164                   20501627.1524
        52.2504         55.0004
 23  1  6  0 42 30.0000000  0 11G23G24G08G22G27G10G21G18G31G01G32
  -7799487.45747  -7899411.56445  22551031.9064                   22551020.7274
        44.5004         33.7504
  -7801491.28446  -6737363.62243  23578058.3284                   23578048.9654
        38.2504         22.7504
  -6057636.58945  -4694526.12345  24249501.6644                   24249491.5984
        35.0004         30.7504
 -12746531.43447 -10390982.38046  21370089.7974                   21370078.1484
        47.0004         36.5004
  -3117523.18945  -2399586.77543  24844417.3444                   24844409.0944
        32.7504         23.7504
 -27146584.54648 -21048991.67849  20688142.9224                   20688133.5004
        51.0004         55.0004
 -14649683.13647  -9802281.71645  22951765.9534                   22951753.6604
        43.7504         31.2504
                                  25423904.883
        34.000
  -8242322.92247  -6393251.95346  23698708.2584                   23698696.9024
        42.5004         40.5004
  -4095229.73145  -4654118.11343  24051962.6804                   24051955.4264
        35.2504         20.2504
 -18348542.04348 -20675543.45449  20500791.4304                   20500782.1254
        52.0004         54.7504
 23  1  6  0 43  0.0000000  0 11G23G24G08G22G27G10G21G18G31G01G32
  -7724329.16747  -7840846.69745  22565334.0234                   22565323.1374
        45.5004         33.7504
  -7711142.17746  -6666961.70743  23595249.6644                   23595240.8874
        37.2504         22.5004
  -5992109.75245  -4643466.28545  24261967.6094                   24261960.9414
        32.2504         30.2504
 -12799538.32647 -10432286.44746  21360002.9144                   21359991.7934
        47.0004         36.7504
  -3024547.27645  -2327137.98444  24862110.1954                   24862102.4734
        33.2504         26.5004
 -27122406.85648 -21030151.91949  20692743.5394                   20692734.4694
        50.0004         54.7504
 -14708117.99947  -9847815.36045  22940646.6254                   22940633.8634
        45.2504         32.0004
 -14547763.83045 -11155374.39352  25446182.9454                   25446173.2304
        32.7504         16.7504
  -8359881.70646  -6484856.17346  23676338.1174                   23676325.8834
        41.7504         40.5004
  -4198837.31546  -4734851.30143  24032248.6884                   24032239.7344
        36.5004         19.7504
 -18352597.39948 -20678703.46249  20500019.6564                   20500010.5274
        51.7504         54.7504
 23  1  6  0 43 30.0000000  0 10G23G24G08G22G27G10G21G31G01G32
  -7648950.30247  -7782109.93045  22579677.7734                   22579666.7114
        44.5004         33.5004
  -7620410.94146  -6596262.08043  23612515.8674                   23612506.5044
        37.5004         22.0004
 -10652540.72355  -8274970.96555  24274495.2194                   24274487.8484
        32.7504         31.5004
 -12852207.02747 -10473326.96146  21349979.6254                   21349969.3834
        46.5004         36.2504
  -2931544.29245  -2254668.15644  24879809.3284                   24879799.9654
        33.2504         26.0004
 -27097906.80748 -21011060.98049  20697405.7584                   20697396.8054
        50.2504         55.2504
 -14766194.67847  -9893069.92845  22929594.6564                   22929582.3054
        44.5004         32.5004
  -8477331.02446  -6576375.10746  23653987.2504                   23653976.0124
        41.7504         40.2504
  -4302209.14645  -4815400.78042  24012575.5084                   24012567.7274
        33.7504         17.2504
 -18356264.73548 -20681561.12549  20499322.3364                   20499312.6804
        53.0004         54.7504
 23  1  6  0 44  0.0000000  0 10G23G24G08G22G27G10G21G31G01G32
  -7573354.32347  -7723203.99145  22594062.5784                   22594052.1604
        44.2504         34.0004
  -7529303.56546  -6525269.31243  23629853.1724                   23629844.2194
        37.0004         22.2504
 -10586415.26645  -8223444.65245  24287077.0004                   24287070.7424
        31.0004         30.5004
 -12904540.36847 -10514106.17046  21340021.8914                   21340010.1844
        46.5004         36.0004
  -2838520.37945  -2182181.97544  24897511.3984                   24897501.6844
        33.0004         24.5004
 -27073087.11448 -20991720.96149  20702128.7114                   20702119.5824
        50.7504         55.0004
 -14823914.74447  -9938046.59645  22918610.3914                   22918598.2734
        43.2504         32.2504
  -8594671.17847  -6667808.96546  23631658.2344                   23631647.0554
        42.0004         40.5004
  -4405345.37445  -4895766.64143  23992950.0394                   23992942.3164
        35.2504         19.2504
 -18359547.94748 -20684119.45949  20498696.9924                   20498687.8634
        53.0004         54.7504
 23  1  6  0 44 30.0000000  0 11G23G24G08G22G27G10G21G31G01G25G32
  -7497539.80847  -7664127.76845  22608490.5164                   22608479.5704
        45.7504         33.0004
  -7437820.99546  -6453984.19043  23647261.3754                   23647252.5984
        37.2504         22.0004
 -10519994.46945  -8171688.23945  24299719.2344                   24299710.3984
        34.5004         31.7504
 -12956536.33247 -10554622.50646  21330127.0164                   21330115.8954
        46.7504         36.2504
  -2745476.56445  -2109680.28044  24915216.6094                   24915208.1254
        33.2504         24.2504
 -27047945.42248 -20972130.03949  20706912.9384                   20706903.6914
        49.5004         55.0004
 -14881274.39847  -9982742.41945  22907696.5164                   22907683.5784
        45.5004         33.0004
  -8711897.43547  -6759154.08346  23609351.0704                   23609339.3054
        42.0004         40.2504
  -4508241.49545  -4975945.37642  23973366.7194                   23973361.3984
        33.2504         17.7504
                                  25407169.8284                   25407163.2194
        38.0004         33.7504
 -18362445.86448 -20686377.56849  20498145.3674                   20498136.3554
        51.0004         54.7504
 23  1  6  0 45  0.0000000  0 11G23G24G08G22G27G10G21G31G01G25G32
  -7421508.53147  -7604882.64145  22622958.9224                   22622948.2114
        46.0004         33.5004
  -7345967.50446  -6382410.05043  23664740.5234                   23664731.3954
        37.0004         22.5004
 -10453282.66645  -8119705.01545  24312414.2034                   24312405.5434
        33.5004         31.7504
 -13008196.01247 -10594876.77846  21320296.2034                   21320285.0824
        46.7504         36.7504
  -2652417.17645  -2037166.52844  24932924.6804                   24932916.7814
        33.0004         24.2504
 -27022482.70048 -20952288.95449  20711758.7814                   20711749.5354
        51.0004         55.0004
 -14938273.38547 -10027157.21345  22896849.1644                   22896837.0474
        44.2504         33.2504
  -8829008.18647  -6850409.19146  23587066.3984                   23587054.8094
        42.0004         41.2504
  -4610895.85046  -5055935.78043  23953836.2504                   23953827.1214
        36.0004         18.2504
                                  25391132.047
        37.500
 -18364960.64148 -20688337.13649  20497666.9454                   20497657.6414
        51.2504         54.7504
 23  1  6  0 45 30.0000000  0 10G23G24G08G22G27G10G21G31G01G32
  -7345259.78347  -7545468.04545  22637468.1024                   22637457.2154
        45.0004         33.0004
  -7253744.66646  -6310548.11044  23682290.3284                   23682280.9654
        38.0004         24.0004
 -10386281.17245  -8067496.08145  24325162.6954                   24325155.2074
        32.0004         30.7504
 -13059518.05247 -10634867.96046  21310530.0234                   21310518.8444
        46.5004         36.0004
  -2559344.07845  -1964641.98843  24950638.5004                   24950627.2034
        35.0004         22.7504
 -26996697.49848 -20932196.59549  20716665.3524                   20716655.9304
        51.0004         55.0004
 -14994909.01647 -10071288.84745  22886071.7584                   22886058.9964
        45.0004         32.5004
  -8945999.08147  -6941570.90846  23564803.3984                   23564791.0474
        42.7504         41.0004
  -4713304.57845  -5135734.76643  23934345.6174                   23934339.0664
        33.2504         19.0004
 -18367091.85648 -20689997.81449  20497261.5314                   20497252.4024
        51.5004         55.0004
 23  1  6  0 46  0.0000000  0 11G23G24G08G22G27G10G21G31G01G25G32
  -7268794.51947  -7485884.73645  22652018.7734                   22652008.1804
        44.5004         33.5004
  -7161155.98546  -6238401.07843  23699909.1414                   23699899.8364
        36.7504         22.2504
 -10318993.51945  -8015064.18045  24337967.7734                   24337959.6994
        32.7504         31.7504
 -13110502.83047 -10674596.33946  21300828.0164                   21300816.8954
        46.2504         36.7504
  -2466260.62145  -1892109.46144  24968347.1954                   24968340.7034
        31.5004         25.5004
 -26970589.72648 -20911852.87649  20721633.5394                   20721624.0594
        50.0004         54.7504
 -15051179.66847 -10115136.12745  22875364.5704                   22875351.3984
        45.7504         33.0004
  -9062867.87546  -7032637.50646  23542563.2664                   23542552.5554
        41.7504         41.2504
  -4815465.47846  -5215340.65243  23914907.6644                   23914898.5944
        36.5004         20.0004
                                  25359084.328
        33.000
 -18368840.85248 -20691360.67049  20496928.8524                   20496919.2544
        51.7504         54.7504
 23  1  6  0 46 30.0000000  0 11G23G24G08G22G27G10G21G12G31G01G32
  -7192113.46047  -7426133.28045  22666610.4064                   22666599.6954
        44.7504         32.7504
  -7068204.56446  -6165971.39243  23717597.5164                   23717588.0354
        37.2504         22.7504
 -10251422.99645  -7962411.80745  24350824.8914                   24350818.2234
        32.0004         31.0004
 -13161150.69047 -10714062.18846  21291189.7814                   21291179.1884
        46.0004         36.7504
 -10250270.18555  -7957571.45854  24986063.6884                   24986055.1454
        32.0004         25.0004
 -26944159.53548 -20891257.93949  20726663.1254                   20726653.5274
        50.0004         55.2504
 -15107084.65547 -10158698.45145  22864725.0944                   22864713.0944
        45.5004         34.2504
   -156343.40155   -104295.46453  25595547.7194                   25595536.4224
        35.2504         18.2504
  -9179611.57447  -7123606.61346  23520347.8444                   23520336.4884
        42.0004         41.2504
  -4917375.88845  -5294751.29843  23895512.0164                   23895505.3484
        32.7504         19.0004
 -18370208.70348 -20692426.51549  20496668.6724                   20496658.9574
        51.5004         55.0004
 23  1  6  0 47  0.0000000  0 11G23G24G08G22G27G10G21G12G31G01G32
  -7115216.41347  -7366213.52145  22681243.7584                   22681233.1644
        44.7504         33.2504
  -6974892.67846  -6093260.81643  23735353.4774                   23735344.6414
        36.5004         22.0004
 -10183571.67745  -7909540.71145  24363738.5084                   24363729.7304
        32.7504         30.7504
 -13211460.49747 -10753264.61746  21281616.3134                   21281605.1914
        46.5004         37.2504
 -10157174.98345  -7885029.70844  25003779.4224                   25003771.0554
        32.7504         26.5004
 -26917405.64848 -20870410.75849  20731754.1564                   20731744.7934
        50.5004         55.0004
 -15162620.16847 -10201972.86045  22854157.4384                   22854144.7934
        44.7504         33.0004
   -225979.67246   -158557.45942  25582295.4144                   25582285.9344
        36.7504         15.5004
  -9296226.86947  -7214475.64446  23498156.6334                   23498145.6294
        42.0004         41.5004
  -5019032.38346  -5373964.09843  23876169.7974                   23876161.1954
        37.0004         19.2504
 -18371195.60448 -20693195.52749  20496480.7424                   20496470.9104
        52.7504         54.7504
 23  1  6  0 47 30.0000000  0 12G23G24G08G22G27G10G21G12G31G01G25G32
  -7038106.17447  -7306127.63145  22695917.2814                   22695906.9804
        43.7504         32.2504
  -6881225.53746  -6020273.44643  23753178.3674                   23753169.1804
        36.7504         23.2504
 -10115444.67745  -7856454.75245  24376702.6254                   24376693.7304
        33.2504         31.7504
 -13261434.64947 -10792205.50146  21272107.0084                   21272095.5354
        47.0004         37.0004
 -10064080.46445  -7812488.54844  25021495.2974                   25021486.4614
        33.2504         25.5004
 -26890330.58148 -20849313.30849  20736906.2274                   20736896.6884
        50.5004         54.7504
 -15217787.88047 -10244960.68745  22843659.4534                   22843646.5164
        45.2504         32.7504
   -295366.96246   -212625.38942  25569091.8444                   25569081.3094
        37.0004         16.7504
  -9412713.06347  -7305244.11047  23475990.7584                   23475978.2894
        42.2504         42.2504
  -5120434.45246  -5452978.67743  23856873.7034                   23856864.3984
        37.2504         21.0004
   -106796.56154   -253540.66254  25311099.8444                   25311095.5824
        25.2504         28.5004
 -18371804.64648 -20693670.10249  20496364.8914                   20496355.5274
        52.0004         54.7504
 23  1  6  0 48  0.0000000  0 12G23G24G08G22G27G10G21G12G31G01G25G32
  -6960779.22347  -7245872.88445  22710633.1254                   22710621.4184
        45.2504         33.0004
  -6787201.91646  -5947008.30043  23771069.5634                   23771060.8444
        36.0004         21.7504
 -10047041.63845  -7803153.67145  24389718.1884                   24389711.0514
        31.5004         30.5004
 -13311068.94847 -10830881.57146  21262661.3754                   21262650.6644
        46.2504         36.7504
  -9970985.23044  -7739946.76644  25039208.1254                   25039201.1054
        29.5004         25.0004
 -26862929.32548 -20827961.68249  20742120.7584                   20742111.5704
        50.7504         55.5004
 -15272581.93947 -10287657.35845  22833231.8204                   22833219.8204
        44.0004         33.5004
   -364498.08445   -266493.67842  25555934.6954                   25555926.3284
        34.2504         17.2504
  -9529062.92846  -7395906.32547  23453849.1724                   23453838.4024
        41.2504         42.2504
  -5221575.25246  -5531789.67243  23837627.6024                   23837618.8244
        37.2504         21.7504
   -112350.40155   -275958.71754  25295131.7504                   25295125.4344
        31.7504         27.0004
 -18372032.59348 -20693847.72349  20496321.4224                   20496311.7664
        52.0004         55.0004
 23  1  6  0 48 30.0000000  0 12G23G24G08G22G27G10G21G12G31G01G25G32
  -6883237.83447  -7185451.06345  22725388.3364                   22725377.4494
        45.0004         32.7504
  -6692826.80545  -5873469.27243  23789029.3134                   23789020.2424
        35.0004         21.5004
  -9978366.37045  -7749640.52745  24402787.7734                   24402779.0554
        31.2504         30.0004
 -13360365.18747 -10869294.20746  21253280.6414                   21253269.4614
        46.5004         37.0004
  -9877894.42745  -7667408.48844  25056923.5004                   25056916.8324
        31.0004         26.7504
 -26835203.78848 -20806357.37249  20747396.7034                   20747387.4574
        50.7504         54.7504
 -15327002.60347 -10330063.05145  22822876.7664                   22822864.1804
        45.5004         33.2504
   -433371.89946   -320161.74742  25542831.4694                   25542820.1134
        38.7504         17.7504
  -9645275.42847  -7486461.50047  23431734.9384                   23431723.6994
        42.0004         42.2504
  -5322453.94046  -5610396.40145  23818428.5554                   23818421.1844
        36.7504         33.0004
   -196207.17255   -313693.66953  25279175.8284                   25279165.0594
        35.7504         22.2504
 -18371882.21148 -20693730.54349  20496350.0004                   20496340.8134
        52.2504         55.0004
 23  1  6  0 49  0.0000000  0 11G23G24G08G22G27G10G21G12G31G01G32
  -6805480.76847  -7124861.14045  22740184.9224                   22740174.3874
        44.7504         32.7504
  -6598101.05246  -5799656.99443  23807055.2194                   23807045.3874
        36.2504         20.7504
  -9909420.11845  -7695916.20045  24415906.7814                   24415898.8834
        32.2504         30.5004
 -13409321.57047 -10907442.02046  21243964.8204                   21243953.3484
        46.7504         37.5004
  -9784809.01845  -7594874.42144  25074637.3444                   25074629.2704
        30.7504         24.0004
 -26807151.78048 -20784498.66849  20752734.6414                   20752725.1024
        50.2504         55.0004
 -15381046.21447 -10372174.96445  22812593.1174                   22812579.8874
        45.5004         33.5004
   -501983.56545   -373625.19942  25529772.0784                   25529764.8244
        33.7504         17.2504
  -9761345.76347  -7576905.88647  23409647.7034                   23409636.2304
        42.0004         42.7504
  -5423065.75246  -5688795.17045  23799285.5164                   23799275.5664
        37.7504         33.0004
 -18371352.49948 -20693317.77349  20496450.8054                   20496441.5594
        52.0004         55.0004
 23  1  6  0 49 30.0000000  0 12G23G24G08G22G27G10G21G12G31G01G25G32
  -6727512.03347  -7064106.32045  22755022.0634                   22755011.0594
        45.0004         32.5004
  -6503031.36645  -5725576.73243  23825145.9304                   23825136.8594
        35.5004         21.5004
  -9840210.16245  -7641986.36945  24429076.4304                   24429069.5864
        31.0004         30.0004
 -13457941.48847 -10945327.66246  21234712.8914                   21234701.3014
        47.5004         37.2504
  -9691735.60555  -7522349.65154  25092350.2344                   25092341.1054
        33.2504         26.0004
 -26778776.42148 -20762388.00449  20758134.1024                   20758124.7384
        50.0004         55.0004
 -15434714.96747 -10413994.77345  22802378.9844                   22802366.8094
        44.5004         34.0004
   -570333.65746   -426885.15642  25516768.6564                   25516757.7704
        38.2504         17.7504
  -9877274.48546  -7667239.92947  23387587.1334                   23387575.5434
        41.5004         42.7504
  -5523411.58045  -5766986.73345  23780188.0234                   23780180.7704
        35.5004         33.0004
                                  25247304.523
        38.500
 -18370447.92548 -20692612.91149  20496622.9454                   20496613.7584
        51.7504         54.7504
 23  1  6  0 50  0.0000000  0 12G23G24G08G22G27G10G21G12G31G01G25G32
  -6649331.14247  -7003186.16045  22769899.4614                   22769888.1054
        45.2504         32.2504
  -6407619.59046  -5651229.89343  23843301.8594                   23843293.4344
        36.2504         21.7504
  -9770737.66355  -7587851.98154  24442297.3054                   24442289.6994
        31.2504         29.7504
 -13506223.91047 -10982950.31146  21225524.6804                   21225513.2664
        46.5004         37.2504
  -9598676.03545  -7449835.70144  25110058.6024                   25110049.7664
        31.7504         26.5004
 -26750076.54248 -20740024.47249  20763595.6564                   20763585.9414
        50.0004         55.0004
 -15488006.31647 -10455520.47145  22792237.9384                   22792226.3484
        45.5004         33.0004
   -638418.04545   -479937.83242  25503809.5394                   25503801.9344
        33.2504         16.2504
  -9993057.80046  -7757460.66847  23365553.7974                   23365542.9694
        41.5004         42.7504
  -5623487.52546  -5844967.94445  23761146.4064                   23761136.6334
        38.2504         34.5004
   -140828.51555   -383294.74354  25231387.8134                   25231382.8484
        35.7504         26.0004
 -18369168.36548 -20691615.85049  20496866.5084                   20496857.0864
        51.5004         55.5004
 23  1  6  0 50 30.0000000  0 12G23G24G08G22G27G10G21G12G31G01G25G32
  -6570932.83547  -6942096.59445  22784817.7114                   22784807.4104
        44.2504         31.7504
  -6311862.78045  -5576614.19843  23861524.2814                   23861515.3284
        35.2504         22.0004
  -9701000.07245  -7533511.01145  24455567.7424                   24455559.7854
        31.7504         30.7504
 -13554163.08747 -11020305.50446  21216402.1954                   21216391.0744
        46.2504         37.5004
                                  25127763.2344                   25127756.3324
        31.0004         24.0004
 -26721045.73148 -20717403.07149  20769120.2344                   20769110.9304
        50.5004         54.7504
 -15540912.28947 -10496745.91745  22782171.2584                   22782158.6724
        46.0004         33.5004
   -706228.25545   -532776.88443  25490906.1884                   25490897.5274
        34.2504         18.2504
 -10108686.79247  -7847561.12647  23343550.8834                   23343539.0594
        42.0004         43.0004
  -5723285.03846  -5922732.23045  23742154.0554                   23742145.7464
        36.5004         33.5004
                                  25215488.2034                   25215483.8834
        31.7504         22.0004
 -18367508.85148 -20690322.71949  20497182.2344                   20497172.6954
        52.7504         54.7504
 23  1  6  0 51  0.0000000  0 12G23G24G08G22G27G10G21G12G31G01G25G32
  -6492327.32347  -6880845.55645  22799775.7894                   22799765.6644
        43.7504         32.2504
  -6215773.71145  -5501739.59043  23879808.3834                   23879800.4264
        34.0004         21.2504
  -9631010.14345  -7478973.41945  24468886.4924                   24468879.1214
        31.5004         30.5004
 -13601768.61547 -11057400.70546  21207343.2344                   21207331.8794
        46.5004         37.2504
                                  25145467.789
        31.000
 -26691693.92748 -20694531.54449  20774705.5314                   20774696.1684
        50.7504         54.7504
 -15593441.15147 -10537677.49645  22772174.5704                   22772161.8674
        44.7504         34.0004
   -773770.96445   -585407.59142  25478052.3524                   25478044.6884
        33.0004         17.2504
 -10224168.23247  -7937546.61947  23321575.2114                   23321563.9734
        42.5004         43.0004
  -5822810.96746  -6000284.86445  23723216.0004                   23723206.5204
        38.5004         34.0004
   -307825.27654   -513422.53453  25199607.3524                   25199602.3874
        29.7504         23.2504
 -18365480.01148 -20688741.80649  20497568.3674                   20497559.1804
        52.0004         55.0004
 23  1  6  0 51 30.0000000  0 12G23G24G08G22G27G10G21G12G31G01G25G32
  -6413509.37447  -6819428.99545  22814773.8364                   22814763.9454
        44.5004         31.7504
  -6119349.50245  -5426603.89343  23898157.7034                   23898149.5704
        35.5004         21.0004
  -9560764.96545  -7424236.89245  24482254.5394                   24482246.5824
        32.0004         30.7504
 -13649034.85747 -11094231.52846  21198348.8444                   21198337.5474
        47.0004         37.5004
                                  25163165.1644                   25163156.7384
        31.7504         25.7504
 -26662014.57248 -20671404.78449  20780353.3204                   20780344.2504
        51.0004         55.0004
 -15645585.67447 -10578309.57245  22762251.8444                   22762240.1374
        45.5004         34.0004
   -841037.20046   -637822.80542  25465253.9924                   25465243.8674
        36.7504         17.2504
 -10339493.55946  -8027410.47747  23299629.0084                   23299618.4144
        41.5004         42.7504
  -5922056.81146  -6077619.30445  23704329.6024                   23704321.0004
        37.7504         33.7504
   -391192.85945   -578384.24044  25183746.1564                   25183737.7894
        33.7504         24.5004
 -18363077.01548 -20686869.34149  20498025.8674                   20498016.4454
        53.0004         54.7504
 23  1  6  0 52  0.0000000  0 12G23G24G08G22G27G10G21G12G31G01G25G32
  -6334483.45547  -6757850.38745  22829812.4844                   22829801.5394
        44.2504         31.5004
  -6022597.04646  -5351212.32943  23916570.6564                   23916561.5274
        36.0004         21.5004
  -9490271.43844  -7369306.90745  24495665.4774                   24495660.3364
        29.5004         30.0004
 -13695965.45447 -11130800.81646  21189418.1254                   21189407.3554
        47.0004         37.5004
  -9226629.37755  -7170117.73553  25180858.8364                   25180847.7154
        32.7504         22.7504
 -26632011.57248 -20648025.82949  20786062.9694                   20786053.6644
        50.5004         54.7504
 -15697348.34347 -10618644.14045  22752402.3524                   22752389.8834
        45.7504         34.0004
   -908027.75646   -690023.23642  25452506.7114                   25452495.2384
        37.2504         17.7504
 -10454663.44447  -8117153.20147  23277713.3444                   23277702.2814
        42.0004         43.0004
  -6021023.70046  -6154736.31745  23685495.7344                   23685488.1884
        36.7504         33.5004
   -474471.46045   -643276.77244  25167898.8364                   25167890.5864
        33.5004         28.2504
 -18360304.66648 -20684709.07049  20498553.2274                   20498543.9804
        52.2504         55.0004
 23  1  6  0 52 30.0000000  0 12G23G24G08G22G27G10G21G12G31G01G25G32
  -6255240.46747  -6696102.61745  22844892.0704                   22844881.3014
        43.7504         31.7504
  -5925509.64945  -5275559.85643  23935045.1254                   23935035.6454
        35.0004         21.2504
  -9419523.10045  -7314178.33045  24509129.7034                   24509123.5044
        31.0004         31.5004
 -13742550.99047 -11167101.21946  21180553.2034                   21180541.6134
        46.2504         37.7504
                                  25198544.2734                   25198538.5434
        30.5004         24.5004
 -26601674.88648 -20624386.85149  20791836.0704                   20791826.4144
        50.5004         55.2504
 -15748717.71447 -10658672.20245  22742626.2664                   22742614.2074
        44.5004         34.5004
   -974730.23146   -741999.16943  25439813.6414                   25439803.0474
        36.5004         18.5004
 -10569665.45846  -8206765.11947  23255828.5704                   23255817.6844
        41.2504         42.7504
  -6119699.11546  -6231626.26645  23666719.7504                   23666710.3874
        37.5004         33.2504
   -557648.19145   -708089.74044  25152070.9454                   25152062.8134
        33.2504         27.0004
 -18357154.25748 -20682254.20449  20499153.0234                   20499143.1334
        52.5004         55.0004
 23  1  6  0 53  0.0000000  0 12G23G24G08G22G27G10G21G12G31G01G25G32
  -6175790.52147  -6634193.59645  22860011.2974                   22860000.4694
        44.5004         31.0004
  -5828099.87345  -5199656.16043  23953580.0784                   23953572.3554
        33.2504         20.5004
  -9348532.10045  -7258860.64345  24522639.6724                   24522633.0634
        32.0004         31.0004
 -13788800.95547 -11203140.13746  21171751.4924                   21171740.2544
        46.5004         37.2504
                                  25216229.3524                   25216220.4574
        32.5004         25.5004
 -26571013.88248 -20600495.17149  20797670.3054                   20797661.1174
        51.5004         54.7504
 -15799701.79047 -10698400.04845  22732924.3754                   22732912.4924
        45.2504         34.7504
  -1041151.28346   -793755.82843  25427175.1564                   25427164.2114
        37.0004         18.5004
 -10684506.12846  -8296251.30947  23233975.4774                   23233964.1214
        41.5004         42.7504
  -6218089.91146  -6308294.36345  23647995.6804                   23647988.1334
        37.0004         33.5004
   -640729.71945   -772828.55544  25136259.4454                   25136253.7154
        32.0004         26.7504
 -18353636.27248 -20679512.91149  20499822.3594                   20499812.8204
        53.0004         54.7504
 23  1  6  0 53 30.0000000  0 12G23G24G08G22G27G10G21G12G31G01G25G32
  -6096134.17647  -6572123.75745  22875169.4534                   22875158.5084
        44.2504         32.0004
  -5730370.61245  -5123503.44243  23972177.3364                   23972169.3794
        32.5004         21.0004
  -9277301.73345  -7203356.49745  24536194.9224                   24536187.7854
        33.2504         30.7504
 -13834715.49347 -11238917.69346  21163015.0084                   21163003.5354
        47.0004         37.2504
  -8947853.26255  -6963874.54753  25233903.6414                   25233895.2154
        31.2504         22.2504
 -26540028.56148 -20576350.76949  20803566.5864                   20803557.4574
        51.0004         55.0004
 -15850299.26547 -10737826.65845  22723296.5084                   22723284.0394
        46.0004         34.5004
  -1107288.08046   -845290.89142  25414588.3284                   25414578.1454
        36.5004         16.7504
 -10799182.45746  -8385609.45847  23212152.9224                   23212141.8014
        41.0004         42.5004
  -6316193.31046  -6384738.56745  23629328.3364                   23629319.0904
        38.5004         35.0004
   -723712.64345   -837490.62644  25120468.9144                   25120461.3094
        33.5004         28.7504
 -18349751.70148 -20676485.97249  20500561.2584                   20500551.7774
        52.2504         54.7504
 23  1  6  0 54  0.0000000  0 12G23G24G08G22G27G10G21G12G31G01G25G32
  -6016266.07447  -6509888.90345  22890366.3914                   22890356.6174
        44.2504         31.0004
  -5632318.88745  -5047099.56943  23990837.1564                   23990828.0274
        34.2504         20.2504
  -9205829.11745  -7147663.59145  24549797.2194                   24549787.9144
        34.7504         31.2504
 -13880288.50547 -11274429.11846  21154342.3444                   21154330.8714
        46.5004         38.0004
  -8855001.47555  -6891522.44254  25251573.2664                   25251564.8984
        31.0004         26.0004
 -26508712.55748 -20551948.70149  20809525.6724                   20809516.6024
        50.5004         54.7504
 -15900502.66647 -10776946.18845  22713742.5634                   22713730.6804
        45.2504         33.2504
  -1173131.17246   -896597.19443  25402060.4224                   25402048.8914
        38.5004         18.5004
 -10913685.58846  -8474832.63647  23190363.7584                   23190352.3444
        41.0004         42.7504
  -6414000.52246  -6460951.93245  23610714.3674                   23610706.7034
        36.7504         34.0004
   -806587.99945   -902068.82744  25104698.8674                   25104690.9694
        32.7504         28.0004
 -18345495.42748 -20673169.40149  20501371.2114                   20501361.9064
        53.5004         55.0004
 23  1  6  0 54 30.0000000  0 12G23G24G08G22G27G10G21G12G31G01G25G32
  -5936185.57347  -6447488.52445  22905605.8284                   22905595.4694
        43.5004         31.0004
  -5533946.65045  -4970445.84743  24009555.7734                   24009547.6994
        34.0004         19.7504
  -9134115.40645  -7091782.79145  24563444.5314                   24563434.9344
        35.7504         31.7504
 -13925519.08347 -11309673.71346  21145735.4224                   21145724.7114
        47.2504         38.0004
                                  25269234.2734                   25269227.3714
        29.0004         22.5004
 -26477063.87848 -20527287.39649  20815548.4224                   20815538.9414
        50.7504         54.7504
 -15950309.06347 -10815756.36345  22704264.7424                   22704252.6844
        45.7504         33.5004
  -1238677.02145   -947671.86243  25389583.3444                   25389575.4454
        35.5004         18.2504
 -11028011.47347  -8563917.69847  23168609.5554                   23168597.2034
        42.2504         43.0004
  -6511507.61946  -6536931.47545  23592160.7664                   23592151.9884
        38.5004         34.2504
   -889351.53745   -966559.85344  25088950.2424                   25088941.9344
        34.7504         26.5004
 -18340867.31448 -20669563.08249  20502251.8054                   20502242.7344
        53.0004         55.0004
 23  1  6  0 55  0.0000000  0 12G23G24G08G22G27G10G21G12G31G01G25G32
  -5855899.76347  -6384928.16245  22920884.2504                   22920873.6564
        44.5004         30.5004
  -5435263.20545  -4893549.68943  24028335.2344                   24028326.2234
        33.0004         18.2504
  -9062171.11845  -7035722.30245  24577131.2344                   24577125.5634
        32.2504         31.5004
 -13970413.73947 -11344656.55146  21137192.4304                   21137181.2504
        46.7504         37.5004
                                  25286891.5164                   25286880.2774
        31.0004         25.0004
 -26445089.44448 -20502372.25349  20821633.0634                   20821623.4064
        50.5004         55.0004
 -15999723.17547 -10854260.86545  22694862.1644                   22694849.6954
        45.7504         35.2504
  -1303929.14746   -998517.62943  25377169.2114                   25377158.6764
        37.5004         20.0004
 -11142163.61147  -8652867.39847  23146886.0394                   23146874.6844
        42.2504         43.0004
  -6608718.31446  -6612680.04345  23573662.3594                   23573653.4064
        38.0004         33.2504
   -972006.47845  -1030966.29644  25073220.5474                   25073213.4694
        33.2504         27.7504
 -18335874.81748 -20665672.81949  20503201.9534                   20503192.6484
        52.7504         54.7504
 23  1  6  0 55 30.0000000  0 12G23G24G08G22G27G10G21G12G31G01G25G32
  -5775406.63047  -6322206.29845  22936202.0164                   22936191.4804
        44.2504         31.0004
  -5336268.99245  -4816411.30743  24047174.4534                   24047164.7384
        34.5004         21.0004
  -8989996.34545  -6979482.21845  24590867.4454                   24590859.7814
        33.7504         31.7504
 -14014970.10747 -11379375.78746  21128713.8834                   21128702.1174
        47.2504         37.5004
                                  25304538.5164                   25304527.9224
        34.2504         22.5004
 -26412786.40248 -20477201.06249  20827780.0164                   20827770.6524
        51.0004         54.7504
 -16048741.28447 -10892456.79545  22685533.8284                   22685521.8874
        45.2504         34.0004
  -1368881.86446  -1049130.10643  25364810.4534                   25364798.1024
        38.5004         19.0004
 -11256136.40247  -8741677.32847  23125197.6094                   23125186.6054
        42.0004         43.2504
  -6705627.19746  -6688193.44645  23555221.1884                   23555212.0594
        38.5004         35.0004
  -1054547.28645  -1095283.79544  25057513.6884                   25057505.4964
        33.0004         26.0004
 -18330516.27848 -20661497.34049  20504221.8834                   20504212.5784
        53.7504         54.7504
 23  1  6  0 56  0.0000000  0 11G23G24G08G22G10G21G12G31G01G25G32
  -5694711.47847  -6259326.96045  22951557.1724                   22951546.6374
        43.7504         30.7504
  -5236971.69845  -4739036.85243  24066069.7194                   24066060.5314
        34.5004         19.2504
  -8917598.28145  -6923068.12845  24604644.2424                   24604636.7544
        33.0004         31.2504
 -14059192.82347 -11413835.03246  21120297.7974                   21120286.7344
        46.2504         38.0004
 -26380158.98648 -20451777.10749  20833988.6414                   20833979.6884
        50.5004         55.0004
 -16097366.80747 -10930346.80545  22676280.1564                   22676268.3914
        44.5004         33.7504
  -1433536.93745  -1099510.75242  25352503.0554                   25352494.5124
        34.0004         17.2504
 -11369931.67147  -8830348.95147  23103542.4844                   23103532.0084
        42.0004         43.5004
  -6802236.19346  -6763473.15545  23536835.3134                   23536827.5904
        37.2504         34.5004
  -1136975.25245  -1159513.37044  25041826.9454                   25041820.5124
        31.2504         27.0004
 -18324797.38948 -20657041.05949  20505309.8204                   20505300.3984
        53.5004         54.7504
 23  1  6  0 56 30.0000000  0 12G23G24G08G22G27G10G21G12G31G01G25G32
  -5613804.43047  -6196282.53245  22966953.4454                   22966943.2624
        44.5004         30.5004
  -5137363.92245  -4661420.35143  24085023.8284                   24085014.9344
        33.0004         19.5004
  -8844969.91846  -6866474.65145  24618466.7194                   24618457.2974
        36.0004         30.7504
 -14103071.43647 -11448026.14546  21111947.8914                   21111936.8284
        47.2504         38.0004
                                  25339802.3444                   25339789.1134
        30.2504         22.5004
 -26347196.82648 -20426092.32449  20840261.1884                   20840252.0594
        51.2504         54.7504
 -16145587.43547 -10967921.33145  22667105.2814                   22667092.6374
        45.7504         34.2504
  -1497880.99746  -1149648.95442  25340261.5234                   25340250.4614
        37.0004         16.2504
 -11483536.22747  -8918871.93347  23081925.4304                   23081913.7814
        43.2504         43.7504
  -6898532.09946  -6838508.91245  23518512.6724                   23518503.3094
        39.7504         35.0004
  -1219276.99745  -1223644.50844  25026167.2424                   25026158.2304
        33.5004         26.2504
 -18318708.67449 -20652296.60949  20506468.5314                   20506459.1684
        54.2504         55.0004
 23  1  6  0 57  0.0000000  0 11G23G24G08G22G10G21G12G31G01G25G32
  -5532690.60847  -6133076.97745  22982389.4454                   22982378.1484
        44.2504         30.7504
  -5037452.95745  -4583567.69543  24104034.7664                   24104027.7464
        32.0004         19.5004
  -8772118.89746  -6809707.61445  24632328.9064                   24632320.4804
        36.0004         31.5004
 -14146610.57247 -11481952.73246  21103662.7034                   21103651.8754
        46.5004         37.7504
 -26313904.00148 -20400149.85949  20846596.7034                   20846587.1054
        51.0004         54.7504
 -16193406.24547 -11005182.74245  22658005.1724                   22657993.1134
        46.0004         34.0004
  -1561915.67346  -1199546.04042  25328076.1254                   25328065.4734
        37.0004         17.7504
 -11596951.13347  -9007247.17547  23060342.2034                   23060331.4344
        43.2504         43.7504
  -6994516.60146  -6913301.99045  23500246.3284                   23500238.4304
        39.7504         34.7504
                                  25010527.0944                   25010521.3054
        31.2504         26.0004
 -18312255.61848 -20647268.25249  20507696.6954                   20507687.5664
        53.5004         55.0004
 23  1  6  0 57 30.0000000  0 12G23G24G08G22G27G10G21G12G31G01G25G32
  -5451372.71547  -6069712.41745  22997863.4614                   22997853.3364
        43.7504         31.0004
  -4937244.05145  -4505482.83943  24123105.7194                   24123096.7664
        32.2504         20.0004
  -8699050.33845  -6752771.07545  24646232.3524                   24646224.8634
        34.2504         31.7504
 -14189812.46647 -11515616.54146  21095442.1094                   21095430.8134
        46.5004         38.0004
                                  25375018.7814                   25375011.4104
        30.5004         23.2504
 -26280282.33648 -20373951.17149  20852994.7974                   20852985.3164
        50.7504         54.7504
 -16240824.17747 -11042131.78445  22648981.6254                   22648969.7424
        45.2504         34.0004
  -1625640.10346  -1249201.46543  25315951.0084                   25315939.2424
        38.5004         18.5004
 -11710175.62647  -9095474.01347  23038797.0164                   23038785.4264
        42.5004         43.7504
  -7090189.07646  -6987851.97046  23482041.2344                   23482031.8714
        39.5004         36.5004
  -1383505.86055  -1351615.15454  24994915.8444                   24994907.0084
        34.2504         27.2504
 -18305441.36048 -20641958.44049  20508993.2114                   20508983.7304
        53.5004         54.7504
 23  1  6  0 58  0.0000000  0 12G23G24G08G22G27G10G21G12G31G01G25G32
  -5369849.29347  -6006187.69745  23013376.6484                   23013365.8794
        44.0004         30.0004
  -4836738.09545  -4427166.51843  24142231.4454                   24142222.9024
        34.0004         19.5004
  -8625765.24945  -6695665.82645  24660178.4144                   24660170.6334
        35.0004         31.0004
 -14232675.25547 -11549016.10146  21087284.9924                   21087273.9884
        46.5004         37.7504
                                  25392616.6644                   25392606.1884
        31.7504         25.7504
 -26246329.75948 -20347494.62049  20859455.4144                   20859446.0514
        50.5004         54.7504
 -16287837.47447 -11078765.52345  22640035.4224                   22640023.4224
        46.2504         34.7504
  -1689049.34746  -1298611.22343  25303882.2734                   25303872.6174
        36.5004         19.0004
 -11823204.80347  -9183548.68047  23017288.0704                   23017276.9494
        42.7504         44.0004
  -7185544.60346  -7062154.97045  23463894.7814                   23463886.9414
        38.5004         35.5004
  -1465425.69945  -1415448.81744  24979325.4454                   24979317.5474
        32.2504         26.5004
 -18298264.73148 -20636366.26949  20510358.9534                   20510349.4734
        53.5004         55.0004
 23  1  6  0 58 30.0000000  0 12G23G24G08G22G27G10G21G12G31G01G25G32
  -5288121.31847  -5942503.59145  23028928.4844                   23028918.5354
        43.5004         31.0004
  -4735938.44845  -4348621.29643  24161411.9304                   24161403.3874
        32.7504         18.5004
  -8552266.71445  -6638394.27745  24674164.1954                   24674156.5904
        34.2504         30.7504
 -14275199.45847 -11582151.83346  21079192.8284                   21079182.0594
        46.0004         38.5004
                                  25410201.0554                   25410190.9304
        32.7504         25.2504
 -26212046.42748 -20320780.35149  20865979.5004                   20865970.2544
        50.5004         55.0004
 -16334445.05547 -11115083.12145  22631166.5004                   22631153.9734
        45.7504         34.0004
  -1752141.13046  -1347773.58242  25291877.2194                   25291866.3324
        36.5004         17.7504
 -11936036.05047  -9271469.10647  22995816.4614                   22995805.8674
        42.5004         44.2504
  -7280580.81046  -7136209.12345  23445810.8284                   23445802.1094
        39.2504         35.7504
  -1547211.51855  -1479177.94954  24963759.7664                   24963754.6254
        31.0004         26.2504
 -18290727.21948 -20630492.88149  20511793.1254                   20511784.2304
        52.7504         55.0004
 23  1  6  0 59  0.0000000  0 12G23G24G08G22G27G10G21G12G31G01G25G32
  -5206191.17747  -5878661.95945  23044521.1174                   23044509.2934
        44.7504         31.2504
  -4634849.78145  -4269850.91143  24180650.2194                   24180640.2114
        35.0004         20.0004
  -8478559.69545  -6580960.30745  24688191.1724                   24688183.1564
        35.2504         30.0004
 -14317386.85348 -11615025.12046  21071165.6954                   21071153.9884
        48.0004         38.7504
    399605.65854  -6384809.58854  25427769.5864                   25427761.9224
        29.0004         24.5004
 -26177433.54148 -20293809.27449  20872566.0164                   20872557.0044
        51.0004         55.0004
 -16380647.53147 -11151085.05345  22622374.0704                   22622362.0124
        46.0004         34.2504
  -1814914.07745  -1396687.60742  25279929.2194                   25279920.1484
        33.5004         17.2504
 -12048668.17347  -9359234.37247  22974383.4454                   22974372.3834
        43.7504         44.7504
  -7375296.68146  -7210013.66345  23427786.7034                   23427777.5744
        39.0004         35.5004
                                  24948223.3674                   24948217.0514
        31.2504         28.2504
 -18282831.50549 -20624340.37949  20513295.6414                   20513286.6884
        54.5004         54.7504
 23  1  6  0 59 30.0000000  0 12G23G24G08G22G27G10G21G12G31G01G25G32
  -5124053.06547  -5814658.25744  23060150.8284                   23060139.7664
        44.2504         29.7504
  -4533468.72345  -4190852.71043  24199940.7734                   24199932.3484
        31.7504         18.5004
  -8404640.96346  -6523361.27045  24702259.2734                   24702248.5634
        38.5004         31.2504
 -14359231.38447 -11647631.23346  21063202.6564                   21063191.6524
        46.7504         38.7504
                                  25445331.1724                   25445320.8134
        35.7504         22.7504
 -26142485.12648 -20266576.75249  20879216.5784                   20879207.7424
        50.5004         55.0004
 -16426436.75647 -11186764.95745  22613661.0084                   22613648.6564
        45.2504         34.2504
  -1877358.75046  -1445345.68342  25268048.7664                   25268037.9384
        36.0004         17.2504
 -12161091.75147  -9446837.13947  22952990.2194                   22952979.0984
        42.7504         44.5004
  -7469683.00046  -7283561.42745  23409825.6174                   23409817.2504
        39.7504         35.7504
  -1710369.66755  -1584327.52354  24932714.5234                   24932707.3284
        32.5004         26.7504
 -18274572.24648 -20617904.59449  20514867.7274                   20514858.4804
        52.7504         55.0004
 23  1  6  1  0  0.0000000  0 11G23G24G08G22G10G21G12G31G01G25G32
  -5041714.46047  -5750498.34244  23075818.7114                   23075808.0004
        43.2504         29.7504
  -4431805.08945  -4111634.32443  24219288.7974                   24219278.3204
        35.7504         20.2504
  -8330520.28245  -6465604.86645  24716362.3524                   24716354.0434
        35.5004         32.7504
 -14400739.84747 -11679975.47246  21055303.8914                   21055292.4184
        47.2504         38.7504
 -26107207.32048 -20239087.56149  20885930.1334                   20885920.6524
        51.2504         55.0004
 -16471818.19947 -11222127.11845  22605025.9064                   22605012.9104
        46.2504         35.0004
  -1939479.42945  -1493751.41442  25256226.1414                   25256216.8364
        34.5004         16.2504
 -12273310.91447  -9534280.62647  22931635.4384                   22931624.2584
        42.7504         44.5004
  -7563743.81846  -7356855.55645  23391925.3754                   23391917.6524
        37.7504         35.0004
                                  24917231.4694                   24917224.5664
        32.7504         27.0004
 -18265957.22948 -20611191.59649  20516507.1564                   20516497.9694
        53.5004         54.7504
 23  1  6  1  0 30.0000000  0 12G23G24G08G22G27G10G21G12G31G01G25G32
  -4959178.14247  -5686184.35545  23091524.9454                   23091514.4104
        43.2504         30.0004
  -4329864.07845  -4032199.79243  24238685.6564                   24238677.8754
        32.5004         19.0004
  -8256202.96145  -6407695.35045  24730500.7504                   24730496.1374
        33.5004         31.2504
 -14441914.77747 -11712059.82446  21047468.0004                   21047457.1724
        46.2504         39.0004
    349944.42655  -6244236.45354  25480406.8444                   25480395.1374
        31.7504         24.5004
 -26071602.30548 -20211343.40049  20892705.4694                   20892696.1644
        50.7504         55.0004
 -16516792.62047 -11257172.13745  22596467.0474                   22596454.9884
        45.2504         34.0004
  -2001275.27146  -1541903.99942  25244467.7194                   25244457.1844
        36.0004         17.2504
 -12385324.77547  -9621564.13247  22910320.1094                   22910308.7544
        43.0004         45.0004
  -7657478.60646  -7429895.63745  23374089.0784                   23374080.4774
        38.5004         35.5004
                                  24901774.8204                   24901767.1564
        33.2504         27.0004
 -18256989.74148 -20604203.94049  20518213.6644                   20518204.0664
        53.0004         54.7504
 23  1  6  1  1  0.0000000  0 11G23G24G08G22G10G21G12G31G01G25G32
  -4876430.19547  -5621705.46245  23107271.6804                   23107260.6174
        43.5004         30.5004
  -4227633.93545  -3952539.97043  24258141.4694                   24258131.1684
        35.0004         18.5004
  -8181677.40645  -6349623.47045  24744684.4064                   24744677.3284
        35.5004         31.5004
 -14482741.59347 -11743872.91746  21039699.3204                   21039688.2584
        47.2504         39.2504
 -26035655.61048 -20183332.99249  20899545.7894                   20899536.2504
        51.5004         55.0004
 -16561344.05347 -11291887.53145  22587988.4844                   22587976.7774
        44.2504         34.0004
  -2062729.05745  -1589790.05242  25232771.6254                   25232762.9654
        33.5004         17.7504
 -12497115.52147  -9708673.79447  22889047.5004                   22889035.7934
        43.2504         45.0004
  -7750869.96946  -7502668.11645  23356316.5944                   23356308.5784
        37.7504         35.5004
                                  24886350.3524                   24886342.2774
        33.0004         27.7504
 -18247656.15949 -20596931.02249  20519989.3984                   20519980.1524
        54.0004         55.0004
 23  1  6  1  1 30.0000000  0 12G23G24G08G22G27G10G21G12G31G01G25G32
  -4793486.06447  -5557073.70344  23123054.5784                   23123043.8094
        42.5004         29.5004
  -4125132.60745  -3872668.78643  24277645.6484                   24277636.6374
        33.0004         20.5004
  -8106961.54646  -6291403.30345  24758905.4454                   24758895.4964
        36.0004         32.2504
 -14523235.18747 -11775426.35646  21031993.9534                   21031982.4804
        47.5004         39.2504
                                  25515427.1414                   25515417.1334
        33.0004         25.7504
 -25999381.41048 -20155067.39549  20906448.6804                   20906439.3164
        51.0004         55.0004
 -16605486.39247 -11326284.14545  22579588.9144                   22579576.5044
        45.7504         34.2504
  -2123852.50445  -1637418.68942  25221141.6174                   25221131.8444
        35.0004         17.2504
 -12608695.27247  -9795619.03547  22867814.2504                   22867802.8954
        43.2504         45.0004
  -7843929.91346  -7575182.33545  23338609.0704                   23338600.1174
        38.2504         35.5004
                                  24870952.5784                   24870945.5594
        32.2504         25.7504
 -18237972.35448 -20589385.20349  20521832.1954                   20521822.9494
        53.7504         54.7504
 23  1  6  1  2  0.0000000  0 12G23G24G08G22G27G10G21G12G31G01G25G32
  -4710341.16347  -5492285.50244  23138877.1564                   23138866.7384
        43.2504         29.5004
  -4022357.77145  -3792584.55543  24297203.4144                   24297194.1684
        33.7504         20.0004
  -8032053.28245  -6233033.23645  24773158.6094                   24773150.3594
        35.0004         32.0004
 -14563390.60447 -11806716.27846  21024352.4694                   21024341.2304
        47.5004         39.0004
                                  25532909.4774                   25532902.7504
        30.0004         22.7504
 -25962774.47648 -20126542.51949  20913414.7194                   20913405.0044
        50.7504         54.7504
 -16649212.23447 -11360356.24245  22571268.7584                   22571255.7624
        45.0004         34.0004
  -2184637.75446  -1684783.73942  25209575.3834                   25209564.5554
        37.0004         16.7504
 -12720055.63547  -9882393.32247  22846623.5634                   22846611.8554
        43.5004         44.7504
  -7936650.52946  -7647432.15945  23320964.1174                   23320955.9264
        38.2504         35.2504
                                  24855584.2344                   24855578.3284
        33.0004         27.7504
 -18227934.14248 -20581563.22049  20523742.5474                   20523732.7734
        53.5004         55.0004
 23  1  6  1  2 30.0000000  0 12G23G24G08G22G27G10G21G12G31G01G25G32
  -4626999.30947  -5427343.83344  23154736.9774                   23154726.0904
        42.7504         29.2504
  -3919315.58445  -3712291.91543  24316810.0944                   24316801.4344
        33.0004         18.2504
  -7956958.96845  -6174518.19945  24787447.5554                   24787440.4774
        33.5004         31.5004
 -14603211.32647 -11837745.40546  21016774.5634                   21016763.5004
        47.0004         39.5004
    717672.94955  -6017190.45754  25550384.3834                   25550373.6134
        34.0004         25.2504
 -25925837.94548 -20097760.81349  20920443.5784                   20920433.8634
        51.0004         55.2504
 -16692523.94447 -11394105.63545  22563025.9774                   22563014.0354
        44.5004         34.5004
                                  25198073.7504                   25198061.9264
        37.5004         16.7504
 -12831196.98347  -9968996.95547  22825473.2424                   22825462.2974
        43.2504         45.0004
  -8029032.04446  -7719417.73845  23303384.7584                   23303376.2734
        37.7504         35.2504
  -2196290.07845  -1962966.68244  24840246.2894                   24840239.7384
        32.0004         28.5004
 -18217545.65348 -20573468.29649  20525719.3204                   20525710.0744
        53.5004         55.0004
 23  1  6  1  3  0.0000000  0 12G23G24G08G22G27G10G21G12G31G01G25G32
  -4543454.78147  -5362244.23644  23170634.3444                   23170624.0434
        42.0004         29.5004
  -3816002.61345  -3631788.32343  24336471.9384                   24336462.3984
        34.2504         21.0004
  -7881675.14145  -6115855.51345  24801775.0084                   24801766.5234
        35.0004         32.5004
 -14642691.35548 -11868509.05646  21009261.8594                   21009250.6804
        48.0004         39.7504
    809399.42155  -5945715.02454  25567835.9844                   25567828.2034
        30.7504         24.5004
 -25888565.45448 -20068717.32649  20927536.1174                   20927526.6374
        52.2504         54.7504
 -16735413.74647 -11427526.26245  22554863.5084                   22554852.4454
        44.7504         34.5004
  -2305185.76245  -1778717.33542  25186634.7034                   25186625.1644
        34.2504         17.2504
 -12942110.02847 -10055422.69447  22804367.0394                   22804355.4494
        43.0004         44.5004
  -8121065.46346  -7791132.08445  23285870.9144                   23285862.7814
        38.0004         35.5004
                                  24824942.0084                   24824932.4694
        33.0004         26.7504
 -18206801.61248 -20565096.31549  20527763.9534                   20527754.5904
        53.5004         54.7504
 23  1  6  1  3 30.0000000  0 12G23G24G08G22G27G10G21G12G31G01G25G32
  -4459708.88847  -5296987.74144  23186572.0314                   23186559.7974
        43.5004         29.5004
  -3712422.57945  -3551076.65443  24356181.1254                   24356172.5234
        33.0004         18.5004
  -7806205.28145  -6057047.84545  24816136.1414                   24816127.7734
        35.0004         32.7504
 -14681831.27347 -11899007.68946  21001813.9384                   21001802.9924
        47.7504         40.0004
                                  25585274.6804                   25585266.1374
        31.0004         22.2504
 -25850957.20948 -20039412.20849  20934693.2034                   20934683.3714
        52.2504         55.0004
 -16777880.86047 -11460617.52845  22546782.6724                   22546771.0824
        46.2504         34.5004
  -2364936.84245  -1825276.58542  25175264.6884                   25175254.6804
        34.2504         16.2504
 -13052792.35347 -10141668.64547  22783305.5784                   22783293.9304
        43.7504         45.2504
  -8212748.68546  -7862573.54445  23268424.2584                   23268416.1254
        38.5004         35.7504
  -2356989.74745  -2088187.23444  24809667.0474                   24809659.3834
        33.2504         28.5004
 -18195703.75348 -20556448.63649  20529875.5634                   20529865.9654
        53.5004         55.0004
 23  1  6  1  4  0.0000000  0 12G23G24G08G22G27G10G21G12G31G01G25G32
  -4375770.12146  -5231580.94044  23202544.0944                   23202533.7344
        41.7504         29.5004
  -3608586.15845  -3470165.17043  24375941.7194                   24375932.2974
        33.5004         19.0004
  -7730560.12846  -5998103.56545  24830530.3364                   24830522.3794
        36.2504         31.7504
 -14720639.38748 -11929247.77046  20994429.5164                   20994417.7504
        48.2504         40.0004
    992580.51955  -5802976.38453  25602693.8984                   25602686.4104
        30.0004         22.7504
 -25813020.99948 -20009851.52649  20941912.0634                   20941902.5234
        50.7504         55.0004
 -16819931.79447 -11493384.48745  22538781.0554                   22538769.2304
        45.7504         35.2504
  -2424343.63446  -1871567.60143  25163960.7344                   25163950.0824
        36.0004         18.2504
 -13163249.28447 -10227738.96147  22762285.0704                   22762274.5354
        43.0004         45.5004
  -8304086.68246  -7933745.99146  23251043.3754                   23251034.9494
        38.2504         36.5004
  -2437091.01545  -2150603.83844  24794423.0004                   24794416.8594
        30.7504         27.0004
 -18184260.88648 -20547532.11549  20532053.1564                   20532043.6764
        52.2504         54.7504
 23  1  6  1  4 30.0000000  0 12G23G24G08G22G27G10G21G12G31G01G25G32
  -4291630.70747  -5166017.79444  23218555.5164                   23218545.0394
        43.0004         29.2504
  -3504488.00545  -3389049.78743  24395751.0164                   24395742.1214
        34.2504         19.5004
  -7654734.73245  -5939018.83845  24844960.1564                   24844952.1994
        35.5004         32.5004
 -14759107.23848 -11959222.70846  20987108.6024                   20987097.4224
        48.0004         39.7504
   1084031.29645  -5731716.08144  25620098.3444                   25620089.4494
        33.5004         27.2504
 -25774748.25648 -19980028.61549  20949194.6954                   20949185.8594
        50.5004         54.7504
 -16861557.00747 -11525819.72145  22530859.9224                   22530848.1564
        45.5004         34.5004
  -2483394.97846  -1917581.64043  25152724.2344                   25152713.6994
        36.5004         19.0004
 -13273468.66247 -10313624.18247  22741312.1884                   22741300.5984
        43.7504         45.7504
  -8395068.26246  -8004640.72946  23233730.7194                   23233722.2934
        40.0004         37.0004
  -2517016.60945  -2212883.46544  24779214.6724                   24779207.5944
        32.5004         28.2504
 -18172465.65948 -20538341.02349  20534298.2664                   20534288.4924
        52.2504         54.7504
 23  1  6  1  5  0.0000000  0 12G23G24G08G22G27G10G21G12G31G01G25G32
  -4207293.86646  -5100300.82944  23234604.0004                   23234593.5234
        41.5004         29.0004
  -3400133.52945  -3307734.58143  24415608.4844                   24415599.3554
        33.5004         19.0004
  -7578734.50045  -5879797.92245  24859421.2274                   24859415.0864
        33.5004         32.5004
 -14797237.49248 -11988934.59446  20979852.7344                   20979841.3794
        48.5004         40.5004
   1175385.43155  -5660530.98054  25637482.5944                   25637472.9964
        32.7504         24.5004
 -25736141.38948 -19949945.35949  20956541.5634                   20956532.0824
        51.2504         54.7504
 -16902757.67247 -11557924.13845  22523020.1644                   22523007.9304
        46.2504         34.5004
  -2542090.62945  -1963318.47842  25141554.4694                   25141543.5234
        35.5004         16.7504
 -13383450.51447 -10399324.31947  22720382.6254                   22720371.2114
        43.7504         45.7504
  -8485693.27046  -8075257.60246  23216484.9534                   23216476.4104
        39.7504         37.2504
  -2596765.69745  -2275025.60945  24764040.0394                   24764032.4924
        33.5004         30.7504
 -18160321.69048 -20528878.19049  20536608.8674                   20536599.2704
        53.5004         55.0004
 23  1  6  1  5 30.0000000  0 12G23G24G08G22G27G10G21G12G31G01G25G32
  -4122760.51847  -5034430.72744  23250689.8364                   23250679.4184
        42.2504         29.2504
  -3295525.98145  -3226222.23443  24435514.0554                   24435505.2774
        32.7504         21.2504
  -7502562.79445  -5820443.34145  24873917.3834                   24873908.8984
        35.0004         31.7504
 -14835030.87748 -12018383.97846  20972660.9384                   20972649.8754
        48.2504         40.0004
   1266639.93255  -5589423.51354  25654846.0864                   25654837.7194
        31.5004         24.5004
 -25697200.61848 -19919601.90749  20963951.9224                   20963942.2664
        51.5004         54.7504
 -16943532.83847 -11589697.00045  22515260.2734                   22515248.7424
        46.2504         35.5004
  -2600428.33945  -2008776.47642  25130450.9144                   25130442.7814
        31.7504         16.2504
 -13493192.15047 -10484837.25747  22699500.2814                   22699488.7504
        44.2504         46.0004
  -8575959.23346  -8145594.71346  23199308.4144                   23199299.0514
        40.5004         38.0004
  -2676335.54445  -2337028.08844  24748896.7114                   24748888.5784
        32.5004         28.0004
 -18147830.27148 -20519144.61849  20538985.7034                   20538976.3404
        52.7504         55.0004
 23  1  6  1  6  0.0000000  0 12G23G24G08G22G27G10G21G12G31G01G25G32
  -4038030.75247  -4968407.56145  23266814.0864                   23266803.7274
        42.2504         30.0004
  -3190667.73045  -3144514.55443  24455468.6484                   24455460.1644
        34.0004         19.7504
  -7426221.90845  -5760956.93445  24888443.4384                   24888436.7114
        34.5004         32.5004
 -14872487.21647 -12047570.72546  20965533.1094                   20965521.7544
        47.0004         40.5004
   1357792.88255  -5518395.21053  25672193.0784                   25672182.8954
        32.2504         22.7504
 -25657924.91848 -19888997.47349  20971425.7194                   20971415.9454
        50.7504         54.7504
 -16983880.55147 -11621136.77045  22507583.1094                   22507570.7584
        44.2504         35.2504
  -2658404.46555  -2053952.65952  25119419.2274                   25119409.9804
        33.2504         16.7504
 -13602689.90347 -10570160.17347  22678663.4144                   22678651.8834
        44.5004         46.0004
  -8665862.64146  -8215649.30346  23182199.8754                   23182191.5084
        40.0004         38.7504
  -2755722.20045  -2398887.75044  24733790.2814                   24733783.2624
        31.5004         27.7504
 -18134991.82848 -20509140.63249  20541428.9144                   20541419.4924
        52.0004         55.0004
 23  1  6  1  6 30.0000000  0 12G23G24G08G22G27G10G21G12G31G01G25G32
  -3953106.17847  -4902232.61744  23282974.1804                   23282963.9964
        42.0004         29.0004
  -3085562.67845  -3062614.44043  24475468.1094                   24475459.9184
        33.0004         19.0004
  -7349716.38645  -5701342.24345  24903003.1334                   24902995.7034
        35.7504         33.0004
 -14909607.49348 -12076495.61746  20958469.8134                   20958457.9884
        48.2504         40.2504
   1448840.39145  -5447449.08244  25689518.9064                   25689509.6604
        32.7504         25.0004
 -25618315.46548 -19858132.97749  20978962.8444                   20978953.7734
        50.7504         54.7504
 -17023800.08247 -11652242.90045  22499986.7194                   22499974.4844
        44.5004         35.5004
  -2716017.01345  -2098845.57042  25108455.9454                   25108446.6994
        34.5004         14.7504
 -13711941.77447 -10655291.48447  22657873.1804                   22657861.9414
        43.7504         46.2504
  -8755401.82446  -8285420.09346  23165161.2664                   23165152.6644
        41.0004         38.5004
  -2834923.55645  -2460603.07944  24718717.6954                   24718711.8484
        32.2504         28.5004
 -18121808.40648 -20498867.84049  20543937.5234                   20543927.8674
        52.5004         54.7504
 23  1  6  1  7  0.0000000  0 12G23G24G08G22G27G10G21G12G31G01G25G32
  -3867984.59947  -4835904.15644  23299172.0004                   23299161.8754
        42.0004         28.7504
  -2980210.88045  -2980522.23843  24495516.9534                   24495508.4694
        33.0004         19.0004
  -7273046.38345  -5641599.42045  24917591.6484                   24917584.1604
        34.5004         31.7504
 -14946389.03048 -12105156.55046  20951470.2424                   20951458.3014
        48.5004         40.5004
   1539782.61555  -5376584.98754  25706824.0784                   25706815.6524
        31.2504         24.2504
 -25578369.38148 -19827006.16249  20986564.5784                   20986555.0984
        50.5004         55.0004
 -17063287.78047 -11683012.53246  22492472.8754                   22492459.8794
        46.7504         36.0004
  -2773260.59145  -2143450.95842  25097563.2894                   25097553.3984
        35.0004         16.7504
 -13820941.96047 -10740226.68047  22637131.1484                   22637119.7934
        44.2504         46.5004
  -8844571.15846  -8354902.70046  23148193.2814                   23148184.5044
        40.7504         39.0004
  -2913933.55645  -2522169.27444  24703683.7814                   24703676.8794
        33.0004         29.0004
 -18108278.24848 -20488324.85549  20546512.3284                   20546502.7304
        51.7504         54.7504
 23  1  6  1  7 30.0000000  0 12G23G24G08G22G27G10G21G12G31G01G25G32
  -3782671.14146  -4769426.16444  23315406.8984                   23315396.3634
        41.5004         29.0004
  -2874619.72945  -2898243.41943  24515610.4774                   24515601.1724
        35.2504         18.5004
  -7196218.92946  -5581733.86245  24932213.9924                   24932204.6294
        36.0004         32.7504
 -14982836.59448 -12133557.23646  20944534.6724                   20944522.6724
        48.0004         41.0004
   1630612.57555  -5305808.33754  25724108.9304                   25724099.0394
        32.5004         26.0004
 -25538090.76248 -19795620.23449  20994229.3984                   20994219.9184
        50.7504         54.7504
 -17102346.63347 -11713448.00845  22485039.6954                   22485026.9344
        46.2504         35.0004
  -2830136.89245  -2187770.12543  25086739.3594                   25086730.2304
        34.0004         18.2504
 -13929692.11447 -10824967.04047  22616437.2894                   22616425.4064
        44.5004         46.5004
  -8933372.24646  -8424098.32446  23131295.1804                   23131286.1684
        40.5004         39.0004
  -2992753.19645  -2583587.11344  24688685.1954                   24688677.8834
        34.0004         29.0004
 -18094406.75748 -20477515.89749  20549151.6884                   20549142.6174
        51.5004         55.0004
 23  1  6  1  8  0.0000000  0 12G23G24G08G22G27G10G21G12G31G01G25G32
  -3697163.36247  -4702796.77044  23331678.3594                   23331668.4694
        42.0004         29.0004
  -2768788.96445  -2815777.94043  24535749.4224                   24535740.4694
        34.5004         19.7504
  -7119234.08045  -5521745.66545  24946861.1174                   24946855.0354
        33.5004         32.2504
 -15018947.59948 -12161695.67446  20937662.9454                   20937651.7664
        49.2504         40.7504
   1721330.60255  -5235118.98154  25741371.0784                   25741362.7704
        34.0004         24.0004
 -25497476.51748 -19763972.78449  21001957.9924                   21001948.9224
        51.0004         54.7504
 -17140972.21747 -11743545.85945  22477689.2814                   22477677.2234
        47.0004         35.7504
  -2886640.12945  -2231798.56142  25075987.6174                   25075978.2544
        34.5004         17.2504
 -14038186.11547 -10909507.80747  22595790.5784                   22595779.6334
        44.2504         46.5004
  -9021799.21646  -8493002.47146  23114467.2034                   23114458.9534
        40.0004         39.0004
  -3071376.64745  -2644852.09844  24673723.3284                   24673715.3714
        33.2504         28.5004
 -18080191.93448 -20466439.41349  20551856.9454                   20551847.4654
        52.5004         54.7504
 23  1  6  1  8 30.0000000  0 12G23G24G08G22G27G10G21G12G31G01G25G32
  -3611463.80546  -4636017.94344  23347986.5394                   23347976.5904
        41.5004         28.5004
  -2662723.57045  -2733129.59943  24555933.9694                   24555924.8984
        35.5004         20.2504
  -7042096.82945  -5461638.75445  24961542.4224                   24961533.2934
        35.7504         32.7504
 -15054723.88147 -12189573.28846  20930854.7584                   20930843.1094
        47.2504         40.7504
   1811931.92354  -5164520.28654  25758614.7734                   25758603.5944
        29.0004         28.0004
 -25456528.37448 -19732065.14749  21009750.0474                   21009740.9774
        51.5004         54.7504
 -17179165.49547 -11773306.84945  22470421.6414                   22470409.2304
        45.5004         35.5004
  -2942769.40145  -2275535.61642  25065305.9844                   25065296.5634
        34.7504         17.2504
 -14146422.69847 -10993848.00147  22575194.3524                   22575182.9384
        44.7504         46.7504
  -9109851.16946  -8561614.37446  23097711.8204                   23097703.6294
        40.5004         39.5004
  -3149802.17955  -2705962.87254  24658799.2584                   24658791.8284
        33.0004         28.7504
 -18065636.66548 -20455097.64149  20554626.5554                   20554617.2504
        51.7504         55.0004
 23  1  6  1  9  0.0000000  0 12G23G24G08G22G27G10G21G12G31G01G25G32
  -3525568.48146  -4569086.55144  23364332.4774                   23364321.1214
        41.5004         28.5004
  -2556421.60545  -2650296.91643  24576161.6024                   24576152.3554
        34.5004         19.2504
  -6964805.61945  -5401411.83745  24976247.9454                   24976240.3404
        34.5004         32.7504
 -15090161.12048 -12217186.71646  20924111.3204                   20924099.8484
        48.7504         41.2504
                                  25775831.0004                   25775822.2814
        31.2504         24.0004
 -25415241.47248 -19699893.55549  21017606.6484                   21017597.5204
        50.5004         54.7504
 -17216920.38247 -11802726.25045  22463236.8134                   22463224.4024
        47.0004         35.5004
  -2998517.23945  -2318975.51643  25054698.2734                   25054688.7934
        34.5004         18.2504
 -14254394.23047 -11077981.64147  22554647.9774                   22554636.7384
        44.7504         46.7504
  -9197520.72446  -8629928.30946  23081028.2034                   23081020.0124
        40.0004         39.2504
  -3228022.05645  -2766913.36744  24643913.7814                   24643906.4694
        34.0004         29.7504
 -18050737.34148 -20443487.78149  20557461.7584                   20557452.1024
        51.0004         54.7504
 23  1  6  1  9 30.0000000  0 12G23G24G08G22G27G10G21G12G31G01G25G32
  -3439485.50847  -4502008.95144  23380713.5084                   23380702.7974
        42.0004         28.7504
  -2449893.42445  -2567287.95043  24596432.5944                   24596425.0474
        34.5004         21.0004
  -6887370.35445  -5341072.72645  24990983.9224                   24990977.1374
        35.0004         32.5004
 -15125266.79048 -12244541.77546  20917430.7344                   20917419.7304
        48.7504         40.7504
   1992777.50245  -5035040.75144  25793025.9064                   25793018.0084
        32.7504         25.5004
 -25373623.20948 -19667463.74649  21025526.2034                   21025516.9574
        50.5004         54.7504
 -17254242.69447 -11831808.56346  22456134.9534                   22456122.4264
        47.0004         36.0004
  -3053888.39645  -2362121.84142  25044160.1414                   25044151.8324
        33.2504         17.7504
 -14362104.99047 -11161912.10047  22534150.7194                   22534139.7154
        45.0004         46.7504
  -9284812.46146  -8697947.83746  23064418.1954                   23064409.4184
        41.0004         39.5004
  -3306040.41445  -2827706.84144  24629067.8914                   24629060.6374
        35.2504         29.5004
 -18035502.40648 -20431616.39949  20560360.8594                   20560351.2624
        50.7504         55.7504
 23  1  6  1 10  0.0000000  0 11G23G24G08G22G10G21G12G31G01G25G32
  -3353208.15546  -4434779.89944  23397131.9224                   23397120.9184
        41.5004         28.5004
  -2343134.48445  -2484099.25443  24616748.9064                   24616740.2464
        35.0004         19.0004
  -6809787.43945  -5280618.51945  25005748.5864                   25005740.3364
        35.2504         33.7504
 -15160033.78148 -12271632.92546  20910814.6024                   20910803.4804
        48.5004         40.7504
 -25331665.86448 -19634769.72349  21033510.6334                   21033501.6214
        51.2504         54.7504
 -17291124.46647 -11860547.60946  22449116.2194                   22449103.6914
        46.7504         36.0004
  -3108872.70946  -2404966.69442  25033698.7034                   25033688.3444
        36.0004         16.7504
 -14469545.16947 -11245631.70547  22513706.2584                   22513694.8444
        44.7504         46.7504
  -9371716.31146  -8765665.12846  23047880.7194                   23047872.4104
        40.7504         39.7504
  -3383846.79645  -2888335.15544  24614261.3754                   24614254.6484
        33.2504         29.5004
 -18019925.59248 -20419478.62049  20563325.0704                   20563315.2974
        51.2504         54.7504
 23  1  6  1 10 30.0000000  0 11G23G24G08G22G10G21G12G31G01G25G32
  -3266742.04347  -4367403.75344  23413585.8204                   23413574.6414
        42.0004         28.5004
  -2236152.87945  -2400736.95443  24637107.9924                   24637098.2774
        35.5004         21.2504
  -6732063.93045  -5220054.74145  25020537.2034                   25020530.2424
        33.5004         32.2504
 -15194467.84848 -12298464.66246  20904262.5084                   20904250.9184
        49.0004         41.0004
 -25289374.64748 -19601815.54849  21041558.7974                   21041549.0824
        51.7504         54.7504
 -17327569.04647 -11888945.97945  22442181.0704                   22442168.7774
        46.2504         35.5004
  -3163472.56845  -2447512.00842  25023306.6254                   25023298.0824
        33.0004         16.7504
 -14576716.32647 -11329141.68947  22493311.7894                   22493300.4924
        44.5004         46.7504
  -9458234.39146  -8833081.80946  23031416.7734                   23031407.7624
        40.2504         39.5004
  -3461442.79145  -2948799.50544  24599494.7664                   24599488.0984
        35.0004         29.0004
 -18004012.86348 -20407079.08049  20566353.1884                   20566343.6484
        51.2504         55.0004
 23  1  6  1 11  0.0000000  0 11G23G24G08G22G10G21G12G31G01G25G32
  -3180085.85346  -4299879.48544  23430075.6954                   23430065.1024
        41.5004         27.7504
  -2128949.15645  -2317201.66343  24657506.9844                   24657498.7344
        34.0004         20.5004
  -6654201.75545  -5159382.97945  25035356.1024                   25035347.3834
        35.5004         32.5004
 -15228566.77548 -12325035.24546  20897773.7584                   20897761.9924
        49.0004         41.2504
 -25246747.47948 -19568599.57249  21049669.9614                   21049661.1844
        51.2504         54.7504
 -17363574.31347 -11917002.02445  22435329.5474                   22435317.0784
        46.7504         35.7504
  -3217683.14945  -2489753.98642  25012991.7344                   25012981.7854
        34.2504         16.7504
 -14683613.51847 -11412438.19647  22472970.2424                   22472958.5944
        44.2504         46.5004
  -9544362.00546  -8900194.22546  23015027.3834                   23015018.3714
        41.5004         40.2504
  -3538823.28845  -3009095.94044  24584770.5864                   24584763.6844
        34.5004         29.0004
 -17987763.28548 -20394417.07049  20569445.1804                   20569435.8754
        50.5004         55.2504
 23  1  6  1 11 30.0000000  0 11G23G24G08G22G10G21G12G31G01G25G32
  -3093240.88446  -4232208.13544  23446601.3524                   23446591.0514
        41.2504         29.0004
  -2021527.01445  -2233496.06543  24677948.6484                   24677939.9304
        34.7504         21.0004
  -6576204.24046  -5098605.68845  25050198.0554                   25050189.6884
        36.2504         32.7504
 -15262331.57147 -12351345.46946  20891348.4384                   20891336.3204
        47.0004         41.2504
 -25203784.53848 -19535121.97549  21057845.4774                   21057836.5234
        52.0004         54.7504
 -17399138.65847 -11944714.50246  22428561.9224                   22428549.6294
        45.0004         36.5004
  -3271502.64445  -2531691.24442  25002750.5554                   25002739.5514
        35.0004         16.7504
 -14790234.37847 -11495519.37847  22452680.6884                   22452669.5084
        44.7504         46.5004
  -9630096.91946  -8967000.62846  22998712.5944                   22998703.8754
        41.0004         40.0004
  -3615985.44945  -3069222.27445  24570087.8674                   24570079.7934
        34.2504         30.5004
 -17971178.42948 -20381493.80649  20572601.0234                   20572592.1294
        51.7504         55.0004
 23  1  6  1 12  0.0000000  0 11G23G24G08G22G10G21G12G31G01G25G32
  -3006207.12246  -4164389.66244  23463163.9534                   23463153.4184
        40.7504         28.5004
  -1913888.56845  -2149622.03543  24698431.6724                   24698423.5394
        33.2504         19.0004
  -6498073.53745  -5037724.63145  25065064.3674                   25065056.9384
        34.0004         32.2504
 -15295761.95448 -12377395.12246  20884986.8984                   20884975.2504
        48.2504         41.0004
 -25160485.45248 -19501382.43949  21066084.9774                   21066076.0234
        51.7504         54.7504
 -17434259.83847 -11972081.66346  22421878.5084                   22421866.2734
        47.0004         36.0004
  -3324927.41546  -2573320.92042  24992586.1484                   24992574.6764
        36.5004         16.7504
 -14896575.54247 -11578382.61847  22432444.4614                   22432433.2814
        45.0004         46.5004
  -9715435.72846  -9033498.39446  22982473.3054                   22982464.4694
        41.0004         40.0004
  -3692925.62145  -3129175.62545  24555445.7114                   24555438.5164
        34.0004         30.2504
 -17954258.73048 -20368309.61949  20575820.6804                   20575811.5514
        50.5004         55.0004
 23  1  6  1 12 30.0000000  0 11G23G24G08G22G10G21G12G31G01G25G32
  -2918985.66746  -4096424.93944  23479761.5784                   23479751.1604
        41.2504         28.5004
  -1806037.20945  -2065582.00143  24718955.5784                   24718946.7424
        34.5004         20.2504
  -6419813.22246  -4976742.59345  25079958.5084                   25079949.9064
        36.0004         32.5004
 -15328858.40848 -12403184.55546  20878688.8834                   20878677.0004
        48.2504         41.0004
 -25116850.32548 -19467381.05449  21074388.8054                   21074379.5004
        51.0004         54.7504
 -17468937.48147 -11999103.20246  22415279.8594                   22415267.2734
        46.5004         36.0004
  -3377955.34146  -2614641.34143  24982494.0554                   24982483.6954
        36.0004         19.0004
 -15002634.23147 -11661025.73647  22412262.1484                   22412251.3204
        44.7504         46.7504
  -9800376.12446  -9099685.70246  22966309.0314                   22966300.7234
        41.0004         40.5004
  -3769640.88555  -3188953.71155  24540847.3444                   24540839.4454
        35.2504         30.5004
 -17937005.68848 -20354865.68949  20579104.0554                   20579094.6334
        50.5004         54.7504
 23  1  6  1 13  0.0000000  0 11G23G24G08G22G10G21G12G31G01G25G32
  -2831576.95946  -4028314.28944  23496394.8204                   23496384.0514
        41.2504         26.7504
  -1697975.30945  -1981377.95743  24739518.7034                   24739510.1024
        33.0004         18.5004
  -6341425.82046  -4915661.48245  25094874.3914                   25094866.3754
        36.5004         32.0004
 -15361621.13047 -12428713.93546  20872454.0864                   20872442.4964
        47.0004         41.0004
 -25072878.87948 -19433117.60649  21082756.0314                   21082747.1374
        50.5004         54.7504
 -17503170.36847 -12025778.18546  22408765.0084                   22408752.8914
        44.5004         36.5004
  -3430583.49245  -2655650.33142  24972478.8444                   24972469.3634
        34.5004         16.7504
 -15108407.17247 -11743446.20447  22392134.5634                   22392123.1484
        44.5004         46.7504
  -9884915.05846  -9165560.18446  22950222.3834                   22950213.6644
        41.2504         40.5004
  -3846127.68245  -3248553.78345  24526293.2344                   24526284.8094
        35.0004         30.5004
 -17919420.00048 -20341162.54749  20582450.5634                   20582441.3164
        50.0004         54.7504
 23  1  6  1 13 30.0000000  0 11G23G24G08G22G10G21G12G31G01G25G32
  -2743981.34346  -3960058.02044  23513063.5394                   23513053.5314
        40.7504         27.2504
  -1589705.54745  -1897011.94043  24760123.5164                   24760113.0394
        35.5004         21.2504
  -6262914.51645  -4854483.86745  25109813.9224                   25109806.7854
        35.0004         32.7504
 -15394050.03047 -12453983.19846  20866282.8984                   20866271.5434
        47.0004         41.0004
 -25028570.92448 -19398591.94249  21091188.3444                   21091178.6884
        50.7504         54.7504
 -17536957.28147 -12052105.64146  22402336.0864                   22402323.7344
        45.5004         36.7504
  -3482808.88245  -2696345.42642  24962539.8054                   24962530.9694
        34.5004         16.7504
 -15213891.04447 -11825641.41047  22372061.7894                   22372050.1994
        45.0004         47.0004
  -9969049.47846  -9231119.46246  22934212.0704                   22934202.8244
        41.0004         40.5004
  -3922382.58645  -3307973.15544  24511781.3284                   24511774.1914
        34.7504         29.7504
 -17901502.44248 -20327200.81449  20585860.2894                   20585850.8094
        50.0004         55.2504
 23  1  6  1 14  0.0000000  0 11G23G24G08G22G10G21G12G31G01G25G32
  -2656198.10646  -3891655.56844  23529768.0084                   23529758.2344
        40.7504         26.7504
                                  24780762.8594                   24780755.8984
        32.2504         19.2504
  -6184280.43645  -4793210.60345  25124777.5004                   25124770.0124
        35.0004         31.7504
 -15426144.25848 -12478991.68446  20860175.8524                   20860164.5554
        48.0004         41.0004
 -24983924.52348 -19363802.54349  21099683.5004                   21099674.3134
        51.5004         55.0004
 -17570295.18247 -12078083.23346  22395992.4144                   22395979.8874
        46.5004         36.2504
  -3534627.31245  -2736723.43842  24952678.2584                   24952670.3594
        32.5004         16.7504
 -15319081.43747 -11907607.93647  22352045.5084                   22352033.4494
        45.5004         47.0004
 -10052775.23847  -9296360.31146  22918279.5704                   22918271.3794
        42.2504         41.0004
  -3998400.81145  -3367208.14545  24497316.0554                   24497308.1564
        35.0004         31.2504
 -17883252.63148 -20312980.17449  20589332.9454                   20589323.6414
        51.7504         55.0004
 23  1  6  1 14 30.0000000  0 11G23G24G08G22G10G21G12G31G01G25G32
  -2568232.89847  -3823111.28144  23546507.8444                   23546496.7814
        42.0004         27.7504
  -7674234.38145  -6638203.33243  24801443.8914                   24801435.8164
        33.5004         19.0004
  -6105531.32646  -4731847.67345  25139765.2894                   25139756.0434
        36.2504         31.5004
 -15457908.76648 -12503743.23346  20854130.9924                   20854119.6954
        48.0004         41.0004
 -24938944.66848 -19328753.32249  21108242.8444                   21108233.5394
        51.2504         54.7504
 -17603188.30447 -12103714.23646  22389732.3674                   22389720.4264
        45.5004         36.0004
  -3586041.31145  -2776786.28942  24942895.8524                   24942886.9574
        34.0004         17.7504
 -15423980.68747 -11989347.59247  22332082.6174                   22332072.3754
        46.0004         47.5004
 -10136094.51246  -9361284.40446  22902424.7584                   22902415.5704
        41.5004         41.0004
  -4074184.26845  -3426260.17545  24482895.5864                   24482886.5164
        35.5004         31.0004
 -17864676.55748 -20298505.30649  20592867.6724                   20592858.4844
        51.0004         55.2504
 23  1  6  1 15  0.0000000  0 11G23G24G08G22G10G21G12G31G01G25G32
  -2480081.87446  -3754422.24444  23563282.5394                   23563272.1214
        40.5004         26.5004
  -7565359.10245  -6553365.46543  24822161.2344                   24822153.8634
        31.5004         19.2504
  -6026666.59545  -4670394.63745  25154770.6564                   25154763.0514
        35.0004         31.5004
 -15489339.65648 -12528234.83346  20848149.9774                   20848138.4454
        48.7504         41.2504
 -24893626.94948 -19293440.83249  21116866.9224                   21116857.6764
        51.0004         54.7504
 -17635630.70847 -12128994.02946  22383559.0314                   22383546.5044
        45.7504         36.0004
  -3637043.54845  -2816528.28443  24933189.9064                   24933180.1914
        35.5004         18.5004
 -15528581.05547 -12070854.36247  22312178.1884                   22312166.7154
        45.5004         47.5004
 -10219000.00146  -9425886.07546  22886648.2504                   22886638.8874
        41.7504         41.2504
  -4149725.03145  -3485123.09144  24468519.8914                   24468513.5164
        34.5004         29.2504
 -17845770.73248 -20283773.49749  20596465.2344                   20596456.2234
        51.0004         54.7504
 23  1  6  1 15 30.0000000  0 11G23G24G08G22G10G21G12G31G01G25G32
  -2391746.88146  -3685589.82544  23580091.6094                   23580081.3094
        40.5004         27.7504
  -7456287.24855  -6468374.44953  24842919.1804                   24842909.3484
        34.5004         18.5004
  -5947689.44545  -4608854.05045  25169799.3204                   25169792.1844
        34.7504         30.5004
 -15520438.24948 -12552467.50046  20842232.3364                   20842220.5704
        48.2504         41.2504
 -24847972.44948 -19257865.91249  21125554.6024                   21125545.0044
        51.0004         55.0004
 -17667622.79547 -12153922.93946  22377470.9774                   22377459.2114
        46.0004         36.5004
  -3687632.69946  -2855948.42043  24923566.3284                   24923553.6254
        36.7504         18.2504
 -15632880.69947 -12152126.78847  22292330.7734                   22292319.1254
        46.0004         47.7504
 -10301490.18546  -9490164.14046  22870950.8594                   22870942.5514
        41.5004         41.5004
  -4225021.13245  -3543795.36845  24454190.2664                   24454184.2424
        35.5004         31.0004
 -17826537.38748 -20268786.46949  20600125.4534                   20600116.0904
        52.0004         54.7504
 23  1  6  1 16  0.0000000  0 11G23G24G08G22G10G21G12G31G01G25G32
  -2303229.07346  -3616614.97144  23596936.3834                   23596925.3204
        40.5004         26.7504
  -7347022.38445  -6383233.01043  24863709.6254                   24863702.0784
        31.0004         18.5004
  -5868603.69545  -4547228.81145  25184848.4144                   25184841.0434
        34.5004         30.5004
 -15551205.06747 -12576441.63146  20836377.3914                   20836365.9774
        47.7504         41.0004
 -24801981.44348 -19222028.77649  21134306.2974                   21134296.8754
        51.7504         54.7504
 -17699163.43847 -12178500.06446  22371469.4064                   22371456.8204
        46.2504         36.7504
  -3737806.57545  -2895045.01642  24914015.8054                   24914005.2704
        34.0004         17.7504
 -15736877.01347 -12233162.85847  22272540.5864                   22272529.1724
        46.2504         47.7504
 -10383562.74246  -9554116.74846  22855331.7584                   22855323.6254
        41.2504         41.0004
  -4300069.70045  -3602274.76045  24439910.3984                   24439902.6174
        35.5004         31.0004
 -17806977.94348 -20253545.34649  20603847.7664                   20603838.2274
        52.5004         55.0004
 23  1  6  1 16 30.0000000  0 11G23G24G08G22G10G21G12G31G01G25G32
  -2214527.95746  -3547497.27944  23613815.4844                   23613804.7154
        40.0004         26.5004
  -7237565.80955  -6297942.28852  24884539.0164                   24884531.5864
        32.5004         17.7504
  -5789410.92345  -4485520.18245  25199917.9384                   25199911.6804
        34.2504         30.5004
 -15581639.55748 -12600156.80746  20830585.8834                   20830574.8204
        48.2504         40.7504
 -24755652.64048 -19185928.42349  21143122.5164                   21143113.3874
        50.5004         55.0004
 -17730250.59147 -12202723.81946  22365553.3364                   22365541.2774
        46.2504         36.7504
  -3787561.58045  -2933815.18442  24904548.9924                   24904536.9344
        35.7504         16.7504
 -15840566.02347 -12313959.47747  22252808.9924                   22252797.8134
        46.0004         47.7504
 -10465213.75747  -9617740.90946  22839795.5784                   22839786.2734
        42.0004         41.2504
  -4374866.32845  -3660557.86245  24425676.8594                   24425670.0744
        34.2504         31.0004
 -17787092.32448 -20238050.06149  20607631.7894                   20607622.3674
        52.5004         55.2504
 23  1  6  1 17  0.0000000  0 11G23G24G08G22G10G21G12G31G01G25G32
  -2125645.63446  -3478238.38744  23630729.6884                   23630718.6844
        40.5004         26.7504
  -7127922.06745  -6212505.55743  24905404.5634                   24905395.7274
        33.0004         19.0004
  -5710115.93945  -4423731.92345  25215010.0864                   25215000.6644
        35.7504         31.5004
 -15611743.30948 -12623614.27846  20824857.2424                   20824845.8284
        48.0004         41.2504
 -24708987.67448 -19149566.13249  21152002.2194                   21151993.0314
        50.0004         55.0004
 -17760884.90747 -12226594.71046  22359724.0944                   22359711.6844
        46.0004         36.5004
  -3836896.23046  -2972257.85542  24895160.1804                   24895148.7074
        36.2504         17.2504
 -15943946.15947 -12394515.40748  22233136.7344                   22233125.5554
        45.7504         48.0004
 -10546441.96846  -9681035.59246  22824337.6024                   22824329.4694
        41.2504         41.2504
  -4449409.24945  -3718643.27145  24411491.3834                   24411484.0124
        35.0004         30.0004
 -17766882.93248 -20222302.48249  20611477.3984                   20611467.8594
        52.0004         55.0004
 23  1  6  1 17 30.0000000  0 11G23G24G08G22G10G21G12G31G01G25G32
  -2036581.99946  -3408838.22744  23647677.3984                   23647667.2154
        39.7504         25.2504
  -7018092.81045  -6126924.42243  24926303.7114                   24926295.1684
        31.7504         19.0004
  -5630720.26545  -4361865.12145  25230118.3594                   25230109.0554
        35.0004         30.7504
 -15641515.76748 -12646813.58746  20819192.0164                   20819180.4264
        48.0004         41.0004
 -24661985.57048 -19112941.13749  21160946.8834                   21160937.9304
        50.5004         54.7504
 -17791063.97647 -12250110.87246  22353981.1954                   22353969.0204
        45.2504         36.0004
  -3885807.28146  -3010370.41042  24885852.5234                   24885841.8134
        36.5004         17.2504
 -16047013.58447 -12474827.67647  22213523.5084                   22213512.2114
        45.5004         47.7504
 -10627243.76747  -9743998.02646  22808961.8134                   22808952.6844
        42.2504         41.5004
  -4523694.25545  -3776527.71745  24397356.3364                   24397348.3204
        34.5004         31.5004
 -17746350.00648 -20206302.79749  20615384.7344                   20615375.3134
        51.7504         54.7504
 23  1  6  1 18  0.0000000  0 11G23G24G08G22G10G21G12G31G01G25G32
  -1947338.17846  -3339297.65244  23664660.3054                   23664650.1214
        40.2504         26.0004
  -6908081.30745  -6041201.16043  24947238.2814                   24947230.2074
        33.0004         20.0004
  -5551227.53945  -4299922.72144  25245242.7114                   25245236.3954
        32.5004         29.7504
 -15670957.87247 -12669755.47846  20813589.2274                   20813577.9304
        46.7504         41.0004
 -24614646.67848 -19076053.70649  21169954.9924                   21169945.8634
        50.0004         54.7504
 -17820787.43047 -12273272.00846  22348324.8134                   22348312.2854
        45.5004         36.5004
  -3934292.85845  -3048151.42043  24876625.2734                   24876615.8524
        33.7504         18.2504
 -16149765.86547 -12554894.37748  22193970.9144                   22193958.9734
        46.0004         48.0004
 -10707616.91746  -9806626.44246  22793666.8524                   22793658.6024
        41.0004         41.0004
  -4597718.73745  -3834209.15345  24383270.0554                   24383261.7464
        33.7504         30.5004
 -17725495.00848 -20190052.15349  20619353.5084                   20619344.2034
        52.0004         54.7504
 23  1  6  1 18 30.0000000  0 11G23G24G08G22G10G21G12G31G01G25G32
  -1857915.11246  -3269617.40444  23681676.6644                   23681666.4804
        39.5004         27.0004
  -6797890.70145  -5955338.44443  24968207.1174                   24968198.2234
        31.7504         18.5004
  -5471640.83145  -4237907.13545  25260388.0164                   25260380.3524
        33.2504         30.0004
 -15700069.99847 -12692440.24646  20808049.3444                   20808037.8134
        46.5004         40.7504
 -24566971.30848 -19038904.07949  21179027.0944                   21179018.0234
        49.7504         54.7504
 -17850054.98747 -12296077.89646  22342755.7894                   22342743.3794
        45.2504         36.5004
  -3982350.17246  -3085598.67143  24867480.8524                   24867471.2544
        36.0004         18.5004
 -16252200.13347 -12634713.26948  22174477.7664                   22174466.2934
        45.5004         48.0004
 -10787558.86547  -9868918.86946  22778454.7734                   22778445.9964
        42.0004         41.7504
  -4671479.47245  -3891685.04444  24369234.0474                   24369226.4414
        35.0004         29.7504
 -17704319.15048 -20173551.48849  20623382.8524                   20623373.6644
        52.5004         54.7504
 23  1  6  1 19  0.0000000  0 11G23G24G08G22G10G21G12G31G01G25G32
  -1768312.58746  -3199797.31944  23698727.6094                   23698717.3094
        40.2504         26.2504
  -6687522.82745  -5869337.50943  24989210.4614                   24989200.7464
        33.2504         19.0004
  -5391962.62945  -4175820.22545  25275548.7274                   25275543.9964
        31.5004         31.0004
 -15728851.89147 -12714867.68646  20802572.3364                   20802560.9804
        46.5004         41.2504
 -24518958.26748 -19001491.33449  21188163.9454                   21188154.8754
        50.0004         54.7504
 -17878864.02347 -12318526.49046  22337273.1954                   22337260.7274
        45.5004         37.0004
  -4029976.03045  -3122709.71843  24858418.2194                   24858408.7974
        35.7504         18.5004
 -16354312.34347 -12714281.21848  22155046.3914                   22155035.1524
        46.0004         48.2504
 -10867066.00647  -9930872.47146  22763324.8594                   22763315.6134
        42.0004         41.0004
  -4744972.48445  -3948952.34945  24355248.4304                   24355241.5864
        34.5004         31.5004
 -17682822.62948 -20156800.95649  20627473.6644                   20627464.4774
        52.5004         55.0004
 23  1  6  1 19 30.0000000  0 11G23G24G08G22G10G21G12G31G01G25G32
  -1678531.72246  -3129838.28344  23715812.2664                   23715802.0234
        39.7504         26.5004
  -6576980.69145  -5783200.81843  25010244.7114                   25010236.8134
        32.5004         20.7504
  -5312196.04345  -4113664.51645  25290729.1174                   25290722.3324
        33.2504         30.0004
 -15757304.01047 -12737038.16246  20797157.8834                   20797146.4104
        47.0004         41.2504
 -24470608.22348 -18963815.98949  21197364.7894                   21197355.6024
        49.0004         54.5004
 -17907213.85147 -12340617.27346  22331878.5864                   22331866.1174
        45.5004         36.5004
  -4077168.16645  -3159482.86042  24849438.6334                   24849428.2154
        35.7504         17.7504
 -16456100.18247 -12793596.40448  22135677.1724                   22135665.4064
        45.2504         48.5004
 -10946136.14346  -9992485.57546  22748278.7274                   22748269.9494
        41.7504         41.2504
  -4818194.89545  -4006008.81145  24341314.2734                   24341307.4884
        35.0004         31.0004
 -17661006.88148 -20139801.67549  20631625.0314                   20631615.3164
        51.5004         55.0004
 23  1  6  1 20  0.0000000  0 11G23G24G08G22G10G21G12G31G01G25G32
  -1588573.66146  -3059741.14344  23732930.8444                   23732920.6024
        38.7504         25.5004
  -6466267.44945  -5696930.86243  25031313.3914                   25031305.1414
        31.7504         18.5004
  -5232344.05945  -4051442.16345  25305924.4614                   25305917.6764
        33.5004         30.0004
 -15785427.16847 -12758952.30846  20791806.5314                   20791794.5904
        46.7504         41.2504
 -24421921.29248 -18925878.13349  21206629.5554                   21206620.5434
        49.5004         54.5004
 -17935104.77347 -12362350.46146  22326571.1174                   22326558.5314
        45.5004         36.7504
  -4123924.85245  -3195916.64143  24840540.3594                   24840531.2894
        34.7504         19.0004
 -16557561.25947 -12872656.98548  22116369.6174                   22116357.7934
        45.5004         48.2504
 -11024766.91046 -10053756.29346  22733315.0004                   22733306.6914
        41.2504         41.5004
  -4891143.92845  -4062852.22845  24327431.5944                   24327425.4534
        34.0004         30.7504
 -17638873.30548 -20122554.73149  20635836.9924                   20635827.4534
        53.0004         54.7504
 23  1  6  1 20 30.0000000  0 11G23G24G08G22G10G21G12G31G01G25G32
  -1498438.84246  -2989506.31544  23750083.0084                   23750073.1764
        38.5004         26.0004
  -6355385.75445  -5610529.54743  25052413.3284                   25052404.7274
        33.2504         18.5004
  -5152409.96545  -3989155.89645  25321137.4844                   25321129.4104
        35.0004         31.2504
 -15813221.61947 -12780610.30946  20786517.0164                   20786505.6604
        47.5004         41.2504
 -24372897.31348 -18887677.64549  21215958.3054                   21215949.1174
        50.0004         54.5004
 -17962534.83647 -12383724.54346  22321351.6174                   22321339.3244
        45.5004         36.5004
  -4170243.36246  -3232008.99643  24831727.2194                   24831717.0354
        36.2504         19.7504
 -16658692.31647 -12951460.39148  22097124.8594                   22097113.5044
        46.0004         48.5004
 -11102955.37446 -10114682.36746  22718436.7194                   22718427.5314
        41.5004         41.2504
  -4963816.08845  -4119479.89945  24313603.3754                   24313595.8284
        33.2504         30.7504
 -17616422.71348 -20105060.77249  20640109.3054                   20640100.1174
        53.0004         55.0004
 23  1  6  1 21  0.0000000  0 11G23G24G08G22G10G21G12G31G01G25G32
  -1408128.08446  -2919134.36144  23767268.8444                   23767257.9574
        39.2504         26.0004
  -6244338.20645  -5523998.99743  25073544.5704                   25073536.5554
        31.7504         18.5004
  -5072396.51745  -3926807.75044  25336360.9534                   25336354.1094
        33.7504         29.0004
 -15840687.66747 -12802012.41646  20781290.4614                   20781279.2234
        47.0004         41.5004
 -24323536.57148 -18849214.74349  21225351.2974                   21225342.0514
        49.7504         54.2504
 -17989502.96347 -12404738.66346  22316219.5554                   22316207.0864
        47.0004         36.7504
  -4216120.89046  -3267757.67943  24822996.9454                   24822985.7074
        36.2504         18.2504
 -16759490.23947 -13030004.22548  22077943.6484                   22077932.1764
        45.7504         48.5004
 -11180698.80746 -10175261.66346  22703641.7664                   22703633.6334
        41.2504         41.2504
  -5036208.08745  -4175889.24145  24299827.8364                   24299820.0554
        34.2504         30.0004
 -17593656.10048 -20087320.55949  20644441.2814                   20644432.0944
        53.2504         55.0004
 23  1  6  1 21 30.0000000  0 11G23G24G08G22G10G21G12G31G01G25G32
  -1317641.80446  -2848625.64444  23784488.1954                   23784477.6604
        38.7504         25.0004
  -6133127.17445  -5437341.17242  25094706.9774                   25094699.3714
        31.5004         17.2504
  -4992305.88745  -3864399.47345  25351604.4144                   25351595.8134
        34.7504         30.5004
 -15867825.46547 -12823158.74746  20776126.5784                   20776115.0474
        47.5004         41.2504
 -24273838.51048 -18810489.00349  21234808.7034                   21234799.6914
        50.5004         54.2504
 -18016008.64347 -12425392.45046  22311175.6174                   22311163.2074
        47.2504         36.5004
  -4261554.93145  -3303160.86443  24814348.8524                   24814340.1334
        34.5004         18.2504
 -16859952.01947 -13108286.12548  22058826.3754                   22058814.9614
        45.7504         48.7504
 -11257994.44046 -10235492.02046  22688933.2424                   22688924.9924
        41.5004         41.7504
  -5108316.52445  -4232077.65245  24286106.1334                   24286098.9964
        34.2504         30.0004
 -17570574.42648 -20069334.83649  20648833.7114                   20648824.3484
        53.5004         54.7504
 23  1  6  1 22  0.0000000  0 11G23G24G08G22G10G21G12G31G01G25G32
  -1226981.31446  -2777981.19844  23801739.3594                   23801729.4694
        38.5004         24.7504
  -6021756.28545  -5350558.73543  25115901.4064                   25115892.5704
        33.0004         19.0004
  -4912142.25945  -3801934.31545  25366859.2504                   25366850.5314
        35.5004         30.0004
 -15894636.39047 -12844050.37346  20771024.3444                   20771013.2234
        47.7504         41.5004
 -24223804.03048 -18771501.10749  21244329.6334                   21244320.7384
        49.2504         54.2504
 -18042051.26247 -12445685.39946  22306219.5164                   22306207.4574
        46.2504         36.7504
  -4306543.72845  -3338217.06643  24805787.0164                   24805779.5274
        32.0004         19.0004
 -16960075.41047 -13186304.34648  22039773.5314                   22039762.1174
        45.7504         48.7504
 -11334840.12146 -10295371.76946  22674311.0164                   22674301.5944
        41.7504         41.2504
  -5180138.76145  -4288043.04445  24272438.5084                   24272431.7234
        34.2504         30.5004
 -17547179.12548 -20051104.73949  20653285.7734                   20653276.2344
        52.7504         54.7504
 23  1  6  1 22 30.0000000  0 11G23G24G08G22G10G21G12G31G01G25G32
  -1136139.24646  -2707195.25844  23819026.7194                   23819016.4774
        39.0004         25.0004
                                  25137125.4224                   25137117.3484
        30.2504         15.5004
                                  25382124.9694                   25382120.6484
        29.2504         30.2504
 -15921111.71847 -12864680.48446  20765986.3834                   20765974.9694
        47.2504         41.5004
 -24173424.62348 -18732244.44849  21253917.2974                   21253907.6994
        49.5004         54.0004
 -18067621.35747 -12465610.15846  22301353.7114                   22301341.3594
        47.0004         37.0004
  -4351076.44345  -3372917.83243  24797314.0234                   24797304.8954
        35.0004         19.7504
 -17059849.26547 -13264050.20648  22020787.0474                   22020775.9844
        45.7504         49.0004
 -11411225.08446 -10354892.52446  22659774.6804                   22659766.3714
        41.2504         41.2504
  -5251663.55145  -4343776.66945  24258827.6024                   24258821.2274
        34.0004         30.7504
 -17523463.16348 -20032624.77449  20657798.9144                   20657789.5514
        53.5004         54.7504
 23  1  6  1 23  0.0000000  0 11G23G24G08G22G10G21G12G31G01G25G32
  -1045136.81946  -2636284.35244  23836344.0634                   23836333.9384
        38.2504         26.2504
                                  25158378.5864                   25158369.4574
        30.5004         15.5004
  -6327023.03045  -4904438.80145  25397408.8914                   25397399.9384
        35.2504         30.7504
 -15947272.91748 -12885065.83446  20761008.0864                   20760996.5554
        48.0004         41.5004
 -24122721.09948 -18692735.22349  21263565.2034                   21263556.1914
        49.5004         54.0004
 -18092739.09047 -12485182.42446  22296574.2504                   22296562.0744
        47.7504         37.2504
  -4395170.89745  -3407277.18843  24788921.8594                   24788914.1954
        33.2504         18.2504
 -17159290.87147 -13341537.15548  22001864.4774                   22001853.0044
        46.5004         49.0004
 -11487167.18046 -10414068.17346  22645323.0084                   22645314.8164
        41.7504         41.5004
  -5322908.04245  -4399291.83645  24245270.7974                   24245262.7814
        35.0004         31.0004
 -17499448.08948 -20013911.72549  20662368.9694                   20662358.9614
        53.7504         54.7504
 23  1  6  1 23 30.0000000  0 11G23G24G08G22G10G21G12G31G01G25G32
   -953957.37346  -2565235.49644  23853694.8524                   23853684.8444
        39.2504         25.2504
                                  25179658.2734                   25179651.0784
        30.7504         16.7504
  -6246656.16346  -4841815.27045  25412703.7424                   25412693.4414
        37.0004         30.7504
 -15973102.94747 -12905193.12246  20756092.9454                   20756081.4734
        47.7504         41.5004
 -24071676.05548 -18652959.88449  21273278.8674                   21273269.9734
        49.2504         54.0004
 -18117385.68947 -12504387.57446  22291884.2974                   22291871.8874
        47.2504         37.0004
  -4438807.77946  -3441279.86442  24780621.3594                   24780608.9494
        36.5004         16.7504
 -17258380.23047 -13418749.63948  21983007.7584                   21982996.2854
        46.5004         49.0004
 -11562646.35446 -10472883.11146  22630959.4384                   22630951.5984
        41.2504         41.5004
  -5393851.62545  -4454572.53945  24231771.5784                   24231764.0314
        35.0004         32.0004
 -17475117.52948 -19994952.85349  20666998.6724                   20666989.1914
        53.0004         55.0004
 23  1  6  1 24  0.0000000  0 11G23G24G08G22G10G21G12G31G01G25G32
   -862608.41546  -2494054.58444  23871078.6024                   23871067.8324
        39.2504         25.5004
  -7150142.29155  -6229820.77553  25200967.8444                   25200960.2974
        32.0004         18.2504
  -6166229.73945  -4779145.32045  25428006.7424                   25427998.7854
        34.5004         30.5004
 -15998608.87047 -12925067.85947  20751239.3914                   20751227.9184
        47.2504         42.0004
 -24020296.19748 -18612923.64348  21283056.2114                   21283046.8484
        49.0004         53.7504
 -18141567.45447 -12523230.50946  22287282.2114                   22287270.3284
        46.2504         37.5004
  -4481991.30045  -3474929.39342  24772403.2034                   24772391.6134
        35.5004         17.7504
 -17357121.11047 -13495690.57748  21964218.3364                   21964206.9224
        46.2504         49.2504
 -11637666.68147 -10531340.49546  22616685.4454                   22616675.6134
        42.2504         41.5004
  -5464497.92445  -4509621.62545  24218328.2504                   24218320.4694
        35.0004         32.2504
 -17450479.20648 -19975754.16949  20671687.2114                   20671677.6724
        52.5004         54.7504
 23  1  6  1 24 30.0000000  0 11G23G24G08G22G10G21G12G31G01G25G32
   -771086.58346  -2422738.95544  23888493.7974                   23888484.3164
        38.2504         24.7504
  -7038010.14655  -6142445.13553  25222306.1174                   25222298.6294
        32.0004         19.2504
  -6085742.08945  -4716427.55245  25443322.1484                   25443313.5474
        32.5004         30.5004
 -16023787.02447 -12944687.19646  20746447.9694                   20746436.7894
        46.5004         41.5004
 -23968577.44948 -18572623.34348  21292898.1804                   21292888.8164
        49.5004         53.7504
 -18165279.21247 -12541707.22046  22282770.2194                   22282757.9264
        45.2504         37.0004
  -4524714.91646  -3508220.47842  24764273.4774                   24764261.4774
        36.2504         17.7504
 -17455506.72647 -13572354.67848  21945496.3054                   21945484.6564
        46.2504         49.2504
 -11712221.53347 -10589435.19046  22602497.4384                   22602488.4264
        42.0004         41.7504
  -5534839.71745  -4564433.42045  24204940.8984                   24204933.5274
        34.0004         30.7504
 -17425530.19248 -19956313.38549  20676435.0234                   20676425.1914
        53.5004         54.7504
 23  1  6  1 25  0.0000000  0 11G23G24G08G22G10G21G12G31G01G25G32
   -679392.07446  -2351288.77744  23905943.8204                   23905932.7584
        39.2504         25.0004
                                  25243672.6884                   25243664.7894
        30.5004         16.2504
  -6005195.73055  -4653664.21355  25458647.7664                   25458642.4454
        31.0004         31.7504
 -16048637.42248 -12964051.13346  20741719.2034                   20741707.7894
        48.5004         41.5004
 -23916519.32348 -18532058.57648  21302804.7034                   21302795.1644
        50.5004         53.7504
 -18188519.45347 -12559816.49346  22278347.6884                   22278335.5704
        47.5004         37.2504
  -4566976.23346  -3541151.33743  24756230.8674                   24756219.1604
        36.2504         19.0004
 -17553533.16347 -13648738.90248  21926842.3364                   21926830.8054
        46.5004         49.5004
 -11786307.69147 -10647164.65746  22588398.9534                   22588389.8834
        42.5004         41.5004
  -5604873.14045  -4619004.92645  24191614.8914                   24191606.6414
        35.0004         31.7504
 -17400270.77049 -19936630.72649  20681241.6174                   20681232.1374
        54.0004         54.7504
 23  1  6  1 25 30.0000000  0 11G23G24G08G22G10G21G12G31G01G25G32
   -587530.92146  -2279708.74044  23923422.8284                   23923414.1094
        38.0004         25.2504
                                  25265066.0634                   25265057.4024
        29.2504         15.5004
  -5924598.81745  -4590861.40045  25473987.8594                   25473980.4884
        33.5004         30.2504
 -16073165.38348 -12983163.82847  20737052.0784                   20737040.0784
        48.0004         42.0004
 -23864127.23848 -18491233.59848  21312773.9614                   21312764.8914
        48.7504         53.5004
 -18211292.85047 -12577561.99546  22274013.9534                   22274001.8364
        47.5004         37.0004
  -4608777.56646  -3573723.76442  24748276.4614                   24748264.5204
        37.0004         16.2504
 -17651203.16447 -13724845.38848  21908256.2894                   21908244.8164
        46.0004         49.5004
 -11859927.82446 -10704530.99546  22574389.0394                   22574381.1414
        41.7504         41.5004
  -5674600.32645  -4673337.82045  24178346.5864                   24178339.3914
        34.7504         32.2504
 -17374707.41148 -19916711.23449  20686106.2584                   20686096.3674
        53.0004         55.0004
 23  1  6  1 26  0.0000000  0 10G23G08G22G10G21G12G31G01G25G32
   -495501.58446  -2207997.65943  23940937.0084                   23940926.7074
        39.0004         23.0004
  -5843951.67745  -4528019.43545  25489335.1024                   25489324.7424
        35.2504         31.2504
 -16097369.07547 -13002023.84346  20732445.6094                   20732434.3714
        46.5004         41.7504
 -23811398.88348 -18450146.59648  21322808.2274                   21322798.6884
        49.5004         53.5004
 -18233596.19347 -12594941.22046  22269770.2974                   22269757.6524
        46.0004         37.0004
  -4650114.56346  -3605934.39943  24740410.3674                   24740398.3674
        36.7504         19.2504
 -17748511.47047 -13800670.03348  21889739.8204                   21889727.9964
        47.0004         49.5004
 -11933077.03446 -10761530.37646  22560469.9694                   22560461.7194
        41.0004         41.5004
  -5744015.75445  -4727427.80945  24165136.6414                   24165130.1484
        35.0004         33.0004
 -17348838.73248 -19896553.82349  20691028.5164                   20691018.9184
        53.0004         54.7504
 23  1  6  1 26 30.0000000  0 10G23G08G22G10G21G12G31G01G25G32
   -403304.42446  -2136155.79943  23958481.1254                   23958471.0594
        38.5004         22.5004
  -5763257.47645  -4465140.87344  25504687.4844                   25504680.3484
        32.2504         29.0004
 -16121248.71448 -13020631.34446  20727901.6174                   20727890.2034
        48.5004         41.7504
 -23758333.92548 -18408797.29948  21332906.1414                   21332896.9534
        48.7504         53.2504
 -18255428.27348 -12611953.24046  22265615.7894                   22265603.2624
        48.5004         37.2504
  -4690984.52046  -3637781.14043  24732633.5004                   24732621.8524
        37.5004         20.0004
 -17845454.80847 -13876210.28248  21871291.4064                   21871279.8754
        46.2504         49.5004
 -12005752.29346 -10818160.44646  22546639.4774                   22546630.8164
        40.7504         41.0004
  -5813115.88045  -4781272.07645  24151987.2114                   24151979.8984
        34.5004         31.2504
 -17322665.38348 -19876159.01649  20696009.2034                   20696000.0164
        53.0004         54.7504
 23  1  6  1 27  0.0000000  0 10G23G08G22G10G21G12G31G01G25G32
   -310939.72046  -2064183.41643  23976056.6094                   23976047.5394
        37.5004         22.7504
  -5682517.72745  -4402226.74645  25520051.9924                   25520046.1454
        32.0004         30.5004
 -16144804.39548 -13038986.41646  20723419.2734                   20723407.9184
        48.2504         41.7504
 -23704932.08648 -18367185.49148  21343068.4064                   21343058.6914
        48.5004         53.2504
 -18276787.78847 -12628597.03046  22261551.1484                   22261538.5044
        47.7504         37.0004
  -4731384.74446  -3669261.79343  24724946.7504                   24724933.9884
        38.7504         21.5004
 -17942029.70047 -13951463.43448  21852913.8674                   21852902.2774
        46.2504         49.5004
 -12077950.64846 -10874418.90046  22532901.3984                   22532892.6804
        41.7504         41.2504
  -5881897.11345  -4834867.88445  24138897.5864                   24138891.2114
        34.0004         31.7504
 -17296188.00148 -19855527.29949  20701047.8204                   20701038.3404
        52.0004         55.0004
 23  1  6  1 27 30.0000000  0 10G23G08G22G10G21G12G31G01G25G32
   -218409.74646  -1992082.21544  23993665.0554                   23993655.6914
        37.7504         24.0004
  -5601737.15645  -4339280.81345  25535425.5004                   25535417.8954
        33.0004         30.2504
 -16168037.70748 -13057090.29146  20718998.0084                   20718986.5354
        48.5004         41.7504
 -23651194.78148 -18325312.28748  21353293.5944                   21353284.5234
        48.5004         53.5004
 -18297675.66248 -12644873.29546  22257576.3834                   22257563.8554
        48.5004         37.5004
  -4771314.15246  -3700375.62443  24717348.1254                   24717336.1844
        38.2504         20.0004
 -18038235.04047 -14026428.62348  21834606.5554                   21834595.1414
        46.0004         49.5004
 -12149670.94046 -10930304.84446  22519252.8284                   22519244.1684
        41.0004         41.2504
  -5950357.63045  -4888213.81945  24125871.2504                   24125863.7034
        34.5004         32.0004
 -17269409.01248 -19834660.55849  20706143.9614                   20706134.1294
        52.5004         54.7504
 23  1  6  1 28  0.0000000  0 10G23G08G22G10G21G12G31G01G25G32
   -125714.09846  -1919851.95043  24011304.2894                   24011295.1024
        37.5004         22.5004
  -5520917.37745  -4276304.26144  25550803.2114                   25550795.2544
        33.5004         29.2504
 -16190948.09648 -13074942.53747  20714638.2894                   20714626.9344
        48.0004         42.0004
 -23597121.03048 -18283176.92648  21363584.0474                   21363574.6844
        49.5004         53.2504
 -18318089.87147 -12660780.47446  22253691.4534                   22253679.1024
        47.5004         37.2504
  -4810769.72945  -3731120.19643  24709838.6024                   24709827.9494
        35.5004         19.5004
 -18134066.64147 -14101102.58948  21816370.9224                   21816359.2734
        47.0004         49.7504
 -12220909.52346 -10985815.42046  22505696.2814                   22505688.0904
        41.0004         41.5004
  -6018493.14945  -4941306.45945  24112905.8444                   24112898.2974
        34.5004         32.2504
 -17242328.29248 -19813558.70649  20711296.8754                   20711287.5124
        52.5004         54.7504
 23  1  6  1 28 30.0000000  0 10G23G08G22G10G21G12G31G01G25G32
    -32854.22746  -1847493.72543  24028975.2974                   24028965.8754
        37.5004         22.2504
  -5440062.14544  -4213300.23845  25566188.5554                   25566186.1684
        29.0004         30.0004
 -16213536.52047 -13092543.90846  20710339.8284                   20710328.2384
        47.5004         41.7504
 -23542711.61148 -18240780.00248  21373937.8134                   21373928.3324
        48.5004         53.2504
 -18338030.52147 -12676318.64146  22249897.2034                   22249884.6174
        47.0004         37.2504
  -4849749.54145  -3761494.01143  24702420.8674                   24702410.8014
        35.5004         19.7504
 -18229522.43647 -14175483.71548  21798205.8914                   21798194.1844
        46.0004         49.7504
 -12291664.43547 -11040949.13046  22492233.0864                   22492223.7234
        42.0004         41.7504
  -6086301.19645  -4994143.89345  24100002.3594                   24099995.5744
        35.2504         32.2504
 -17214947.52548 -19792223.05049  20716507.4064                   20716497.8674
        51.5004         55.0004
 23  1  6  1 29  0.0000000  0 10G23G22G03G10G21G12G31G01G25G32
     60176.19146  -1775002.57143  24046677.5634                   24046668.7854
        37.2504         22.5004
 -16235796.44048 -13109889.29547  20706104.2974                   20706092.1804
        48.7504         42.0004
                                  25663387.6804                   25663377.2034
        33.5004         29.2504
 -23487959.44848 -18198116.00248  21384356.5394                   21384347.1764
        48.0004         53.0004
 -18357489.15548 -12691481.21646  22246193.8364                   22246181.7774
        48.0004         37.5004
  -4888244.39645  -3791489.98443  24695094.5634                   24695085.5514
        35.7504         20.0004
 -18324592.30247 -14249564.12448  21780114.6484                   21780103.2934
        46.0004         50.0004
 -12361926.11646 -11095698.48946  22478862.3204                   22478853.8364
        40.7504         41.0004
  -6153771.48545  -5046718.16845  24087163.1174                   24087156.2734
        35.0004         33.0004
 -17187260.65548 -19770648.87649  20721776.1564                   20721766.6174
        51.2504         55.0004
 23  1  6  1 29 30.0000000  0 11G23G08G22G03G10G21G12G31G01G25G32
    153362.55646  -1702389.95443  24064412.1884                   24064401.8874
        38.0004         23.0004
                                  25596988.4614                   25596976.6954
        39.0004         29.5004
 -16257741.83448 -13126989.59947  20701928.1564                   20701916.1564
        48.2504         42.0004
                                  25644344.1174                   25644335.5744
        32.5004         22.0004
 -23432878.55048 -18155195.85148  21394838.2734                   21394829.4384
        49.5004         53.2504
 -18376478.93647 -12706278.45246  22242580.2344                   22242568.1764
        47.5004         37.5004
  -4926265.86246  -3821117.05943  24687859.7344                   24687849.9614
        36.7504         20.2504
 -18419287.15847 -14323352.31248  21762094.9144                   21762083.4414
        46.5004         50.0004
 -12431705.74447 -11150072.21746  22465583.8594                   22465574.9064
        42.5004         41.5004
  -6220914.63145  -5099037.50045  24074386.0944                   24074378.5474
        35.0004         32.2504
 -17159282.47248 -19748847.69149  20727100.4144                   20727090.5824
        51.5004         54.7504
 23  1  6  1 30  0.0000000  0 10G23G08G22G10G21G12G31G01G25G32
    246701.63046  -1629658.28243  24082172.9614                   24082163.9494
        36.7504         22.5004
  -5197321.05045  -4065146.01255  25612382.8754                   25612376.7934
        34.2504         30.0004
 -16279375.85347 -13143847.26946  20697811.3834                   20697799.6764
        47.0004         41.7504
 -23377471.36648 -18112021.44348  21405382.0784                   21405373.1254
        48.5004         53.2504
 -18395002.39147 -12720712.31046  22239055.8984                   22239043.6054
        47.0004         37.5004
  -4963814.25746  -3850375.51043  24680715.7664                   24680705.7584
        36.2504         19.0004
 -18513606.79447 -14396848.12148  21744146.4384                   21744134.8484
        46.2504         50.2504
 -12501003.34047 -11204070.35246  22452396.1644                   22452387.7974
        42.0004         41.7504
  -6287730.09645  -5151101.46445  24061671.9614                   24061664.6484
        34.5004         32.0004
 -17131016.47848 -19726822.24549  20732479.1174                   20732469.4614
        51.0004         55.0004
 23  1  6  1 30 30.0000000  0 11G23G08G22G03G10G21G12G31G01G25G32
    340220.75646  -1556786.35643  24099969.3204                   24099959.8404
        36.2504         22.0004
  -5116341.79645  -4002045.30644  25627790.5314                   25627786.0944
        30.7504         26.5004
 -16300670.73748 -13160440.68147  20693758.6414                   20693747.2854
        48.7504         42.0004
                                  25606240.195
        36.000
 -23321710.28548 -18068571.27948  21415992.8204                   21415983.8674
        48.5004         53.0004
 -18413030.24048 -12734759.99146  22235625.2584                   22235612.3794
        48.0004         37.2504
  -5000859.37746  -3879241.83543  24673665.8594                   24673655.1484
        36.5004         19.7504
 -18607520.41247 -14470027.55748  21726275.2664                   21726263.2074
        46.2504         50.2504
 -12569788.33247 -11257669.03247  22439307.1644                   22439298.9734
        42.5004         42.2504
  -6354186.47445  -5202885.67445  24049025.4224                   24049017.2304
        35.5004         31.5004
 -17102435.56948 -19704551.40849  20737917.6334                   20737908.2704
        51.0004         55.0004
 23  1  6  1 31  0.0000000  0 10G23G08G22G10G21G12G31G01G25G32
    433881.08846  -1483804.41143  24117792.5004                   24117782.9614
        37.5004         22.5004
   -352295.59454  -3963085.02355  25643200.1174                   25643197.3204
        29.0004         32.0004
 -16321665.05548 -13176799.89946  20689763.8984                   20689752.3094
        48.5004         41.7504
 -23265632.93248 -18024874.66848  21426663.8914                   21426655.1134
        48.5004         53.0004
 -18430599.92548 -12748450.66246  22232281.9224                   22232268.8674
        48.0004         37.2504
  -5037436.55346  -3907743.47843  24666705.6094                   24666694.8984
        37.0004         20.7504
 -18701063.05647 -14542917.91448  21708474.7424                   21708463.2704
        46.2504         50.5004
 -12638096.15547 -11310895.91847  22426309.0234                   22426300.0124
        42.7504         42.5004
  -6420318.84545  -5254417.36945  24036440.2504                   24036432.6454
        34.7504         31.7504
 -17073578.78748 -19682065.60749  20743409.1724                   20743399.6334
        50.7504         55.0004
 23  1  6  1 31 30.0000000  0 10G23G08G22G10G21G12G31G01G25G32
    527710.20646  -1410690.91043  24135648.3054                   24135638.8244
        37.2504         22.0004
   -271286.39145  -3899960.98044  25658618.6334                   25658613.6684
        31.7504         29.2504
 -16342330.94447 -13192903.17446  20685830.9534                   20685819.3054
        47.7504         41.7504
 -23209211.57148 -17980909.99348  21437400.8834                   21437391.7544
        49.0004         53.0004
 -18447682.55247 -12761761.80046  22229030.8674                   22229018.5744
        47.7504         37.2504
  -5073515.96246  -3935857.33843  24659841.2344                   24659829.0594
        37.5004         20.7504
 -18794203.37447 -14615494.78848  21690750.4614                   21690739.1644
        46.2504         50.5004
 -12705896.00746 -11363726.95747  22413406.8284                   22413397.7584
        41.7504         42.2504
  -6486095.48845  -5305671.88345  24023924.3834                   24023917.0704
        35.2504         32.7504
 -17044418.73048 -19659343.48749  20748958.0394                   20748948.5594
        51.5004         54.7504
 23  1  6  1 32  0.0000000  0 11G23G08G22G03G10G21G12G31G01G25G32
    621697.04146  -1337454.53743  24153533.2114                   24153522.9104
        36.5004         21.5004
   -190262.35045  -3836825.29744  25674037.2894                   25674031.0904
        32.5004         28.0004
 -16362678.83848 -13208758.67246  20681958.9454                   20681947.5904
        48.0004         41.7504
   -445767.01554   -578748.37654  25549008.1414                   25548999.3634
        28.0004         26.2504
 -23152456.00848 -17936684.90048  21448200.6884                   21448192.1454
        48.2504         53.0004
 -18464287.29847 -12774700.56346  22225870.9224                   22225858.8634
        47.7504         37.0004
  -5109105.87046  -3963589.78843  24653067.3204                   24653055.8484
        37.7504         20.5004
 -18886948.92947 -14687764.03748  21673101.6094                   21673090.1374
        46.7504         50.7504
 -12773195.74547 -11416168.32547  22400601.1334                   22400592.1214
        43.0004         43.2504
  -6551523.88045  -5356655.01045  24011473.3984                   24011466.4384
        35.0004         32.0004
 -17014966.84748 -19636393.96249  20754562.5234                   20754552.9264
        51.0004         54.7504
 23  1  6  1 32 30.0000000  0 11G23G08G22G03G10G21G12G31G01G25G32
    715844.52146  -1264092.96043  24171449.6414                   24171438.9884
        37.5004         21.2504
   -109222.71546  -3773677.65944  25689459.6564                   25689451.2894
        36.0004         28.0004
 -16382705.52148 -13224363.89046  20678148.3524                   20678136.5864
        48.2504         41.5004
                                  25529915.4844                   25529908.8164
        31.7504         23.7504
 -23095363.02748 -17892196.89148  21459065.3054                   21459056.6454
        48.2504         52.7504
 -18480410.24248 -12787263.91146  22222802.5554                   22222790.6724
        48.0004         36.7504
  -5144200.05846  -3990935.91643  24646388.5394                   24646377.5354
        37.0004         21.0004
 -18979293.35147 -14759720.71848  21655529.1564                   21655517.8014
        46.7504         51.0004
 -12839989.08847 -11468215.07847  22387889.4924                   22387881.3014
        42.0004         43.0004
  -6616596.84545  -5407361.17145  23999089.1334                   23999082.5824
        34.2504         32.0004
 -16985220.18148 -19613214.74449  20760223.0394                   20760213.5594
        50.2504         55.0004
 23  1  6  1 33  0.0000000  0 11G23G08G22G03G10G21G12G31G01G25G32
    810146.90846  -1190610.69543  24189393.6334                   24189384.5044
        36.2504         22.0004
    -28175.29745  -3710523.75545  25704882.5234                   25704874.2734
        34.0004         30.2504
 -16402416.44947 -13239723.05346  20674397.2814                   20674385.7504
        47.0004         41.7504
   -646457.06555   -735130.10554  25510818.1334                   25510808.5944
        33.5004         26.5004
 -23037937.74848 -17847449.94748  21469993.2504                   21469984.1804
        48.0004         52.5004
 -18496055.51447 -12799455.03546  22219825.6644                   22219813.5474
        46.7504         37.2504
  -5178801.28546  -4017897.94943  24639804.9774                   24639792.3914
        37.5004         20.0004
 -19071238.92847 -14831366.60648  21638032.3284                   21638020.9144
        47.0004         51.0004
 -12906278.63747 -11519869.26447  22375276.1254                   22375266.1764
        42.5004         43.2504
  -6681316.48645  -5457792.04245  23986773.7814                   23986766.8204
        34.2504         32.0004
 -16955184.84448 -19589810.58749  20765938.6884                   20765929.0314
        50.5004         54.7504
 23  1  6  1 33 30.0000000  0 11G23G08G22G03G10G21G12G31G01G25G32
    904606.99845  -1117005.53643  24207368.1644                   24207359.7974
        35.7504         21.0004
     52881.25345  -3647362.85244  25720306.2664                   25720299.4224
        35.2504         29.5004
 -16421808.53348 -13254833.76946  20670707.1884                   20670695.5394
        48.0004         41.5004
   -746861.37745   -813367.17144  25491712.0784                   25491702.3634
        34.5004         29.7504
 -22980176.41548 -17802441.14248  21480984.9844                   21480975.9144
        48.0004         52.5004
 -18511219.05148 -12811270.78646  22216940.2424                   22216927.9494
        48.0004         36.5004
  -5212903.84846  -4044471.38043  24633315.8204                   24633302.3554
        38.0004         19.5004
 -19162778.72747 -14902696.31248  21620613.3444                   21620601.4024
        47.0004         51.0004
 -12972058.15547 -11571126.04247  22362758.5864                   22362749.5744
        42.7504         43.5004
  -6745675.87645  -5507942.21145  23974526.9694                   23974519.0124
        34.2504         32.0004
 -16924858.14348 -19566179.38949  20771709.6094                   20771700.3054
        50.0004         54.7504
 23  1  6  1 34  0.0000000  0 11G23G08G22G03G10G21G12G31G01G25G32
    999220.47146  -1043280.86743  24225372.9454                   24225364.4024
        36.2504         20.5004
    133940.00645  -3584200.14144  25735730.5084                   25735723.6644
        33.2504         26.2504
 -16440885.85748 -13269699.21346  20667076.6174                   20667065.0274
        48.5004         41.7504
   -847306.44755   -891635.97154  25472597.1094                   25472588.9774
        32.0004         28.0004
 -22922083.16847 -17757173.69848  21492039.0554                   21492030.6884
        47.2504         52.5004
 -18525904.01248 -12822713.60946  22214145.8594                   22214133.2154
        48.0004         37.0004
  -5246509.53346  -4070657.69343  24626921.6564                   24626907.0784
        38.5004         20.0004
 -19253914.05547 -14973710.83948  21603270.2504                   21603259.1294
        47.2504         51.0004
 -13037329.01046 -11621986.43047  22350336.7114                   22350328.5784
        41.7504         43.5004
  -6809675.58845  -5557812.09345  23962347.9534                   23962339.1174
        34.5004         31.0004
 -16894244.66648 -19542324.72749  20777535.0554                   20777525.6914
        50.0004         55.0004
 23  1  6  1 34 30.0000000  0 11G23G08G22G03G10G21G12G31G01G25G32
   1093988.71245   -969435.60243  24243407.0234                   24243398.7154
        35.0004         21.5004
    215000.71546  -3521035.97844  25751157.7734                   25751148.5864
        36.0004         28.0004
 -16459646.25148 -13284317.70046  20663506.8594                   20663495.2114
        48.5004         41.5004
   -947788.66745   -969933.81244  25453475.1724                   25453466.2774
        32.5004         28.5004
 -22863655.68948 -17711645.82148  21503158.0084                   21503149.1134
        48.0004         52.5004
 -18540106.90348 -12833780.80746  22211442.9924                   22211430.7584
        48.0004         37.0004
  -5279613.82146  -4096453.27043  24620620.2034                   24620607.7934
        36.5004         20.5004
 -19344639.76747 -15044406.19548  21586005.8834                   21585994.5274
        47.0004         51.2504
 -13102086.28047 -11672446.64447  22338014.9064                   22338005.5434
        43.2504         43.7504
  -6873310.25445  -5607397.53845  23950238.9694                   23950232.1844
        34.5004         32.0004
 -16863343.03748 -19518245.54349  20783415.4144                   20783405.9344
        50.2504         55.0004
 23  1  6  1 35  0.0000000  0 11G23G08G22G03G10G21G12G31G01G25G32
   1188910.49845   -895470.70343  24261470.4384                   24261461.6024
        35.7504         20.5004
    296060.40745  -3457872.57344  25766581.5084                   25766575.7774
        31.0004         29.2504
 -16478090.94948 -13298690.18846  20659996.8134                   20659984.9304
        48.0004         41.5004
  -1048307.67645  -1048260.29344  25434347.4614                   25434338.5084
        32.0004         29.7504
 -22804894.56248 -17665857.94548  21514339.7894                   21514330.8364
        48.0004         52.5004
 -18553828.17948 -12844472.71046  22208832.5554                   22208819.5594
        48.0004         36.5004
  -5312214.89246  -4121856.69143  24614418.5314                   24614403.8954
        38.5004         21.0004
 -19434953.41847 -15114780.44648  21568819.6024                   21568808.0124
        46.7504         51.2504
 -13166328.14946 -11722505.25747  22325789.6254                   22325780.6724
        41.7504         43.5004
  -6936577.26545  -5656696.47545  23938200.3204                   23938193.0084
        35.7504         32.5004
 -16832154.81248 -19493943.02749  20789350.4844                   20789340.9454
        50.0004         54.7504
 23  1  6  1 35 30.0000000  0 11G23G08G22G03G10G21G12G31G01G25G32
   1283985.42845   -821386.46243  24279562.9144                   24279554.0204
        35.2504         22.0004
    377116.22845  -3394712.24844  25782005.1174                   25781999.3874
        34.0004         27.7504
 -16496219.96748 -13312816.70046  20656547.0554                   20656535.4654
        48.2504         41.2504
  -1148862.12845  -1126614.29544  25415209.7584                   25415204.1454
        31.5004         27.2504
 -22745799.74047 -17619810.06948  21525584.8984                   21525576.4144
        47.5004         52.2504
 -18567066.86647 -12854788.57446  22206313.1484                   22206300.5044
        47.7504         37.0004
  -5344310.95546  -4146866.61443  24608311.7664                   24608295.5474
        39.0004         19.5004
 -19524851.84347 -15184831.16048  21551712.7344                   21551700.6174
        47.2504         51.2504
 -13230051.87447 -11772160.08647  22313663.2974                   22313654.9884
        42.2504         44.0004
  -6999473.16045  -5705706.20745  23926230.3284                   23926224.3054
        34.0004         31.7504
 -16800680.60348 -19469417.67349  20795339.6724                   20795330.1334
        50.2504         55.0004
 23  1  6  1 36  0.0000000  0 11G23G08G22G03G10G21G12G31G01G25G32
   1379211.35445   -747184.60443  24297683.1724                   24297674.6294
        35.7504         20.7504
    458165.05944  -3331557.27044  25797426.9924                   25797421.7304
        29.0004         25.2504
 -16514035.17748 -13326698.68146  20653156.6954                   20653145.2234
        48.0004         41.5004
  -1249452.04945  -1204996.04345  25396071.0084                   25396061.9964
        33.0004         30.0004
 -22686372.51047 -17573503.16748  21536893.7814                   21536885.0044
        47.5004         52.5004
 -18579823.48747 -12864728.81746  22203884.9774                   22203872.8014
        47.0004         36.5004
  -5375901.08646  -4171482.33343  24602297.6094                   24602283.9104
        37.2504         19.0004
 -19614333.76247 -15254557.31548  21534684.8444                   21534673.0784
        47.2504         51.5004
 -13293256.25047 -11821410.25847  22301636.6724                   22301627.0744
        42.5004         44.0004
  -7061996.14145  -5754425.40845  23914333.1724                   23914327.0904
        34.7504         32.7504
 -16768922.60748 -19444671.18249  20801383.3134                   20801373.7154
        50.0004         55.0004
 23  1  6  1 36 30.0000000  0 11G23G08G22G03G10G21G12G31G01G25G32
   1474588.23345   -672865.04243  24315833.1484                   24315824.2544
        35.2504         22.0004
    539204.08245  -3268409.94744  25812849.7814                   25812842.7624
        33.0004         24.7504
 -16531536.56848 -13340336.13046  20649826.2974                   20649814.6484
        48.0004         41.5004
  -1350075.54445  -1283403.94644  25376921.1644                   25376913.6174
        32.0004         29.2504
 -22626612.52948 -17526936.98148  21548265.9454                   21548256.8164
        48.5004         52.0004
 -18592096.81247 -12874292.44646  22201549.7504                   22201537.2234
        47.5004         36.7504
  -5406982.09246  -4195701.31343  24596384.1094                   24596369.9414
        38.2504         19.5004
 -19703395.67247 -15323956.20348  21517737.1334                   21517725.3674
        47.5004         51.5004
 -13355938.20746 -11870253.34047  22289707.0314                   22289699.3094
        41.2504         43.7504
  -7124142.35345  -5802850.99045  23902508.1724                   23902500.2734
        35.0004         32.5004
 -16736881.03248 -19419703.72849  20807480.3674                   20807470.9454
        50.7504         54.7504
 23  1  6  1 37  0.0000000  0 11G23G08G22G03G10G21G12G31G01G25G32
   1570116.62245   -598427.49043  24334012.3984                   24334003.5044
        35.0004         22.5004
    620232.10845  -3205271.37244  25828270.4694                   25828263.2734
        33.2504         26.2504
 -16548722.47148 -13353727.74246  20646556.2814                   20646544.6334
        48.2504         41.5004
  -1450730.53345  -1361836.25744  25357768.9144                   25357760.6054
        34.7504         29.7504
 -22566518.64047 -17480110.60848  21559701.0784                   21559692.3594
        47.7504         52.2504
 -18603885.50547 -12883478.45446  22199306.2274                   22199294.0514
        47.2504         36.5004
  -5437551.46746  -4219521.63243  24590567.5554                   24590552.9774
        38.2504         19.0004
 -19792033.49047 -15393024.62148  21500869.8674                   21500858.1604
        47.2504         51.5004
 -13418094.10347 -11918686.50647  22277881.2344                   22277871.7544
        42.7504         44.0004
  -7185907.54745  -5850979.66245  23890752.7114                   23890745.3404
        34.2504         31.2504
 -16704555.57648 -19394515.06049  20813631.9534                   20813622.5904
        51.0004         55.0004
 23  1  6  1 37 30.0000000  0 11G23G08G22G03G10G21G12G31G01G25G32
   1665792.29045   -523875.14943  24352218.5394                   24352209.5864
        35.0004         21.0004
    701242.87445  -3142146.08344  25843685.3914                   25843678.3714
        31.5004         24.2504
 -16565596.83047 -13366876.58846  20643344.8914                   20643333.3594
        47.7504         41.2504
  -1551418.84845  -1440294.67045  25338607.7504                   25338599.7934
        34.7504         30.5004
 -22506093.96047 -17433026.47648  21571200.0164                   21571190.9454
        47.5004         52.0004
 -18615191.43947 -12892288.28146  22197155.0864                   22197142.5594
        47.2504         36.5004
  -5467610.02446  -4242943.93143  24584845.4534                   24584831.8134
        36.7504         19.2504
 -19880247.71747 -15461762.96948  21484083.0634                   21484071.7664
        47.2504         51.5004
 -13479724.76447 -11966710.39947  22266152.2894                   22266143.6884
        42.5004         43.7504
  -7247291.84945  -5898811.59045  23879071.7894                   23879063.5394
        34.5004         32.0004
 -16671950.46248 -19369108.48049  20819836.1724                   20819826.8674
        50.0004         55.0004
 23  1  6  1 38  0.0000000  0 11G23G08G22G03G10G21G12G31G01G25G32
   1761617.06645   -449206.63743  24370453.6334                   24370444.4454
        34.7504         21.5004
    782236.56855  -3079033.95854  25859100.0554                   25859091.3954
        34.7504         29.2504
 -16582157.97147 -13379781.37346  20640193.4224                   20640181.8914
        47.5004         41.2504
  -1652137.34845  -1518776.56144  25319441.2974                   25319432.9304
        34.0004         29.0004
 -22445336.61047 -17385683.11248  21582762.2114                   21582752.6724
        47.5004         52.0004
 -18626012.80847 -12900720.51246  22195095.2894                   22195083.1134
        46.7504         36.7504
  -5497153.42346  -4265964.82943  24579225.6644                   24579210.3244
        38.7504         18.5004
 -19968033.01647 -15530167.09648  21467378.4224                   21467366.6564
        47.5004         51.5004
 -13540825.55546 -12014321.39147  22254524.5234                   22254516.0394
        41.5004         43.5004
  -7308289.64445  -5946342.35245  23867465.6484                   23867457.8094
        35.7504         32.5004
 -16639064.22848 -19343482.84749  20826094.3674                   20826084.8874
        50.2504         55.0004
 23  1  6  1 38 30.0000000  0 11G23G08G22G03G10G21G12G31G01G25G32
   1857589.38845   -374423.15843  24388716.6804                   24388707.9024
        34.2504         19.7504
    863209.05455  -3015938.90653  25874507.6804                   25874499.7234
        34.5004         22.7504
 -16598406.77448 -13392442.78146  20637102.0634                   20637090.2974
        49.0004         41.5004
  -1752885.09445  -1597281.24645  25300271.0004                   25300261.8134
        35.2504         30.0004
 -22384247.43347 -17338081.19148  21594386.3284                   21594377.7854
        47.2504         52.0004
 -18636348.68347 -12908774.44446  22193128.2584                   22193116.4344
        47.2504         36.2504
  -5526180.66246  -4288583.44042  24573702.1644                   24573687.0004
        37.5004         17.7504
 -20055387.44147 -15598235.47148  21450754.9454                   21450743.2384
        47.7504         51.5004
 -13601394.54647 -12061518.01547  22243000.3594                   22242990.8794
        43.0004         44.0004
  -7368898.66445  -5993570.09745  23855931.4454                   23855924.7194
        35.2504         32.7504
 -16605898.37448 -19317639.32949  20832405.4064                   20832395.9844
        50.5004         54.7504
 23  1  6  1 39  0.0000000  0 11G23G08G22G03G10G21G12G31G01G25G32
   1953707.59045   -299525.97743  24407006.6644                   24406998.6484
        34.2504         20.5004
    944158.63945  -2961825.25753  25889909.7344                   25889903.0084
        31.7504         22.5004
 -16614344.83448 -13404862.04146  20634068.6024                   20634057.0704
        49.0004         41.5004
  -1853662.14145  -1675808.79145  25281093.2034                   25281084.6024
        34.7504         30.2504
 -22322827.26747 -17290221.35648  21606074.4304                   21606065.6524
        47.0004         51.7504
 -18646200.53747 -12916451.21346  22191254.0004                   22191241.7664
        47.2504         37.0004
  -5554690.49946  -4310798.92343  24568274.2814                   24568261.6374
        36.0004         19.7504
 -20142309.31547 -15665966.79548  21434213.7344                   21434202.7304
        47.5004         51.7504
 -13661430.46346 -12108299.26047  22231574.5474                   22231566.3554
        41.7504         44.0004
  -7429116.79645  -6040493.29545  23844471.5944                   23844466.1564
        34.0004         33.0004
 -16572454.76648 -19291579.39049  20838769.7424                   20838760.3204
        51.0004         54.7504
 23  1  6  1 39 30.0000000  0 11G23G08G22G03G10G21G12G31G01G25G32
   2049972.43345   -224514.56943  24425326.8594                   24425317.6134
        35.0004         21.5004
   1025082.61955  -2898767.60854  25905312.1094                   25905302.6294
        34.5004         24.0004
 -16629970.76148 -13417038.08646  20631094.4924                   20631083.6054
        48.5004         41.5004
  -1954465.56245  -1754356.82944  25261909.7344                   25261901.4264
        34.0004         29.5004
 -22261075.08047 -17242102.80748  21617825.3284                   21617816.1414
        47.0004         51.5004
 -18655565.57147 -12923748.65446  22189471.8284                   22189459.3594
        47.2504         36.5004
  -5582679.63246  -4332608.74343  24562950.6484                   24562937.0664
        37.5004         18.5004
 -20228794.45047 -15733357.80048  21417756.7974                   21417745.2664
        47.7504         51.7504
 -13720929.41847 -12154662.06447  22220252.5394                   22220243.5864
        42.0004         43.7504
  -7488939.37345  -6087108.24445  23833088.1564                   23833081.4884
        34.7504         33.0004
 -16538732.72848 -19265302.47949  20845187.0234                   20845177.0744
        51.5004         55.0004
 23  1  6  1 40  0.0000000  0 11G23G08G22G03G10G21G12G31G01G25G32
   2146382.16945   -149390.26143  24443671.7194                   24443663.5864
        34.5004         21.2504
                                  25920704.5784                   25920697.5594
        29.5004         22.0004
 -16645286.14348 -13428972.15746  20628180.5394                   20628169.4184
        49.0004         41.7504
  -2055295.14945  -1832925.29045  25242724.4924                   25242714.3674
        35.0004         30.5004
 -22198991.66248 -17193726.15048  21629639.6414                   21629630.6294
        48.0004         51.5004
 -18664444.56747 -12930667.35946  22187782.3914                   22187769.9224
        47.7504         36.5004
  -5610147.14646  -4354012.03343  24557722.3364                   24557710.2194
        37.0004         19.2504
 -20314840.88747 -15800406.95948  21401382.9224                   21401371.2154
        47.5004         52.0004
 -13779889.99347 -12200605.38147  22209033.5084                   22209023.7344
        42.7504         44.0004
  -7548364.26445  -6133413.31645  23821779.8204                   23821772.6844
        35.0004         33.0004
 -16504734.18348 -19238810.11349  20851656.5004                   20851647.1954
        52.0004         55.0004
 23  1  6  1 40 30.0000000  0 10G23G22G03G10G21G12G31G01G25G32
   2242934.16045    -74155.07843  24462045.5474                   24462037.0634
        34.2504         20.0004
 -16660292.97648 -13440665.78646  20625324.9384                   20625313.1134
        49.2504         41.7504
  -2156151.61345  -1911514.71244  25223529.1174                   25223522.8014
        33.0004         29.7504
 -22136579.31247 -17145093.18548  21641516.6884                   21641507.6174
        47.2504         51.5004
 -18672839.10548 -12937208.56446  22186185.2424                   22186172.3054
        48.2504         36.5004
  -5637092.72246  -4375008.65143  24552594.4384                   24552582.0864
        37.0004         19.5004
 -20400447.81247 -15867113.64648  21385092.5704                   21385080.8054
        47.5004         52.0004
 -13838311.78147 -12246128.86347  22197915.1884                   22197906.8794
        42.0004         44.0004
  -7607390.34945  -6179407.67745  23810547.5554                   23810539.3634
        35.0004         31.5004
 -16470461.84948 -19212104.40249  20858178.2584                   20858169.0704
        51.5004         55.0004
 23  1  6  1 41  0.0000000  0 10G23G22G03G10G21G12G31G01G25G32
   2339629.24245      1191.57643  24480446.3134                   24480437.7704
        34.7504         20.2504
 -16674990.27348 -13452118.22747  20622528.1564                   20622516.6844
        48.7504         42.2504
  -2257032.16945  -1990122.88745  25204332.7974                   25204325.0744
        33.5004         30.7504
 -22073836.59447 -17096202.79348  21653455.9144                   21653447.0204
        47.7504         51.2504
 -18680746.95947 -12943370.54146  22184680.1804                   22184667.7704
        47.5004         36.5004
  -5663513.30846  -4395596.19442  24547566.0864                   24547553.9694
        36.0004         17.2504
 -20485610.78348 -15933474.39748  21368886.2504                   21368874.7194
        48.0004         52.2504
 -13896190.86247 -12291229.41447  22186901.3754                   22186892.8914
        42.0004         44.2504
  -7666012.96945  -6225087.66245  23799392.8524                   23799383.8984
        35.0004         32.2504
 -16435915.03248 -19185184.82049  20864752.5084                   20864743.1454
        52.5004         55.0004
 23  1  6  1 41 30.0000000  0 10G23G22G03G10G21G12G31G01G25G32
   2436465.45645     76648.20943  24498873.5784                   24498865.2704
        34.7504         20.5004
 -16689379.54848 -13463330.64546  20619789.7194                   20619777.9534
        48.7504         41.5004
  -2357936.53245  -2068749.65545  25185131.9844                   25185123.6764
        34.0004         30.2504
 -22010764.79947 -17047055.97548  21665458.4144                   21665449.1094
        47.2504         51.0004
 -18688169.00247 -12949153.96446  22183267.7894                   22183255.0864
        47.7504         36.2504
  -5689407.95046  -4415773.92943  24542640.0004                   24542628.0004
        37.5004         19.0004
 -20570328.30947 -15999488.04048  21352764.9304                   21352753.4574
        47.2504         52.2504
 -13953526.03747 -12335906.18547  22175991.1724                   22175982.1604
        43.0004         44.5004
  -7724230.26946  -6270451.77945  23788314.7664                   23788306.1054
        36.0004         33.0004
 -16401095.73348 -19158052.91049  20871378.6174                   20871369.2544
        51.5004         54.7504
 23  1  6  1 42  0.0000000  0 10G23G22G03G10G21G12G31G01G25G32
   2533442.39146    152214.47943  24517328.6254                   24517320.1994
        36.0004         20.2504
 -16703460.93748 -13474303.15747  20617110.4924                   20617098.7274
        48.0004         42.0004
  -2458863.15645  -2147393.72545  25165927.4064                   25165918.4534
        35.5004         30.2504
 -21947363.54447 -16997652.43548  21677523.2894                   21677514.1604
        47.0004         51.0004
 -18695104.33447 -12954558.12246  22181948.4774                   22181936.1254
        47.5004         36.2504
  -5714774.29646  -4435539.93043  24537811.6954                   24537800.6334
        36.2504         19.2504
 -20654597.41547 -16065152.26948  21336729.0784                   21336717.6644
        47.7504         52.5004
 -14010314.68247 -12380157.08447  22165183.5084                   22165175.3754
        42.0004         44.5004
  -7782038.76645  -6315497.38645  23777313.2734                   23777306.4884
        35.0004         33.5004
 -16366004.45348 -19130709.06249  20878056.2114                   20878046.6134
        51.7504         54.7504
 23  1  6  1 42 30.0000000  0 10G23G22G03G10G21G12G31G01G25G32
   2630559.57045    227890.04443  24535809.0554                   24535800.5704
        34.7504         21.0004
 -16717234.59948 -13485035.87347  20614489.5704                   20614477.6294
        48.2504         42.0004
  -2559810.48645  -2226053.92844  25146716.2894                   25146708.4494
        34.2504         29.7504
 -21883632.99547 -16947992.30748  21689650.5004                   21689641.9574
        47.0004         50.7504
 -18701552.09547 -12959582.36346  22180721.0084                   22180708.5984
        46.5004         36.7504
  -5739610.38446  -4454892.79642  24533085.1024                   24533074.9774
        37.0004         16.7504
 -20738414.83947 -16130464.53948  21320779.1094                   21320767.7544
        47.5004         52.5004
 -14066554.37747 -12423980.20447  22154482.5474                   22154474.0634
        43.0004         44.7504
  -7839435.28945  -6360221.95145  23766391.5944                   23766384.4574
        35.2504         33.7504
 -16330641.82248 -19103153.77549  20884785.3054                   20884775.7664
        52.5004         55.0004
 23  1  6  1 43  0.0000000  0 10G23G22G03G10G21G12G31G01G25G32
   2727815.59546    303673.75243  24554317.3204                   24554307.1954
        36.0004         20.2504
 -16730701.40748 -13495529.49047  20611926.9064                   20611915.1994
        48.2504         42.0004
  -2660777.78745  -2304729.67744  25127504.1174                   25127495.1644
        34.7504         29.5004
 -21819574.01147 -16898076.25548  21701840.2584                   21701831.8914
        46.5004         50.5004
 -18707512.68747 -12964226.99046  22179586.9924                   22179574.4064
        47.7504         36.5004
  -5763915.13446  -4473831.52443  24528462.0704                   24528449.8364
        36.5004         19.0004
 -20821779.04447 -16195423.64748  21304915.4924                   21304904.3134
        47.5004         52.7504
 -14122243.27447 -12467374.14747  22143885.6174                   22143876.5474
        43.5004         45.2504
  -7896417.33046  -6404623.53445  23755548.4774                   23755540.6374
        36.2504         34.5004
 -16295009.27048 -19075388.16649  20891566.2034                   20891556.5474
        52.2504         55.0004
 23  1  6  1 43 30.0000000  0 10G23G22G03G10G21G12G31G01G25G32
   2825209.27945    379564.78043  24572850.1094                   24572840.9224
        35.7504         21.2504
 -16743861.96248 -13505784.47047  20609422.2034                   20609410.7304
        48.2504         42.0004
  -2761764.23345  -2383420.33144  25108286.5394                   25108278.6994
        35.0004         29.5004
 -21755187.23847 -16847904.77348  21714092.8984                   21714084.1214
        46.7504         50.5004
 -18712986.34647 -12968492.18346  22178545.3674                   22178532.7814
        47.0004         36.2504
  -5787687.06046  -4492355.07943  24523938.2734                   24523927.0354
        36.7504         20.2504
 -20904687.58548 -16260027.70448  21289139.0784                   21289127.0204
        48.0004         52.7504
 -14177379.69847 -12510337.59347  22133392.5004                   22133384.0164
        42.5004         44.7504
  -7952982.29346  -6448700.19945  23744785.3914                   23744775.8524
        36.2504         33.5004
 -16259108.07148 -19047413.21649  20898397.9844                   20898388.1524
        52.0004         55.0004
 23  1  6  1 44  0.0000000  0 10G23G22G03G10G21G12G31G01G25G32
   2922740.53346    455562.97243  24591409.8594                   24591400.8484
        36.5004         20.7504
 -16756716.26448 -13515800.80647  20606976.2194                   20606964.7464
        48.5004         42.2504
  -2862767.73145  -2462124.25144  25089065.4144                   25089057.3404
        34.5004         29.2504
 -21690471.67847 -16797477.10848  21726407.4844                   21726399.3524
        46.5004         50.2504
 -18717971.87347 -12972377.01346  22177596.7274                   22177584.2584
        47.7504         36.7504
  -5810923.85946  -4510461.71343  24519516.1024                   24519505.7424
        36.7504         19.7504
 -20987137.00648 -16324274.00048  21273448.8984                   21273437.4844
        48.0004         53.0004
 -14231960.58547 -12552868.15047  22123007.0084                   22122998.1134
        43.5004         45.5004
  -8009126.44146  -6492448.88845  23734100.8284                   23734092.6954
        36.0004         33.7504
 -16222938.31448 -19019228.99049  20905280.5394                   20905271.1764
        52.0004         54.7504
 23  1  6  1 44 30.0000000  0 10G23G22G03G10G21G12G31G01G25G32
   3020408.37646    531667.61243  24609996.6414                   24609986.2814
        36.7504         22.2504
 -16769265.03548 -13525579.07447  20604588.0864                   20604576.6724
        48.5004         42.0004
  -2963787.25645  -2540840.69644  25069842.4924                   25069833.5984
        34.0004         29.7504
 -21625428.18047 -16746793.90648  21738785.0164                   21738776.4144
        46.5004         50.2504
 -18722469.13547 -12975881.38046  22176740.5474                   22176728.3134
        46.5004         37.0004
  -5833623.91645  -4528150.06842  24515195.3134                   24515184.4844
        35.5004         17.7504
 -21069124.90848 -16388160.67248  21257847.3054                   21257835.6564
        48.0004         53.0004
 -14285984.03147 -12594964.34547  22112726.3204                   22112717.7774
        43.5004         45.5004
  -8064847.10545  -6535867.65745  23723497.5864                   23723488.5164
        35.7504         34.0004
 -16186501.13948 -18990836.40249  20912214.5234                   20912205.2774
        52.5004         54.7504
 23  1  6  1 45  0.0000000  0 10G23G22G03G10G21G12G31G01G25G32
   3118210.68346    607877.03243  24628607.8364                   24628598.3554
        36.2504         22.0004
 -16781510.14348 -13535120.70947  20602257.9534                   20602246.2464
        48.5004         42.0004
  -3064822.80945  -2619569.63145  25050615.7344                   25050607.8364
        33.7504         30.2504
 -21560058.45647 -16695856.49048  21751224.4304                   21751215.9454
        46.2504         50.2504
 -18726479.02247 -12979005.97446  22175977.4304                   22175965.4884
        46.5004         37.0004
  -5855786.70146  -4545419.73343  24510979.8594                   24510967.0984
        37.7504         19.0004
 -21150649.74148 -16451686.51848  21242333.8754                   21242322.2274
        48.2504         53.0004
 -14339449.14247 -12636625.45947  22102551.2894                   22102543.2734
        42.5004         45.5004
  -8120142.57845  -6578955.06345  23712974.5004                   23712966.6024
        35.5004         34.0004
 -16149798.66848 -18962237.09249  20919198.8754                   20919189.3954
        52.0004         54.7504
 23  1  6  1 45 30.0000000  0 10G23G22G03G10G21G12G31G01G25G32
   3216147.09945    684190.91943  24647244.1174                   24647235.1644
        35.2504         21.7504
 -16793451.15148 -13544425.39447  20599985.5864                   20599974.2304
        48.2504         42.0004
  -3165872.69945  -2698309.74345  25031385.5864                   25031378.6254
        34.5004         30.7504
 -21494362.19547 -16644664.63548  21763725.5634                   21763717.4884
        46.0004         50.0004
 -18730000.99047 -12981750.37246  22175307.5164                   22175295.1644
        45.7504         37.0004
  -5877410.29146  -4562269.25543  24506863.5084                   24506853.0904
        36.5004         19.0004
 -21231708.73947 -16514849.36548  21226908.2974                   21226897.3524
        47.5004         53.0004
 -14392353.37547 -12677849.53647  22092485.6954                   22092476.1564
        44.0004         45.5004
  -8175009.49846  -6621708.53845  23702534.0704                   23702526.9344
        36.7504         34.5004
 -16112831.31248 -18933431.37449  20926233.5164                   20926223.7424
        52.2504         54.7504
 23  1  6  1 46  0.0000000  0 10G23G22G03G10G21G12G31G01G25G32
   3314216.86646    760608.68543  24665907.1094                   24665897.2774
        36.5004         20.5004
 -16805088.78848 -13553493.68347  20597770.9844                   20597759.6884
        48.5004         42.0004
  -3266935.28045  -2777059.74944  25012153.1644                   25012146.0274
        32.5004         29.0004
 -21428339.52747 -16593218.44348  21776290.1254                   21776281.4654
        46.2504         50.0004
 -18733034.70847 -12984114.32046  22174730.0474                   22174717.8134
        46.5004         37.0004
  -5898493.19546  -4578697.47243  24502852.6724                   24502841.0824
        37.0004         18.2504
 -21312299.30847 -16577647.19748  21211572.8674                   21211560.8674
        47.7504         53.2504
 -14444694.42947 -12718634.78847  22082524.8364                   22082516.0004
        43.5004         45.5004
  -8229444.83745  -6664125.74745  23692174.7274                   23692167.9414
        34.7504         33.7504
 -16075599.92148 -18904419.91449  20933318.3134                   20933308.9494
        51.5004         55.0004
 23  1  6  1 46 30.0000000  0 10G23G22G03G10G21G12G31G01G25G32
   3412418.93246    837129.57543  24684593.2194                   24684584.7344
        36.0004         20.7504
 -16816423.38848 -13562325.83847  20595614.3834                   20595602.4414
        48.2504         42.2504
  -3368009.69645  -2855818.96744  24992920.3284                   24992913.1914
        33.5004         29.5004
 -21361991.10147 -16541518.40948  21788916.5314                   21788907.5784
        47.0004         50.2504
 -18735579.93247 -12986097.62946  22174245.5944                   22174233.5354
        47.0004         37.2504
  -5919033.78146  -4594703.05443  24498943.5864                   24498932.4064
        37.2504         19.0004
 -21392419.16047 -16640078.25348  21196326.2894                   21196315.2854
        47.5004         53.2504
 -14496470.48647 -12758979.75047  22072671.6484                   22072663.6334
        42.5004         45.5004
  -8283445.99546  -6706204.60645  23681899.3984                   23681891.7934
        36.5004         34.2504
 -16038105.50548 -18875203.50249  20940453.1024                   20940443.6804
        51.7504         54.7504
 23  1  6  1 47  0.0000000  0 10G23G22G03G10G21G12G31G01G25G32
   3510751.98746    913752.53843  24703306.5944                   24703297.2894
        36.5004         21.5004
 -16827456.14748 -13570922.79847  20593515.0554                   20593503.4064
        49.0004         42.2504
  -3469094.74346  -2934586.49245  24973685.8364                   24973676.7664
        36.0004         31.0004
 -21295317.31447 -16489564.85748  21801603.3444                   21801594.5664
        46.5004         50.0004
 -18737637.28447 -12987700.75946  22173853.9304                   22173842.0474
        47.0004         37.5004
  -5939030.46345  -4610284.91143  24495135.8284                   24495128.2234
        34.2504         18.5004
 -21472066.01547 -16702140.72848  21181170.1334                   21181158.7194
        47.7504         53.2504
 -14547679.88947 -12798883.18147  22062927.8134                   22062918.1564
        43.7504         46.0004
  -8337010.38946  -6747943.12745  23671706.5944                   23671698.8134
        36.5004         34.0004
 -16000349.36548 -18845783.14949  20947638.1884                   20947628.5314
        52.5004         54.7504
 23  1  6  1 47 30.0000000  0 10G23G22G03G10G21G12G31G01G25G32
   3609215.26745    990476.94943  24722042.6724                   24722034.3634
        34.7504         20.5004
 -16838187.42748 -13579284.83847  20591472.8364                   20591461.1884
        49.2504         42.2504
  -3570189.45645  -3013361.55644  24954446.3444                   24954438.9734
        33.5004         28.7504
 -21228318.74347 -16437358.22848  21814353.0634                   21814344.2274
        46.5004         49.7504
 -18739206.77847 -12988923.74346  22173555.4614                   22173543.5784
        46.5004         37.0004
  -5958482.56546  -4625442.36743  24491437.0944                   24491425.4454
        37.7504         19.0004
 -21551237.33348 -16763832.65848  21166104.4454                   21166092.6214
        48.0004         53.2504
 -14598320.57247 -12838343.47347  22053291.2584                   22053281.4264
        43.5004         45.7504
  -8390135.30546  -6789339.22745  23661597.2114                   23661588.9024
        36.5004         33.5004
 -15962332.45748 -18816159.59949  20954872.3674                   20954862.9454
        51.5004         55.0004
 23  1  6  1 48  0.0000000  0 10G23G22G03G10G21G12G31G01G25G32
   3707807.89345   1067302.16743  24740804.2114                   24740795.2584
        35.5004         20.7504
 -16848617.63148 -13587412.27747  20589488.0394                   20589476.5084
        49.5004         42.5004
  -3671292.22545  -3092142.90345  24935207.2734                   24935200.0204
        34.5004         30.7504
 -21160995.61247 -16384898.68648  21827164.4844                   21827155.1804
        46.5004         49.7504
 -18740287.51747 -12989765.87646  22173349.9224                   22173337.3364
        47.5004         37.5004
  -5977387.99446  -4640173.81243  24487838.5474                   24487826.8984
        37.5004         18.5004
 -21629930.53247 -16825152.03048  21151129.3444                   21151117.7544
        47.7504         53.2504
 -14648390.46747 -12877358.97447  22043761.9224                   22043753.6724
        42.5004         45.7504
  -8442817.64945  -6830390.42645  23651571.5084                   23651563.4344
        35.5004         32.7504
 -15924055.57048 -18786333.47249  20962156.1724                   20962146.5744
        52.0004         54.7504
 23  1  6  1 48 30.0000000  0 10G23G22G03G10G21G12G31G01G25G32
   3806529.00445   1144227.52543  24759590.0554                   24759582.5664
        35.2504         20.2504
 -16858747.21348 -13595305.46347  20587560.5004                   20587549.0864
        48.7504         42.5004
  -3772401.79845  -3170929.55545  24915968.1954                   24915959.0664
        34.5004         30.5004
 -21093348.30747 -16332186.53548  21840036.5234                   21840028.2734
        46.5004         50.0004
 -18740879.48947 -12990227.17146  22173237.3284                   22173224.9774
        47.0004         37.7504
  -5995745.43046  -4654478.29843  24484346.7974                   24484334.2114
        38.2504         19.7504
 -21708143.27748 -16886097.02548  21136246.2974                   21136234.6484
        48.2504         53.5004
 -14697887.65947 -12915928.21047  22034344.3204                   22034334.8984
        43.7504         46.0004
  -8495054.98045  -6871094.87245  23641630.3834                   23641623.5394
        35.0004         33.5004
 -15885519.61648 -18756305.47549  20969489.3444                   20969479.8054
        52.5004         54.7504
 23  1  6  1 49  0.0000000  0 10G23G22G03G10G21G12G31G01G25G32
   3905376.74145   1221251.48943  24778399.4774                   24778392.6334
        35.0004         21.0004
 -16868577.61548 -13602965.51747  20585689.6644                   20585677.8984
        49.5004         42.5004
  -3873517.63545  -3249721.11345  24896726.6024                   24896717.4144
        35.0004         31.2504
 -21025378.24947 -16279222.90948  21852971.7734                   21852963.1134
        47.5004         50.0004
 -18740983.69947 -12990308.38446  22173217.3444                   22173205.2854
        47.0004         37.7504
  -6013554.20145  -4668355.30043  24480954.5634                   24480945.4344
        35.5004         19.5004
 -21785873.70648 -16946666.18848  21121454.4064                   21121442.9924
        48.0004         53.2504
 -14746810.87847 -12954050.22047  22025034.2504                   22025025.3554
        43.2504         46.0004
  -8546845.01446  -6911450.76845  23631775.0084                   23631768.6914
        37.2504         34.5004
 -15846726.31148 -18726076.94249  20976871.5864                   20976861.6954
        52.5004         54.7504
 23  1  6  1 49 30.0000000  0 10G23G22G03G10G21G12G31G01G25G32
   4004351.09645   1298374.14043  24797234.5394                   24797226.9924
        34.7504         20.2504
 -16878108.75048 -13610392.38747  20583876.2034                   20583864.6134
        49.0004         42.5004
  -3974637.64045  -3328515.91045  24877484.1884                   24877474.8244
        35.5004         31.2504
 -20957084.78847 -16226007.26248  21865967.9144                   21865958.1414
        47.0004         50.0004
 -18740599.40847 -12990008.94446  22173290.9844                   22173278.5744
        47.2504         38.0004
  -6030812.13246  -4681803.08243  24477673.9454                   24477662.2974
        37.7504         21.7504
 -21863118.98148 -17006857.30748  21106755.0944                   21106743.5044
        48.0004         53.5004
 -14795157.56947 -12991722.95647  22015833.5084                   22015825.1414
        42.5004         46.0004
  -8598184.32045  -6951455.46045  23622005.0084                   23621999.1604
        35.7504         33.5004
 -15807675.77748 -18695647.97649  20984302.8444                   20984293.0704
        52.7504         54.7504
 23  1  6  1 50  0.0000000  0 10G23G22G03G10G21G12G31G01G25G32
   4103450.62345   1375594.37643  24816092.8984                   24816085.1764
        35.7504         19.5004
 -16887341.37048 -13617586.64147  20582119.4534                   20582107.5704
        49.2504         42.5004
  -4075761.02345  -3407313.32045  24858239.7424                   24858231.4344
        35.2504         31.2504
 -20888468.99847 -16172540.45748  21879024.3914                   21879015.5554
        46.5004         49.7504
 -18739726.94247 -12989329.10346  22173457.0944                   22173444.3324
        47.7504         37.5004
  -6047518.40246  -4694820.93743  24474493.6884                   24474481.3954
        37.7504         18.5004
 -21939877.16748 -17066668.88248  21092148.6334                   21092136.9264
        49.2504         53.5004
 -14842926.25247 -13028945.31147  22006744.1804                   22006734.9924
        43.5004         46.0004
  -8649070.77146  -6991107.26345  23612322.9384                   23612316.2704
        36.2504         34.2504
 -15768369.50948 -18665019.73049  20991782.4224                   20991772.5904
        52.5004         54.7504
 23  1  6  1 50 30.0000000  0 10G23G22G03G10G21G12G31G01G25G32
   4202674.28145   1452911.26943  24834974.3444                   24834967.1484
        35.7504         19.2504
 -16896276.18348 -13624548.83647  20580418.8364                   20580407.3634
        49.5004         42.5004
  -4176886.39345  -3486112.27345  24838996.9384                   24838988.2194
        35.0004         31.5004
 -20819531.15947 -16118822.70548  21892142.9534                   21892134.5274
        47.2504         49.7504
 -18738366.32547 -12988268.88746  22173715.6334                   22173703.2234
        46.5004         37.5004
  -6063671.40246  -4707407.70142  24471418.8914                   24471405.7194
        36.7504         16.7504
 -22016145.76848 -17126098.95548  21077635.2424                   21077623.3594
        49.5004         53.5004
 -14890115.04647 -13065715.81347  21997764.4454                   21997755.1414
        43.5004         46.0004
  -8699501.55346  -7030404.00245  23602726.2814                   23602719.7304
        37.2504         33.7504
 -15728808.35348 -18634192.87849  20999310.6644                   20999300.7734
        53.0004         54.7504
 23  1  6  1 51  0.0000000  0 10G23G22G03G10G21G12G31G01G25G32
   4302021.56746   1530324.52143  24853880.8834                   24853872.1054
        36.7504         18.5004
 -16904913.17748 -13631278.96547  20578775.6954                   20578763.6954
        48.7504         42.5004
  -4278012.05345  -3564911.46545  24819752.6884                   24819744.5554
        34.2504         31.0004
 -20750271.65847 -16064854.29948  21905322.5314                   21905313.6374
        47.0004         49.7504
 -18736517.33147 -12986828.11746  22174067.5554                   22174055.0274
        46.2504         37.7504
  -6079269.70746  -4719562.25143  24468451.7664                   24468439.7074
        38.5004         22.0004
 -22091922.22748 -17185145.54948  21063215.5164                   21063204.2194
        50.5004         53.7504
 -14936721.74147 -13102032.72347  21988894.2034                   21988886.9494
        43.0004         46.0004
  -8749473.50746  -7069343.21245  23593217.2814                   23593209.8524
        36.0004         33.7504
 -15688992.86648 -18603167.83849  21006887.7194                   21006877.5944
        53.0004         54.7504
 23  1  6  1 51 30.0000000  0 10G23G22G03G10G21G12G31G01G25G32
   4401490.92045   1607832.90943  24872808.5704                   24872801.2584
        35.0004         19.5004
 -16913253.83548 -13637778.18447  20577188.1484                   20577176.7344
        49.7504         42.5004
  -4379137.28645  -3643710.31845  24800509.1334                   24800501.4104
        35.0004         31.0004
 -20680691.02047 -16010635.66248  21918563.3364                   21918554.5594
        47.5004         49.5004
 -18734180.45147 -12985007.18346  22174512.5704                   22174499.9844
        47.7504         38.0004
  -6094312.73246  -4731284.16943  24465587.9304                   24465577.8634
        38.0004         20.0004
 -22167204.82248 -17243807.31248  21048889.4534                   21048877.9224
        49.5004         53.7504
 -14982745.21647 -13137895.16947  21980136.8204                   21980127.2234
        44.5004         46.2504
  -8798984.82946  -7107923.48545  23583794.7584                   23583787.3874
        37.0004         33.7504
 -15648924.64048 -18571945.86749  21014512.0634                   21014502.2304
        53.7504         54.7504
 23  1  6  1 52  0.0000000  0 11G23G17G22G03G10G21G12G31G01G25G32
   4501081.62945   1685435.85043  24891760.9614                   24891753.1804
        35.0004         19.0004
   -178003.28915                  25873611.516
        30.750
 -16921298.27448 -13644046.58547  20575657.7504                   20575645.9264
        48.5004         42.7504
  -4480260.47645  -3722507.53545  24781266.1334                   24781258.1174
        35.5004         31.5004
 -20610789.77247 -15956167.20748  21931865.2664                   21931856.6054
        47.5004         49.5004
 -18731355.53847 -12982805.96646  22175049.5944                   22175037.5354
        46.7504         38.2504
  -6108798.39246  -4742571.72943  24462831.8444                   24462819.4344
        37.7504         18.2504
 -22241990.77248 -17302082.07249  21034658.7344                   21034646.6174
        50.5004         54.0004
 -15028183.28147 -13173301.46447  21971490.8594                   21971481.7894
        44.5004         46.5004
  -8848032.49446  -7146142.47445  23574461.9144                   23574454.0164
        36.2504         33.5004
 -15608604.32448 -18540527.45849  21022184.8754                   21022175.2194
        53.5004         54.7504
 23  1  6  1 52 30.0000000  0 11G23G17G22G03G10G21G12G31G01G25G32
   4600792.39045   1763132.30542  24910732.9534                   24910726.4024
        33.7504         17.7504
   -195412.700 5                  25870299.859
        32.000
 -16929047.30848 -13650084.79647  20574182.8754                   20574170.8754
        49.5004         42.5004
  -4581380.59746  -3801302.36745  24762024.0314                   24762015.3714
        36.0004         32.2504
 -20540568.65047 -15901449.48048  21945227.8914                   21945218.7624
        47.0004         49.5004
 -18728042.88947 -12980224.68546  22175680.3204                   22175667.7934
        47.7504         38.2504
  -6122726.33246  -4753424.68243  24460182.3914                   24460169.0434
        38.5004         19.2504
 -22316278.29148 -17359968.45249  21020522.2584                   21020510.4924
        50.7504         54.2504
 -15073034.60247 -13208250.54347  21962954.9694                   21962946.4844
        43.7504         46.5004
  -8896614.13845  -7183998.33245  23565216.9614                   23565209.8834
        35.7504         34.0004
 -15568033.10748 -18508913.54449  21029905.4534                   21029895.7384
        53.5004         54.7504
 23  1  6  1 53  0.0000000  0 11G23G17G22G03G10G21G12G31G01G25G32
   4700622.12545   1840921.50743  24929730.3754                   24929724.2344
        33.5004         18.5004
   -212356.428 5                  25867075.773
        31.000
 -16936501.80748 -13655893.49847  20572764.4144                   20572752.5904
        49.2504         42.5004
  -4682496.40545  -3880093.85445  24742782.0784                   24742773.7704
        34.7504         32.0004
 -20470028.44747 -15846483.13848  21958651.0944                   21958642.4924
        46.7504         49.0004
 -18724242.46347 -12977263.32446  22176403.1804                   22176390.8874
        47.5004         38.2504
  -6136095.35846  -4763842.21643  24457637.8914                   24457625.7154
        38.0004         20.0004
 -22390065.04448 -17417464.62349  21006480.5084                   21006469.0354
        50.2504         54.0004
 -15117297.39247 -13242741.02247  21954532.6884                   21954523.6174
        44.2504         46.7504
  -8944727.24246  -7221489.08445  23556061.8834                   23556054.1604
        36.5004         33.7504
 -15527212.04748 -18477104.94549  21037673.1174                   21037663.4614
        53.0004         54.7504
 23  1  6  1 53 30.0000000  0 11G23G17G22G03G10G21G12G31G01G25G32
   4800570.03045   1918802.76343  24948753.1174                   24948744.1644
        35.5004         19.2504
   -228834.22644    193213.59752  25863940.8594                   25863931.0864
        29.7504         15.5004
 -16943662.25648 -13661473.07847  20571401.8364                   20571390.1294
        49.0004         42.5004
  -4783606.42546  -3958880.78145  24723542.3594                   24723532.7624
        36.0004         32.5004
 -20399169.32347 -15791268.28348  21972135.4774                   21972126.4064
        47.5004         49.0004
 -18719954.71748 -12973922.23546  22177219.1564                   22177206.8634
        48.2504         38.0004
  -6148904.30246  -4773823.24443  24455201.0944                   24455189.4454
        38.2504         20.5004
 -22463348.97048 -17474568.97749  20992535.5474                   20992523.2544
        50.7504         54.2504
 -15160969.92247 -13276771.56747  21946222.1884                   21946213.2344
        45.0004         46.7504
  -8992369.12946  -7258612.63545  23546995.6804                   23546988.3674
        36.0004         34.2504
 -15486141.97148 -18445102.30649  21045488.8054                   21045479.0904
        52.7504         55.0004
