     2.11           OBSERVATION DATA    G (GPS)             RINEX VERSION / TYPE
teqc  2019Feb25     Salamtina Y.M.      20230920 03:20:32UTCPGM / RUN BY / DATE
OBSERVATION MODE: Permanent                                 COMMENT
CHUM Chumysh (CHUM)                                         MARKER NAME
25601M001                                                   MARKER NUMBER
4549261325          TRIMBLE NETRS        1.3-2              REC # / TYPE / VERS
237                 AOAD/M_T        NONE                    ANT # / TYPE
        0.0900        0.0000        0.0000                  ANTENNA: DELTA H/E/N
  1228950.3089  4508080.0063  4327868.5384                  APPROX POSITION XYZ
  74.75110456  42.99850161  716.3305  LonLatAlt  S/W        COMMENT
ANT ADDED FROM RCV_ANT.txt                                  COMMENT
Linux 2.6.32-573.12.1.x86_64|x86_64|gcc|Linux 64|=+         COMMENT
BIT 2 OF LLI FLAGS DATA COLLECTED UNDER A/S CONDITION       COMMENT
Konovalov S.M.      RS_RAS                                  OBSERVER / AGENCY
     1     1                                                WAVELENGTH FACT L1/2
     7    L1    L2    C1    P1    P2    S1    S2            # / TYPES OF OBSERV
    30.0000                                                 INTERVAL
    18                                                      LEAP SECONDS
TIME: 2023.01.04                                            COMMENT
TOUR: cont                                                  COMMENT
RSET: RAS02                                                 COMMENT
ASET: DS24                                                  COMMENT
OPER: skon (Konovalov S.M.)                                 COMMENT
SOUR: chum202301040000d.dat                                 COMMENT
SUPP: chum202301040000d.eph                                 COMMENT
SUPP: chum202301040000d.ion                                 COMMENT
SUPP: chum202301040000d.mes                                 COMMENT
Forced Modulo Decimation to 30 seconds                      COMMENT
 SNR is mapped to RINEX snr flag value [0-9]                COMMENT
  L1 & L2: min(max(int(snr_dBHz/6), 0), 9)                  COMMENT
  2023     1     4     0     0    0.0000000     GPS         TIME OF FIRST OBS
  2023     1     4    23    59   30.0000000     GPS         TIME OF LAST OBS
                                                            END OF HEADER
 23  1  4  0  0  0.0000000  0  9G23G24G22G27G08G10G21G18G32
 -14367749.70947 -13366150.23646  21327475.3364                   21327464.2734
        46.7504         39.7504
 -16577230.96447 -12877727.70747  22297583.4774                   22297574.6994
        43.0004         44.0004
 -14775894.03546  -5356569.56244  22703229.5704                   22703219.2704
        41.0004         27.0004
 -12331920.18547  -9582149.35346  23179587.8594                   23179579.3754
        42.2504         40.7504
  -9866516.90546  -7661692.94946  23370348.5164                   23370340.2074
        39.7504         40.5004
 -27426543.70548 -21996200.28049  20521818.3594                   20521809.5824
        52.2504         55.0004
  -7903643.78646  -5212605.15443  24367715.4774                   24367704.0044
        38.7504         21.5004
 -14568379.67046 -11075971.05944  23247225.6804                   23247214.9694
        41.0004         29.0004
 -25994893.08748 -19868575.85449  20976856.9454                   20976847.6994
        52.2504         55.0004
 23  1  4  0  0 30.0000000  0  9G23G24G22G27G08G10G21G18G32
 -14316453.76047 -13326179.37546  21337236.3984                   21337226.0984
        46.5004         40.2504
 -16538527.24547 -12847568.96347  22304948.8594                   22304940.3164
        43.7504         44.0004
 -14860160.24146  -5422231.54444  22687195.1644                   22687184.3954
        41.5004         26.0004
 -12257512.20847  -9524169.12246  23193747.9384                   23193739.3954
        42.0004         40.7504
  -9844327.89646  -7644402.81546  23374571.0634                   23374562.4614
        39.7504         40.2504
 -27432385.93648 -22000752.66549  20520707.2814                   20520697.8014
        52.5004         55.0004
  -7988348.94446  -5278609.17043  24351597.0474                   24351585.5744
        39.5004         20.7504
 -14463087.22046 -10993924.99544  23267261.8364                   23267251.7114
        40.7504         29.2504
 -26040364.21548 -19904007.89249  20968203.6724                   20968195.0124
        51.7504         54.7504
 23  1  4  0  1  0.0000000  0  9G23G24G22G27G08G10G21G18G32
 -14264905.56547 -13286011.95946  21347045.9694                   21347035.0824
        47.0004         39.7504
 -16499209.22147 -12816931.53947  22312430.7584                   22312422.2154
        43.0004         44.0004
 -14944155.58846  -5487682.45644  22671211.5784                   22671200.5744
        40.7504         24.7504
 -12182761.89547  -9465922.12246  23207972.8364                   23207964.0004
        42.5004         40.7504
  -9821608.05546  -7626699.06346  23378893.3134                   23378885.7664
        39.0004         40.0004
 -27437952.08248 -22005089.91449  20519647.7274                   20519638.6564
        52.0004         54.7504
  -8072888.30646  -5344483.99943  24335510.1884                   24335498.0704
        39.2504         21.2504
 -14357568.86446 -10911702.91944  23287341.5944                   23287331.1764
        41.0004         27.7504
 -26085418.15948 -19939114.84449  20959630.2664                   20959621.3134
        51.5004         55.0004
 23  1  4  0  1 30.0000000  0  9G23G24G22G27G08G10G21G18G32
 -14213109.33347 -13245651.25946  21356902.3674                   21356891.8914
        46.5004         40.0004
 -16459282.21547 -12785819.57347  22320029.1884                   22320020.4104
        44.0004         44.0004
 -15027882.84346  -5552924.46644  22655278.7424                   22655267.3284
        40.7504         26.5004
 -12107676.05647  -9407413.68946  23222259.8364                   23222252.1134
        42.5004         40.2504
  -9798362.99246  -7608586.03046  23383316.9224                   23383309.0824
        39.5004         40.2504
 -27443245.72048 -22009214.83149  20518640.3594                   20518631.2304
        51.7504         54.7504
  -8157264.25146  -5410231.46543  24319454.3674                   24319442.1334
        39.5004         20.7504
 -14251830.48146 -10829309.36645  23307463.3754                   23307452.5474
        41.5004         30.2504
 -26130058.55848 -19973899.55849  20951135.7114                   20951126.5234
        51.7504         54.7504
 23  1  4  0  2  0.0000000  0  9G23G24G22G27G08G10G21G18G32
 -14161065.88347 -13205097.93446  21366806.3984                   21366795.6294
        47.0004         40.0004
 -16418748.25447 -12754234.66247  22327742.5864                   22327733.6334
        43.0004         44.2504
 -15111341.22846  -5617956.95644  22639396.6804                   22639386.3204
        41.2504         26.0004
 -12032258.48547  -9348646.75646  23236613.0784                   23236603.4224
        42.2504         40.0004
  -9774594.65946  -7590065.24346  23387840.2344                   23387832.1024
        39.0004         40.0004
 -27448267.05648 -22013127.54849  20517684.9224                   20517675.6174
        53.2504         54.7504
  -8241475.69346  -5475850.77443  24303428.6724                   24303416.7894
        39.5004         21.5004
 -14145874.75346 -10746746.47444  23327624.8914                   23327614.9414
        40.7504         28.5004
 -26174285.82648 -20008362.34649  20942719.4224                   20942710.1764
        52.0004         55.0004
 23  1  4  0  2 30.0000000  0  9G23G24G22G27G08G10G21G18G32
 -14108774.81447 -13164351.64846  21376756.3364                   21376746.0354
        47.0004         39.5004
 -16377608.02147 -12722177.33747  22335571.0164                   22335561.9454
        43.7504         44.0004
 -15194529.40447  -5682778.90044  22623566.5164                   22623555.5704
        42.0004         26.2504
 -11956511.43846  -9289623.08946  23251025.3284                   23251018.0744
        41.0004         39.2504
  -9750303.71346  -7571137.24346  23392463.0084                   23392454.5824
        40.7504         40.5004
 -27453014.80448 -22016827.09949  20516781.4774                   20516772.0554
        52.7504         55.0004
  -8325519.58746  -5541339.53043  24287435.8054                   24287423.6294
        40.0004         21.5004
 -14039703.07746 -10664015.30544  23347829.4774                   23347818.7074
        41.0004         29.2504
 -26218099.00248 -20042502.47149  20934382.0864                   20934373.0164
        51.5004         54.7504
 23  1  4  0  3  0.0000000  0  9G23G24G22G27G08G10G21G18G32
 -14056236.83347 -13123412.97146  21386754.2424                   21386743.6484
        47.0004         39.5004
 -16335863.57547 -12689649.19547  22343514.6254                   22343505.8484
        43.2504         44.0004
 -15277446.44546  -5747389.57744  22607787.8594                   22607777.2074
        41.5004         27.0004
 -11880438.47246  -9230345.48046  23265502.6094                   23265494.0664
        41.7504         39.2504
  -9725492.29746  -7551803.68746  23397184.0634                   23397176.1054
        41.0004         40.7504
 -27457488.89448 -22020313.39849  20515929.8984                   20515920.7114
        53.0004         54.7504
  -8409394.80746  -5606696.85143  24271475.4144                   24271462.9454
        40.7504         22.0004
 -13933317.98546 -10581117.81844  23368072.8984                   23368063.7704
        39.7504         29.0004
 -26261498.29848 -20076320.09549  20926123.2734                   20926114.0274
        52.0004         54.7504
 23  1  4  0  3 30.0000000  0  9G23G24G22G27G08G10G21G18G32
 -14003451.68647 -13082281.69446  21396799.1804                   21396788.1174
        46.0004         39.5004
 -16293515.79247 -12656650.92347  22351572.7664                   22351564.6334
        42.2504         44.2504
 -15360090.82946  -5811787.78144  22592061.2584                   22592050.6054
        41.0004         26.5004
 -11804042.09047  -9170815.82246  23280040.7584                   23280031.8634
        42.0004         39.7504
  -9700161.11946  -7532065.12646  23402006.0474                   23401996.5084
        41.2504         40.0004
 -27461688.50648 -22023585.81749  20515130.8204                   20515121.5164
        52.2504         55.0004
  -8493099.14746  -5671921.00343  24255546.5554                   24255534.9064
        40.5004         21.2504
 -13826720.89546 -10498055.18544  23388358.5944                   23388348.4104
        40.2504         29.7504
 -26304483.06148 -20109814.69549  20917943.5164                   20917934.6804
        51.5004         54.7504
 23  1  4  0  4  0.0000000  0  9G23G24G22G27G08G10G21G18G32
 -13950420.15747 -13040958.43746  21406890.7034                   21406879.6414
        46.7504         39.2504
 -16250566.74847 -12623184.13147  22359746.5944                   22359737.2894
        43.2504         44.0004
 -15442462.24446  -5875973.28044  22576386.2194                   22576375.8014
        41.0004         26.5004
 -11727325.93546  -9111037.03146  23294638.3754                   23294630.3594
        40.5004         39.0004
  -9674312.28446  -7511923.18146  23406924.4614                   23406915.2734
        41.2504         40.2504
 -27465613.76648 -22026644.45849  20514383.7274                   20514374.8324
        52.2504         55.0004
  -8576630.92046  -5737010.69343  24239651.8524                   24239639.2664
        40.5004         23.0004
 -13719914.51646 -10414829.43944  23408683.6484                   23408673.1724
        40.5004         28.0004
 -26347053.53148 -20142986.48949  20909843.1644                   20909833.9184
        52.5004         55.0004
 23  1  4  0  4 30.0000000  0  9G23G24G22G27G08G10G21G18G32
 -13897141.59247 -12999442.67746  21417029.3364                   21417018.0394
        46.7504         39.5004
 -16207017.05147 -12589249.30247  22368033.2274                   22368024.1564
        42.5004         43.7504
 -15524558.28447  -5939944.20744  22560763.9384                   22560753.4614
        42.0004         26.5004
 -11650292.11247  -9051010.67646  23309298.3204                   23309289.4844
        42.0004         39.5004
  -9647946.91446  -7491378.73846  23411941.0234                   23411932.5984
        41.2504         39.7504
 -27469263.35848 -22029488.29249  20513689.3134                   20513680.1844
        52.7504         54.7504
  -8659987.58746  -5801963.93243  24223788.6724                   24223776.6134
        40.0004         22.5004
 -13612899.86846 -10331441.39344  23429046.6094                   23429036.7774
        39.5004         27.7504
 -26389208.68048 -20175834.63749  20901820.4144                   20901811.8714
        51.7504         55.0004
 23  1  4  0  5  0.0000000  0  9G23G24G22G27G08G10G21G18G32
 -13843616.62247 -12957734.91646  21427215.1254                   21427203.9454
        46.5004         39.5004
 -16162868.63347 -12554847.93247  22376434.1724                   22376425.8054
        42.2504         43.5004
 -15606378.58747  -6003700.24244  22545193.9694                   22545183.3754
        42.0004         26.0004
 -11572944.13346  -8990739.52946  23324016.0944                   23324008.1374
        40.5004         38.7504
  -9621066.66646  -7470433.10246  23417056.0634                   23417047.8134
        40.7504         39.7504
 -27472637.09248 -22032117.17649  20513047.1414                   20513038.4224
        52.0004         55.0004
  -8743167.30346  -5866779.29043  24207960.5784                   24207948.1684
        40.2504         22.5004
 -13505679.52946 -10247893.09644  23449451.8984                   23449440.7774
        40.0004         27.5004
 -26430948.66748 -20208359.29149  20893877.7974                   20893869.0204
        51.5004         54.7504
 23  1  4  0  5 30.0000000  0  9G23G24G22G27G08G10G21G18G32
 -13789845.33247 -12915835.22246  21437447.4224                   21437436.3594
        46.0004         39.5004
 -16118122.94647 -12519981.15747  22384948.6174                   22384940.1914
        42.2504         44.0004
 -15687921.78846  -6067240.37644  22529677.1174                   22529666.3484
        41.7504         26.5004
 -11495284.84646  -8930225.83346  23338795.2424                   23338786.6994
        40.2504         39.0004
  -9593672.60246  -7449087.09246  23422268.2194                   23422260.4964
        40.0004         40.0004
 -27475734.40448 -22034530.66549  20512457.8364                   20512448.8244
        52.0004         54.7504
  -8826168.15546  -5931455.25443  24192166.1724                   24192154.3484
        41.0004         22.5004
 -13398255.36746 -10164185.94844  23469892.2344                   23469882.5204
        38.2504         28.2504
 -26472273.22148 -20240560.23449  20886014.1334                   20886005.2974
        52.5004         55.0004
 23  1  4  0  6  0.0000000  0  9G23G24G22G27G08G10G21G18G32
 -13735828.09047 -12873743.86946  21447726.2114                   21447715.6764
        46.5004         39.2504
 -16072781.69747 -12484650.32447  22393577.2734                   22393568.6134
        42.0004         43.5004
 -15769187.08446  -6130563.94044  22514212.2034                   22514201.8444
        41.2504         27.2504
 -11417317.54446  -8869472.09046  23353631.0004                   23353623.1024
        40.2504         38.7504
  -9565767.12146  -7427342.57946  23427578.0784                   23427570.8244
        39.5004         40.2504
 -27478554.97148 -22036728.51149  20511921.1644                   20511911.9774
        52.2504         54.7504
  -8908988.41046  -5995990.50043  24176405.7424                   24176393.5084
        40.0004         22.7504
 -13290629.59946 -10080321.73044  23490372.5554                   23490363.1334
        39.0004         28.5004
 -26513182.24748 -20272437.37849  20878229.2584                   20878220.8914
        51.7504         54.7504
 23  1  4  0  6 30.0000000  0  9G23G24G22G27G08G10G21G18G32
 -13681565.85647 -12831461.62346  21458051.9064                   21458041.1374
        47.2504         39.2504
 -16026847.14846 -12448857.17047  22402318.1804                   22402309.6954
        41.5004         43.5004
 -15850174.02547  -6193670.64344  22498801.2034                   22498790.6094
        42.0004         27.7504
 -11339045.84946  -8808481.17846  23368525.8674                   23368517.2074
        39.0004         38.2504
  -9537351.74346  -7405200.74146  23432986.4614                   23432978.1524
        39.5004         39.7504
 -27481099.12548 -22038710.96849  20511436.9224                   20511427.9694
        52.7504         55.0004
  -8991626.75246  -6060384.00343  24160680.2504                   24160668.2504
        39.0004         22.5004
 -13182804.87946  -9996302.45644  23510891.9614                   23510881.6024
        39.0004         26.7504
 -26553676.29148 -20303991.16549  20870523.5314                   20870514.7544
        51.7504         55.0004
 23  1  4  0  7  0.0000000  0  9G23G24G22G27G08G10G21G18G32
 -13627057.74647 -12788987.77746  21468424.4694                   21468413.6994
        46.5004         39.0004
 -15980319.88046 -12412602.15047  22411172.5394                   22411163.3524
        41.5004         43.5004
 -15930880.55146  -6256558.80844  22483443.4924                   22483432.8404
        41.2504         27.5004
 -11260471.85146  -8747254.69446  23383478.2664                   23383470.3094
        40.0004         38.7504
  -9508427.68346  -7382662.52146  23438490.4924                   23438482.4184
        39.5004         39.5004
 -27483365.19548 -22040476.73649  20511005.7894                   20510996.6024
        52.0004         55.2504
  -9074080.39446  -6124633.57043  24144989.9534                   24144977.7774
        40.2504         22.0004
 -13074782.27546  -9912129.00144  23531447.7194                   23531437.5354
        38.0004         28.0004
 -26593754.11448 -20335220.62149  20862896.6484                   20862888.1054
        51.2504         54.7504
 23  1  4  0  7 30.0000000  0  9G23G24G22G27G08G10G21G18G32
 -13572304.96747 -12746323.28546  21478843.6724                   21478833.0204
        46.7504         38.7504
 -15933202.49846 -12375887.29647  22420137.8134                   22420129.6804
        41.0004         43.2504
 -16011306.37347  -6319228.25344  22468139.1804                   22468128.1174
        43.2504         27.5004
 -11181599.57646  -8685795.78546  23398487.2974                   23398478.8714
        40.5004         38.7504
  -9478997.19446  -7359729.69046  23444091.0394                   23444082.9064
        39.7504         39.5004
 -27485353.60948 -22042026.15549  20510627.5234                   20510618.4534
        52.5004         55.0004
  -9156348.30846  -6188738.43543  24129334.8134                   24129322.6374
        40.0004         22.0004
 -12966564.72546  -9827803.66044  23552041.4144                   23552030.5274
        39.0004         28.5004
 -26633416.56648 -20366126.41649  20855349.4384                   20855340.7194
        51.7504         54.7504
 23  1  4  0  8  0.0000000  0  9G23G24G22G27G08G10G21G18G32
 -13517306.84947 -12703467.62746  21489309.0944                   21489298.6174
        45.7504         39.0004
 -15885495.71046 -12338713.20647  22429216.0554                   22429207.9224
        40.7504         43.0004
 -16091449.64247  -6381677.54744  22452887.8054                   22452877.0944
        42.0004         28.2504
 -11102431.10246  -8624106.08246  23413552.4694                   23413543.7504
        39.5004         38.2504
  -9449060.94846  -7336402.76746  23449788.3134                   23449779.2424
        40.2504         39.7504
 -27487062.92948 -22043358.09849  20510302.3284                   20510292.9064
        53.5004         55.0004
  -9238427.36846  -6252696.12743  24113714.9224                   24113703.2734
        40.5004         22.5004
 -12858153.50446  -9743327.36444  23572670.9844                   23572660.5664
        38.2504         27.5004
 -26672662.57448 -20396707.71249  20847881.4384                   20847872.3674
        52.0004         54.7504
 23  1  4  0  8 30.0000000  0  9G23G24G22G27G08G10G21G18G32
 -13462063.81847 -12660421.13046  21499821.5634                   21499811.0274
        46.5004         39.0004
 -15837201.50546 -12301081.34047  22438406.7664                   22438397.9304
        41.0004         42.7504
 -16171309.56247  -6443906.03144  22437690.7664                   22437680.6414
        42.5004         28.5004
 -11022969.87046  -8562188.24346  23428673.6334                   23428665.5004
        40.7504         38.5004
  -9418621.09646  -7312683.41646  23455580.2424                   23455572.2274
        40.5004         39.5004
 -27488493.19148 -22044472.59049  20510030.2034                   20510020.9574
        52.7504         55.0004
  -9320316.17046  -6316505.57043  24098133.0164                   24098120.5474
        40.5004         22.5004
 -12749550.77046  -9658701.85844  23593336.2344                   23593326.6954
        37.7504         26.2504
 -26711492.25348 -20426964.60049  20840492.4064                   20840483.3954
        52.0004         55.0004
 23  1  4  0  9  0.0000000  0  9G23G24G22G27G08G10G21G18G32
 -13406576.36247 -12617184.16146  21510380.8444                   21510370.1914
        46.2504         38.5004
 -15788321.72446 -12262993.21647  22447707.6254                   22447699.3164
        40.0004         42.5004
 -16250885.56747  -6505913.28844  22422548.3054                   22422537.1844
        43.0004         28.2504
 -10943219.06246  -8500044.76446  23443849.9614                   23443841.4184
        40.0004         38.5004
  -9387679.36346  -7288573.00346  23461467.6644                   23461459.8244
        39.2504         39.7504
 -27489643.81148 -22045369.18449  20509811.0004                   20509801.9304
        53.0004         54.7504
  -9402012.86446  -6380165.31843  24082585.6644                   24082573.7234
        39.5004         21.5004
 -12640758.84846  -9573928.95144  23614040.2344                   23614029.5234
        39.5004         27.2504
 -26749905.68948 -20456897.13649  20833182.5394                   20833173.4104
        51.7504         54.7504
 23  1  4  0  9 30.0000000  0  9G23G24G22G27G08G10G21G18G32
 -13350844.11247 -12573756.43046  21520986.5234                   21520975.2854
        46.2504         38.7504
 -15738857.60146 -12224449.71747  22457121.0474                   22457112.2704
        40.2504         42.5004
 -16330175.95347  -6567697.98544  22407459.4924                   22407448.8404
        42.5004         28.5004
 -10863181.22946  -8437677.63546  23459080.1724                   23459071.4534
        39.0004         38.5004
  -9356237.20746  -7264072.64046  23467451.2424                   23467442.9924
        40.0004         39.2504
 -27490514.03048 -22046047.27649  20509645.4844                   20509636.3554
        53.5004         55.0004
  -9483514.78446  -6443673.29943  24067077.3444                   24067064.7584
        39.0004         22.5004
 -12531779.27946  -9489009.81944  23634778.0704                   23634767.4184
        39.0004         27.0004
 -26787902.26348 -20486504.85149  20825951.8524                   20825942.8984
        51.0004         54.7504
 23  1  4  0 10  0.0000000  0  9G23G24G22G27G08G10G21G18G32
 -13294868.09447 -12530138.75446  21531637.9534                   21531627.1254
        45.7504         38.5004
 -15688811.62146 -12185452.87647  22466643.0864                   22466635.7734
        39.5004         42.7504
 -16409180.60247  -6629260.04444  22392425.3754                   22392414.7814
        42.5004         26.5004
 -10782860.31646  -8375089.91046  23474365.2504                   23474356.7074
        40.0004         39.0004
  -9324296.76846  -7239184.00546  23473528.8914                   23473521.7544
        40.0004         39.5004
 -27491103.73648 -22046506.79249  20509533.3444                   20509524.2734
        53.2504         55.0004
  -9564820.93146  -6507028.71943  24051604.7734                   24051592.6564
        40.0004         22.7504
 -12422614.90446  -9403946.65044  23655550.6254                   23655540.6764
        37.7504         26.5004
 -26825482.63248 -20515788.24049  20818800.5864                   20818791.5744
        51.5004         55.0004
 23  1  4  0 10 30.0000000  0  9G23G24G22G27G08G10G21G18G32
 -13238648.20047 -12486331.04446  21542336.5164                   21542325.6884
        45.7504         38.5004
 -15638185.25746 -12146003.74247  22476278.5084                   22476269.6134
        40.5004         42.7504
 -16487898.12647  -6690598.36044  22377446.4064                   22377435.2274
        42.7504         28.2504
 -10702258.97246  -8312283.67446  23489702.2344                   23489694.5704
        39.0004         39.0004
  -9291859.55146  -7213908.27246  23479701.8054                   23479693.7894
        40.5004         39.2504
 -27491412.42548 -22046747.32849  20509474.5704                   20509465.5004
        53.5004         54.7504
  -9645929.12146  -6570229.87443  24036170.9304                   24036158.4024
        40.5004         22.5004
 -12313267.49246  -9318740.90444  23676359.3984                   23676348.6294
        38.5004         27.0004
 -26862646.39148 -20544747.00849  20811728.7034                   20811719.5744
        51.0004         54.7504
 23  1  4  0 11  0.0000000  0  9G23G24G22G27G08G10G21G18G32
 -13182184.96247 -12442333.73046  21553081.0634                   21553070.5864
        46.0004         38.5004
 -15586980.59646 -12106104.00447  22486021.4064                   22486013.3324
        39.2504         42.2504
 -16566327.44647  -6751712.10444  22362521.8444                   22362510.7234
        43.7504         27.5004
 -10621380.66346  -8249261.62746  23505093.5164                   23505084.7974
        40.2504         38.5004
  -9258927.67746  -7188247.10146  23485968.4064                   23485960.6844
        39.7504         39.0004
 -27491440.02048 -22046768.83949  20509469.4534                   20509460.2664
        53.5004         54.7504
  -9726837.52546  -6633275.39043  24020773.7194                   24020762.0124
        40.2504         22.7504
 -12203739.43646  -9233394.35044  23697200.6094                   23697191.2464
        38.2504         26.7504
 -26899393.78748 -20573381.34049  20804735.5784                   20804726.5664
        52.0004         54.7504
 23  1  4  0 11 30.0000000  0  9G23G24G22G27G08G10G21G18G32
 -13125478.05947 -12398146.54246  21563871.6954                   21563861.3954
        45.7504         38.2504
 -15535198.86846 -12065754.60447  22495876.0864                   22495867.1914
        40.2504         42.5004
 -16644467.39047  -6812600.36544  22347651.5944                   22347640.7074
        42.7504         28.2504
 -10540227.91546  -8186025.72246  23520536.3594                   23520528.0514
        39.0004         38.5004
  -9225502.49046  -7162201.52446  23492329.5704                   23492321.0864
        40.7504         39.0004
 -27491185.13748 -22046570.22549  20509517.5474                   20509508.4774
        53.5004         54.7504
  -9807543.69446  -6696163.30243  24005416.8054                   24005404.1024
        41.0004         23.5004
 -12094032.14546  -9147908.16144  23718077.5554                   23718067.4884
        38.7504         25.0004
 -26935724.21348 -20601690.75249  20797822.2274                   20797813.3914
        51.2504         54.7504
 23  1  4  0 12  0.0000000  0  9G23G24G22G27G08G10G21G18G32
 -13068528.26147 -12353770.08546  21574709.2974                   21574698.6454
        45.5004         38.5004
 -15482842.41446 -12024957.38147  22505838.7424                   22505830.4344
        40.7504         42.7504
 -16722317.36547  -6873262.65844  22332838.6174                   22332826.9104
        43.0004         28.2504
 -10458804.36246  -8122578.80646  23536030.2344                   23536022.1604
        39.2504         38.7504
  -9191586.11946  -7135773.20646  23498783.2584                   23498775.4184
        39.5004         39.5004
 -27490648.13348 -22046151.78949  20509619.9924                   20509610.8054
        52.0004         55.0004
  -9888046.14046  -6758892.45744  23990096.7274                   23990085.0784
        41.0004         25.0004
 -11984148.38246  -9062284.45744  23738988.3914                   23738977.8554
        39.5004         26.5004
 -26971638.10348 -20629675.59049  20790988.2734                   20790979.0864
        51.5004         55.0004
 23  1  4  0 12 30.0000000  0  9G23G24G22G27G08G10G21G18G32
 -13011335.60247 -12309204.38546  21585592.8204                   21585581.9924
        45.5004         38.5004
 -15429913.02446 -11983713.69147  22515911.3054                   22515902.7034
        41.2504         42.2504
 -16799876.51147  -6933698.35744  22318078.6024                   22318067.7734
        42.5004         28.2504
 -10377112.95646  -8058923.16246  23551576.1884                   23551567.7624
        39.0004         38.5004
  -9157180.12646  -7108963.37146  23505331.1254                   23505322.7584
        40.2504         39.5004
 -27489827.93748 -22045512.67549  20509776.0004                   20509767.1054
        53.7504         54.7504
  -9968343.05346  -6821461.45844  23974816.9924                   23974804.9344
        40.0004         25.0004
 -11874089.95546  -8976524.64244  23759931.8914                   23759921.3554
        39.7504         24.0004
 -27007135.34848 -20657335.77149  20784233.0784                   20784223.8914
        51.7504         55.0004
 23  1  4  0 13  0.0000000  0  9G23G24G22G27G08G10G21G18G32
 -12953900.06747 -12264449.43446  21596522.0944                   21596511.3834
        45.5004         38.5004
 -15376412.14146 -11942024.70347  22526091.7344                   22526082.8984
        39.7504         42.2504
 -16877143.50347  -6993906.37744  22303375.5704                   22303364.2734
        43.2504         28.5004
 -10295156.43646  -7995060.95446  23567171.6724                   23567163.3634
        39.0004         37.7504
  -9122286.57246  -7081773.60946  23511970.8284                   23511962.6954
        40.0004         39.0004
 -27488724.12948 -22044652.56849  20509985.7974                   20509976.7274
        53.2504         55.0004
 -10048431.96946  -6883868.41544  23959577.1884                   23959564.4844
        41.0004         25.2504
 -11763858.76546  -8890630.23244  23780907.9144                   23780897.7304
        38.7504         25.2504
 -27042215.58748 -20684671.00949  20777557.5864                   20777548.6914
        51.7504         54.7504
 23  1  4  0 13 30.0000000  0  9G23G24G22G27G08G10G21G18G32
 -12896222.11747 -12219505.58846  21607497.9614                   21607487.0164
        46.5004         38.5004
 -15322342.03446 -11899892.13447  22536380.9844                   22536372.3244
        39.7504         42.0004
 -16954117.53747  -7053886.12944  22288727.1024                   22288716.5084
        42.7504         28.0004
 -10212938.25146  -7930994.84146  23582818.7504                   23582808.8594
        40.2504         37.0004
  -9086906.93246  -7054205.08646  23518702.9774                   23518695.0784
        41.2504         39.0004
 -27487336.39148 -22043571.21949  20510249.9304                   20510241.2114
        53.0004         55.0004
 -10128311.17346  -6946111.92344  23944375.9224                   23944364.2154
        41.2504         26.0004
 -11653457.11746  -8804602.97944  23801916.0474                   23801906.3914
        38.2504         24.5004
 -27076879.04948 -20711681.49049  20770961.4774                   20770952.2304
        51.5004         54.7504
 23  1  4  0 14  0.0000000  0  9G23G24G22G27G08G10G21G18G32
 -12838301.60347 -12174372.72146  21618520.0634                   21618509.0004
        46.0004         38.2504
 -15267704.15746 -11857317.16546  22546777.5554                   22546769.7734
        40.0004         41.7504
 -17030797.28447  -7113636.55544  22274136.1174                   22274125.2894
        44.0004         29.7504
 -10130461.07146  -7866726.91346  23598511.5634                   23598503.6644
        38.7504         37.2504
  -9051042.84546  -7026259.08046  23525527.7344                   23525520.1884
        41.5004         38.7504
 -27485663.64848 -22042267.78649  20510568.3834                   20510559.4304
        53.0004         54.7504
 -10207978.09047  -7008190.05144  23929216.2814                   23929204.0474
        42.2504         25.5004
 -11542886.74946  -8718444.23544  23822957.1334                   23822947.4774
        38.2504         25.5004
 -27111125.37648 -20738366.93849  20764444.6954                   20764435.4494
        51.5004         55.0004
 23  1  4  0 14 30.0000000  0  9G23G24G22G27G08G10G21G18G32
 -12780139.04147 -12129051.26446  21629587.9614                   21629577.1334
        45.7504         37.7504
 -15212500.75646 -11814301.54346  22557283.2504                   22557274.8834
        39.2504         41.7504
 -17107182.26547  -7173157.31344  22259600.2894                   22259589.6374
        44.2504         29.5004
 -10047728.38346  -7802259.88346  23614255.4614                   23614247.6214
        38.2504         36.5004
  -9014696.73847  -6997937.45746  23532445.0234                   23532436.6564
        43.0004         39.0004
 -27483705.80648 -22040742.18949  20510940.8834                   20510931.7544
        52.5004         54.7504
 -10287431.31546  -7070101.65144  23914096.6334                   23914084.3984
        41.5004         24.7504
 -11432150.01346  -8632155.88243  23844030.0704                   23844019.6524
        38.2504         22.5004
 -27144954.90148 -20764727.58949  20758006.7974                   20757997.6684
        51.7504         55.0004
 23  1  4  0 15  0.0000000  0 10G23G24G22G27G08G10G21G18G31G32
 -12721735.15447 -12083541.75546  21640701.9924                   21640691.2814
        45.5004         38.0004
 -15156734.26846 -11770847.13247  22567895.1954                   22567886.5354
        39.5004         42.0004
 -17183271.80947  -7232447.84744  22245120.6884                   22245110.0354
        43.7504         29.7504
  -9964743.64146  -7737596.45446  23630046.0234                   23630038.3594
        37.5004         36.0004
  -8977871.17847  -6969242.23646  23539452.3204                   23539444.1884
        42.5004         39.2504
 -27481462.85448 -22038994.44249  20511367.5164                   20511358.9144
        51.5004         54.7504
 -10366669.57947  -7131845.73844  23899018.8524                   23899006.3244
        42.0004         26.0004
 -11321249.49146  -8545739.89143  23865132.9694                   23865123.2544
        37.0004         23.0004
    682842.15055    562417.88255  25317006.3984                   25316995.2194
        35.5004         31.7504
 -27178368.06348 -20790763.81749  20751648.5474                   20751639.5944
        51.5004         55.0004
 23  1  4  0 15 30.0000000  0 10G23G24G22G27G08G10G21G18G31G32
 -12663093.40047 -12037846.87846  21651861.0634                   21651850.5274
        45.7504         38.2504
 -15100409.84346 -11726957.96146  22578612.9844                   22578604.5594
        40.0004         41.5004
 -17259068.33247  -7291510.05144  22230697.5784                   22230686.6334
        44.5004         29.7504
  -9881513.39346  -7672741.73046  23645885.9774                   23645877.0234
        39.5004         36.0004
  -8940570.64947  -6940176.91646  23546550.2114                   23546542.4304
        42.2504         39.5004
 -27478937.59048 -22037026.69849  20511848.4064                   20511839.3364
        53.0004         54.7504
 -10445693.83146  -7193423.07344  23883979.7734                   23883968.1844
        41.5004         25.2504
 -11210190.58246  -8459200.51243  23886266.8524                   23886257.1954
        37.0004         23.0004
    565030.12545    470616.34744  25294587.8524                   25294576.3794
        34.7504         28.5004
 -27211368.20948 -20816478.20049  20745368.7664                   20745359.8134
        51.7504         54.7504
 23  1  4  0 16  0.0000000  0 10G23G24G22G27G08G10G21G18G31G32
 -12604206.35147 -11991960.87046  21663066.7814                   21663056.1294
        45.7504         38.0004
 -15043521.85646 -11682629.66346  22589438.2664                   22589429.9574
        38.7504         41.5004
 -17334563.29847  -7350337.27345  22216331.1484                   22216321.0824
        44.0004         30.5004
  -9798032.92146  -7607692.01646  23661772.2114                   23661763.0234
        38.7504         36.2504
  -8902790.17947  -6910737.61346  23553739.4924                   23553731.4774
        42.0004         38.7504
 -27476121.76048 -22034832.54249  20512384.1414                   20512375.3054
        53.2504         55.2504
 -10524494.50247  -7254826.20444  23868985.1024                   23868972.6914
        42.0004         27.0004
 -11098967.69746  -8372533.31443  23907432.3284                   23907422.6134
        36.7504         21.7504
    447129.32145    378745.59645  25272151.9614                   25272140.8984
        35.2504         30.0004
 -27243947.66548 -20841864.78049  20739169.3134                   20739160.2424
        51.0004         54.7504
 23  1  4  0 16 30.0000000  0 10G23G24G22G27G08G10G21G18G31G32
 -12545077.67347 -11945886.58346  21674319.0944                   21674308.0904
        45.7504         38.2504
 -14986075.73346 -11637866.47346  22600370.4614                   22600362.2704
        40.2504         41.5004
 -17409759.46747  -7408931.66645  22202022.1884                   22202011.4184
        44.5004         30.2504
  -9714308.74946  -7542452.40245  23677703.2034                   23677694.8364
        38.7504         35.2504
  -8864535.14047  -6880928.51246  23561019.3364                   23561011.3794
        42.5004         39.0004
 -27473018.20848 -22032414.19749  20512974.7424                   20512966.0824
        52.2504         54.7504
 -10603073.17346  -7316056.33744  23854031.6094                   23854020.6054
        40.5004         27.0004
 -10987586.28146  -8285742.63143  23928627.3914                   23928617.5594
        37.5004         22.7504
    329138.71645    286804.92844  25249696.4384                   25249687.7774
        33.5004         29.2504
 -27276109.86848 -20866926.22649  20733049.0314                   20733039.9614
        51.5004         54.7504
 23  1  4  0 17  0.0000000  0 10G23G24G22G27G08G10G21G18G31G32
 -12485708.64147 -11899625.00746  21685616.4694                   21685605.4064
        46.2504         38.0004
 -14928074.55546 -11592670.74546  22611408.4064                   22611398.9264
        41.0004         41.7504
 -17484656.77347  -7467293.17545  22187769.2504                   22187758.6564
        44.2504         32.2504
  -9630345.20546  -7477026.25945  23693681.4224                   23693673.0554
        38.2504         35.5004
  -8825808.13446  -6850751.66746  23568388.4844                   23568380.9964
        41.7504         38.5004
 -27469627.37948 -22029771.98949  20513619.8204                   20513610.8674
        53.2504         54.7504
 -10681428.64846  -7377112.53744  23839121.4694                   23839109.2934
        41.0004         26.7504
 -10876049.64646  -8198830.96543  23949852.6254                   23949842.3244
        38.0004         23.2504
    211060.00646    194795.56445  25227230.9534                   25227217.4304
        37.5004         30.2504
 -27307856.01648 -20891663.47549  20727007.7584                   20726998.5124
        52.0004         55.0004
 23  1  4  0 17 30.0000000  0 10G23G24G22G27G08G10G21G18G31G32
 -12426098.95147 -11853175.90246  21696960.0634                   21696948.5904
        45.7504         37.7504
 -14869519.74746 -11547043.61646  22622549.7424                   22622541.6684
        39.7504         41.0004
 -17559253.67647  -7525420.60745  22173573.9384                   22173562.9924
        45.0004         30.2504
  -9546144.74046  -7411415.54145  23709704.5394                   23709695.1764
        38.2504         34.5004
  -8786610.69747  -6820208.23846  23575847.5784                   23575840.0314
        42.2504         38.7504
 -27465948.28748 -22026905.16149  20514320.0704                   20514311.2344
        52.0004         55.0004
 -10759558.44546  -7437992.90244  23824253.6174                   23824241.2664
        40.7504         25.5004
 -10764359.27246  -8111799.48543  23971106.1094                   23971096.1604
        37.2504         22.0004
  -1482523.76655  -1124880.10255  25204744.3984                   25204733.1604
        35.2504         31.5004
 -27339185.59648 -20916076.12949  20721046.0234                   20721036.7774
        52.0004         55.0004
 23  1  4  0 18  0.0000000  0 10G23G24G22G27G08G10G21G18G31G32
 -12366245.70847 -11806537.01846  21708349.0784                   21708338.1334
        46.0004         37.5004
 -14810410.25646 -11500984.26846  22633798.2194                   22633789.6764
        39.0004         41.5004
 -17633546.14247  -7583310.80845  22159436.3834                   22159425.9064
        45.2504         30.2504
  -9461707.39946  -7345620.19445  23725772.3834                   23725763.7814
        38.5004         34.5004
  -8746941.45747  -6789297.16446  23583396.5944                   23583388.6374
        42.5004         38.7504
 -27461977.51748 -22023811.05449  20515075.6174                   20515066.3714
        53.5004         54.7504
 -10837457.27946  -7498693.28344  23809429.6024                   23809418.7734
        40.5004         25.7504
 -10652514.11945  -8024647.42944  23992389.2734                   23992379.9104
        35.5004         24.2504
                                  25182244.5084                   25182231.1604
        37.0004         30.2504
 -27370095.58148 -20940161.81849  20715164.0704                   20715155.0004
        52.5004         54.7504
 23  1  4  0 18 30.0000000  0 10G23G24G22G27G08G10G21G18G31G32
 -12306158.96547 -11759716.18546  21719783.4924                   21719772.7234
        46.5004         37.5004
 -14750758.08346 -11454502.07146  22645150.0004                   22645141.4574
        39.7504         41.5004
 -17707543.97147  -7640971.43445  22145354.9384                   22145344.6374
        45.0004         30.7504
  -9377046.14346  -7279650.41345  23741882.2344                   23741874.0434
        37.7504         34.0004
  -8706812.54447  -6758027.90646  23591032.9224                   23591025.1414
        43.0004         38.2504
 -27457724.33249 -22020496.88849  20515885.1254                   20515875.9384
        54.0004         54.7504
 -10915133.27646  -7559220.02744  23794648.5004                   23794636.9694
        40.0004         24.5004
 -10540526.26646  -7937384.14343  24013700.6094                   24013690.2504
        38.2504         23.2504
  -1719096.46446  -1309222.37745  25159727.0634                   25159713.8914
        37.5004         30.2504
 -27400595.93548 -20963928.32749  20709359.9224                   20709351.1454
        52.5004         55.0004
 23  1  4  0 19  0.0000000  0 10G23G24G22G27G08G10G21G18G31G32
 -12245829.73347 -11712706.38846  21731264.1804                   21731252.4734
        45.7504         37.5004
 -14690555.98246 -11407591.33746  22656605.5234                   22656597.2734
        38.7504         41.0004
 -17781236.10547  -7698393.86245  22131332.0554                   22131321.2274
        45.0004         31.0004
  -9292154.82046  -7213501.32545  23758037.2114                   23758028.3754
        38.5004         34.2504
  -8666216.71047  -6726394.80946  23598758.3834                   23598750.1334
        42.5004         38.2504
 -27453178.62748 -22016954.77449  20516749.8364                   20516741.0594
        52.2504         54.7504
 -10992575.28146  -7619564.43544  23779912.3444                   23779900.5784
        41.0004         25.0004
 -10428388.42046  -7850004.03844  24035040.3674                   24035029.4804
        38.7504         25.0004
  -1837500.64344  -1401485.46545  25137192.0394                   25137183.4384
        29.7504         30.5004
 -27430677.49248 -20987368.49049  20703635.5084                   20703626.4384
        52.0004         55.0004
 23  1  4  0 19 30.0000000  0 11G23G24G22G27G08G10G21G18G31G01G32
 -12185260.66247 -11665509.72446  21742789.4304                   21742778.8954
        45.7504         37.5004
 -14629808.51646 -11360255.66546  22668165.2504                   22668157.0594
        39.0004         40.7504
 -17854624.27447  -7755579.42845  22117366.4534                   22117356.0354
        45.0004         31.5004
  -9207038.95546  -7147177.28445  23774233.0784                   23774224.9454
        37.5004         34.5004
  -8625158.63847  -6694401.51746  23606571.5784                   23606562.9184
        42.2504         39.0004
 -27448342.56448 -22013186.41849  20517670.0164                   20517661.1214
        53.0004         54.7504
 -11069783.68446  -7679726.82544  23765221.2114                   23765208.9774
        40.7504         24.7504
 -10316105.23646  -7762510.66043  24056407.2194                   24056395.8634
        39.5004         22.7504
  -1955979.40755  -1493806.52555  25114648.4454                   25114637.6174
        35.0004         31.7504
   -880318.95415                  25348556.523
        33.250
 -27460342.75448 -21010484.27049  20697990.7274                   20697981.3054
        51.7504         54.7504
 23  1  4  0 20  0.0000000  0 11G23G24G22G27G08G10G21G18G31G01G32
 -12124451.90247 -11618126.28346  21754361.1564                   21754350.1524
        46.2504         38.0004
 -14568517.74446 -11312496.60046  22679829.0864                   22679820.4844
        39.5004         41.0004
 -17927707.45447  -7812527.34045  22103459.7894                   22103448.9024
        44.7504         31.2504
  -9121701.58846  -7080680.64845  23790473.2734                   23790464.7894
        38.2504         34.5004
  -8583640.02647  -6662049.37446  23614471.9144                   23614463.7814
        43.0004         38.5004
 -27443215.63948 -22009191.41849  20518645.9384                   20518637.1604
        52.5004         55.0004
 -11146756.52446  -7739705.65244  23750572.5864                   23750559.7664
        41.0004         25.5004
 -10203678.69846  -7674905.56744  24077801.2194                   24077790.0984
        39.2504         25.0004
  -2074529.74446  -1586183.32745  25092090.7974                   25092076.7464
        37.2504         30.5004
   -993195.10354   -641537.48752  25327077.1644                   25327069.9104
        29.5004         17.2504
 -27489591.81148 -21033275.73349  20692424.5004                   20692415.2544
        51.5004         54.7504
 23  1  4  0 20 30.0000000  0 11G23G24G22G27G08G10G21G18G31G01G32
 -12063404.67047 -11570557.02446  21765978.3984                   21765967.3364
        46.0004         38.0004
 -14506686.71146 -11264316.59946  22691595.3524                   22691586.6914
        39.0004         40.5004
 -18000486.13447  -7869237.99845  22089610.0474                   22089599.2774
        45.0004         31.2504
  -9036146.87546  -7014014.64145  23806752.0944                   23806744.4884
        37.5004         33.5004
  -8541663.93447  -6629340.76946  23622459.9614                   23622452.3554
        43.2504         38.0004
 -27437798.26348 -22004970.08549  20519676.8594                   20519667.9654
        53.2504         55.0004
 -11223492.67646  -7799500.04644  23735969.5004                   23735957.9104
        40.0004         25.5004
 -10091111.91946  -7587191.21044  24099221.8754                   24099211.2234
        39.5004         24.2504
  -2193150.28145  -1678614.87145  25069515.6644                   25069504.0744
        35.2504         31.5004
  -1106000.29654   -729437.59252  25305610.0554                   25305604.4414
        28.5004         15.5004
 -27518425.74048 -21055743.72749  20686937.8134                   20686928.9184
        51.0004         55.0004
 23  1  4  0 21  0.0000000  0 11G23G24G22G27G08G10G21G18G31G01G32
 -12002117.59847 -11522800.86846  21777640.4614                   21777629.8094
        45.7504         37.5004
 -14444316.01746 -11215716.04946  22703463.9454                   22703455.5204
        39.2504         40.7504
 -18072957.91947  -7925709.50845  22075819.4844                   22075808.6564
        44.5004         32.2504
  -8950376.30246  -6947180.42445  23823074.8444                   23823067.1214
        38.0004         34.2504
  -8499231.31447  -6596276.40346  23630533.1484                   23630526.6564
        43.0004         38.2504
 -27432088.12848 -22000520.63949  20520763.4774                   20520754.2894
        53.0004         55.0004
 -11299988.36546  -7859107.04644  23721413.5704                   23721401.8054
        41.2504         25.7504
  -9978405.40946  -7499367.97644  24120669.1414                   24120658.4304
        39.0004         24.7504
  -2311836.82145  -1771097.85245  25046928.5864                   25046919.4574
        33.7504         31.5004
                                  25284158.9064                   25284152.3554
        30.0004         13.7504
 -27546843.09048 -21077887.10549  20681530.2034                   20681520.8984
        52.5004         54.7504
 23  1  4  0 21 30.0000000  0 11G23G24G22G27G08G10G21G18G31G01G32
 -11940595.34747 -11474861.46646  21789347.8914                   21789337.1804
        46.0004         37.5004
 -14381412.30946 -11166700.18746  22715433.7584                   22715425.2154
        39.2504         40.7504
 -18145126.49947  -7981944.74945  22062085.7344                   22062074.9064
        44.7504         31.0004
  -8864397.37946  -6880183.89445  23839434.8594                   23839427.8404
        37.0004         34.0004
  -8456348.53647  -6562861.26446  23638694.0474                   23638686.9104
        43.2504         37.5004
 -27426089.19048 -21995846.13849  20521904.9064                   20521896.0704
        52.2504         54.7504
 -11376246.55447  -7918529.00644  23706902.0634                   23706889.6524
        42.2504         26.5004
  -9865565.72846  -7411440.93344  24142141.9534                   24142131.1254
        39.7504         24.7504
  -2430590.93345  -1863633.50545  25024330.1254                   25024320.5274
        33.7504         30.0004
  -1331388.50155   -905064.80052  25262720.7504                   25262714.4924
        32.5004         16.2504
 -27574848.53548 -21099709.53049  20676201.0864                   20676191.6644
        51.7504         54.7504
 23  1  4  0 22  0.0000000  0 11G23G24G22G27G08G10G21G18G31G01G32
 -11878830.48547 -11426732.99846  21801101.0474                   21801090.4534
        45.5004         38.0004
 -14317970.02246 -11117264.63446  22727506.4304                   22727498.2974
        39.0004         40.7504
 -18216983.15147  -8037936.94045  22048411.8674                   22048401.2734
        44.7504         30.7504
  -8778205.61046  -6813021.49445  23855838.9694                   23855829.4884
        38.5004         34.0004
  -8413009.49147  -6529090.60346  23646941.9924                   23646933.6844
        43.0004         37.5004
 -27419793.35248 -21990940.29149  20523103.2584                   20523094.1884
        52.7504         54.7504
 -11452257.21446  -7977758.08744  23692437.0554                   23692425.4064
        41.5004         25.0004
  -9752587.40146  -7323405.90344  24163640.7034                   24163630.0514
        39.5004         24.0004
  -2549402.37845  -1956213.83145  25001721.9614                   25001711.7194
        34.5004         31.5004
                                  25241298.2734                   25241292.1914
        28.2504         14.7504
 -27602434.51448 -21121205.08449  20670951.5314                   20670942.2274
        51.7504         54.7504
 23  1  4  0 22 30.0000000  0 10G23G24G22G27G08G10G21G18G31G32
 -11816828.96047 -11378420.13846  21812899.7664                   21812889.0554
        45.0004         37.2504
 -14253997.17746 -11067415.68246  22739679.6094                   22739671.8874
        38.7504         40.5004
 -18288532.81147  -8093689.90045  22034795.8284                   22034785.8204
        44.2504         30.5004
  -8691809.82246  -6745700.07045  23872278.1644                   23872270.4414
        37.5004         34.5004
  -8369222.92247  -6494971.21446  23655274.8754                   23655265.8634
        43.0004         37.5004
 -27413205.88048 -21985807.20549  20524356.7504                   20524347.6214
        52.0004         54.7504
 -11528024.08047  -8036797.17944  23678019.9144                   23678007.9144
        42.2504         26.5004
  -9639478.12946  -7235268.82944  24185165.2114                   24185153.7974
        41.0004         24.2504
  -2668274.14845  -2048841.14445  24979102.0554                   24979091.6374
        34.5004         32.2504
 -27629606.87648 -21142378.34949  20665780.5474                   20665771.4774
        51.0004         55.0004
 23  1  4  0 23  0.0000000  0 11G23G24G22G27G08G10G21G18G31G01G32
 -11754589.13547 -11329921.58346  21824743.1804                   21824732.8794
        44.5004         37.2504
 -14189493.98146 -11017153.45346  22751954.4144                   22751946.1644
        39.0004         40.0004
 -18359772.92647  -8149201.67945  22021240.1954                   22021229.6024
        45.2504         30.5004
  -8605211.17246  -6678220.65045  23888757.8204                   23888749.3364
        38.2504         33.7504
  -8324988.49247  -6460502.83346  23663692.3834                   23663683.9574
        43.2504         38.0004
 -27406324.28648 -21980444.92749  20525666.0394                   20525656.9694
        51.7504         54.7504
 -11603543.22646  -8095643.24044  23663648.3444                   23663635.9924
        41.7504         26.7504
  -9526238.20246  -7147029.94643  24206713.3914                   24206703.1484
        38.7504         22.2504
  -2787201.45045  -2141511.74245  24956471.2424                   24956460.0044
        35.2504         31.2504
                                  25198499.086
        30.500
 -27656363.94348 -21163228.00049  20660689.0784                   20660679.7154
        51.5004         54.7504
 23  1  4  0 23 30.0000000  0 11G23G24G22G27G08G10G21G18G31G01G32
 -11692113.51747 -11281239.30646  21836632.5864                   21836621.4064
        45.2504         37.0004
 -14124465.02846 -10966481.54046  22764329.0234                   22764320.7154
        38.5004         40.5004
 -18430704.96347  -8204473.38945  22007741.5944                   22007731.4694
        44.7504         30.5004
  -8518415.16346  -6610587.37845  23905275.1644                   23905266.2114
        38.5004         34.2504
  -8280310.88247  -6425689.12446  23672193.3054                   23672185.6414
        43.0004         37.0004
 -27399150.04748 -21974854.61049  20527031.2194                   20527022.1484
        51.2504         54.7504
 -11678815.09847  -8154296.63744  23649325.0004                   23649313.0004
        42.0004         26.7504
  -9412872.06046  -7058692.68143  24228285.5314                   24228275.4654
        39.2504         22.5004
  -2906184.35845  -2234225.66745  24933829.4774                   24933818.0044
        35.0004         31.5004
  -1781204.85555  -1044347.27553  25177124.7814                   25177116.9414
        31.2504         18.2504
 -27682708.21348 -21183756.00349  20655675.8284                   20655666.6414
        51.0004         55.0004
 23  1  4  0 24  0.0000000  0 11G23G24G22G27G08G10G21G18G31G01G32
 -11629397.93047 -11232370.02646  21848566.5634                   21848555.9694
        45.0004         37.2504
 -14058908.12246 -10915398.23446  22776804.5474                   22776795.9454
        38.7504         40.2504
 -18501323.88747  -8259501.11645  21994303.6804                   21994293.2624
        44.5004         31.2504
  -8431420.47846  -6542799.35045  23921829.1254                   23921821.2854
        37.5004         34.0004
  -8235187.81947  -6390528.31146  23680780.2894                   23680771.6294
        42.0004         36.7504
 -27391678.83648 -21969032.89249  20528452.6804                   20528444.0204
        52.2504         55.0004
 -11753832.94746  -8212752.07444  23635049.1024                   23635037.3364
        40.2504         27.0004
  -9299377.38446  -6970255.29144  24249883.6024                   24249873.3594
        39.7504         24.7504
  -3025215.62945  -2326977.29845  24911177.7734                   24911167.1804
        35.5004         32.2504
                                  25155765.2584                   25155759.4104
        30.7504         16.2504
 -27708635.49148 -21203959.06249  20650742.0394                   20650732.7344
        51.5004         54.7504
 23  1  4  0 24 30.0000000  0 11G23G24G22G27G08G10G21G18G31G01G32
 -11566446.83147 -11183317.21946  21860546.0394                   21860535.1524
        44.7504         36.7504
 -13992829.76346 -10863908.61345  22789378.2734                   22789370.4924
        38.5004         33.2504
 -18571632.84047  -8314287.30445  21980924.0554                   21980913.8714
        45.0004         31.0004
  -8344234.42546  -6474862.15045  23938421.6644                   23938411.4224
        38.2504         33.5004
  -8189625.81447  -6355025.46346  23689450.0704                   23689442.4654
        42.5004         36.5004
 -27383913.82248 -21962982.24149  20529930.6644                   20529921.8284
        51.0004         55.0004
 -11828599.31147  -8271011.59444  23620822.4144                   23620809.5354
        42.2504         26.2504
  -9185760.57346  -6881722.73944  24271503.9774                   24271493.4414
        38.7504         24.2504
  -3144296.27745  -2419767.44845  24888516.9694                   24888506.9024
        33.7504         31.2504
                                  25134424.9844                   25134417.7894
        29.7504         13.7504
 -27734150.16648 -21223840.62249  20645887.0704                   20645877.3554
        51.2504         54.7504
 23  1  4  0 25  0.0000000  0 11G23G24G22G27G08G10G21G18G31G01G32
 -11503258.44447 -11134079.52046  21872570.3284                   21872559.5594
        45.2504         37.0004
 -13926230.21646 -10812012.89244  22802052.2664                   22802043.4304
        37.5004         28.5004
 -18641629.27947  -8368829.98645  21967604.7974                   21967593.6764
        45.0004         31.0004
  -8256858.12346  -6406776.70245  23955047.6174                   23955038.7814
        37.0004         33.5004
  -8143624.97446  -6319180.66846  23698203.6884                   23698196.3754
        41.5004         36.5004
 -27375852.44348 -21956700.64749  20531464.8134                   20531455.7424
        51.5004         55.0004
 -11903110.07847  -8329071.91644  23606642.8054                   23606630.8634
        42.0004         28.5004
  -9072021.66146  -6793095.02044  24293148.6954                   24293137.5164
        39.7504         24.0004
  -3263422.14946  -2512592.75645  24865850.4224                   24865838.0704
        36.7504         31.5004
                                  25113098.7974                   25113092.9494
        31.7504         15.5004
 -27759250.47948 -21243399.29649  20641110.3134                   20641101.1254
        51.2504         54.7504
 23  1  4  0 25 30.0000000  0 11G23G24G22G27G08G10G21G18G31G01G32
 -11439835.59047 -11084659.12446  21884639.0084                   21884628.3554
        44.7504         36.5004
 -13859114.27846 -10759714.73744  22814824.0234                   22814815.3634
        38.5004         29.5004
 -18711315.02247  -8423130.54645  21954343.7194                   21954333.0084
        44.7504         30.7504
  -8169297.14346  -6338547.40245  23971709.6644                   23971702.0594
        37.2504         33.5004
  -8097189.89546  -6282997.50246  23707040.8754                   23707032.8594
        41.7504         36.7504
 -27367497.01948 -21950189.93049  20533054.9064                   20533045.6604
        51.7504         54.7504
 -11977365.80046  -8386933.51544  23592512.4774                   23592501.4734
        41.5004         27.0004
  -8958165.44846  -6704375.91744  24314813.8674                   24314803.8594
        39.2504         25.5004
  -3382592.83545  -2605453.04445  24843171.2664                   24843160.3794
        35.5004         31.7504
  -2229620.17755  -1393761.73752  25091794.3524                   25091786.6294
        31.0004         15.5004
 -27783939.21048 -21262637.26049  20636412.2034                   20636402.8404
        51.0004         54.7504
 23  1  4  0 26  0.0000000  0 11G23G24G22G27G08G10G21G18G31G01G32
 -11376173.77747 -11035052.54146  21896753.2734                   21896743.0314
        44.5004         36.5004
 -13791479.63146 -10707012.42844  22827695.0004                   22827685.8714
        39.0004         29.2504
 -18780684.53547  -8477184.70845  21941143.0314                   21941132.6724
        46.0004         32.0004
  -8081549.95845  -6270172.98845  23988407.0004                   23988398.3984
        35.7504         32.0004
  -8050318.22046  -6246474.14046  23715959.4064                   23715952.0944
        41.5004         36.0004
 -27358842.03048 -21943445.78849  20534701.4924                   20534692.4224
        51.0004         55.0004
 -12051359.87546  -8444591.22344  23578431.6414                   23578420.1094
        40.7504         26.5004
  -8844189.25146  -6615563.29544  24336502.9614                   24336493.1294
        39.5004         24.7504
  -3501800.97646  -2698342.53445  24820488.0474                   24820475.5784
        37.0004         32.5004
                                  25070504.1094                   25070498.6724
        28.0004         17.7504
 -27808211.91448 -21281551.04749  20631793.1884                   20631784.0004
        51.5004         55.0004
 23  1  4  0 26 30.0000000  0 11G23G24G22G27G08G10G21G18G31G01G32
 -11312276.92247 -10985262.79546  21908912.6804                   21908902.4964
        44.5004         36.2504
 -13723332.21146 -10653910.54444  22840662.4064                   22840653.9804
        38.2504         27.5004
 -18849740.74147  -8530994.72145  21928001.5004                   21927991.4924
        43.7504         31.5004
  -7993623.38046  -6201658.76345  24005139.5864                   24005130.6914
        37.2504         33.5004
  -8003015.93646  -6209615.23245  23724960.2584                   23724952.9454
        41.0004         35.5004
 -27349890.73448 -21936470.74449  20536405.1174                   20536396.1644
        52.0004         54.7504
 -12125094.20246  -8502046.54544  23564400.6484                   23564389.2344
        41.0004         26.7504
  -8730098.84546  -6526661.71644  24358214.4384                   24358203.6094
        39.5004         24.7504
  -3621047.48246  -2791261.90045  24797795.6254                   24797784.6804
        36.5004         32.0004
                                  25049237.4694                   25049230.0984
        31.0004         14.7504
 -27832072.49848 -21300143.69849  20627252.8594                   20627243.3794
        51.5004         55.0004
 23  1  4  0 27  0.0000000  0 11G23G24G22G27G08G10G21G18G31G01G32
 -11248145.00147 -10935289.88746  21921117.1644                   21921106.0434
        44.5004         36.5004
 -13654674.14846 -10600410.75644  22853728.0704                   22853719.2934
        38.7504         28.2504
 -18918482.79247  -8584559.94945  21914921.3754                   21914910.3714
        45.5004         32.5004
  -7905520.23645  -6133006.98645  24021904.1414                   24021896.7114
        35.7504         32.2504
  -7955285.05946  -6172422.36245  23734044.0234                   23734035.4224
        41.7504         35.0004
 -27340642.46248 -21929264.30949  20538164.8754                   20538155.9804
        51.0004         55.0004
 -12198566.15046  -8559297.40944  23550419.2734                   23550407.9184
        41.0004         28.2504
  -8615896.22846  -6437672.66043  24379945.6414                   24379935.8674
        38.2504         22.7504
  -3740329.16746  -2884208.69145  24775097.2114                   24775085.9144
        36.7504         33.5004
                                  25027986.3134                   25027977.1844
        30.2504         18.5004
 -27855520.96948 -21318415.22449  20622790.6954                   20622781.5664
        51.5004         54.7504
 23  1  4  0 27 30.0000000  0 11G23G24G22G27G08G10G21G18G31G01G32
 -11183777.84247 -10885133.68346  21933365.3524                   21933354.6994
        44.7504         36.5004
 -13585507.32346 -10546514.52444  22866889.9454                   22866881.3444
        39.2504         27.0004
 -18986909.42447  -8637879.38945  21901899.4454                   21901889.3204
        44.5004         32.5004
  -7817243.20546  -6064219.68245  24038704.7664                   24038694.7584
        37.0004         33.0004
  -7907127.69946  -6134897.13045  23743208.7034                   23743199.5744
        41.5004         35.5004
 -27331095.96748 -21921825.48049  20539981.4694                   20539972.5744
        50.7504         54.7504
 -12271773.33746  -8616341.95444  23536488.1414                   23536476.3164
        41.0004         26.0004
  -8501583.01346  -6348597.45244  24401698.9224                   24401688.6804
        39.5004         25.0004
  -3859643.04746  -2977180.58845  24752392.1484                   24752381.3794
        36.5004         32.7504
                                  25006757.1414                   25006750.3554
        31.0004         16.2504
 -27878557.15248 -21336365.48949  20618406.9384                   20618397.7504
        51.0004         54.7504
 23  1  4  0 28  0.0000000  0 11G23G24G22G27G08G10G21G18G31G01G32
 -11119176.80347 -10834795.22046  21945658.5784                   21945647.6334
        44.5004         36.2504
 -13515835.11946 -10492224.50444  22880147.1174                   22880138.9264
        37.2504         27.5004
 -19055020.99347  -8690953.32345  21888938.5634                   21888928.0864
        45.5004         33.0004
  -7728796.44745  -5995300.14245  24055533.3364                   24055526.2584
        35.2504         32.5004
  -7858546.92746  -6097041.98545  23752452.6254                   23752445.0784
        40.5004         35.5004
 -27321252.00648 -21914154.86849  20541854.8984                   20541845.8284
        50.7504         54.7504
 -12344714.86647  -8673179.52344  23522609.1254                   23522596.9494
        42.0004         27.0004
  -8387162.45046  -6259438.58244  24423472.3594                   24423462.4104
        39.2504         24.2504
  -3978987.43146  -3070176.26745  24729682.2424                   24729670.8284
        36.0004         32.7504
  -2787933.75255  -1790700.42752  24985547.7194                   24985541.1684
        31.5004         15.5004
 -27901182.49048 -21353995.61149  20614101.4844                   20614092.0634
        51.0004         54.7504
 23  1  4  0 28 30.0000000  0 10G23G24G22G27G08G10G21G18G31G32
 -11054337.69747 -10784271.24845  21957996.5084                   21957986.4414
        45.2504         35.5004
 -13445655.58546 -10437539.15344  22893503.1724                   22893493.6914
        38.7504         27.5004
 -19122812.32047  -8743777.71845  21876038.2584                   21876027.7814
        46.0004         33.2504
  -7640178.71546  -5926247.37245  24072397.6414                   24072388.7464
        37.0004         32.5004
  -7809540.88946  -6058855.49446  23761777.7664                   23761770.7464
        40.7504         36.0004
 -27311105.70948 -21906248.65849  20543785.9614                   20543776.8914
        50.7504         55.0004
 -12417384.44146  -8729805.16044  23508779.3834                   23508768.1454
        41.0004         25.7504
  -8272632.31246  -6170194.32543  24445266.7814                   24445256.4224
        39.0004         22.7504
  -4098355.11446  -3163190.08045  24706967.0634                   24706956.0004
        37.0004         33.5004
 -27923392.83248 -21371302.36249  20609874.8444                   20609865.7154
        51.2504         54.7504
 23  1  4  0 29  0.0000000  0 11G23G24G22G27G08G10G21G18G31G01G32
 -10989265.67947 -10733565.80245  21970379.6644                   21970369.3634
        44.5004         35.5004
 -13374976.04746 -10382464.17544  22906951.9534                   22906943.9964
        38.0004         27.7504
 -19190287.91447  -8796356.09145  21863198.3674                   21863187.7734
        46.0004         33.5004
  -7551397.98946  -5857067.56045  24089291.8984                   24089283.8834
        36.2504         31.7504
  -7760116.63846  -6020343.10545  23771183.6414                   23771175.6844
        41.0004         35.5004
 -27300661.28948 -21898110.16149  20545773.3674                   20545764.0044
        51.2504         54.7504
 -12489784.92147  -8786221.11844  23495003.3984                   23494990.1094
        42.5004         27.2504
  -8157999.53146  -6080870.09744  24467080.9774                   24467070.5594
        38.7504         24.7504
  -4217748.14346  -3256223.66445  24684247.0474                   24684236.0434
        37.0004         33.5004
                                  24943194.5004                   24943186.6604
        31.2504         16.7504
 -27945193.38648 -21388289.80249  20605726.6954                   20605717.5084
        51.7504         54.7504
 23  1  4  0 29 30.0000000  0 11G23G24G22G27G08G10G21G18G31G01G32
 -10923959.50047 -10682677.88745  21982807.3834                   21982796.6134
        45.2504         35.5004
 -13303797.32046 -10327000.25844  22920497.9304                   22920488.9774
        37.7504         26.5004
 -19257445.43647  -8848686.61645  21850418.4694                   21850407.7584
        46.0004         33.5004
  -7462455.83346  -5787762.01745  24106217.7034                   24106209.0434
        36.7504         32.0004
  -7710274.93446  -5981505.40845  23780668.6484                   23780659.8134
        41.2504         34.7504
 -27289916.70848 -21889737.76149  20547817.8754                   20547808.6294
        51.2504         55.0004
 -12561912.70846  -8842424.60744  23481277.4144                   23481265.4144
        41.7504         27.5004
  -8043264.81646  -5991466.45143  24488913.6804                   24488904.0824
        38.7504         22.7504
  -4337162.20946  -3349273.60645  24661524.8594                   24661512.8594
        38.5004         34.5004
                                  24922048.8204                   24922041.9774
        31.2504         17.7504
 -27966582.94448 -21404956.98149  20601656.2034                   20601646.7814
        52.0004         54.7504
 23  1  4  0 30  0.0000000  0 11G23G24G22G27G08G10G21G18G31G01G32
 -10858420.97247 -10631608.93245  21995278.8914                   21995267.8284
        44.5004         35.5004
 -13232123.45146 -10271150.47144  22934136.7814                   22934127.1844
        39.0004         26.0004
 -19324285.80147  -8900769.99945  21837699.1094                   21837688.6334
        46.2504         33.7504
  -7373356.98446  -5718334.32645  24123171.8204                   24123162.9844
        36.7504         31.5004
  -7660020.00546  -5942345.73345  23790231.2034                   23790222.6024
        39.7504         34.0004
 -27278873.20048 -21881132.43449  20549919.3364                   20549910.5594
        50.5004         55.0004
 -12633767.74547  -8898415.52944  23467603.5164                   23467591.5164
        42.0004         27.2504
  -7928431.88046  -5901986.23043  24510766.5084                   24510755.6214
        38.7504         22.5004
  -4456596.12646  -3442339.02845  24638795.9064                   24638785.1954
        37.5004         33.7504
   -829010.60755  -2065724.25452  24900927.0234                   24900918.3634
        33.0004         16.7504
 -27987563.43048 -21421305.40949  20597663.5084                   20597654.3204
        51.0004         54.7504
 23  1  4  0 30 30.0000000  0 11G23G24G22G27G08G10G21G18G31G01G32
 -10792647.00147 -10580356.50645  22007795.3984                   22007784.3954
        46.0004         35.2504
 -13159953.47946 -10214914.12744  22947869.5234                   22947861.4494
        37.5004         26.0004
 -19390805.03647  -8952603.15545  21825040.8984                   21825030.1294
        46.5004         34.2504
  -7284101.07045  -5648784.26145  24140156.7034                   24140148.5704
        35.5004         32.5004
  -7609350.31746  -5902862.87045  23799873.0864                   23799865.3634
        39.5004         34.0004
 -27267526.57748 -21872290.91149  20552078.4774                   20552069.5234
        51.0004         54.7504
 -12705344.27947  -8954189.46944  23453982.9844                   23453970.6334
        42.2504         28.5004
  -7813499.44346  -5812428.49644  24532635.6724                   24532627.0704
        37.0004         24.0004
  -4576043.60446  -3535415.02745  24616065.9454                   24616055.0594
        37.0004         34.7504
   -939892.35155  -2152125.59652  24879824.2034                   24879818.5314
        31.7504         15.5004
 -28008131.74648 -21437332.65549  20593749.8204                   20593740.5744
        51.2504         54.7504
 23  1  4  0 31  0.0000000  0 11G23G24G22G27G08G10G21G18G31G01G32
 -10726639.69247 -10528922.25445  22020356.0234                   22020345.3134
        45.5004         35.5004
 -13087291.70146 -10158294.57044  22961698.1484                   22961688.6094
        38.2504         26.0004
 -19457004.45347  -9004187.10145  21812443.6254                   21812432.9734
        46.5004         34.0004
  -7194693.21046  -5579115.78445  24157170.7814                   24157162.2384
        37.0004         32.0004
  -7558270.93346  -5863060.77045  23809593.6564                   23809586.6374
        40.5004         35.2504
 -27255878.41748 -21863214.42549  20554294.9384                   20554286.1604
        50.7504         55.0004
 -12776642.24646  -9009746.31744  23440415.0944                   23440403.5044
        41.7504         28.0004
  -7698471.50146  -5722796.36844  24554527.3674                   24554516.1294
        39.5004         24.2504
  -4695503.76746  -3628500.88245  24593333.9384                   24593322.4654
        37.7504         34.7504
  -1050652.10545  -2238431.92242  24858749.2274                   24858741.3284
        32.5004         16.7504
 -28028290.19848 -21453040.52549  20589913.4454                   20589904.1994
        52.2504         54.7504
 23  1  4  0 31 30.0000000  0 11G23G24G22G27G08G10G21G18G31G01G32
 -10660399.70347 -10477306.70246  22032961.3524                   22032950.5824
        46.2504         36.0004
 -13014140.94646 -10101293.98244  22975617.5084                   22975608.4384
        38.5004         26.2504
 -19522883.55647  -9055521.45545  21799907.3984                   21799896.6294
        46.5004         33.7504
  -7105136.70546  -5509331.50745  24174212.9144                   24174204.0204
        37.5004         32.2504
  -7506784.05146  -5822941.14345  23819391.7034                   23819383.9224
        40.0004         34.0004
 -27243928.36248 -21853902.68949  20556568.9384                   20556560.3364
        51.2504         54.7504
 -12847660.00447  -9065084.81844  23426901.3284                   23426889.2114
        43.0004         28.5004
  -7583350.62046  -5633091.77743  24576432.6414                   24576423.0434
        37.5004         22.5004
  -4814974.27746  -3721594.80145  24570598.0784                   24570588.4224
        37.2504         35.2504
  -1161287.77745  -2324641.49843  24837692.8134                   24837687.6094
        31.0004         18.2504
 -28048039.46948 -21468429.56749  20586155.3134                   20586146.1254
        51.0004         54.7504
 23  1  4  0 32  0.0000000  0 11G23G24G22G27G08G10G21G18G31G01G32
 -10593926.24547 -10425509.23845  22045610.8054                   22045599.9184
        46.0004         35.7504
 -12940502.62446 -10043913.45544  22989629.7504                   22989621.3834
        37.5004         24.7504
 -19588440.92247  -9106605.09945  21787432.3444                   21787421.3404
        47.5004         34.5004
  -7015433.59446  -5439432.95945  24191282.6174                   24191274.3674
        37.5004         32.0004
  -7454890.79146  -5782504.83545  23829265.3914                   23829257.6094
        38.7504         33.0004
 -27231674.97148 -21844354.60049  20558900.7344                   20558892.3094
        52.2504         55.0004
 -12918394.92747  -9120202.94644  23413440.7814                   23413428.6644
        42.5004         26.5004
  -7468137.84846  -5543315.59744  24598356.4534                   24598346.5634
        37.5004         24.0004
  -4934451.24846  -3814693.72145  24547862.8914                   24547852.6484
        38.0004         34.5004
  -1271795.42155  -2410751.36452  24816666.6804                   24816659.5434
        33.2504         17.7504
 -28067378.82748 -21483499.18949  20582475.3364                   20582465.9734
        51.7504         55.0004
 23  1  4  0 32 30.0000000  0 11G23G24G22G27G08G10G21G18G31G01G32
 -10527221.09047 -10373531.22646  22058304.3284                   22058293.6174
        46.2504         36.0004
 -12866380.73946  -9986156.15844  23003735.1644                   23003726.2704
        38.5004         26.5004
 -19653677.30147  -9157438.62945  21775017.3054                   21775007.0634
        47.0004         34.0004
  -6925588.64946  -5369423.92945  24208379.5634                   24208371.4304
        37.0004         32.2504
  -7402595.15546  -5741755.00245  23839217.5474                   23839208.8284
        38.5004         33.7504
 -27219119.13748 -21834570.84149  20561289.9534                   20561281.5864
        52.2504         55.0004
 -12988846.22347  -9175100.06144  23400033.9534                   23400022.1884
        42.5004         26.7504
  -7352836.82946  -5453470.68643  24620297.4384                   24620288.1914
        38.0004         22.7504
  -5053933.23746  -3907796.58245  24525126.7504                   24525115.5124
        38.5004         34.7504
  -1382174.01245  -2496760.68742  24795661.9144                   24795654.1334
        31.5004         17.2504
 -28086310.23348 -21498250.93149  20578872.7974                   20578863.6684
        52.5004         55.0004
 23  1  4  0 33  0.0000000  0 11G23G24G22G27G08G10G21G18G31G01G32
 -10460283.79747 -10321372.32545  22071042.1334                   22071031.2464
        46.5004         35.2504
 -12791777.17246  -9928023.50344  23017931.3284                   23017923.2544
        37.5004         26.2504
 -19718591.41747  -9208021.04345  21762665.3594                   21762654.4144
        47.0004         34.2504
  -6835604.13246  -5299306.12245  24225504.9924                   24225494.8094
        39.0004         32.7504
  -7349899.57146  -5700693.50745  23849245.1564                   23849237.8444
        39.0004         33.5004
 -27206259.77348 -21824550.56149  20563737.3284                   20563728.1994
        51.7504         55.0004
 -13059011.13147  -9229774.00644  23386682.6094                   23386670.4344
        42.2504         27.5004
  -7237449.08946  -5363558.18243  24642255.4064                   24642245.5744
        38.7504         22.2504
  -5173416.64146  -4000900.51845  24502390.6954                   24502378.6954
        39.0004         35.5004
  -1492420.35245  -2582666.99142  24774683.4454                   24774674.9024
        32.2504         17.2504
 -28104833.38448 -21512684.55049  20575348.1094                   20575338.8054
        51.5004         55.0004
 23  1  4  0 33 30.0000000  0 11G23G24G22G27G08G10G21G18G31G01G32
 -10393114.22547 -10269032.42545  22083824.0784                   22083813.1334
        46.2504         35.0004
 -12716693.86646  -9869517.02144  23032219.4844                   23032210.5314
        37.5004         26.2504
 -19783182.37147  -9258351.65545  21750374.0004                   21750363.4064
        46.2504         34.2504
  -6745482.75546  -5229081.67745  24242652.6484                   24242644.8094
        38.0004         32.0004
  -7296805.84946  -5659321.80345  23859348.5784                   23859341.5594
        38.5004         33.5004
 -27193095.72648 -21814292.86149  20566242.0004                   20566233.0474
        51.0004         55.0004
 -13128887.45547  -9284223.08144  23373385.0164                   23373372.7814
        42.5004         28.0004
  -7121976.28546  -5273579.37643  24664230.2734                   24664219.0354
        38.5004         22.0004
  -5292898.37246  -4094003.18245  24479653.1254                   24479642.2974
        38.2504         35.0004
  -1602531.35445  -2668467.72742  24753729.2194                   24753722.3164
        31.0004         17.2504
 -28122948.18648 -21526799.97549  20571901.2424                   20571891.7624
        52.0004         54.7504
 23  1  4  0 34  0.0000000  0 11G23G24G22G27G08G10G21G18G31G01G32
 -10325712.86647 -10216511.89845  22096650.3284                   22096639.5004
        46.5004         35.7504
 -12641133.71446  -9810638.99944  23046598.5394                   23046589.0004
        37.5004         25.0004
 -19847449.80147  -9308430.16245  21738144.6024                   21738133.5394
        47.2504         34.0004
  -6655227.86746  -5158753.18745  24259827.2584                   24259818.9494
        37.5004         33.0004
  -7243316.18546  -5617641.59245  23869527.0394                   23869519.7854
        37.5004         32.2504
 -27179626.88348 -21803797.66249  20568805.2274                   20568795.9224
        51.0004         54.7504
 -13198473.79047  -9338446.19344  23360143.5474                   23360131.4304
        42.5004         28.5004
  -7006420.84646  -5183536.18043  24686218.4774                   24686208.5864
        38.5004         22.0004
  -5412375.94246  -4187102.55945  24456916.8674                   24456906.4494
        38.2504         35.5004
  -1712504.55045  -2754161.14043  24732802.5554                   24732794.8914
        34.0004         18.5004
 -28140655.38948 -21540597.78949  20568530.5004                   20568520.6094
        51.2504         55.0004
 23  1  4  0 34 30.0000000  0 11G23G24G22G27G08G10G21G18G31G01G32
 -10258080.27747 -10163811.19245  22109520.1414                   22109509.3714
        47.0004         35.7504
 -12565099.43046  -9751391.49544  23061066.7664                   23061058.1054
        37.5004         25.5004
 -19911393.09347  -9358256.08845  21725976.8284                   21725965.5314
        46.2504         34.0004
  -6564842.71846  -5088323.20545  24277027.2974                   24277018.6374
        38.0004         32.2504
  -7189433.72746  -5575655.26945  23879781.6094                   23879772.4224
        38.5004         32.0004
 -27165852.99348 -21793064.76449  20571426.3054                   20571417.1764
        51.5004         54.7504
 -13267768.05347  -9392441.72344  23346956.9064                   23346945.6094
        42.2504         27.5004
  -6890785.09546  -5093430.43843  24708224.7584                   24708213.6374
        39.2504         22.0004
  -5531846.57746  -4280196.54145  24434182.5474                   24434171.6604
        37.7504         34.5004
  -1822337.62445  -2839745.44042  24711901.0004                   24711894.0984
        32.5004         17.2504
 -28157955.56948 -21554078.43849  20565238.9534                   20565228.9454
        52.5004         54.7504
 23  1  4  0 35  0.0000000  0 11G23G24G22G27G08G10G21G18G31G01G32
 -10190216.68947 -10110930.48145  22122434.0704                   22122423.4774
        46.5004         35.5004
 -12488593.49646  -9691776.50444  23075625.8204                   23075616.5164
        38.2504         28.5004
 -19975011.82547  -9407829.09545  21713870.2734                   21713859.0944
        46.5004         33.7504
  -6474330.41546  -5017794.15645  24294251.1484                   24294243.2504
        38.2504         32.5004
  -7135160.63946  -5533364.54345  23890110.2194                   23890100.4454
        38.7504         32.7504
 -27151773.12948 -21782093.44849  20574105.7114                   20574096.9924
        51.2504         55.0004
 -13336768.03146  -9446207.91444  23333826.2034                   23333814.6134
        41.7504         27.7504
  -6775071.26846  -5003263.80143  24730243.4924                   24730233.5434
        38.7504         21.5004
  -5651307.40646  -4373282.89945  24411451.1094                   24411439.4614
        38.7504         35.5004
  -1932027.83845  -2925218.33743  24691029.1254                   24691020.1724
        35.0004         19.0004
 -28174849.09848 -21567242.22549  20562024.5164                   20562014.6254
        52.2504         55.0004
 23  1  4  0 35 30.0000000  0 11G23G24G22G27G08G10G21G18G31G01G32
 -10122123.48647 -10057870.87445  22135392.0784                   22135381.1914
        47.0004         35.0004
 -12411619.61746  -9631796.87044  23090273.2504                   23090264.0634
        38.2504         26.2504
 -20038306.57847  -9457149.65945  21701825.4924                   21701814.3134
        46.7504         34.7504
  -6383695.15246  -4947169.26445  24311499.0394                   24311489.7344
        38.2504         32.7504
  -7080500.89546  -5490772.53345  23900508.5864                   23900502.3284
        36.2504         32.2504
 -27137388.46948 -21770884.61849  20576843.1254                   20576834.1134
        52.5004         54.7504
 -13405473.16547  -9499744.38644  23320752.5944                   23320740.4184
        42.7504         29.0004
  -6659282.48046  -4913038.77043  24752278.1724                   24752267.1684
        38.5004         22.0004
  -5770756.51746  -4466360.12445  24388719.1644                   24388708.7464
        38.0004         35.0004
  -2041573.54045  -3010578.63443  24670182.1724                   24670175.0354
        33.7504         18.2504
 -28191337.60148 -21580090.39949  20558886.6334                   20558877.5044
        53.0004         55.0004
 23  1  4  0 36  0.0000000  0 11G23G24G22G27G08G10G21G18G31G01G32
 -10053798.77947 -10004630.86446  22148394.5314                   22148383.2934
        47.0004         36.0004
 -12334178.08346  -9571452.81844  23105009.0234                   23105001.3594
        37.0004         25.5004
 -20101274.55847  -9506215.59045  21689843.3594                   21689832.2384
        45.5004         34.5004
  -6292937.74546  -4876449.21345  24328769.8444                   24328760.5394
        38.2504         32.7504
  -7025454.03546  -5447878.95745  23910985.7664                   23910978.2194
        37.0004         31.2504
 -27122695.93148 -21759435.88549  20579639.1954                   20579630.0084
        51.7504         55.2504
 -13473879.02647  -9553047.64844  23307734.7344                   23307723.7304
        42.2504         28.5004
  -6543418.72446  -4822755.35743  24774324.5634                   24774315.4344
        37.0004         22.2504
  -5890189.15146  -4559424.49445  24365991.5784                   24365981.3364
        37.0004         35.0004
  -2150970.04345  -3095822.68943  24649364.2894                   24649357.6804
        34.5004         19.0004
 -28207419.24948 -21592621.54749  20555826.3594                   20555817.3484
        53.0004         54.7504
 23  1  4  0 36 30.0000000  0 11G23G24G22G27G08G10G21G18G31G01G32
  -9985245.06647  -9951212.40245  22161438.9454                   22161428.7624
        46.5004         35.0004
 -12256273.77846  -9510748.16944  23119834.4064                   23119825.6294
        38.5004         24.0004
 -20163917.57547  -9555028.32345  21677922.4774                   21677911.8244
        46.2504         34.7504
  -6202063.61346  -4805638.20145  24346061.3524                   24346053.6294
        37.0004         33.0004
  -6970026.25646  -5404688.46845  23921534.3524                   23921524.7544
        38.5004         32.2504
 -27107697.42348 -21747748.72849  20582493.2584                   20582484.3054
        51.5004         55.0004
 -13541986.46847  -9606118.36444  23294775.5164                   23294763.2234
        42.7504         27.7504
  -6427484.40546  -4732416.94943  24796388.3834                   24796376.7344
        39.5004         22.5004
  -6009604.51146  -4652475.41945  24343269.1334                   24343257.6024
        38.2504         35.0004
  -2260216.86245  -3180950.12043  24628575.7424                   24628568.6054
        35.0004         18.5004
 -28223096.79848 -21604837.81249  20552842.8444                   20552833.9494
        51.5004         55.2504
 23  1  4  0 37  0.0000000  0 11G23G24G22G27G08G10G21G18G31G01G32
  -9916461.00647  -9897614.46645  22174528.2584                   22174517.2544
        45.7504         35.5004
 -12177907.68746  -9449683.69144  23134746.6804                   23134738.1954
        38.0004         26.0004
 -20226233.41647  -9603586.09345  21666064.1174                   21666053.2894
        46.2504         34.7504
  -6111074.05546  -4734737.25145  24363376.2344                   24363368.5124
        36.7504         33.7504
  -6914216.87546  -5361200.62345  23932152.4454                   23932144.2544
        36.2504         31.2504
 -27092390.55048 -21735821.29749  20585406.0634                   20585396.8164
        51.7504         55.0004
 -13609791.32447  -9658953.32944  23281871.9534                   23281860.3054
        42.7504         29.2504
  -6311480.03846  -4642023.93043  24818462.4384                   24818451.7274
        37.5004         22.5004
  -6128998.18246  -4745509.42245  24320548.2424                   24320537.2384
        38.0004         34.7504
  -2369309.66045  -3265957.48843  24607816.3674                   24607808.4694
        34.2504         20.2504
 -28238369.04648 -21616738.26149  20549936.5634                   20549927.7274
        53.0004         54.7504
 23  1  4  0 37 30.0000000  0 11G23G24G22G27G08G10G21G18G31G01G32
  -9847447.98747  -9843838.11045  22187661.0164                   22187650.1294
        46.5004         35.5004
 -12099083.35346  -9388262.12944  23149747.0314                   23149737.9614
        38.5004         26.5004
 -20288222.66347  -9651889.38145  21654268.0634                   21654257.1174
        46.0004         34.2504
  -6019973.32146  -4663749.67045  24380713.7814                   24380704.4774
        38.2504         33.0004
  -6858030.30945  -5317418.92445  23942843.8594                   23942837.3674
        34.7504         31.5004
 -27076775.97448 -21723654.09749  20588377.3284                   20588367.8484
        52.0004         54.7504
 -13677292.72547  -9711551.81644  23269027.1334                   23269015.3094
        43.0004         27.7504
  -6195408.75146  -4551578.78443  24840549.1334                   24840538.7734
        37.5004         21.7504
  -6248368.16546  -4838524.99645  24297833.5084                   24297822.5634
        37.5004         34.5004
  -2478246.77046  -3350843.58343  24587087.9064                   24587078.7774
        36.2504         19.7504
 -28253237.52748 -21628324.08649  20547107.7034                   20547098.4574
        52.5004         55.0004
 23  1  4  0 38  0.0000000  0 11G23G24G22G27G08G10G21G18G31G01G32
  -9778205.63947  -9789883.04945  22200837.2504                   22200826.6564
        46.2504         34.7504
 -12019802.85846  -9326485.15544  23164833.7734                   23164824.9964
        38.7504         25.2504
 -20349884.18147  -9699937.30445  21642534.1174                   21642523.5234
        46.0004         34.5004
  -5928763.77246  -4592677.32145  24398068.0554                   24398060.5664
        37.0004         33.0004
  -6801468.39046  -5273344.74545  23953609.2274                   23953600.9774
        37.5004         31.5004
 -27060852.74048 -21711246.38049  20591407.2194                   20591398.3244
        52.0004         55.5004
 -13744488.36747  -9763912.05344  23256239.5004                   23256227.8524
        42.5004         28.7504
  -6079272.24446  -4461082.83443  24862650.1174                   24862638.9964
        38.0004         22.0004
  -6367711.14646  -4931519.52145  24275123.4304                   24275111.7814
        36.7504         34.0004
  -2587024.94945  -3435605.80143  24566386.1564                   24566379.4884
        35.0004         18.2504
 -28267702.11648 -21639595.18149  20544354.8134                   20544345.9184
        51.7504         55.0004
 23  1  4  0 38 30.0000000  0 11G23G24G22G27G08G10G21G18G31G01G32
  -9708735.09547  -9735750.19245  22214056.8134                   22214046.4534
        45.7504         34.7504
 -11940069.66446  -9264355.38644  23180006.1484                   23179997.3714
        39.0004         25.2504
 -20411218.25447  -9747730.07245  21630862.3204                   21630851.8444
        46.0004         35.5004
  -5837449.36846  -4521523.21645  24415446.1414                   24415437.3054
        37.0004         32.5004
  -6744534.39746  -5228980.58945  23964443.7424                   23964434.4384
        37.0004         32.0004
 -27044620.93148 -21698598.21549  20594496.3054                   20594487.4104
        52.2504         55.0004
 -13811377.33747  -9816033.32544  23243511.1954                   23243499.3134
        42.7504         28.5004
  -5963073.34346  -4370538.24643  24884761.7114                   24884751.2934
        36.0004         22.0004
  -6487024.99046  -5024491.34145  24252416.7194                   24252406.7704
        36.2504         33.7504
  -2695642.25646  -3520242.68943  24545718.3674                   24545709.7074
        36.7504         18.5004
 -28281764.16348 -21650552.61649  20541678.8984                   20541669.7704
        53.0004         55.2504
 23  1  4  0 39  0.0000000  0 11G23G24G22G27G08G10G21G18G31G01G32
  -9639035.87047  -9681439.12345  22227321.0234                   22227310.2544
        46.0004         35.0004
 -11859885.47946  -9201874.20844  23195264.6024                   23195256.3524
        38.7504         26.0004
 -20472223.71247  -9795266.77645  21619253.4614                   21619242.9264
        46.0004         35.0004
  -5746032.32146  -4450289.15945  24432841.7424                   24432833.4924
        36.7504         32.5004
  -6687230.13245  -5184327.92345  23975346.6644                   23975338.7664
        34.2504         30.7504
 -27028079.47348 -21685708.76749  20597643.9304                   20597634.6254
        52.2504         55.0004
 -13877956.89947  -9867913.50444  23230841.9454                   23230830.2974
        43.5004         27.7504
  -5846813.45546  -4279946.15243  24906884.6564                   24906874.6484
        36.0004         21.2504
  -6606305.98546  -5117437.56845  24229720.1334                   24229708.7774
        37.5004         34.5004
  -2804095.19845  -3604751.40742  24525079.0234                   24525071.8874
        35.0004         17.7504
 -28295423.32448 -21661196.10649  20539079.9774                   20539070.6724
        52.7504         54.7504
 23  1  4  0 39 30.0000000  0 11G23G24G22G27G08G10G21G18G31G01G32
  -9569108.79147  -9626950.51145  22240627.3204                   22240616.5514
        45.5004         34.7504
 -11779253.52446  -9139044.11844  23210608.5864                   23210599.3404
        39.0004         25.5004
 -20532900.47747  -9842547.34845  21607706.6884                   21607696.6214
        46.0004         35.5004
  -5654516.15546  -4378977.87345  24450256.8834                   24450248.8094
        37.0004         32.5004
  -6629558.97545  -5139389.37945  23986321.7974                   23986314.0164
        35.2504         31.2504
 -27011228.07148 -21672577.80049  20600850.7274                   20600841.5394
        52.2504         55.0004
 -13944225.05747  -9919551.03144  23218231.2584                   23218219.3754
        43.0004         29.2504
  -5730495.24546  -4189308.61743  24929020.5394                   24929009.9454
        37.5004         21.5004
  -6725551.65346  -5210356.25045  24207027.7974                   24207016.7934
        38.0004         34.0004
  -2912381.54146  -3689130.39943  24504473.3594                   24504465.6954
        37.5004         19.7504
 -28308680.60948 -21671526.46149  20536556.9614                   20536547.7734
        53.0004         55.2504
 23  1  4  0 40  0.0000000  0 11G23G24G22G27G08G10G21G18G31G01G32
  -9498954.16947  -9572284.60445  22253977.5084                   22253967.0904
        45.5004         34.7504
 -11698176.51646  -9075867.22444  23226037.6254                   23226028.6724
        39.5004         26.2504
 -20593248.14747  -9889571.49545  21596223.5004                   21596212.2624
        45.5004         35.0004
  -5562904.12045  -4307591.84945  24467690.0704                   24467681.1764
        35.7504         31.5004
  -6571523.11946  -5094166.64445  23997366.1334                   23997358.0004
        36.2504         31.7504
 -26994066.65648 -21659205.27649  20604116.4844                   20604107.1804
        52.2504         54.7504
 -14010180.21447  -9970944.67044  23205680.0084                   23205668.5944
        42.5004         29.7504
  -5614120.85546  -4098627.30643  24951165.7114                   24951154.7664
        36.5004         21.0004
  -6844759.08246  -5303245.16045  24184344.6724                   24184332.4384
        38.0004         34.2504
  -3020498.71845  -3773377.52943  24483897.7424                   24483891.5434
        35.5004         18.5004
 -28321536.58948 -21681544.09549  20534110.1024                   20534101.6174
        53.5004         55.0004
 23  1  4  0 40 30.0000000  0 11G23G24G22G27G08G10G21G18G31G01G32
  -9428572.09847  -9517441.48745  22267370.6804                   22267360.1454
        45.5004         34.5004
 -11616656.73246  -9012345.35144  23241549.8444                   23241541.0084
        40.2504         26.7504
 -20653265.81847  -9936338.49145  21584802.4534                   21584791.3914
        46.5004         35.2504
  -5471198.79046  -4236133.16745  24485141.9844                   24485132.7384
        37.5004         32.7504
  -6513125.26245  -5048661.83345  24008478.0234                   24008470.5354
        34.2504         30.7504
 -26976594.04748 -21645590.25349  20607441.2734                   20607432.3794
        52.7504         54.7504
 -14075820.00847 -10022092.56344  23193190.7814                   23193177.6684
        44.7504         29.7504
  -5497692.14445  -4007903.64143  24973319.4304                   24973310.4774
        34.7504         21.5004
  -6963925.16046  -5396101.83945  24161668.6884                   24161655.9264
        39.0004         35.0004
  -3128443.69746  -3857490.48843  24463359.2734                   24463349.7344
        38.0004         19.0004
 -28333991.54248 -21691249.24149  20531740.1884                   20531731.1764
        53.5004         55.0004
 23  1  4  0 41  0.0000000  0 11G23G24G22G27G08G10G21G18G31G01G32
  -9357963.13247  -9462421.54045  22280807.2034                   22280796.4924
        46.2504         35.0004
 -11534697.29346  -8948480.83144  23257146.1094                   23257137.3914
        38.5004         25.0004
 -20712953.64547  -9982848.46645  21573444.3834                   21573433.5554
        46.5004         35.0004
  -5379403.65546  -4164604.47945  24502609.1724                   24502600.2194
        36.0004         31.0004
  -6454367.94645  -5002876.94645  24019658.9384                   24019650.9804
        34.5004         30.7504
 -26958810.29448 -21631732.77649  20610825.5554                   20610816.1334
        52.5004         55.0004
 -14141143.18647 -10072993.74845  23180759.4924                   23180747.4924
        43.7504         30.5004
  -5381211.64146  -3917139.62243  24995487.2114                   24995475.7974
        37.5004         20.7504
  -7083047.54746  -5488924.50245  24138997.6804                   24138987.9654
        37.0004         34.0004
  -3236213.97346  -3941467.32043  24442849.1884                   24442842.3444
        37.5004         19.0004
 -28346046.33148 -21700642.58149  20529446.2974                   20529437.6374
        53.2504         55.0004
 23  1  4  0 41 30.0000000  0 11G23G24G22G27G08G10G21G18G31G01G32
  -9287127.25847  -9407224.77245  22294286.6174                   22294275.6724
        45.2504         34.0004
 -11452300.40146  -8884275.48644  23272825.5394                   23272817.2304
        39.0004         25.2504
 -20772310.75547 -10029100.74045  21562149.1484                   21562137.6764
        46.5004         35.2504
  -5287521.39646  -4093007.90345  24520094.2424                   24520084.7624
        37.0004         31.5004
  -6395253.74345  -4956813.96345  24030909.3754                   24030900.8324
        35.5004         31.5004
 -26940714.51048 -21617632.16849  20614268.8054                   20614260.0274
        52.5004         55.0004
 -14206147.47047 -10123646.41945  23168389.3594                   23168377.4184
        44.0004         30.0004
  -5264681.10045  -3826336.62543  25017661.7974                   25017651.3204
        35.7504         21.2504
  -7202122.49746  -5581710.15545  24116339.3984                   24116328.2774
        37.7504         34.7504
  -3343806.48246  -4025305.63643  24422377.4064                   24422366.9884
        38.5004         18.5004
 -28357701.11349 -21709724.22049  20527228.7194                   20527219.5314
        54.0004         54.7504
 23  1  4  0 42  0.0000000  0 11G23G24G22G27G08G10G21G18G31G01G32
  -9216065.52447  -9351851.99745  22307809.3594                   22307798.7074
        45.2504         34.0004
 -11369469.53046  -8819731.94144  23288589.2274                   23288578.9264
        40.0004         26.0004
 -20831337.54547 -10075095.61845  21550916.0314                   21550905.5554
        46.0004         35.2504
  -5195555.74346  -4021346.35245  24537593.3364                   24537585.6724
        36.0004         31.0004
  -6335786.28845  -4910475.67145  24042225.3524                   24042216.8674
        34.0004         30.7504
 -26922307.04848 -21603288.69149  20617771.5234                   20617762.8634
        52.2504         55.0004
 -14270831.57147 -10174049.64045  23156081.2974                   23156068.6524
        44.0004         30.7504
  -5148103.39545  -3735496.85343  25039843.4534                   25039835.9064
        33.5004         21.5004
  -7321148.04246  -5674457.31845  24093690.8134                   24093678.7544
        38.5004         35.0004
  -3451219.33346  -4109003.96943  24401935.7344                   24401928.0704
        37.0004         18.5004
 -28368957.21348 -21718495.19449  20525086.6804                   20525077.4344
        53.2504         54.7504
 23  1  4  0 42 30.0000000  0 11G23G24G22G27G08G10G21G18G31G01G32
  -9144777.53947  -9296302.93345  22321375.0864                   22321364.0824
        45.7504         34.2504
 -11286206.64446  -8754851.78844  23304432.2974                   23304423.8134
        39.2504         25.5004
 -20890032.67647 -10120832.06146  21539747.2274                   21539735.9884
        47.0004         36.0004
  -5103509.03346  -3949621.63645  24555110.6024                   24555101.1214
        36.7504         30.7504
  -6275967.04845  -4863863.32645  24053608.9774                   24053600.4344
        34.2504         30.7504
 -26903586.55148 -21588701.29149  20621333.8754                   20621325.0984
        52.2504         54.7504
 -14335192.65847 -10224201.11345  23143832.8524                   23143821.2034
        43.5004         30.5004
  -5031479.95346  -3644621.50643  25062037.7974                   25062027.7894
        36.5004         21.0004
  -7440120.30246  -5767162.98445  24071050.2664                   24071038.5594
        39.2504         35.2504
  -3558448.99846  -4192559.52343  24381531.5944                   24381522.5824
        39.5004         19.5004
 -28379814.43548 -21726955.36649  20523020.4844                   20523011.4734
        53.0004         54.7504
 23  1  4  0 43  0.0000000  0 11G23G24G22G27G08G10G21G18G31G01G32
  -9073264.04647  -9240578.15945  22334983.4694                   22334972.7584
        45.2504         34.5004
 -11202514.79146  -8689637.36844  23320358.5704                   23320349.0904
        39.0004         24.2504
 -20948395.96947 -10166309.92845  21528641.0704                   21528630.0664
        46.2504         35.0004
  -5011384.58645  -3877836.34745  24572639.9844                   24572632.1454
        35.7504         30.2504
  -6215798.78745  -4816978.96845  24065059.0784                   24065049.5394
        35.5004         30.7504
 -26884552.67848 -21573869.69349  20624956.0234                   20624946.9534
        52.0004         54.7504
 -14399229.29347 -10274099.79945  23131648.0634                   23131635.0084
        44.7504         30.5004
 -14367333.33756 -10919312.53153  25084240.3444                   25084229.3404
        38.2504         19.7504
  -7559037.18946  -5859825.48746  24048420.7344                   24048410.0824
        38.0004         36.0004
  -3665492.98246  -4275970.43143  24361159.9534                   24361151.7624
        38.2504         19.2504
 -28390273.75648 -21735105.48149  20521030.1564                   20521021.3204
        52.7504         54.7504
 23  1  4  0 43 30.0000000  0 11G23G24G22G27G08G10G21G18G31G01G32
  -9001525.39347  -9184677.94345  22348635.5164                   22348624.2774
        45.5004         34.0004
 -11118396.73546  -8624090.83044  23336365.1884                   23336356.2934
        38.5004         25.2504
 -21006427.30947 -10211529.13446  21517598.0164                   21517586.7774
        47.0004         36.0004
  -4919185.61846  -3805993.01144  24590186.0004                   24590176.9884
        36.7504         29.5004
  -6155284.72545  -4769825.16345  24076571.9384                   24076564.9184
        34.2504         30.0004
 -26865205.52248 -21558793.99449  20628637.5634                   20628628.9024
        51.0004         54.7504
 -14462939.74847 -10323744.32045  23119523.1884                   23119511.1884
        43.0004         30.7504
 -14250625.72045 -10828371.51643  25106447.8364                   25106438.4144
        35.0004         19.7504
  -7677895.64946  -5952442.46246  24025803.1644                   24025791.8674
        39.0004         36.5004
  -3772348.71846  -4359234.63143  24340827.3674                   24340818.8834
        39.0004         20.7504
 -28400335.80348 -21742946.02949  20519115.5634                   20519106.4924
        53.0004         55.0004
 23  1  4  0 44  0.0000000  0 11G23G24G22G27G08G10G21G18G31G01G32
  -8929561.52147  -9128602.22845  22362329.5234                   22362318.5784
        46.0004         34.0004
 -11033854.78346  -8558213.97643  23352453.6954                   23352444.8014
        38.7504         23.7504
 -21064126.07747 -10256489.20046  21506618.2584                   21506607.2544
        46.7504         36.0004
  -4826914.69746  -3734093.57744  24607743.9384                   24607735.2774
        36.0004         28.5004
  -6094426.99045  -4722403.59044  24088153.6484                   24088146.5124
        33.5004         29.5004
 -26845543.80448 -21543473.17749  20632379.0394                   20632370.3204
        50.0004         55.0004
 -14526321.89047 -10373132.97845  23107462.1884                   23107450.8914
        44.5004         31.7504
 -14133878.68446 -10737399.84943  25128663.2584                   25128654.1294
        36.5004         21.0004
  -7796691.93746  -6045010.96546  24003197.8054                   24003185.6294
        39.7504         36.0004
  -3879012.89246  -4442349.57043  24320529.1954                   24320521.1804
        37.5004         20.0004
 -28410000.74948 -21750477.14849  20517276.2734                   20517267.3204
        51.7504         55.0004
 23  1  4  0 44 30.0000000  0 11G23G24G22G27G08G10G21G18G31G01G32
  -8857373.62147  -9072351.93745  22376065.6024                   22376055.0664
        45.7504         34.0004
 -10948892.59346  -8492009.67644  23368621.1884                   23368611.9414
        39.0004         24.0004
 -21121492.64647 -10301190.39846  21495702.0784                   21495690.7234
        46.7504         36.0004
  -4734575.77145  -3662141.17844  24625314.9144                   24625307.7774
        35.2504         29.0004
  -6033229.26245  -4674717.05145  24099801.0864                   24099791.8984
        34.5004         31.0004
 -26825568.09348 -21527907.69249  20636180.2734                   20636171.2624
        51.7504         55.0004
 -14589374.03547 -10422264.51945  23095464.4774                   23095452.1254
        44.5004         31.5004
 -14017095.62146 -10646400.09643  25150888.2034                   25150877.3754
        37.0004         20.0004
  -7915424.34646  -6137529.72846  23980600.9844                   23980591.4454
        37.2504         36.2504
  -3985483.76846  -4525313.92243  24300268.8594                   24300260.1994
        38.0004         19.5004
 -28419270.13948 -21757700.04349  20515512.5084                   20515503.2034
        53.0004         55.0004
 23  1  4  0 45  0.0000000  0 11G23G24G22G27G08G10G21G18G31G01G32
  -8784961.56147  -9015926.97445  22389844.1334                   22389835.3554
        45.5004         34.2504
 -10863512.39246  -8425479.65743  23384868.2424                   23384859.2894
        38.7504         23.2504
 -21178526.23947 -10345632.14245  21484848.4774                   21484837.7664
        46.5004         35.7504
  -4642171.19846  -3590137.66544  24642899.5554                   24642891.1294
        36.0004         28.2504
  -5971693.51245  -4626767.17945  24111510.1884                   24111502.2304
        34.0004         30.2504
 -26805277.17948 -21512096.60549  20640041.7814                   20640032.7114
        51.5004         55.0004
 -14652094.27147 -10471137.41845  23083528.3444                   23083516.2854
        43.2504         30.7504
 -13900277.76446 -10555373.29943  25173118.6414                   25173106.8754
        37.2504         19.7504
  -8034089.25046  -6229995.90246  23958021.3594                   23958010.5904
        38.0004         36.7504
  -4091757.91446  -4608124.91443  24280045.0784                   24280037.7074
        36.7504         20.0004
 -28428144.05348 -21764614.77849  20513823.8984                   20513814.7114
        51.5004         55.0004
 23  1  4  0 45 30.0000000  0 11G23G24G22G27G08G10G21G18G31G01G32
  -8712325.70347  -8959327.63345  22403667.5944                   22403657.9964
        45.7504         33.5004
 -10777716.84646  -8358625.98344  23401194.8134                   23401186.2114
        38.5004         24.2504
 -21235226.13947 -10389813.85546  21474059.2274                   21474048.2234
        46.5004         36.0004
  -4549704.19745  -3518085.40644  24660496.5474                   24660486.9494
        35.5004         29.2504
  -5909822.88145  -4578556.30445  24123282.4924                   24123275.4144
        32.7504         30.0004
 -26784671.07248 -21496039.90149  20643962.9144                   20643953.7274
        51.2504         54.7504
 -14714480.96747 -10519750.40845  23071657.2194                   23071645.0434
        44.7504         31.7504
 -13783427.52446 -10464321.07643  25195354.0634                   25195343.2934
        36.5004         19.7504
  -8152684.09646  -6322407.47446  23935453.8984                   23935443.0124
        38.7504         37.7504
  -4197832.67346  -4690780.59443  24259860.6644                   24259851.4184
        38.0004         20.5004
 -28436623.10348 -21771221.82249  20512210.2424                   20512201.2894
        52.5004         55.2504
 23  1  4  0 46  0.0000000  0 11G23G24G22G27G08G10G21G18G31G01G32
  -8639465.90547  -8902553.79445  22417533.8134                   22417522.2234
        46.0004         34.0004
 -10691508.33346  -8291450.52944  23417599.2424                   23417590.8754
        37.5004         25.0004
 -21291591.79847 -10433735.13046  21463333.3364                   21463322.3914
        47.2504         36.2504
  -4457177.14345  -3445986.44244  24678102.2664                   24678094.1334
        34.7504         29.0004
  -5847619.51845  -4530086.15045  24135121.1174                   24135111.8134
        33.5004         31.0004
 -26763748.38248 -21479736.50449  20647944.2814                   20647935.2704
        51.0004         54.7504
 -14776531.89447 -10568101.78345  23059849.0634                   23059837.7664
        43.7504         31.0004
 -13666546.28145 -10373244.95443  25217595.3134                   25217585.8914
        35.0004         20.7504
  -8271204.85646  -6414761.28246  23912900.5314                   23912888.8244
        39.0004         37.7504
  -4303704.78846  -4773278.38143  24239712.6174                   24239705.3054
        37.2504         21.2504
 -28444707.45148 -21777521.30949  20510671.7974                   20510662.7854
        52.0004         55.0004
 23  1  4  0 46 30.0000000  0 11G23G24G22G27G08G10G21G18G31G01G32
  -8566384.01847  -8845606.88245  22431439.5004                   22431428.8484
        45.2504         34.0004
 -10604891.08646  -8223956.56943  23434082.7584                   23434073.6294
        38.7504         23.7504
 -21347624.33047 -10477396.83146  21452670.2274                   21452659.2814
        46.5004         36.7504
  -4364594.67945  -3373844.24544  24695720.0634                   24695711.2274
        34.7504         26.5004
  -5785086.85945  -4481359.43545  24147019.4144                   24147011.5164
        33.0004         30.5004
 -26742510.22348 -21463187.29249  20651985.8054                   20651976.9104
        51.0004         55.0004
 -14838246.48347 -10616191.05745  23048104.3674                   23048092.8954
        42.7504         31.0004
 -13549638.09445 -10282147.58243  25239843.7664                   25239832.8794
        35.7504         19.2504
  -8389650.54346  -6507056.62346  23890361.0634                   23890349.5314
        40.5004         38.0004
  -4409372.93546  -4855617.18643  24219605.5784                   24219597.3284
        37.7504         20.2504
 -28452399.24148 -21783514.91149  20509208.1644                   20509199.0354
        52.2504         55.0004
 23  1  4  0 47  0.0000000  0 11G23G24G22G27G08G10G21G18G31G01G32
  -8493079.17147  -8788486.22245  22445388.5234                   22445379.1024
        45.5004         33.0004
 -10517866.53546  -8156145.21344  23450643.5234                   23450633.3404
        38.5004         26.0004
 -21403322.33047 -10520797.84846  21442071.4304                   21442060.3094
        47.0004         36.0004
  -4271958.50545  -3301660.23844  24713348.7504                   24713339.7974
        35.2504         27.0004
  -5722227.10245  -4432377.83645  24158981.0784                   24158973.5314
        32.0004         30.0004
 -26720955.32248 -21446391.27049  20656087.4844                   20656078.0634
        49.0004         54.7504
 -14899621.12247 -10664015.45245  23036426.3284                   23036413.4494
        44.0004         31.0004
 -13432703.39856 -10191029.86953  25262092.7504                   25262084.3834
        36.0004         19.2504
  -8508016.63646  -6599289.95146  23867835.9924                   23867825.2814
        39.0004         39.2504
  -4514833.11046  -4937793.95043  24199536.0234                   24199528.8874
        36.5004         20.7504
 -28459697.86848 -21789202.14549  20507819.0474                   20507810.4454
        50.7504         54.7504
 23  1  4  0 47 30.0000000  0 11G23G24G22G27G08G10G21G18G31G01G32
  -8419552.54047  -8731192.78145  22459381.0474                   22459370.2774
        45.5004         33.5004
 -10430438.38446  -8088019.38843  23467279.4774                   23467270.6994
        37.5004         23.7504
 -21458686.05647 -10563938.40746  21431536.1174                   21431524.9964
        46.2504         37.0004
  -4179272.45745  -3229437.32844  24730987.7814                   24730977.5394
        35.2504         27.5004
  -5659043.99245  -4383144.27945  24171004.5234                   24170996.9774
        34.2504         30.0004
 -26699083.61948 -21429348.38949  20660249.4844                   20660240.7074
        49.7504         55.0004
 -14960655.03847 -10711574.34645  23024810.9454                   23024799.8244
        44.0004         31.0004
 -13315745.59245 -10099893.84743  25284349.5634                   25284341.7234
        33.5004         19.2504
  -8626301.08746  -6691459.62646  23845328.2584                   23845316.7274
        40.2504         39.0004
  -4620083.20146  -5019807.04643  24179509.0314                   24179500.7814
        37.0004         21.5004
 -28466604.84148 -21794584.19549  20506504.8754                   20506495.7464
        52.2504         55.0004
 23  1  4  0 48  0.0000000  0 11G23G24G22G27G08G10G21G18G31G01G32
  -8345802.20947  -8673725.02245  22473415.7344                   22473404.2624
        45.7504         33.5004
 -10342607.08446  -8019579.42444  23483993.5944                   23483984.6994
        38.5004         24.5004
 -21513713.01447 -10606816.54646  21421065.0944                   21421053.4454
        47.5004         36.2504
  -4086537.21745  -3157176.14344  24748632.3204                   24748624.4224
        33.0004         25.2504
  -5595537.97845  -4333659.09245  24183089.0314                   24183081.8364
        32.5004         30.2504
 -26676892.62948 -21412056.72049  20664472.1564                   20664463.3204
        50.0004         55.0004
 -15021344.21347 -10758864.58145  23013262.5004                   23013250.4414
        43.2504         31.0004
                                  25306611.2584                   25306600.6644
        35.5004         18.5004
  -8744498.69646  -6783561.65846  23822835.4384                   23822824.2584
        41.0004         39.7504
  -4725118.31446  -5101652.54943  24159521.1094                   24159512.9774
        36.7504         21.7504
 -28473118.46948 -21799659.75449  20505265.4384                   20505256.5434
        52.5004         54.7504
 23  1  4  0 48 30.0000000  0 11G23G24G22G27G08G10G21G18G31G01G32
  -8271833.64247  -8616087.20245  22487490.8054                   22487480.0354
        45.0004         33.5004
 -10254380.44746  -7950831.39744  23500782.3754                   23500774.0664
        37.7504         24.7504
 -21568407.95247 -10649435.95446  21410656.1024                   21410645.9774
        46.5004         36.5004
  -3993760.81145  -3084882.82844  24766289.3914                   24766279.0314
        34.7504         27.0004
  -5531716.20945  -4283927.87245  24195234.8674                   24195227.0274
        33.0004         31.5004
 -26654386.60748 -21394519.56649  20668755.2974                   20668746.1684
        50.5004         54.7504
 -15081691.94247 -10805888.79745  23001778.8524                   23001766.3244
        44.5004         31.0004
 -13081766.58045  -9917572.63443  25328873.4384                   25328865.0704
        32.2504         19.2504
  -8862611.30446  -6875597.45146  23800359.1174                   23800347.9384
        41.2504         39.7504
  -4829940.58246  -5183332.28645  24139573.7274                   24139565.7704
        37.0004         32.5004
 -28479244.56848 -21804433.32949  20504099.5944                   20504090.5234
        51.0004         55.0004
 23  1  4  0 49  0.0000000  0 11G23G24G22G27G08G10G21G18G31G01G32
  -8197642.26447  -8558275.77445  22501609.6174                   22501598.9064
        45.5004         34.2504
 -10165756.46046  -7881773.72643  23517647.4384                   23517638.2504
        38.0004         23.5004
 -21622765.81747 -10691792.71446  21400312.6484                   21400301.8794
        47.0004         36.5004
  -3900941.37645  -3012555.98644  24783951.4454                   24783942.9614
        33.7504         27.0004
  -5467577.01245  -4233949.30945  24207440.8984                   24207432.3554
        33.2504         30.7504
 -26631560.46648 -21376732.97149  20673098.8914                   20673089.9384
        49.7504         54.7504
 -15141691.79447 -10852641.93445  22990360.7974                   22990349.5004
        42.5004         31.7504
 -12964749.78445  -9826390.90643  25351143.0164                   25351132.9494
        35.2504         19.5004
  -8980631.34047  -6967561.12046  23777901.1484                   23777889.2664
        42.2504         40.2504
  -4934542.31646  -5264840.11045  24119668.4694                   24119660.7464
        36.7504         32.0004
 -28484978.80548 -21808901.54849  20503008.4384                   20502999.2504
        51.7504         54.7504
 23  1  4  0 49 30.0000000  0 11G23G24G22G27G08G10G21G18G31G01G32
  -8123230.23947  -8500292.41345  22515769.5394                   22515758.7704
        45.5004         33.5004
 -10076739.55246  -7812409.90344  23534586.7504                   23534577.3874
        37.7504         24.5004
 -21676788.19547 -10733888.06446  21390032.1484                   21390021.4384
        47.2504         36.5004
  -3808083.66045  -2940199.33944  24801622.1094                   24801611.6334
        33.7504         27.2504
  -5403125.00045  -4183726.99245  24219703.2344                   24219696.9774
        31.7504         30.7504
 -26608415.33748 -21358697.81749  20677503.1254                   20677494.2894
        49.7504         54.7504
 -15201343.79247 -10899123.98345  22979009.9774                   22978997.8014
        44.5004         31.5004
 -12847717.77045  -9735197.15943  25373413.0084                   25373403.5274
        34.0004         18.2504
  -9098557.47046  -7059451.59346  23755460.2584                   23755448.9614
        41.7504         40.2504
  -5038922.50946  -5346175.35245  24099806.4384                   24099797.6604
        36.5004         31.5004
 -28490323.76748 -21813066.45149  20501991.3914                   20501982.3794
        51.2504         54.7504
 23  1  4  0 50  0.0000000  0 11G23G24G22G27G08G10G21G18G31G01G32
  -8048598.16447  -8442137.57345  22529971.3284                   22529960.3834
        45.0004         33.2504
  -9987332.91546  -7742742.41043  23551600.1254                   23551591.4064
        37.0004         23.5004
 -21730474.74247 -10775721.70946  21379815.9224                   21379805.1524
        46.5004         37.2504
  -3715190.84445  -2867815.32744  24819299.3284                   24819289.6134
        34.0004         27.0004
 -10064623.09155  -7816063.18555  24232027.2894                   24232020.6804
        30.0004         30.0004
 -26584951.15948 -21340414.05649  20681968.1884                   20681959.2344
        49.2504         55.0004
 -15260645.51747 -10945333.14645  22967725.3674                   22967712.8984
        44.5004         31.5004
 -12730673.02745  -9643993.51143  25395685.7504                   25395677.0314
        34.0004         18.5004
  -9216386.96146  -7151266.77946  23733038.4454                   23733026.6214
        41.7504         40.5004
  -5143078.59345  -5427335.91645  24079985.2504                   24079977.9384
        35.5004         31.7504
 -28495280.31148 -21816928.68849  20501048.1724                   20501038.9844
        51.5004         55.0004
 23  1  4  0 50 30.0000000  0 11G23G24G22G27G08G10G21G18G31G01G32
  -7973745.69947  -8383810.99045  22544214.9304                   22544204.8054
        44.5004         33.2504
  -9897538.43146  -7672772.68543  23568688.2114                   23568678.7304
        38.7504         23.5004
 -21783824.65747 -10817293.05646  21369664.0234                   21369653.0204
        47.0004         36.0004
  -3622265.14645  -2795405.72444  24836981.5554                   24836973.0124
        33.7504         26.2504
  -9999553.26845  -7765359.47545  24244411.5234                   24244403.0984
        32.7504         30.0004
 -26561166.81348 -21321880.80749  20686494.4064                   20686485.5124
        50.7504         55.0004
 -15319594.79047 -10991267.63645  22956506.6644                   22956495.2504
        43.0004         32.5004
 -12613616.49944  -9567419.58553  25417957.7424                   25417952.3054
        28.2504         18.5004
  -9334116.13247  -7243003.78946  23710635.5394                   23710623.4804
        43.0004         40.5004
  -5247006.93645  -5508319.04945  24060209.5944                   24060200.6414
        35.7504         31.5004
 -28499848.42348 -21820488.25349  20500178.7974                   20500169.9024
        52.2504         55.0004
 23  1  4  0 51  0.0000000  0 11G23G24G22G27G08G10G21G18G31G01G32
  -7898674.54147  -8325314.01645  22558500.3054                   22558490.5904
        44.0004         33.5004
  -9807360.34346  -7602504.02343  23585848.2974                   23585838.6414
        38.5004         23.7504
 -21836838.85147 -10858602.81446  21359576.1564                   21359565.0354
        46.7504         36.0004
  -3529310.84845  -2722973.76944  24854667.0634                   24854660.5124
        31.5004         24.0004
  -9934179.97145  -7714419.24245  24256850.4844                   24256843.3484
        32.0004         30.0004
 -26537063.17348 -21303098.75249  20691080.9064                   20691072.1294
        50.2504         55.0004
 -15378191.22147 -11036927.19745  22945357.5394                   22945344.9534
        44.7504         32.7504
 -12496552.10645  -9490298.81552  25440237.2974                   25440228.5204
        33.7504         17.2504
  -9451743.19946  -7334661.23946  23688250.2344                   23688239.6994
        41.0004         40.5004
  -5350706.04645  -5589123.54645  24040474.8914                   24040467.6954
        34.7504         31.0004
 -28504030.09148 -21823746.68849  20499382.8594                   20499374.1994
        52.2504         54.7504
 23  1  4  0 51 30.0000000  0 10G23G24G22G27G08G10G21G31G01G32
  -7823382.98247  -8266645.30545  22572828.7424                   22572817.7974
        45.5004         33.7504
  -9716799.37546  -7531937.04343  23603081.2894                   23603072.1024
        37.5004         23.0004
 -21889515.18447 -10899649.27946  21349551.5634                   21349541.0864
        46.0004         36.2504
  -3436328.92245  -2650520.37444  24872364.3834                   24872355.4304
        34.2504         26.0004
  -9868503.45245  -7663242.77145  24269347.0314                   24269341.5354
        30.5004         30.0004
 -26512637.58548 -21284065.84349  20695729.3204                   20695720.1334
        50.2504         55.0004
 -15436431.17047 -11082308.99045  22934273.7894                   22934262.0234
        44.5004         32.5004
  -9569262.93947  -7426235.05846  23665887.9844                   23665876.9804
        42.2504         41.0004
  -5454170.99845  -5669745.58345  24020786.5704                   24020778.9654
        35.5004         30.5004
 -28507823.96148 -21826702.94249  20498661.1644                   20498652.0354
        51.2504         55.0004
 23  1  4  0 52  0.0000000  0 10G23G24G22G27G08G10G21G31G01G32
  -7747873.90547  -8207807.07245  22587197.8524                   22587186.6134
        46.2504         33.5004
  -9625860.81846  -7461075.85643  23620385.6884                   23620377.1454
        37.0004         23.0004
 -21941855.97947 -10940434.29046  21339591.2504                   21339580.5984
        46.5004         37.0004
  -3343324.73645  -2578049.56344  24890063.9304                   24890053.8054
        35.0004         27.0004
  -9802528.90845  -7611834.07644  24281902.3594                   24281896.1604
        31.0004         29.5004
 -26487892.21748 -21264783.74049  20700437.9694                   20700429.3094
        50.0004         55.2504
 -15494314.31547 -11127412.73745  22923258.6484                   22923247.2344
        43.7504         32.5004
  -9686675.17046  -7517725.10946  23643544.9844                   23643533.9804
        41.5004         40.7504
  -5557401.54445  -5750184.95045  24001142.5394                   24001134.1724
        34.7504         30.0004
 -28511233.28548 -21829359.55249  20498012.1884                   20498003.0594
        51.0004         55.0004
 23  1  4  0 52 30.0000000  0 10G23G24G22G27G08G10G21G31G01G32
  -7672146.36547  -8148798.62545  22601607.5704                   22601597.0354
        45.0004         32.7504
  -9534546.09146  -7389921.51843  23637762.2734                   23637754.1414
        38.0004         23.0004
 -21993859.45647 -10980956.47246  21329695.7344                   21329684.5554
        46.2504         36.5004
  -3250299.72345  -2505562.56044  24907763.6484                   24907755.1054
        33.5004         25.0004
  -9736257.56145  -7560194.09644  24294514.0314                   24294506.5434
        32.2504         29.7504
 -26462825.33948 -21245251.11149  20705207.9304                   20705199.1524
        49.7504         55.0004
 -15551838.52847 -11172236.81345  22912313.6884                   22912300.9844
        44.7504         33.0004
  -9803975.26146  -7609127.77846  23621223.6884                   23621212.3324
        41.5004         40.5004
  -5660393.33545  -5830438.29745  23981544.0234                   23981535.9494
        35.7504         30.5004
 -28514257.35748 -21831715.97249  20497437.0164                   20497427.9454
        50.5004         55.0004
 23  1  4  0 53  0.0000000  0 10G23G24G22G27G08G10G21G31G01G32
  -7596202.09247  -8089621.28945  22616058.8834                   22616048.8164
        45.0004         33.2504
  -9442859.40146  -7318477.33844  23655209.7734                   23655200.9384
        37.5004         24.7504
 -22045526.51647 -11021216.49646  21319863.3984                   21319853.1564
        47.0004         36.2504
  -3157258.40845  -2433062.84044  24925469.4774                   24925461.4024
        34.0004         26.5004
  -9669694.09845  -7508326.47245  24307181.1174                   24307173.3364
        31.5004         30.5004
 -26437437.87048 -21225468.67449  20710038.9924                   20710030.5084
        49.2504         55.0004
 -15609003.45147 -11216780.90345  22901434.8284                   22901423.1214
        44.5004         33.2504
  -9921161.55347  -7700441.76046  23598923.5234                   23598912.8714
        42.5004         40.7504
  -5763144.89745  -5910504.43544  23961990.0234                   23961982.7704
        33.7504         29.2504
 -28516898.29448 -21833773.83449  20496934.1884                   20496924.9414
        50.7504         54.7504
 23  1  4  0 53 30.0000000  0 11G23G24G22G27G08G10G21G31G01G25G32
  -7520039.59547  -8030273.93145  22630553.0864                   22630542.4344
        45.5004         33.0004
  -9350801.68946  -7246744.05443  23672727.6024                   23672719.2344
        37.7504         22.7504
 -22096855.50047 -11061213.09346  21310096.1334                   21310085.2464
        47.0004         37.0004
  -3064201.72345  -2360551.10743  24943175.8754                   24943168.3284
        32.0004         23.7504
  -9602840.14145  -7456232.49245  24319902.7894                   24319895.0084
        30.5004         30.7504
 -26411727.30448 -21205434.47549  20714932.1644                   20714922.9184
        50.2504         55.0004
 -15665804.89047 -11261041.75245  22890626.2814                   22890613.5784
        45.5004         32.7504
 -10038229.19947  -7791663.29246  23576646.3674                   23576635.4804
        42.2504         40.5004
  -5865651.67645  -5990379.86144  23942483.9224                   23942475.5554
        34.5004         29.5004
     96495.87555     95476.06654  25383124.3674                   25383118.5204
        31.5004         25.2504
 -28519154.97948 -21835532.28949  20496504.6884                   20496496.0864
        52.0004         54.7504
 23  1  4  0 54  0.0000000  0 11G23G24G22G27G08G10G21G31G01G25G32
  -7443660.54547  -7970757.82345  22645087.3754                   22645076.4884
        45.7504         33.0004
  -9258377.03546  -7174724.83643  23690315.8834                   23690306.9304
        37.2504         22.7504
 -22147847.23447 -11100946.90046  21300393.1094                   21300381.8714
        47.0004         36.7504
  -9272813.74455  -7198430.64254  24960888.8134                   24960879.5084
        34.7504         27.2504
  -9535698.44945  -7403914.30844  24332678.9304                   24332672.4964
        32.2504         29.7504
 -26385694.56248 -21185149.21949  20719885.5394                   20719876.4694
        50.2504         55.0004
 -15722242.18147 -11305018.87045  22879886.8834                   22879874.4144
        45.5004         33.2504
 -10155176.48847  -7882791.04946  23554392.0784                   23554381.3674
        42.2504         40.7504
  -5967911.82545  -6070063.10244  23923024.6954                   23923017.2664
        33.2504         29.5004
                                  25367095.7344                   25367090.5944
        34.0004         22.2504
 -28521029.29648 -21836992.78949  20496148.1884                   20496139.1174
        51.5004         54.7504
 23  1  4  0 54 30.0000000  0 12G23G24G22G27G08G10G21G12G31G01G25G32
  -7367065.67147  -7911073.53045  22659663.2114                   22659652.5594
        45.5004         32.5004
  -9165588.68946  -7102422.27843  23707972.6484                   23707964.0474
        37.5004         22.7504
 -22198501.88847 -11140418.04646  21290753.3284                   21290742.9694
        46.0004         36.5004
  -9179738.01745  -7125904.08744  24978598.8914                   24978591.8714
        32.0004         26.0004
  -9468272.68545  -7351374.78344  24345509.5944                   24345502.2814
        31.0004         29.5004
 -26359339.72548 -21164612.98749  20724900.9304                   20724891.7424
        49.5004         55.0004
 -15778314.24047 -11348711.38245  22869216.0554                   22869204.1134
        45.0004         32.7504
    108954.94655    102063.50052  25599619.5634                   25599610.3754
        33.2504         16.7504
 -10272000.62447  -7973822.83346  23532162.0164                   23532149.6644
        42.0004         41.2504
  -6069923.01645  -6149552.28844  23903612.7194                   23903604.7624
        35.2504         29.2504
    -71903.34445    -22152.96544  25351081.3834                   25351073.0164
        35.0004         27.7504
 -28522522.48348 -21838156.30949  20495864.3984                   20495855.0944
        51.7504         54.7504
 23  1  4  0 55  0.0000000  0 12G23G24G22G27G08G10G21G12G31G01G25G32
  -7290254.03547  -7851220.33245  22674279.4924                   22674268.9574
        45.7504         33.0004
  -9072437.98446  -7029837.29143  23725698.7194                   23725689.8244
        37.7504         22.7504
 -22248818.07847 -11179625.44246  21281178.6254                   21281167.5634
        46.5004         36.2504
  -9086655.74945  -7053372.47044  24996312.2734                   24996303.1454
        32.7504         25.5004
  -9400564.63045  -7298615.27044  24358392.9774                   24358386.8954
        30.0004         29.0004
 -26332660.85448 -21143824.27149  20729978.0634                   20729968.6414
        49.7504         55.0004
 -15834018.42947 -11392117.23545  22858615.6954                   22858604.1054
        45.0004         32.5004
     39244.66345     47743.83842  25586353.8594                   25586345.1994
        34.0004         14.7504
 -10388697.33447  -8064755.33246  23509954.3364                   23509943.7424
        42.0004         41.7504
  -6171680.89145  -6228844.18945  23884249.2734                   23884240.7894
        35.5004         31.2504
                                  25335074.219
        36.500
 -28523633.88148 -21839022.33349  20495652.7114                   20495643.5824
        51.5004         55.0004
 23  1  4  0 55 30.0000000  0 11G23G24G22G27G08G10G21G12G31G01G32
  -7213227.19247  -7791199.43945  22688938.1884                   22688926.8914
        46.2504         33.2504
  -8978929.04146  -6956973.19843  23743492.3834                   23743484.0744
        37.0004         22.5004
 -22298796.64347 -11218569.77246  21271668.2424                   21271657.0634
        47.5004         36.5004
  -8993571.30045  -6980839.13844  25014024.8594                   25014018.2504
        32.0004         25.7504
  -9332578.58645  -7245639.11745  24371331.4534                   24371324.4344
        32.2504         30.2504
 -26305658.84948 -21122783.74649  20735116.2734                   20735106.6764
        49.5004         54.7504
 -15889353.30547 -11435235.33045  22848086.3204                   22848073.7934
        45.2504         32.7504
    -30215.96245     -6381.19942  25573136.9534                   25573128.2344
        35.5004         15.5004
 -10505264.49447  -8155586.88247  23487772.5704                   23487761.2734
        42.2504         42.0004
  -6273183.84445  -6307937.37145  23864933.2114                   23864926.0744
        35.2504         31.5004
 -28524365.40148 -21839592.34649  20495513.5554                   20495504.5434
        51.0004         55.0004
 23  1  4  0 56  0.0000000  0 12G23G24G22G27G08G10G21G12G31G01G25G32
  -7135985.19147  -7731010.90945  22703636.0554                   22703625.3444
        45.5004         32.5004
  -8885064.25146  -6883831.80643  23761354.8444                   23761345.4804
        37.2504         22.5004
 -22348437.21347 -11257250.71346  21262221.1094                   21262210.6334
        46.5004         36.5004
  -8900486.94645  -6908305.88844  25031739.0634                   25031729.9344
        32.0004         25.2504
  -9264316.04344  -7192447.54744  24384321.5084                   24384314.6644
        29.7504         28.7504
 -26278332.90148 -21101490.80449  20740316.1484                   20740306.7854
        49.5004         54.7504
 -15944317.37447 -11478064.47345  22837626.9694                   22837615.0864
        44.7504         33.0004
    -99423.39445    -60309.12842  25559968.1094                   25559958.3954
        35.5004         17.2504
 -10621698.85047  -8246314.93346  23465616.1644                   23465604.9264
        42.2504         41.7504
  -6374428.60346  -6386829.38745  23845667.7504                   23845659.0314
        36.5004         31.7504
                                  25303092.7504                   25303089.0164
        28.0004         21.0004
 -28524717.45348 -21839866.66849  20495446.4454                   20495437.3754
        51.0004         54.7504
 23  1  4  0 56 30.0000000  0 12G23G24G22G27G08G10G21G12G31G01G25G32
  -7058529.64947  -7670655.96645  22718375.6024                   22718364.6564
        45.2504         32.5004
  -8790847.66746  -6810416.30343  23779283.4144                   23779274.5204
        36.2504         21.5004
 -22397740.63847 -11295668.94646  21252839.5234                   21252828.4614
        47.2504         37.2504
  -8807407.05245  -6835776.05244  25049451.2664                   25049443.7774
        32.0004         26.2504
  -9195781.50245  -7139044.03544  24397362.6334                   24397355.6134
        30.7504         28.5004
 -26250683.54148 -21079945.86249  20745577.5314                   20745568.6954
        49.7504         55.0004
 -15998909.69947 -11520603.93545  22827237.6024                   22827226.2464
        44.5004         33.2504
   -168375.75846   -114038.18043  25546847.2504                   25546837.5944
        38.5004         19.2504
 -10737998.68547  -8336938.18347  23443484.3754                   23443473.6054
        42.0004         42.5004
  -6475413.43246  -6465518.85945  23826451.3284                   23826442.7274
        37.7504         32.2504
    191711.19455   -116257.88454  25287129.9694                   25287120.3714
        31.0004         28.7504
 -28524691.96248 -21839846.79849  20495451.2974                   20495441.9344
        51.2504         55.0004
 23  1  4  0 57  0.0000000  0 12G23G24G22G27G08G10G21G12G31G01G25G32
  -6980856.91747  -7610131.77045  22733156.2114                   22733145.3834
        45.5004         32.5004
  -8696278.13246  -6736725.75243  23797279.6484                   23797271.2234
        36.7504         22.0004
 -22446702.66247 -11333821.15846  21243522.1564                   21243511.6214
        46.7504         36.7504
  -8714330.15545  -6763248.68344  25067163.8054                   25067155.6134
        32.7504         27.2504
  -9126974.62855  -7085428.27254  24410457.0474                   24410449.9104
        31.0004         29.2504
 -26222706.51248 -21058145.59049  20750901.5864                   20750892.4574
        50.2504         54.7504
 -16053124.52347 -11562849.25545  22816921.7734                   22816909.3054
        45.0004         33.2504
   -237065.64445   -167562.80242  25533773.0944                   25533766.1914
        33.5004         17.2504
 -10854156.83146  -8427451.02147  23421380.2274                   23421369.5164
        41.7504         42.7504
  -6576131.53946  -6544000.52145  23807284.6644                   23807277.0594
        36.2504         33.5004
                                  25271175.227
        36.250
 -28524285.75748 -21839530.27549  20495528.9144                   20495519.5514
        52.5004         55.0004
 23  1  4  0 57 30.0000000  0 12G23G24G22G27G08G10G21G12G31G01G25G32
  -6902971.75947  -7549442.06145  22747977.5084                   22747966.7384
        46.0004         32.2504
  -8601362.78446  -6662765.74643  23815341.1884                   23815332.1764
        36.0004         21.5004
 -22495327.64647 -11371710.74746  21234269.4454                   21234258.5004
        46.5004         37.2504
  -8621263.64145  -6690729.32044  25084873.0084                   25084864.8164
        32.2504         26.2504
  -9057901.08955  -7031604.74454  24423600.5394                   24423593.9884
        30.7504         29.5004
 -26194405.86448 -21036093.13649  20756286.7584                   20756277.5124
        49.5004         54.7504
 -16106964.52647 -11604802.50045  22806675.6644                   22806664.2504
        44.5004         33.5004
   -305494.31846   -220883.91042  25520755.7814                   25520744.4264
        38.7504         16.2504
 -10970174.52347  -8517854.40747  23399303.1094                   23399292.1644
        42.2504         43.0004
  -6676584.28146  -6622275.34645  23788169.8204                   23788160.9264
        38.2504         32.7504
                                  25255234.8914                   25255224.8834
        39.7504         31.7504
 -28523503.84148 -21838920.98749  20495677.4144                   20495668.5784
        51.5004         55.0004
 23  1  4  0 58  0.0000000  0 12G23G24G22G27G08G10G21G12G31G01G25G32
  -6824875.29047  -7488587.70745  22762838.5164                   22762827.6294
        45.5004         32.5004
  -8506105.13645  -6588539.01443  23833467.3364                   23833459.5554
        35.5004         21.2504
 -22543616.05747 -11409338.06346  21225080.3204                   21225069.3754
        46.5004         37.5004
  -8528211.02645  -6618220.78244  25102580.1644                   25102571.9734
        31.0004         25.7504
  -8988564.96945  -6977576.62844  24436795.1724                   24436788.4454
        31.0004         29.2504
 -26165781.55448 -21013788.48449  20761733.8594                   20761724.9654
        49.7504         54.7504
 -16160429.03047 -11646463.13945  22796501.6334                   22796490.1024
        44.2504         33.5004
   -373659.38445   -273999.47642  25507781.0554                   25507773.2154
        35.0004         17.2504
 -11086049.39247  -8608146.49747  23377253.6334                   23377241.5164
        42.5004         43.0004
  -6776769.47346  -6700341.77145  23769105.3364                   23769096.7344
        37.7504         34.0004
     85439.52555   -214313.96953  25239303.9454                   25239296.2234
        34.7504         22.0004
 -28522347.74648 -21838020.12749  20495897.3754                   20495888.5394
        51.2504         55.0004
 23  1  4  0 58 30.0000000  0 12G23G24G22G27G08G10G21G12G31G01G25G32
  -6746563.11847  -7427565.27445  22777741.1414                   22777729.9614
        45.5004         32.5004
  -8410503.20546  -6514044.01943  23851659.8984                   23851651.5904
        36.0004         20.2504
 -22591563.06447 -11446699.35446  21215956.3284                   21215945.0314
        46.7504         37.7504
  -8435170.33445  -6545721.52644  25120287.8444                   25120277.5434
        33.7504         26.0004
  -8918964.42145  -6923342.44744  24450038.7584                   24450032.7344
        30.7504         29.5004
 -26136828.71848 -20991227.82649  20767243.3524                   20767234.4574
        50.5004         55.0004
 -16213510.95347 -11687825.67545  22786401.1334                   22786388.9574
        45.5004         33.2504
   -441552.79446   -326903.45842  25494863.4534                   25494852.7424
        36.5004         16.7504
 -11201773.42547  -8698321.06347  23355231.2584                   23355220.1954
        42.0004         43.2504
  -6876679.36346  -6778193.59845  23750091.5784                   23750084.8524
        37.5004         33.7504
                                  25223390.344
        33.250
 -28520813.39548 -21836824.52249  20496189.2894                   20496179.9264
        52.0004         54.7504
 23  1  4  0 59  0.0000000  0 12G23G24G22G27G08G10G21G12G31G01G25G32
  -6668040.93047  -7366379.18945  22792683.1644                   22792672.3954
        45.2504         31.7504
  -8314565.17046  -6439287.11343  23869918.0084                   23869908.3524
        37.0004         21.7504
 -22639173.78347 -11483798.59846  21206896.1174                   21206884.8204
        46.0004         37.0004
  -8342149.58945  -6473237.91944  25137988.3834                   25137978.7274
        34.2504         26.5004
  -8849108.09345  -6868908.97344  24463332.8984                   24463325.7034
        31.7504         29.5004
 -26107552.18148 -20968414.94649  20772814.7194                   20772805.5904
        50.5004         54.7504
 -16266213.98447 -11728892.98145  22776371.0004                   22776359.8794
        44.5004         33.5004
   -509176.96946   -379597.63842  25481994.5784                   25481984.1024
        36.2504         17.7504
 -11317348.88847  -8788379.85847  23333237.7114                   23333226.8834
        42.0004         42.7504
  -6976316.34646  -6855832.85745  23731132.8444                   23731124.1844
        37.5004         34.7504
    -81705.89055   -330054.20953  25207493.3134                   25207488.9924
        30.7504         23.7504
 -28518906.89848 -21835338.93649  20496552.1484                   20496542.7854
        52.0004         55.0004
 23  1  4  0 59 30.0000000  0 12G23G24G22G27G08G10G21G12G31G01G25G32
  -6589306.18747  -7305027.48345  22807665.8914                   22807655.2974
        44.5004         32.0004
  -8218290.90945  -6364268.22443  23888238.2734                   23888229.0864
        35.7504         22.2504
 -22686445.16047 -11520633.42946  21197900.6644                   21197889.7774
        47.0004         37.2504
  -8249148.82945  -6400769.74744  25155684.7274                   25155675.6564
        33.0004         26.2504
  -8778995.07545  -6814275.44945  24476675.8444                   24476668.1804
        32.0004         30.5004
 -26077948.51548 -20945347.16049  20778447.9694                   20778438.8404
        50.0004         55.0004
 -16318533.65247 -11769661.54545  22766415.2344                   22766403.4694
        44.5004         33.7504
   -576526.02746   -432077.28942  25469178.5554                   25469168.3714
        38.2504         17.2504
 -11432769.99546  -8878318.37747  23311274.4304                   23311263.0164
        41.7504         43.0004
  -7075674.60246  -6933254.86145  23712225.0634                   23712216.9884
        38.2504         34.0004
   -165150.11945   -395075.64044  25191617.2194                   25191609.8484
        32.5004         24.0004
 -28516626.11248 -21833561.69249  20496986.3444                   20496976.9804
        52.5004         54.7504
 23  1  4  1  0  0.0000000  0 12G23G24G22G27G08G10G21G12G31G01G25G32
  -6510360.09347  -7243511.07045  22822688.1414                   22822678.1914
        44.5004         31.5004
  -8121683.98945  -6288990.10443  23906621.2114                   23906612.9614
        34.5004         21.0004
 -22733377.81947 -11557204.32246  21188970.2424                   21188958.2424
        47.0004         37.0004
  -8156171.76255  -6328320.05854  25173377.1414                   25173369.3594
        32.2504         25.0004
  -8708629.09345  -6759444.83145  24490064.6884                   24490058.4884
        31.7504         30.7504
 -26048018.18348 -20922024.82349  20784143.3444                   20784134.3324
        50.0004         54.7504
 -16370468.93147 -11810130.60245  22756533.3284                   22756521.0944
        46.0004         33.7504
   -643597.40746   -484340.58042  25456413.6884                   25456405.0864
        36.2504         17.7504
 -11548034.36047  -8968134.75547  23289340.0864                   23289329.1994
        42.0004         43.0004
  -7174752.08746  -7010458.10245  23693370.5474                   23693362.8244
        37.7504         33.5004
   -248504.28546   -460026.89644  25175757.7344                   25175748.0204
        36.5004         29.0004
 -28513972.58948 -21831494.01449  20497491.2664                   20497482.1374
        51.7504         55.2504
 23  1  4  1  0 30.0000000  0 12G23G24G22G27G08G10G21G12G31G01G25G32
  -6431202.14547  -7181829.57045  22837751.3524                   22837741.0514
        43.7504         31.5004
  -8024746.26145  -6213454.23043  23925067.7194                   23925059.1174
        35.7504         20.7504
 -22779970.64247 -11593510.41046  21180103.4924                   21180092.2544
        45.7504         37.2504
  -8063221.91755  -6255892.11054  25191065.4924                   25191057.4184
        33.5004         26.0004
  -8638012.54845  -6704418.97445  24503502.2664                   24503495.3634
        31.0004         31.5004
 -26017759.76148 -20898446.84449  20789901.3524                   20789892.5744
        50.5004         55.0004
 -16422017.10547 -11850298.00945  22746723.1484                   22746711.7344
        45.0004         33.5004
   -710386.96646   -536384.32743  25443704.9304                   25443695.7424
        37.2504         18.2504
 -11663137.89046  -9057825.81947  23267436.3054                   23267425.6524
        41.7504         42.5004
  -7273544.73146  -7087439.41745  23674570.7974                   23674563.1914
        37.0004         34.0004
   -331764.10945   -524904.67744  25159911.8754                   25159904.7974
        30.5004         25.5004
 -28510946.13248 -21829135.73749  20498066.8834                   20498057.7544
        53.0004         54.7504
 23  1  4  1  1  0.0000000  0 12G23G24G22G27G08G10G21G12G31G01G25G32
  -6351831.76647  -7119982.56345  22852855.4614                   22852844.9844
        44.2504         31.2504
  -7927479.68545  -6137662.05243  23943576.5634                   23943568.4304
        35.0004         20.2504
 -22826222.40647 -11629550.72146  21171301.7894                   21171290.9614
        46.2504         37.0004
                                  25208748.4774                   25208739.4064
        31.2504         24.0004
  -8567147.18345  -6649199.21245  24516990.3754                   24516981.3054
        34.0004         31.5004
 -25987171.86248 -20874612.11749  20795722.3834                   20795712.9614
        50.0004         54.7504
 -16473175.99347 -11890162.07345  22736987.8054                   22736976.4494
        45.0004         33.0004
   -776891.03446   -588205.57542  25431049.0864                   25431039.9574
        37.0004         17.2504
 -11778076.40146  -9147388.30347  23245564.0864                   23245553.4344
        41.7504         42.7504
  -7372048.80546  -7164195.84245  23655827.4694                   23655818.4574
        39.0004         34.0004
   -414925.56145   -589705.78544  25144085.5004                   25144078.6564
        32.0004         24.5004
 -28507546.66848 -21826486.79749  20498713.7734                   20498704.4104
        53.2504         55.0004
 23  1  4  1  1 30.0000000  0 12G23G24G22G27G08G10G21G12G31G01G25G32
  -6272256.66847  -7057976.00345  22867998.5864                   22867987.9344
        44.5004         32.2504
  -7829894.40945  -6061621.60543  23962146.1024                   23962138.4384
        35.0004         22.0004
 -22872140.65447 -11665331.16746  21162564.1954                   21162553.1334
        46.5004         37.0004
  -7877409.10455  -6111102.65254  25226425.7894                   25226417.1294
        31.2504         24.5004
  -8496042.83345  -6593793.24445  24530519.3204                   24530512.1844
        34.2504         31.2504
 -25956261.41248 -20850526.05949  20801603.9614                   20801595.4184
        49.7504         55.0004
 -16523950.76347 -11929726.83545  22727326.1644                   22727314.2234
        45.2504         34.0004
   -843113.44746   -639807.35642  25418447.6174                   25418438.0784
        37.0004         16.7504
 -11892854.29747  -9236825.60847  23223723.4384                   23223711.9654
        42.2504         42.7504
  -7470268.58946  -7240730.71845  23637136.0474                   23637128.0314
        37.5004         33.7504
   -497992.45345   -654433.23744  25128280.3444                   25128272.1524
        34.2504         27.0004
 -28503782.19948 -21823553.43749  20499430.4384                   20499421.0744
        52.2504         54.7504
 23  1  4  1  2  0.0000000  0 12G23G24G22G27G08G10G21G12G31G01G25G32
  -6192469.60547  -6995804.29345  22883181.3524                   22883171.2274
        44.5004         31.5004
  -7731985.44645  -5985328.96243  23980777.8204                   23980769.8054
        34.0004         20.2504
 -22917717.42647 -11700845.52946  21153890.8834                   21153880.2304
        46.7504         37.5004
  -7784554.16045  -6038748.22044  25244094.8914                   25244084.8244
        33.0004         24.0004
  -8424694.66345  -6538197.30945  24544097.3134                   24544089.0044
        34.5004         31.2504
 -25925020.33348 -20826182.37149  20807549.0314                   20807540.3714
        50.0004         55.0004
 -16574331.90247 -11968984.87645  22717738.7894                   22717726.8484
        44.5004         33.0004
   -909043.44846   -691181.35043  25405902.1174                   25405891.8164
        36.5004         19.0004
 -12007460.69846  -9326129.29847  23201914.0084                   23201903.0044
        41.5004         42.7504
  -7568193.46546  -7317035.83845  23618501.7974                   23618493.3134
        38.5004         34.0004
   -580953.88145   -719078.46544  25112492.9694                   25112485.0124
        33.5004         28.5004
 -28499645.89948 -21820330.34149  20500217.3914                   20500207.9104
        52.7504         54.7504
 23  1  4  1  2 30.0000000  0 12G23G24G22G27G08G10G21G12G31G01G25G32
  -6112472.75147  -6933469.11345  22898404.5554                   22898393.9024
        45.0004         31.5004
  -7633757.52745  -5908787.70143  23999470.1024                   23999461.5004
        34.2504         19.7504
 -22962954.36747 -11736095.07746  21145282.4924                   21145271.7234
        46.5004         37.0004
  -7691736.26955  -5966422.54654  25261756.3834                   25261747.7814
        30.7504         24.7504
  -8353107.83445  -6482415.38245  24557719.3134                   24557711.2974
        34.5004         30.7504
 -25893449.99148 -20801582.12349  20813556.9064                   20813547.9534
        50.0004         54.7504
 -16624319.71747 -12007936.41245  22708226.3284                   22708214.6804
        44.5004         34.0004
   -974679.95846   -742326.67643  25393414.1414                   25393401.3204
        39.7504         19.7504
 -12121894.15447  -9415298.23047  23180138.3674                   23180127.1294
        42.5004         43.0004
  -7665822.39946  -7393110.34845  23599922.7734                   23599915.3444
        36.5004         33.2504
   -663808.43245   -783640.47344  25096724.6254                   25096717.7814
        31.2504         26.5004
 -28495140.31948 -21816819.50549  20501074.7274                   20501065.7154
        52.0004         55.0004
 23  1  4  1  3  0.0000000  0 12G23G24G22G27G08G10G21G12G31G01G25G32
  -6032265.74447  -6870970.17645  22913667.5084                   22913656.9144
        44.2504         31.5004
  -7535212.52945  -5831999.42143  24018222.1954                   24018214.2384
        34.0004         21.0004
 -23007850.59747 -11771079.14246  21136739.4064                   21136728.1094
        46.5004         37.2504
                                  25279414.2814                   25279403.6884
        35.5004         22.7504
  -8281284.07945  -6426448.83045  24571383.9304                   24571378.9064
        33.0004         30.2504
 -25861549.32348 -20776724.46249  20819627.3444                   20819618.3324
        50.0004         54.7504
 -16673911.96647 -12046579.71545  22698789.6804                   22698777.5044
        45.0004         33.5004
  -1040019.18646   -793240.36143  25380977.0394                   25380967.9694
        37.0004         18.2504
 -12236150.97747  -9504329.51447  23158395.3054                   23158384.5944
        42.2504         43.0004
  -7763151.50146  -7468951.20745  23581402.7194                   23581394.0594
        38.5004         35.0004
   -746551.88045   -848115.84544  25080979.2814                   25080972.9654
        31.7504         26.0004
 -28490265.45648 -21813020.90949  20502002.2114                   20501993.4344
        52.7504         55.2504
 23  1  4  1  3 30.0000000  0 12G23G24G22G27G08G10G21G12G31G01G25G32
  -5951853.02947  -6808310.94245  22928968.5164                   22928959.3284
        43.2504         30.7504
  -7436357.40245  -5754969.44543  24037033.1254                   24037026.1054
        32.5004         21.0004
 -23052410.02647 -11805800.75946  21128259.8594                   21128248.9144
        46.5004         37.5004
                                  25297056.0944                   25297050.8324
        28.2504         25.0004
  -8209230.76445  -6370303.39245  24585097.5704                   24585090.6684
        34.0004         31.2504
 -25829321.90548 -20751612.19249  20825759.7734                   20825750.9964
        50.0004         55.0004
 -16723110.37047 -12084916.15145  22689427.1334                   22689415.0744
        45.5004         34.2504
  -1105061.67545   -843922.74643  25368597.8914                   25368590.6954
        34.5004         19.0004
 -12350231.78447  -9593223.65047  23136686.7424                   23136675.5634
        42.0004         43.0004
  -7860181.86546  -7544559.30445  23562937.6724                   23562929.4804
        37.0004         34.2504
   -829184.98445   -912505.29944  25065255.5004                   25065247.3674
        31.7504         25.5004
 -28485026.13748 -21808938.32949  20502999.2894                   20502990.6884
        52.0004         54.7504
 23  1  4  1  4  0.0000000  0 12G23G24G22G27G08G10G21G12G31G01G25G32
  -5871232.61347  -6745489.88045  22944311.7274                   22944301.0744
        45.0004         31.2504
  -7337192.42245  -5677698.05243  24055905.0864                   24055895.6054
        35.0004         19.2504
 -23096630.22247 -11840258.05046  21119845.1724                   21119834.1684
        46.5004         37.7504
                                  25314700.5784                   25314690.1604
        33.2504         24.5004
  -8136947.27245  -6313978.59045  24598854.3834                   24598845.8404
        35.5004         32.0004
 -25796764.77448 -20726243.00749  20831955.6884                   20831946.5594
        50.2504         55.0004
 -16771911.27247 -12122942.82045  22680141.1484                   22680128.9144
        45.5004         34.2504
  -1169801.82246   -894369.60042  25356281.3284                   25356271.2624
        36.5004         17.2504
 -12464131.17147  -9681976.41847  23115012.7664                   23115001.6454
        42.7504         43.5004
  -7956908.16446  -7619930.42445  23544532.0474                   23544523.6804
        38.2504         34.7504
   -911702.01645   -976804.24544  25049553.3914                   25049545.1994
        33.7504         27.5004
 -28479420.70248 -21804570.45949  20504066.0864                   20504056.7234
        53.7504         55.0004
 23  1  4  1  4 30.0000000  0 12G23G24G22G27G08G10G21G12G31G01G25G32
  -5790405.32647  -6682507.63045  22959691.8134                   22959681.3364
        44.2504         31.5004
  -7237721.02845  -5600187.87743  24074833.9144                   24074825.7234
        34.7504         19.5004
 -23140511.59847 -11874451.32246  21111494.2344                   21111483.5234
        46.7504         37.5004
                                  25332326.4614                   25332316.7464
        32.2504         24.0004
  -8064437.88145  -6257477.79545  24612650.7344                   24612643.6564
        34.7504         30.7504
 -25763877.98348 -20700616.93549  20838213.4774                   20838204.5234
        50.0004         54.7504
 -16820313.34347 -12160658.71245  22670930.3054                   22670917.9534
        45.7504         34.5004
  -1234237.21246   -944578.94543  25344019.9224                   25344010.2074
        37.5004         18.5004
 -12577846.63347  -9770585.85747  23093373.3984                   23093362.3954
        42.2504         43.5004
  -8053327.86146  -7695062.64945  23526183.4384                   23526175.5984
        37.7504         34.7504
   -994100.23145  -1041010.57044  25033873.1254                   25033866.2234
        33.0004         27.0004
 -28473450.47848 -21799918.33149  20505202.3594                   20505192.9964
        53.5004         54.7504
 23  1  4  1  5  0.0000000  0 12G23G24G22G27G08G10G21G12G31G01G25G32
  -5709375.58747  -6619367.59745  22975110.3914                   22975100.5594
        43.5004         30.7504
  -7137949.83745  -5522444.06343  24093821.0784                   24093811.0124
        35.2504         20.5004
 -23184058.00247 -11908383.55746  21103207.7664                   21103197.4064
        47.0004         37.2504
  -7228309.80954  -5627722.66354  25349941.7664                   25349934.2194
        28.0004         26.0004
  -7991708.78545  -6200805.78845  24626490.4694                   24626483.5664
        35.0004         31.2504
 -25730665.31848 -20674736.93649  20844533.3674                   20844524.7664
        50.0004         54.7504
 -16868319.12547 -12198065.81845  22661795.4614                   22661782.6994
        46.2504         34.5004
  -1298368.81346   -994551.55843  25331814.9924                   25331805.7464
        36.2504         19.0004
 -12691378.97047  -9859052.61547  23071768.9774                   23071757.3874
        43.2504         43.7504
  -8149442.04846  -7769956.80645  23507894.3284                   23507884.9064
        39.5004         35.0004
  -1076380.13145  -1105124.81544  25018215.6174                   25018208.8324
        33.2504         27.0004
 -28467120.23248 -21794985.67049  20506406.6094                   20506397.8914
        52.5004         54.7504
 23  1  4  1  5 30.0000000  0 12G23G24G22G27G08G10G21G12G31G01G25G32
  -5628135.20547  -6556063.43245  22990571.0314                   22990560.4384
        43.5004         30.7504
  -7037873.07145  -5444462.20043  24112864.0084                   24112854.8204
        33.2504         19.2504
 -23227260.82647 -11942048.08546  21094986.9534                   21094976.0084
        46.7504         37.5004
  -7135778.25254  -5555620.43253  25367551.2734                   25367542.7304
        29.2504         22.7504
  -7918754.71746  -6143958.47745  24640374.2734                   24640365.9654
        36.0004         31.5004
 -25697117.42848 -20648595.72349  20850917.7584                   20850908.5124
        50.7504         55.0004
 -16915918.06247 -12235155.90145  22652736.8204                   22652725.1724
        45.0004         34.0004
  -1362184.83146  -1044278.32043  25319672.6174                   25319661.4384
        36.2504         19.0004
 -12804716.16547  -9947367.29647  23050201.2424                   23050190.4144
        42.2504         44.0004
  -8245238.99146  -7844603.75745  23489664.0784                   23489656.2974
        39.0004         35.5004
                                  25002582.0864                   25002575.5944
        31.7504         26.0004
 -28460422.11748 -21789766.35849  20507681.5864                   20507672.4574
        53.5004         55.0004
 23  1  4  1  6  0.0000000  0 12G23G24G22G27G08G10G21G12G31G01G25G32
  -5546687.11347  -6492597.43045  23006070.2894                   23006059.8134
        45.0004         31.2504
  -6937496.09045  -5366246.34343  24131964.7274                   24131955.8324
        34.0004         19.2504
 -23270122.23347 -11975446.56646  21086830.1484                   21086819.3794
        46.7504         37.5004
                                  25385152.0394                   25385140.9184
        34.0004         25.0004
  -7845580.57645  -6086939.65745  24654298.9224                   24654290.2624
        35.7504         31.5004
 -25663236.83248 -20622195.24749  20857364.8444                   20857356.0664
        50.0004         54.7504
 -16963111.21147 -12271929.77645  22643756.6804                   22643744.7974
        45.5004         34.0004
  -1425685.10745  -1093759.03542  25307587.5394                   25307577.7074
        35.7504         16.2504
 -12917857.83347 -10035529.63347  23028671.1094                   23028659.9304
        43.5004         44.0004
  -8340718.41146  -7919003.28646  23471495.0164                   23471486.6484
        39.5004         36.0004
  -1240548.49745  -1233048.21144  24986975.9384                   24986967.6294
        32.7504         27.7504
 -28453359.50248 -21784263.01849  20509025.3594                   20509016.2894
        53.0004         55.0004
 23  1  4  1  6 30.0000000  0 12G23G24G22G27G08G10G21G12G31G01G25G32
  -5465042.16247  -6428978.01045  23021606.2194                   23021596.3874
        44.2504         31.0004
  -6836832.05145  -5287806.84943  24151119.0634                   24151111.3404
        32.0004         19.0004
 -23312652.96147 -12008587.37546  21078737.0314                   21078726.1454
        46.5004         38.0004
  -6950890.83854  -5411552.06953  25402735.0314                   25402726.3134
        28.0004         22.5004
  -7772199.96646  -6029759.97745  24668263.2114                   24668254.7854
        36.5004         32.0004
 -25629033.61548 -20595543.40449  20863873.3594                   20863864.8164
        50.0004         55.0004
 -17009907.39547 -12308394.34245  22634851.7814                   22634839.8984
        45.7504         34.0004
  -1488876.46245  -1142999.07042  25295561.7114                   25295552.8754
        32.0004         17.2504
 -13030811.25847 -10123545.28147  23007176.9614                   23007165.6644
        42.7504         44.2504
  -8435887.72946  -7993161.18546  23453385.0164                   23453376.5314
        39.0004         36.0004
  -1322443.27055  -1296862.29154  24971391.0554                   24971384.6214
        30.5004         27.5004
 -28445943.64648 -21778484.43149  20510436.2974                   20510427.4614
        52.7504         55.0004
 23  1  4  1  7  0.0000000  0 12G23G24G22G27G08G10G21G12G31G01G25G32
  -5383187.08847  -6365194.85845  23037182.8444                   23037172.7194
        44.2504         30.7504
  -6735870.13245  -5209135.25643  24170333.8134                   24170324.0984
        34.7504         20.0004
 -23354839.07847 -12041459.65946  21070709.3914                   21070698.5634
        47.0004         37.7504
  -6858538.80455  -5339589.49954  25420307.6644                   25420300.0004
        30.0004         25.0004
  -7698601.95345  -5972410.85045  24682267.7114                   24682259.8134
        35.7504         31.2504
 -25594493.57848 -20568629.09049  20870446.6254                   20870437.3794
        51.0004         55.0004
 -17056291.61847 -12344537.88345  22626025.0234                   22626013.1414
        45.0004         33.7504
  -1551742.43745  -1191985.48642  25283599.0554                   25283589.9844
        34.5004         15.5004
 -13143559.32447 -10211400.91647  22985721.6174                   22985710.3204
        43.0004         44.0004
  -8530730.27046  -8067064.44646  23435337.5784                   23435328.9184
        39.5004         36.0004
                                  24955833.6414                   24955826.6214
        31.5004         25.7504
 -28438161.59348 -21772420.49449  20511917.2974                   20511908.3444
        53.7504         54.7504
 23  1  4  1  7 30.0000000  0 12G23G24G22G27G08G10G21G12G31G01G25G32
  -5301129.22847  -6301253.72145  23052798.6174                   23052787.6724
        44.5004         31.5004
  -6634619.96145  -5130239.05543  24189597.8914                   24189591.1054
        32.0004         18.5004
 -23396687.31147 -12074068.66146  21062745.9534                   21062735.3014
        46.5004         38.2504
  -6766253.67854  -5267678.98754  25437869.2274                   25437861.2704
        29.2504         24.0004
  -7624796.25145  -5914899.93545  24696311.7114                   24696304.4574
        35.5004         31.7504
 -25559623.08548 -20541457.28549  20877081.9454                   20877072.9924
        50.2504         54.7504
 -17102268.43247 -12380363.96845  22617275.8204                   22617263.7624
        45.5004         33.7504
  -1614286.44546  -1240721.08642  25271699.3284                   25271688.6764
        36.2504         17.2504
 -13256106.03347 -10299099.63347  22964304.8674                   22964293.2194
        43.2504         44.5004
  -8625249.89946  -8140716.08646  23417350.3754                   23417341.8914
        39.5004         36.0004
                                  24940303.2344                   24940296.1564
        31.5004         27.0004
 -28430021.10948 -21766077.25049  20513466.4224                   20513457.7034
        52.2504         54.7504
 23  1  4  1  8  0.0000000  0 12G23G24G22G27G08G10G21G12G31G01G25G32
  -5218868.37547  -6237154.39245  23068451.5554                   23068441.4304
        43.5004         31.0004
  -6533083.69245  -5051119.87843  24208922.4614                   24208913.3324
        33.7504         19.7504
 -23438197.17647 -12106413.99546  21054846.8134                   21054835.8674
        46.7504         38.7504
  -6674037.25855  -5195822.04953  25455417.4454                   25455408.6684
        31.5004         23.7504
  -7550785.38745  -5857229.12045  24710394.6174                   24710388.1254
        33.5004         31.2504
 -25524421.37648 -20514027.38849  20883780.9224                   20883771.7934
        51.0004         54.7504
 -17147835.96847 -12415871.15345  22608604.4614                   22608592.8714
        44.2504         34.5004
  -1676505.09746  -1289203.14543  25259858.7424                   25259848.2664
        36.0004         18.2504
 -13368447.38947 -10386638.34947  22942926.5084                   22942915.6214
        43.0004         44.5004
  -8719443.02646  -8214113.32646  23399426.0864                   23399417.7774
        38.7504         36.0004
                                  24924797.3444                   24924791.3204
        32.2504         26.5004
 -28421522.35548 -21759454.84449  20515083.7114                   20515074.4654
        53.2504         54.7504
 23  1  4  1  8 30.0000000  0 11G23G24G22G08G10G21G12G31G01G25G32
  -5136401.24047  -6172894.32645  23084145.0944                   23084134.3244
        43.5004         30.2504
  -6431260.37645  -4971777.04743  24228296.6254                   24228289.7814
        31.7504         19.5004
 -23479365.05247 -12138492.84946  21047012.4614                   21047001.8674
        46.0004         38.5004
  -7476567.87246  -5799397.37645  24724520.5474                   24724511.5944
        36.2504         31.5004
 -25488884.12248 -20486336.02849  20890543.3054                   20890534.1764
        51.5004         54.7504
 -17192988.95847 -12451055.28845  22600012.5164                   22600000.1644
        45.5004         34.2504
  -1738391.88245  -1337426.64443  25248080.6094                   25248072.0664
        35.0004         18.2504
 -13480576.69447 -10474011.82847  22921590.0164                   22921577.9574
        43.5004         45.0004
  -8813303.03746  -8287250.99045  23381565.1484                   23381556.4884
        38.7504         35.5004
  -1648614.99155  -1551021.95254  24909322.6644                   24909315.6454
        32.2504         27.2504
 -28412662.48448 -21752551.04949  20516769.7344                   20516760.3714
        53.2504         55.0004
 23  1  4  1  9  0.0000000  0 12G23G24G22G27G08G10G21G12G31G01G25G32
  -5053739.67647  -6108482.77745  23099875.0784                   23099864.4844
        43.2504         30.0004
  -6329164.32645  -4892221.65543  24247727.1024                   24247717.2704
        34.0004         19.0004
 -23520202.12947 -12170313.93246  21039241.9844                   21039230.6294
        47.0004         38.5004
    610813.34055  -5087342.48054  25490473.2424                   25490464.9924
        31.7504         25.0004
  -7402158.29846  -5741415.88445  24738681.9304                   24738671.4534
        37.0004         31.5004
 -25453022.65648 -20458392.04549  20897367.5164                   20897358.2114
        50.7504         54.7504
 -17237737.57747 -12485924.35145  22591497.0234                   22591485.0234
        45.0004         34.2504
  -1799954.84445  -1385397.79643  25236365.7974                   25236356.0234
        35.7504         18.2504
 -13592502.21147 -10561226.51647  22900290.8204                   22900279.6994
        43.0004         44.7504
  -8906838.31446  -8360135.59345  23363765.9224                   23363757.3794
        39.5004         35.0004
  -1729801.01255  -1614283.74854  24893873.8594                   24893866.4884
        31.0004         28.0004
 -28403453.71448 -21745375.38549  20518522.1024                   20518513.0314
        52.7504         54.7504
 23  1  4  1  9 30.0000000  0 12G23G24G22G27G08G10G21G12G31G01G25G32
  -4970872.57747  -6043911.04244  23115644.1804                   23115633.4104
        43.5004         29.7504
  -6226786.71445  -4812446.88643  24267207.5004                   24267200.0124
        32.2504         19.0004
 -23560697.03747 -12201868.39546  21031535.7584                   21031524.9304
        46.5004         39.0004
    702808.44755  -5015657.84254  25507979.7734                   25507971.2894
        32.2504         26.0004
  -7327547.90446  -5683277.90145  24752878.2344                   24752869.0474
        36.0004         31.7504
 -25416824.65948 -20430185.82549  20904255.8834                   20904246.4614
        50.5004         55.0004
 -17282068.02547 -12520467.55245  22583060.8284                   22583049.0634
        45.2504         34.5004
  -1861179.61045  -1433105.37242  25224714.6484                   25224706.0474
        34.2504         16.7504
 -13704209.24047 -10648270.94447  22879033.7894                   22879022.4924
        43.5004         44.5004
  -9000034.36146  -8432755.90145  23346030.6724                   23346023.1254
        37.7504         35.5004
  -1810831.70055  -1677424.48254  24878453.2734                   24878447.4264
        31.7504         29.5004
 -28393885.33648 -21737919.49949  20520342.9064                   20520334.0124
        52.2504         55.0004
 23  1  4  1 10  0.0000000  0 12G23G24G22G27G08G10G21G12G31G01G25G32
  -4887803.44347  -5979181.87845  23131451.7274                   23131440.6644
        43.2504         30.0004
  -6124133.33145  -4732457.29743  24286744.0314                   24286733.3794
        34.7504         18.5004
 -23600852.97747 -12233158.71846  21023894.8364                   21023883.6564
        47.5004         39.0004
    794723.91555  -4944035.29854  25525470.7194                   25525461.4144
        31.2504         24.7504
  -7252743.13045  -5624988.50145  24767112.3754                   24767104.7704
        35.0004         32.0004
 -25380293.11548 -20401719.68749  20911207.6024                   20911198.2974
        52.0004         54.7504
 -17325982.06547 -12554686.29345  22574704.5864                   22574692.4104
        45.2504         34.2504
  -1922065.96545  -1480549.28842  25213128.4144                   25213119.4614
        33.7504         16.7504
 -13815697.54147 -10735144.94247  22857818.1954                   22857806.9574
        43.7504         44.7504
  -9092891.35646  -8505111.99345  23328361.2814                   23328352.9144
        38.0004         34.5004
  -1891706.84955  -1740444.00154  24863064.3054                   24863057.4024
        32.7504         28.0004
 -28383961.27348 -21730186.46149  20522231.4614                   20522222.5664
        53.5004         54.7504
 23  1  4  1 10 30.0000000  0 12G23G24G22G27G08G10G21G12G31G01G25G32
  -4804530.83147  -5914294.16545  23147297.6254                   23147287.5004
        43.0004         30.2504
  -6021205.14445  -4652253.46443  24306330.6484                   24306320.3484
        34.2504         20.0004
 -23640667.45547 -12264182.98046  21016318.5474                   21016306.9574
        47.0004         39.0004
                                  25542944.7894                   25542936.9494
        30.5004         22.5004
  -7177744.54046  -5566548.05145  24781383.5394                   24781376.2274
        36.0004         32.7504
 -25343425.63748 -20372991.79449  20918223.3674                   20918214.0044
        52.5004         54.7504
 -17369476.34847 -12588577.95445  22566427.7424                   22566415.8014
        44.7504         34.0004
  -1982608.76246  -1527725.46442  25201607.5394                   25201598.5864
        36.2504         15.5004
 -13926962.36647 -10821844.79847  22836644.6564                   22836633.8874
        43.2504         44.7504
  -9185404.29346  -8577200.01445  23310756.4844                   23310748.3524
        37.5004         35.0004
  -1972420.99455  -1803338.05854  24847704.2114                   24847697.0164
        32.2504         27.0004
 -28373680.42148 -21722175.40649  20524187.7114                   20524178.9924
        53.0004         54.7504
 23  1  4  1 11  0.0000000  0 12G23G24G22G27G08G10G21G12G31G01G25G32
  -4721065.86347  -5849256.55645  23163180.9454                   23163170.5864
        43.5004         30.0004
  -5918015.52945  -4571846.04043  24325967.2114                   24325956.8524
        34.5004         19.5004
 -23680151.45948 -12294949.71946  21008804.1804                   21008793.2344
        48.0004         39.0004
    978304.10355  -4800985.86954  25560404.1334                   25560395.1804
        31.7504         25.7504
  -7102565.90545  -5507967.30845  24795689.3054                   24795681.8754
        34.5004         32.2504
 -25306232.90048 -20344010.43949  20925300.6254                   20925291.3204
        51.0004         54.7504
 -17412559.84147 -12622149.50145  22558228.9694                   22558217.2624
        45.7504         35.2504
  -2042816.01545  -1574640.21442  25190150.1804                   25190141.8134
        34.7504         17.7504
 -14038011.02547 -10908376.21547  22815513.5084                   22815501.9184
        43.0004         45.0004
  -9277580.90046  -8649025.92545  23293216.2194                   23293208.0864
        38.0004         35.0004
  -2052981.53545  -1866112.44344  24832375.2664                   24832366.8404
        32.7504         28.5004
 -28363054.22848 -21713895.25749  20526209.9384                   20526200.8094
        53.0004         54.7504
 23  1  4  1 11 30.0000000  0 12G23G24G22G27G08G10G21G12G31G01G25G32
  -4637398.02347  -5784060.89544  23179101.9844                   23179091.7424
        43.0004         29.5004
  -5814556.24645  -4491228.36043  24345652.5234                   24345643.9804
        33.5004         18.2504
 -23719293.82648 -12325450.24446  21001355.9614                   21001344.9574
        48.5004         39.2504
   1069963.87455  -4729562.67554  25577848.7894                   25577838.1954
        33.7504         25.7504
  -7027198.51245  -5449239.48145  24810031.7344                   24810024.3634
        35.2504         33.0004
 -25268703.20248 -20314766.53449  20932442.7114                   20932432.9384
        50.7504         55.0004
 -17455220.22047 -12655391.36645  22550111.4064                   22550099.7584
        45.5004         34.7504
  -2102673.68946  -1621282.53242  25178761.9694                   25178751.0824
        36.0004         17.7504
 -14148829.30247 -10994728.11147  22794425.3754                   22794414.1954
        43.5004         45.0004
  -9369407.21946  -8720578.90845  23275742.0474                   23275733.6214
        38.7504         35.5004
  -2133374.19445  -1928756.04044  24817075.3834                   24817068.4224
        32.0004         27.5004
 -28352072.63648 -21705338.17549  20528299.7194                   20528290.2384
        52.2504         55.0004
 23  1  4  1 12  0.0000000  0 12G23G24G22G27G08G10G21G12G31G01G25G32
  -4553526.72947  -5718706.67244  23195062.6334                   23195051.5704
        42.2504         29.7504
  -5710829.09145  -4410402.07643  24365393.4694                   24365383.4024
        35.0004         19.2504
 -23758093.91547 -12355684.06746  20993972.8204                   20993961.4654
        47.5004         39.5004
                                  25595272.0164                   25595263.7664
        32.5004         23.0004
  -6951644.50445  -5390366.22545  24824409.6484                   24824401.2814
        35.2504         32.0004
 -25230835.47248 -20285259.21449  20939648.2894                   20939639.3364
        50.7504         55.0004
 -17497454.64947 -12688301.30745  22542074.1094                   22542062.4614
        45.5004         34.2504
  -2162177.91045  -1667649.38342  25167436.8134                   25167428.0354
        35.0004         15.5004
 -14259413.18747 -11080897.36447  22773381.4924                   22773370.3134
        43.2504         45.0004
  -9460879.32946  -8791855.87745  23258335.3054                   23258327.0554
        38.2504         35.5004
  -2213594.44645  -1991265.24044  24801808.4064                   24801803.5594
        31.5004         28.5004
 -28340735.47348 -21696504.01749  20530456.9454                   20530447.6414
        52.0004         54.7504
 23  1  4  1 12 30.0000000  0 12G23G24G22G27G08G10G21G12G31G01G25G32
  -4469466.32747  -5653205.09644  23211058.7584                   23211048.7504
        42.7504         29.7504
  -5606850.76945  -4329380.03542  24385177.8674                   24385169.4414
        32.5004         17.2504
 -23796565.59548 -12385661.99046  20986651.2584                   20986640.6054
        48.0004         39.5004
   1253010.17555  -4586929.16254  25612678.6954                   25612670.3874
        31.7504         26.7504
  -6875920.72845  -5331360.66245  24838818.2734                   24838811.6644
        33.2504         31.5004
 -25192643.06748 -20255498.91449  20946916.4614                   20946907.0984
        50.5004         54.7504
 -17539275.86847 -12720889.27245  22534115.1414                   22534103.9614
        44.7504         34.0004
  -2221339.24845  -1713749.09042  25156177.5944                   25156169.9304
        33.0004         16.7504
 -14369773.48247 -11166892.40347  22752380.5234                   22752370.1054
        44.0004         45.5004
  -9552008.13546  -8862865.35146  23240993.7974                   23240985.8404
        38.2504         36.2504
  -2293653.04645  -2053648.48844  24786575.8674                   24786569.5514
        32.5004         28.5004
 -28329057.49148 -21687404.29049  20532679.2974                   20532670.0514
        52.0004         55.0004
 23  1  4  1 13  0.0000000  0 12G23G24G22G27G08G10G21G12G31G01G25G32
  -4385203.86347  -5587546.08544  23227092.7974                   23227083.3164
        42.7504         29.0004
  -5502610.53545  -4248153.88443  24405015.7194                   24405005.3014
        34.2504         18.2504
 -23834695.48047 -12415373.56446  20979395.8284                   20979384.5314
        47.0004         39.5004
   1344390.92245  -4515723.46344  25630069.3444                   25630059.9224
        34.5004         26.2504
  -6800016.39145  -5272214.47445  24853262.7974                   24853255.9534
        34.0004         33.0004
 -25154112.18748 -20225474.86849  20954248.5634                   20954239.0234
        50.5004         55.0004
 -17580668.49947 -12753143.28445  22526239.5314                   22526227.5904
        45.7504         35.0004
  -2280141.71345  -1759569.16843  25144988.9844                   25144979.7974
        33.5004         18.2504
 -14479893.42847 -11252700.13747  22731425.5394                   22731414.7114
        44.0004         45.5004
  -9642777.16246  -8933594.45046  23223721.4534                   23223713.2624
        39.0004         36.7504
  -2373532.87445  -2115892.51244  24771374.9304                   24771367.9694
        32.5004         29.0004
 -28317026.04548 -21678029.13349  20534969.1564                   20534959.5594
        53.0004         54.7504
 23  1  4  1 13 30.0000000  0 12G23G24G22G27G08G10G21G12G31G01G25G32
  -4300744.32547  -5521733.49544  23243165.2274                   23243154.9264
        43.5004         29.5004
  -5398115.70945  -4166729.41343  24424899.8054                   24424890.7344
        33.2504         18.5004
 -23872487.88748 -12444822.18946  20972204.2344                   20972192.7624
        48.0004         39.7504
   1435673.38155  -4444594.22353  25647437.0004                   25647429.7464
        31.0004         23.5004
  -6723939.35446  -5212933.64445  24867740.6954                   24867732.2704
        36.0004         32.5004
 -25115247.29448 -20195190.54849  20961644.0554                   20961634.7504
        50.5004         54.7504
 -17621636.00047 -12785066.02345  22518443.5474                   22518431.8404
        45.0004         35.0004
  -2338586.52545  -1805110.59042  25133866.3594                   25133857.9344
        33.0004         17.2504
 -14589774.50247 -11338321.74647  22710516.0084                   22710504.7704
        43.5004         46.0004
  -9733188.11046  -9004044.55646  23206516.7034                   23206508.2194
        39.5004         37.5004
  -2453235.22155  -2177998.26054  24756207.1024                   24756200.5514
        31.2504         28.2504
 -28304646.59848 -21668382.80849  20537324.2584                   20537314.6604
        51.5004         55.0004
 23  1  4  1 14  0.0000000  0 12G23G24G22G27G08G10G21G12G31G01G25G32
  -4216087.93047  -5455767.49744  23259274.5864                   23259265.0474
        42.2504         29.2504
  -5293368.77445  -4085108.40343  24444832.1174                   24444822.9884
        34.7504         18.2504
 -23909942.82948 -12474007.84646  20965076.5394                   20965065.6524
        48.0004         39.7504
   1526855.39855  -4373543.32054  25664789.1414                   25664780.8324
        33.2504         25.0004
  -6647691.73445  -5153519.89745  24882249.3594                   24882241.6954
        35.5004         31.7504
 -25076047.57348 -20164645.32249  20969103.9224                   20969094.2664
        51.0004         54.7504
 -17662176.75947 -12816656.21945  22510728.0004                   22510716.8794
        45.7504         35.0004
  -2396670.70845  -1850370.98942  25122815.0704                   25122804.7114
        35.0004         16.7504
 -14699413.15847 -11423754.45747  22689652.6094                   22689641.1374
        44.5004         46.0004
  -9823237.62846  -9074213.00346  23189380.8524                   23189372.7194
        39.5004         37.2504
  -2532757.53245  -2239963.93044  24741076.0084                   24741069.2814
        32.7504         26.2504
 -28291919.65648 -21658465.70649  20539746.0474                   20539736.8014
        52.5004         54.7504
 23  1  4  1 14 30.0000000  0 12G23G24G22G27G08G10G21G12G31G01G25G32
  -4131236.67447  -5389649.67545  23275421.9844                   23275411.5664
        42.5004         30.0004
  -5188373.97845  -4003294.27443  24464811.6954                   24464802.9774
        34.0004         20.0004
 -23947061.46847 -12502931.44546  20958013.1724                   20958002.2274
        47.5004         39.7504
   1617932.61845  -4302574.02044  25682120.6724                   25682112.7154
        31.2504         25.5004
  -6571278.29245  -5093976.96045  24896789.6804                   24896783.5394
        35.2504         33.2504
 -25036514.15048 -20133840.06749  20976626.4694                   20976617.3984
        51.5004         54.7504
 -17702290.04747 -12847913.32345  22503095.2894                   22503083.8754
        45.0004         34.5004
  -2454392.70545  -1895349.17442  25111830.0634                   25111821.1094
        33.5004         17.7504
 -14808807.76847 -11508997.01347  22668835.2734                   22668824.3874
        44.2504         46.0004
  -9912924.35146  -9144098.75646  23172314.9224                   23172306.4384
        40.7504         38.5004
  -2612095.86045  -2301785.98344  24725978.7034                   24725971.3914
        32.7504         29.7504
 -28278847.63248 -21648279.71449  20542233.5084                   20542224.3794
        52.7504         55.0004
 23  1  4  1 15  0.0000000  0 12G23G24G22G27G08G10G21G12G31G01G25G32
  -4046190.41547  -5323379.90244  23291604.9304                   23291595.5084
        42.0004         28.7504
  -5083133.49445  -3921288.77243  24484839.6484                   24484829.4064
        34.5004         20.0004
 -23983843.69348 -12531592.91546  20951013.6414                   20951002.5204
        48.0004         40.5004
   1708903.47455  -4231687.71454  25699432.2734                   25699424.1414
        31.0004         24.5004
  -6494700.92845  -5034306.29845  24911362.1484                   24911354.8364
        35.5004         33.0004
 -24996646.27148 -20102774.20049  20984213.0314                   20984204.3714
        51.2504         54.7504
 -17741974.53447 -12878836.30445  22495543.7814                   22495531.7814
        47.0004         34.7504
  -2511748.75845  -1940042.18242  25100915.5394                   25100907.2304
        34.5004         16.7504
 -14917954.52047 -11594046.41547  22648065.3984                   22648054.0434
        44.2504         46.2504
 -10002244.68046  -9213699.01546  23155317.7504                   23155308.9144
        40.7504         39.0004
                                  24710916.7894                   24710910.0044
        33.5004         28.2504
 -28265430.79748 -21637825.03449  20544786.9064                   20544777.8954
        52.0004         55.0004
 23  1  4  1 15 30.0000000  0 12G23G24G22G27G08G10G21G12G31G01G25G32
  -3960946.96647  -5256956.47444  23307826.6484                   23307816.3484
        42.0004         28.5004
  -4977647.41445  -3839091.82843  24504911.0004                   24504903.2194
        33.0004         19.2504
 -24020286.72548 -12559990.06446  20944079.0864                   20944067.5554
        48.5004         40.5004
   1799767.94145  -4160884.17344  25716722.9844                   25716714.5004
        32.0004         25.5004
  -6417960.17245  -4974508.28945  24925965.3594                   24925958.0474
        34.2504         32.2504
 -24956440.81248 -20071445.27949  20991863.8834                   20991854.9884
        50.7504         55.0004
 -17781225.61447 -12909421.55545  22488074.8524                   22488062.8524
        47.0004         34.7504
  -2568733.65245  -1984446.01543  25090072.7344                   25090063.1954
        33.5004         18.2504
 -15026847.61447 -11678898.16947  22627343.8984                   22627332.4264
        44.7504         46.5004
 -10091192.94146  -9283009.34946  23138391.2034                   23138382.7774
        40.5004         39.5004
  -2770205.08045  -2424987.94044  24695890.2734                   24695883.8984
        32.7504         28.5004
 -28251667.26548 -21627100.19349  20547406.1414                   20547396.8364
        51.0004         55.0004
 23  1  4  1 16  0.0000000  0 12G23G24G22G27G08G10G21G12G31G01G25G32
  -3875511.58747  -5190383.49644  23324084.9304                   23324074.1024
        42.2504         29.0004
  -4871923.13945  -3756709.25843  24525031.0704                   24525021.7074
        35.2504         20.2504
 -24056395.55447 -12588126.80546  20937207.6094                   20937196.5474
        47.0004         40.2504
   1890518.73055  -4090169.29554  25733992.5164                   25733983.7384
        33.2504         26.0004
  -6341063.07145  -4914588.46645  24940598.7274                   24940592.0004
        35.2504         33.5004
 -24915902.40848 -20039856.92749  20999578.1724                   20999569.2194
        50.2504         54.7504
 -17820046.84247 -12939671.87545  22480686.8284                   22480675.4734
        44.0004         34.2504
  -2625348.82045  -2028561.71342  25079298.1644                   25079289.6804
        33.2504         16.7504
 -15135488.97347 -11763553.76947  22606670.0864                   22606658.8484
        44.7504         46.2504
 -10179771.00246  -9352031.20946  23121534.6644                   23121527.0004
        40.7504         39.0004
  -2848971.46545  -2486364.34244  24680900.5234                   24680894.3244
        31.5004         27.5004
 -28237562.73248 -21616109.65249  20550090.0784                   20550080.8914
        50.7504         55.0004
 23  1  4  1 16 30.0000000  0 12G23G24G22G27G08G10G21G12G31G01G25G32
  -3789883.10147  -5123660.04944  23340379.7034                   23340369.4024
        42.0004         28.5004
  -4765961.80445  -3674141.96843  24545193.9224                   24545185.0274
        33.0004         18.5004
 -24092168.36248 -12616001.70146  20930400.3754                   20930389.1954
        48.7504         40.2504
   1981155.29745  -4019543.40044  25751239.6174                   25751231.7194
        33.2504         24.5004
  -6264010.97345  -4854547.88045  24955260.2424                   24955253.8674
        35.0004         33.0004
 -24875029.21348 -20008007.69949  21007355.9844                   21007347.0904
        51.5004         55.0004
 -17858435.45947 -12969585.07745  22473381.7344                   22473369.7934
        46.2504         35.5004
  -2681589.95545  -2072385.96542  25068596.7974                   25068586.6724
        35.5004         16.7504
 -15243873.39747 -11848009.15047  22586045.7584                   22586033.6414
        45.0004         46.5004
 -10267974.24246  -9420761.01246  23104750.6564                   23104742.1724
        40.0004         39.2504
  -2927541.06445  -2547587.36544  24665951.2344                   24665943.5124
        33.5004         28.0004
 -28223116.40248 -21604852.76649  20552839.0784                   20552829.7154
        52.0004         55.0004
 23  1  4  1 17  0.0000000  0 12G23G24G22G27G08G10G21G12G31G01G25G32
  -3704062.07947  -5056786.56844  23356710.7424                   23356700.2074
        42.2504         28.5004
  -4659766.29245  -3591392.26943  24565402.1724                   24565394.3324
        33.5004         18.5004
 -24127605.57548 -12643615.11446  20923656.9614                   20923645.6054
        49.0004         40.7504
   2071674.72155  -3949008.82654  25768465.3594                   25768456.7584
        32.5004         25.5004
  -6186807.30445  -4794389.18545  24969952.9924                   24969944.9774
        34.5004         32.2504
 -24833820.85348 -19975897.30449  21015197.9534                   21015188.8834
        50.7504         54.7504
 -17896389.84247 -12999159.90845  22466159.9924                   22466147.7584
        47.5004         35.2504
  -2737453.96845  -2115916.29642  25057964.8754                   25057956.0394
        34.5004         17.2504
 -15351997.96447 -11932262.05047  22565469.7974                   22565458.6174
        44.5004         46.5004
 -10355799.80946  -9489196.51346  23088037.8834                   23088029.7504
        40.0004         39.0004
  -3005910.59645  -2608654.53744  24651037.9144                   24651030.9534
        34.2504         29.5004
 -28208329.25748 -21593330.31149  20555652.5314                   20555643.8714
        50.0004         55.0004
 23  1  4  1 17 30.0000000  0 12G23G24G22G27G08G10G21G12G31G01G25G32
  -3618048.50847  -4989763.04644  23373077.9144                   23373067.5554
        42.2504         28.7504
  -4553338.69945  -3508461.72543  24585654.2504                   24585647.5824
        33.5004         19.7504
 -24162706.60647 -12670966.53846  20916977.0314                   20916965.9694
        46.5004         40.2504
   2162075.33955  -3878566.74753  25785669.4694                   25785659.5204
        31.7504         23.7504
  -6109454.05346  -4734113.93945  24984672.6094                   24984664.7704
        36.0004         32.7504
 -24792276.74848 -19943525.28249  21023103.0634                   21023094.4024
        51.2504         54.7504
 -17933907.70547 -13028394.60245  22459020.4454                   22459008.2114
        45.0004         35.7504
  -2792937.49845  -2159150.27842  25047407.2114                   25047397.6724
        35.2504         16.7504
 -15459859.06847 -12016309.65747  22544944.5394                   22544933.0084
        45.0004         46.5004
 -10443244.24146  -9557335.02046  23071397.3834                   23071389.3674
        40.5004         39.5004
  -3084076.14845  -2669562.73144  24636164.0164                   24636156.2934
        34.5004         28.5004
 -28193201.55948 -21581542.49549  20558531.6024                   20558522.2384
        50.0004         55.5004
 23  1  4  1 18  0.0000000  0 11G23G24G22G08G10G21G12G31G01G25G32
  -3531841.60547  -4922588.90244  23389483.0704                   23389472.5354
        42.0004         28.7504
  -4446680.47145  -3425351.41843  24605951.2584                   24605943.4774
        33.5004         19.7504
 -24197470.46748 -12698055.25746  20910361.9694                   20910350.9064
        48.7504         40.5004
  -6031953.16445  -4673723.60545  24999420.6724                   24999413.4184
        35.7504         33.2504
 -24750394.90348 -19910890.08449  21031073.0084                   21031063.8204
        50.0004         54.7504
 -17970987.02047 -13057287.58845  22451964.8984                   22451952.1374
        46.2504         35.7504
  -2848036.54245  -2202084.58742  25036923.2974                   25036913.0554
        35.5004         17.2504
 -15567452.23647 -12100148.48147  22524469.8134                   22524458.6334
        44.5004         46.5004
 -10530303.30746  -9625173.26046  23054831.0474                   23054822.9734
        40.5004         39.5004
  -3162033.06655  -2730308.33054  24621326.6884                   24621320.4884
        34.0004         29.2504
 -28177732.96948 -21569489.03749  20561474.9844                   20561465.8554
        50.0004         55.0004
 23  1  4  1 18 30.0000000  0 11G23G24G22G08G10G21G12G31G01G25G32
  -3445446.06647  -4855267.75644  23405923.7194                   23405913.1254
        42.2504         28.2504
  -4339798.75045  -3342066.97543  24626290.2664                   24626282.0164
        34.7504         19.7504
 -24231901.20247 -12724884.38846  20903809.8284                   20903798.7664
        47.0004         40.7504
  -5954310.94145  -4613223.20245  25014194.2974                   25014187.2774
        34.5004         32.2504
 -24708179.67848 -19877995.12649  21039106.7814                   21039097.5354
        52.0004         55.0004
 -18007630.08847 -13085840.62645  22444990.8984                   22444979.4844
        44.5004         35.2504
  -2902752.50645  -2244720.34042  25026509.6644                   25026499.8914
        34.7504         17.2504
 -15674778.57247 -12183779.38947  22504046.0704                   22504035.6524
        45.5004         46.5004
 -10616978.23646  -9692712.15046  23038337.1414                   23038329.1844
        40.7504         39.2504
  -3239782.06145  -2790891.93945  24606530.5394                   24606525.8674
        34.7504         30.5004
 -28161928.54248 -21557173.90549  20564482.4534                   20564473.3834
        51.2504         54.7504
 23  1  4  1 19  0.0000000  0 11G23G24G22G08G10G21G12G31G01G25G32
  -3358859.96347  -4787798.11044  23422400.0944                   23422390.4964
        42.2504         28.7504
  -4232693.57145  -3258608.42843  24646672.3204                   24646663.9534
        33.7504         20.2504
 -24265996.69047 -12751452.29746  20897321.8674                   20897310.5704
        47.0004         40.7504
  -5876528.37446  -4552613.42545  25028998.0474                   25028989.5634
        36.7504         33.2504
 -24665628.19548 -19844838.14549  21047203.7274                   21047194.5394
        51.5004         54.7504
 -18043833.30147 -13114050.91545  22438101.7034                   22438089.8794
        44.5004         35.5004
  -2957079.93545  -2287053.40642  25016172.3364                   25016161.5664
        35.5004         16.7504
 -15781832.54747 -12267198.06047  22483675.4924                   22483663.4344
        45.5004         46.2504
 -10703263.71946  -9759947.60046  23021918.0704                   23021909.1174
        41.5004         39.5004
  -3317317.42245  -2851309.08845  24591779.7114                   24591771.4614
        35.0004         30.0004
 -28145786.75548 -21544595.87649  20567554.2974                   20567545.0514
        51.0004         55.0004
 23  1  4  1 19 30.0000000  0 11G23G24G22G08G10G21G12G31G01G25G32
  -3272084.61946  -4720180.98844  23438913.7424                   23438903.0904
        41.5004         28.0004
  -4125368.49345  -3174978.53443  24667095.9064                   24667087.3054
        35.0004         21.5004
 -24299757.60148 -12777759.49246  20890897.3444                   20890885.9304
        48.5004         40.5004
  -5798608.81145  -4491896.88745  25043823.3134                   25043817.0554
        35.2504         32.7504
 -24622741.04048 -19811419.59149  21055365.0004                   21055355.9304
        52.0004         54.7504
 -18079596.06747 -13141918.00545  22431296.6884                   22431284.8634
        46.5004         35.7504
  -3011016.85346  -2329082.12442  25005910.8444                   25005899.0204
        37.7504         17.7504
 -15888611.66647 -12350402.55747  22463355.3834                   22463344.0864
        45.0004         46.2504
 -10789157.65446  -9826877.94246  23005572.4534                   23005564.5554
        40.7504         39.5004
  -3394636.55845  -2911557.74445  24577064.8054                   24577057.9614
        35.0004         30.0004
 -28129309.27848 -21531756.28449  20570689.7814                   20570680.5944
        50.7504         55.0004
 23  1  4  1 20  0.0000000  0 11G23G24G22G08G10G21G12G31G01G25G32
  -3185120.42546  -4652416.74144  23455461.8834                   23455451.9924
        41.0004         28.0004
  -4017826.09345  -3091179.28743  24687560.2504                   24687552.2344
        35.5004         22.0004
 -24333183.92748 -12803805.97146  20884536.7584                   20884525.2274
        48.0004         41.0004
  -5720554.85446  -4431075.64645  25058678.5474                   25058670.1804
        37.2504         33.2504
 -24579517.80148 -19777739.16849  21063589.8364                   21063581.0594
        51.2504         54.7504
 -18114917.18347 -13169440.95146  22424575.1954                   22424563.1954
        47.0004         36.7504
  -3064560.18545  -2370804.19642  24995718.6094                   24995709.9494
        34.5004         17.2504
 -15995112.60947 -12433390.29947  22443089.0554                   22443077.5824
        45.2504         46.2504
 -10874656.83646  -9893500.66846  22989302.9844                   22989294.5594
        40.7504         40.0004
  -3471735.82345  -2971635.08344  24562391.8984                   24562386.0514
        35.2504         28.0004
 -28112496.76648 -21518655.62549  20573889.1334                   20573880.2384
        50.0004         55.0004
 23  1  4  1 20 30.0000000  0 11G23G24G22G08G10G21G12G31G01G25G32
  -3097968.02746  -4584505.86044  23472046.2664                   23472036.4344
        41.5004         28.7504
  -3910069.23145  -3007212.91443  24708065.2974                   24708057.3984
        34.5004         20.0004
 -24366276.36247 -12829592.27546  20878239.0314                   20878227.7934
        46.5004         40.5004
  -5642370.09946  -4370152.42145  25073557.3834                   25073547.8444
        36.5004         32.2504
 -24535958.36948 -19743796.76549  21071879.1254                   21071869.9964
        51.2504         54.7504
 -18149794.98747 -13196618.46446  22417937.8674                   22417926.3364
        44.5004         36.0004
  -3117707.23445  -2412217.42043  24985605.8444                   24985596.5394
        35.5004         19.0004
 -16101332.54147 -12516159.06147  22422876.0634                   22422864.7664
        45.0004         46.5004
 -10959758.66246  -9959813.78446  22973108.1564                   22973099.6724
        41.2504         39.7504
  -3548612.10746  -3031538.65645  24547766.7734                   24547757.7034
        36.2504         30.0004
 -28095350.38948 -21505294.80649  20577151.9064                   20577143.0704
        51.0004         55.0004
 23  1  4  1 21  0.0000000  0 11G23G24G22G08G10G21G12G31G01G25G32
  -3010628.32746  -4516448.98244  23488666.6564                   23488656.3554
        41.5004         27.0004
  -3802101.09546  -2923081.93943  24728611.4774                   24728603.1094
        36.0004         21.0004
 -24399035.18648 -12855118.61646  20872005.1884                   20871994.1844
        48.0004         40.2504
  -5564057.60945  -4309129.72145  25088456.8914                   25088450.7504
        34.5004         32.2504
 -24492062.90948 -19709592.52549  21080232.4384                   21080223.0164
        51.5004         54.7504
 -18184228.77047 -13223449.97945  22411385.4064                   22411373.5824
        46.2504         35.2504
  -3170455.62245  -2453320.01842  24975567.5474                   24975559.0634
        35.5004         17.2504
 -16207268.58847 -12598706.63447  22402716.7274                   22402705.6054
        45.0004         46.5004
 -11044460.46746 -10025815.19546  22956990.5314                   22956982.2234
        41.2504         40.0004
  -3625262.28545  -3091266.05645  24533180.5234                   24533171.9224
        34.7504         30.7504
 -28077871.29748 -21491674.73649  20580477.8594                   20580469.4344
        50.0004         55.0004
 23  1  4  1 21 30.0000000  0 11G23G24G22G08G10G21G12G31G01G25G32
  -2923101.11046  -4448246.00544  23505322.6484                   23505312.7584
        41.2504         28.0004
  -3693923.50945  -2838787.74343  24749196.1024                   24749188.3204
        33.2504         19.2504
 -24431459.57147 -12880384.36946  20865835.0394                   20865823.6844
        47.7504         40.5004
  -5485619.09046  -4248008.84045  25103385.0784                   25103377.6484
        36.2504         32.2504
 -24447830.28048 -19675125.55649  21088649.4844                   21088640.2974
        51.5004         54.7504
 -18218216.81347 -13249934.17246  22404918.1094                   22404905.9924
        46.7504         36.2504
  -3222801.72345  -2494109.15743  24965606.5084                   24965597.3794
        35.0004         19.5004
 -16312916.88847 -12681029.98147  22382612.0554                   22382601.6954
        45.2504         46.5004
 -11128758.65046 -10091502.08146  22940948.5704                   22940940.3794
        41.5004         40.2504
  -3701682.24245  -3150814.06344  24518636.6414                   24518629.0354
        35.0004         29.7504
 -28060059.66948 -21477795.54349  20583867.5944                   20583858.5234
        50.2504         55.0004
 23  1  4  1 22  0.0000000  0 11G23G24G22G08G10G21G12G31G01G25G32
  -2835388.16746  -4379898.29244  23522014.1954                   23522003.6024
        41.2504         28.0004
  -3585540.37145  -2754333.33843  24769820.9924                   24769813.0944
        33.2504         19.2504
 -24463551.17947 -12905390.80546  20859728.3754                   20859716.9614
        47.2504         40.2504
  -5407058.73146  -4186792.96645  25118333.8594                   25118326.7234
        36.5004         31.5004
 -24403262.07248 -19640397.09849  21097130.4694                   21097121.1054
        51.0004         55.0004
 -18251758.47747 -13276070.54446  22398535.3284                   22398523.4454
        46.5004         36.0004
  -3274743.96245  -2534583.63142  24955720.8984                   24955712.7664
        33.0004         16.7504
 -16418275.78247 -12763127.81747  22362563.7814                   22362552.4844
        46.0004         47.0004
 -11212651.57546 -10156873.18946  22924984.1564                   22924975.9064
        41.5004         40.5004
  -3777869.93345  -3210181.08445  24504139.0234                   24504131.2424
        35.0004         30.2504
 -28041917.67748 -21463658.91949  20587319.9774                   20587310.6134
        51.0004         55.0004
 23  1  4  1 22 30.0000000  0 11G23G24G22G08G10G21G12G31G01G25G32
  -2747489.43146  -4311405.82444  23538740.6644                   23538730.4804
        41.5004         25.7504
  -3476953.89945  -2669720.54743  24790485.3674                   24790476.5314
        33.2504         19.7504
 -24495309.45647 -12930137.51446  20853685.0164                   20853673.9534
        47.5004         40.2504
  -5328378.84945  -4125483.91545  25133304.9774                   25133299.2464
        32.2504         31.2504
 -24358356.78848 -19605405.99149  21105675.6804                   21105666.7854
        50.0004         54.7504
 -18284852.14747 -13301857.83046  22392237.8674                   22392226.1604
        45.2504         36.0004
  -3326279.14645  -2574740.92543  24945915.5634                   24945905.9654
        34.7504         18.2504
 -16523341.22047 -12844996.98047  22342569.9064                   22342559.2544
        45.5004         46.7504
 -11296135.76346 -10221925.79746  22909097.8524                   22909089.7774
        41.5004         40.7504
  -3853821.36846  -3269363.98545  24489686.6954                   24489678.2704
        36.0004         31.5004
 -28023445.59348 -21449265.09249  20590834.8134                   20590825.9774
        50.0004         55.0004
 23  1  4  1 23  0.0000000  0 11G23G24G22G08G10G21G12G31G01G25G32
  -2659405.52546  -4242769.06744  23555501.9844                   23555492.0354
        40.5004         27.2504
  -3368166.64645  -2584951.25143  24811187.2034                   24811177.8404
        34.5004         18.2504
 -24526734.62148 -12954624.64446  20847704.9224                   20847693.6844
        48.0004         40.7504
  -5249582.31245  -4064084.09945  25148300.6094                   25148293.2384
        34.0004         32.0004
 -24313114.57548 -19570152.33649  21114285.0084                   21114275.8794
        51.0004         55.0004
 -18317496.68547 -13327295.13045  22386025.3134                   22386014.0744
        45.5004         35.5004
  -3377404.61346  -2614578.98442  24936188.1644                   24936176.6914
        36.7504         17.7504
 -16628110.41647 -12926635.31047  22322633.5864                   22322621.9964
        46.5004         47.2504
 -11379208.24546 -10286657.59546  22893289.5084                   22893281.3754
        41.5004         40.7504
  -3929532.97545  -3328360.04445  24475278.5004                   24475270.9534
        34.5004         30.5004
 -28004644.33448 -21434614.76049  20594412.3284                   20594403.9614
        50.0004         54.7504
 23  1  4  1 23 30.0000000  0 11G23G24G22G08G10G21G12G31G01G25G32
  -2571137.07246  -4173988.51144  23572299.2034                   23572289.2544
        41.0004         27.2504
                                  24831924.3984                   24831916.7344
        32.0004         18.2504
 -24557826.99347 -12978852.45946  20841788.1804                   20841776.9414
        47.5004         40.7504
  -5170671.90545  -4002595.44345  25163315.2814                   25163309.4344
        33.5004         30.7504
 -24267535.12848 -19534635.89449  21122958.4304                   21122949.4774
        51.2504         54.7504
 -18349691.17647 -13352381.75246  22379899.4534                   22379887.3954
        46.5004         36.2504
  -3428117.56946  -2654095.61843  24926537.3754                   24926525.6684
        36.2504         18.2504
 -16732580.14447 -13008040.27847  22302753.1644                   22302742.1024
        46.5004         47.2504
 -11461866.39146 -10351066.54346  22877560.6644                   22877552.2384
        41.5004         41.5004
  -4005001.87245  -3387166.96445  24460916.9924                   24460910.3244
        35.0004         31.0004
 -27985514.93048 -21419708.71949  20598053.2344                   20598043.7544
        51.2504         55.0004
 23  1  4  1 24  0.0000000  0 11G23G24G22G08G10G21G12G31G01G25G32
  -2482686.33546  -4105065.93244  23589130.9064                   23589121.0164
        40.7504         27.0004
  -9451682.77655  -7325353.48853  24852701.1254                   24852693.6374
        33.0004         19.0004
 -24588588.50447 -13002822.46046  20835934.2584                   20835923.3714
        47.5004         40.5004
  -5091652.65545  -3941022.03545  25178354.6094                   25178346.0664
        34.7504         30.7504
 -24221620.19448 -19498858.05549  21131695.9534                   21131686.8244
        51.2504         54.7504
 -18381435.56047 -13377117.65046  22373858.8674                   22373846.6334
        46.7504         36.2504
  -3478416.75345  -2693289.74642  24916965.4064                   24916955.0474
        35.0004         17.7504
 -16836748.95247 -13089210.77547  22282930.5784                   22282919.4574
        46.0004         47.2504
 -11544108.93446 -10415151.63746  22861909.8134                   22861902.5004
        41.7504         40.7504
  -4080226.04845  -3445783.19845  24446602.2504                   24446594.8204
        34.5004         30.5004
 -27966059.93548 -21404548.98749  20601755.2814                   20601746.2114
        50.7504         55.0004
 23  1  4  1 24 30.0000000  0 11G23G24G22G08G10G21G12G31G01G25G32
  -2394051.39546  -4035999.79344  23605998.2274                   23605988.1024
        40.0004         28.0004
  -9342310.83645  -7240128.65743  24873514.1954                   24873506.0044
        33.5004         19.5004
 -24619016.85347 -13026532.85646  20830143.8364                   20830132.8914
        47.5004         41.0004
  -5012524.65345  -3879363.83245  25193413.0394                   25193403.9104
        35.0004         30.5004
 -24175367.15748 -19462816.74849  21140497.3054                   21140488.4694
        51.5004         54.7504
 -18412726.51247 -13401500.21246  22367903.8284                   22367892.2384
        46.2504         37.0004
  -3528297.33445  -2732157.72742  24907472.3134                   24907462.5984
        34.7504         16.7504
 -16940611.80947 -13170142.86347  22263166.0234                   22263155.1954
        45.7504         47.5004
 -11625930.61146 -10478908.77546  22846339.9304                   22846331.9144
        41.5004         40.7504
  -4155199.82345  -3504204.32044  24432335.4304                   24432326.7704
        33.2504         29.5004
 -27946277.88348 -21389134.39449  20605519.5634                   20605510.3754
        51.7504         55.0004
 23  1  4  1 25  0.0000000  0 11G23G24G22G08G10G21G12G31G01G25G32
  -2305234.93346  -3966792.23844  23622899.3674                   23622888.5984
        40.5004         27.0004
  -9232750.21755  -7154756.77553  24894362.3674                   24894354.5864
        31.0004         18.5004
 -24649114.25647 -13049985.37346  20824416.5864                   20824405.6414
        47.5004         40.7504
  -4933292.74645  -3817624.69445  25208488.0704                   25208481.0514
        33.5004         30.7504
 -24128777.54648 -19426513.16849  21149363.1094                   21149354.0984
        50.5004         54.7504
 -18443565.30147 -13425530.43946  22362035.5084                   22362023.8014
        46.2504         36.7504
  -3577758.30545  -2770698.78242  24898058.7974                   24898051.2504
        34.5004         17.2504
 -17044167.24347 -13250835.40847  22243460.6414                   22243449.0514
        47.0004         47.5004
 -11707330.53946 -10542337.30446  22830850.1254                   22830842.1094
        40.7504         41.0004
  -4229921.82945  -3562429.24744  24418116.1564                   24418108.3164
        34.0004         29.7504
 -27926171.65648 -21373467.21149  20609345.8524                   20609336.6644
        51.7504         55.0004
 23  1  4  1 25 30.0000000  0 11G23G24G22G08G10G21G12G31G01G25G32
  -2216236.78746  -3897443.07244  23639834.8444                   23639824.7194
        40.2504         25.7504
  -9123002.95745  -7069239.47343  24915247.3054                   24915239.1134
        33.0004         19.5004
 -24678880.38747 -13073179.75146  20818752.5634                   20818741.5004
        47.2504         41.0004
  -4853959.04545  -3755806.19945  25223583.9534                   25223577.4614
        33.5004         31.5004
 -24081850.88848 -19389946.96449  21158292.9384                   21158283.7504
        49.5004         54.7504
 -18473949.23447 -13449206.22645  22356253.6254                   22356241.9184
        45.7504         35.5004
  -3626796.16745  -2808910.08943  24888727.3204                   24888720.5354
        33.7504         19.0004
 -17147411.34647 -13331285.34947  22223813.3284                   22223801.9734
        46.2504         47.5004
 -11788305.32246 -10605434.51846  22815440.6484                   22815432.9844
        41.2504         41.0004
  -4304388.10845  -3620454.91344  24403945.1484                   24403938.7154
        34.0004         29.5004
 -27905741.51948 -21357547.62749  20613233.4694                   20613224.5164
        51.0004         55.0004
 23  1  4  1 26  0.0000000  0 11G23G24G22G08G10G21G12G31G01G25G32
  -2127058.62446  -3827953.63244  23656804.8134                   23656794.7464
        40.0004         26.5004
  -9013072.80945  -6983579.65442  24936165.7664                   24936158.1024
        30.7504         17.2504
 -24708316.62947 -13096117.08246  20813150.9534                   20813139.8324
        47.0004         40.7504
  -4774527.86745  -3693911.81745  25238697.5474                   25238693.1094
        30.2504         30.2504
 -24034588.03848 -19353118.78349  21167286.8984                   21167278.0044
        50.0004         54.7504
 -18503878.33047 -13472527.60246  22350558.6564                   22350546.4804
        45.0004         37.0004
  -3675410.26745  -2846791.15743  24879477.6724                   24879470.5354
        35.5004         19.0004
 -17250342.36347 -13411491.33247  22204226.3754                   22204215.6054
        46.2504         47.7504
 -11868853.07347 -10668199.01346  22800113.6254                   22800104.7894
        42.0004         40.7504
  -4378596.34445  -3678279.53645  24389823.4064                   24389817.0314
        33.5004         30.5004
 -27884989.49848 -21341377.22249  20617182.3444                   20617173.4494
        51.7504         55.0004
 23  1  4  1 26 30.0000000  0 11G23G24G22G08G10G21G12G31G01G25G32
  -2037700.13946  -3758323.68944  23673808.6174                   23673799.0784
        40.2504         25.2504
  -8902961.64355  -6897778.76253  24957120.3364                   24957111.7934
        33.5004         20.0004
 -24737421.84247 -13118796.46746  20807612.3984                   20807601.2774
        46.2504         41.0004
  -4695000.37345  -3631942.37244  25253834.4454                   25253826.3134
        33.5004         29.7504
 -23986987.95948 -19316027.83349  21176344.9384                   21176335.8094
        51.0004         54.5004
 -18533350.79947 -13495493.17446  22344949.8204                   22344937.9964
        45.0004         36.0004
  -3723596.34046  -2884338.71343  24870309.6414                   24870300.3954
        37.2504         19.2504
 -17352956.20447 -13491450.16848  22184699.3914                   22184688.4454
        46.2504         48.0004
 -11948970.14646 -10730627.89546  22784867.3754                   22784859.3014
        41.0004         40.7504
  -4452542.29945  -3735899.77645  24375752.2194                   24375745.5514
        33.5004         30.5004
 -27863915.58748 -21324955.99349  20621192.7034                   20621183.8674
        52.0004         55.0004
 23  1  4  1 27  0.0000000  0 11G23G24G22G08G10G21G12G31G01G25G32
  -1948162.37046  -3688554.03444  23690847.4064                   23690837.5164
        40.5004         25.7504
  -8792672.39145  -6811839.14343  24978106.5234                   24978099.2704
        31.5004         19.0004
 -24766196.77747 -13141218.48246  20802136.4774                   20802125.5904
        46.2504         40.7504
  -4615380.53245  -3569900.91644  25268986.1724                   25268977.2774
        34.5004         29.7504
 -23939050.76648 -19278674.20049  21185466.8754                   21185458.0394
        49.7504         54.5004
 -18562365.87747 -13518102.32846  22339428.5784                   22339416.6954
        44.7504         36.5004
  -3771352.31546  -2921551.17243  24861223.5944                   24861212.2384
        37.7504         19.2504
 -17455250.21347 -13571159.79248  22165233.8054                   22165222.9184
        47.0004         48.0004
 -12028654.05046 -10792719.25746  22769704.3134                   22769696.0634
        41.2504         41.0004
  -4526223.03945  -3793313.37645  24361731.6254                   24361724.8404
        35.0004         30.2504
 -27842521.07548 -21308284.95249  20625263.8204                   20625255.0434
        52.0004         55.0004
 23  1  4  1 27 30.0000000  0 11G23G24G22G08G10G21G12G31G01G25G32
  -1858445.96746  -3618645.20744  23707920.2734                   23707910.3834
        39.2504         25.5004
  -8682207.61145  -6725762.69643  24999128.2504                   24999119.5314
        33.5004         19.2504
 -24794641.98947 -13163383.57846  20796723.9924                   20796712.4024
        46.7504         41.2504
  -4535670.88245  -3507789.47444  25284153.4144                   25284145.6334
        34.0004         29.5004
 -23890776.48348 -19241057.89849  21194653.4454                   21194644.4344
        49.0004         54.5004
 -18590922.51347 -13540354.25846  22333994.6024                   22333982.6604
        45.0004         36.0004
  -3818675.60046  -2958426.48243  24852216.2114                   24852206.7304
        37.0004         19.0004
 -17557221.50847 -13650617.93948  22145829.0004                   22145818.0554
        46.2504         48.0004
 -12107902.05246 -10854470.95146  22754623.0784                   22754615.2384
        41.2504         40.5004
  -4599635.19045  -3850517.68245  24347761.5394                   24347754.4024
        34.0004         30.2504
 -27820806.93748 -21291364.84849  20629396.1564                   20629386.9694
        51.7504         55.0004
 23  1  4  1 28  0.0000000  0 11G23G24G22G08G10G21G12G31G01G25G32
  -1768551.84146  -3548597.88644  23725026.2894                   23725016.8094
        39.2504         26.5004
  -8571570.47945  -6639552.00843  25020181.4614                   25020173.0354
        32.2504         18.5004
 -24822758.00647 -13185292.15746  20791373.5234                   20791362.2854
        47.0004         41.0004
  -6031294.66955  -4673210.65655  25299338.6724                   25299331.1254
        35.0004         30.2504
 -23842165.40348 -19203179.15349  21203903.6724                   21203895.0124
        50.2504         54.2504
 -18619020.63047 -13562248.89546  22328647.1804                   22328635.4734
        44.7504         36.5004
  -3865563.74746  -2994962.68143  24843293.1564                   24843282.8554
        36.0004         18.5004
 -17658867.57147 -13729822.65148  22126486.8364                   22126475.6564
        46.7504         48.2504
 -12186711.69147 -10915881.08146  22739627.4384                   22739619.0704
        42.0004         41.2504
  -4672775.76545  -3907510.38545  24333843.4694                   24333836.2154
        33.0004         30.0004
 -27798774.51848 -21274196.73049  20633588.5634                   20633579.1994
        52.5004         55.0004
 23  1  4  1 28 30.0000000  0 11G23G24G22G08G10G21G12G31G01G25G32
  -1678480.61446  -3478412.56444  23742166.3754                   23742157.0704
        39.2504         26.0004
  -8460763.42945  -6553208.90843  25041266.8594                   25041259.4304
        32.7504         18.2504
 -24850545.01047 -13206944.36746  20786085.5784                   20786074.8674
        46.2504         41.0004
  -5951414.77145  -4610966.50745  25314540.3594                   25314531.0554
        34.7504         31.0004
 -23793217.43648 -19165037.89049  21213217.9774                   21213209.1414
        48.7504         54.2504
 -18646658.09847 -13583784.58046  22323388.1334                   22323376.2504
        44.7504         36.5004
  -3912014.13246  -3031157.80843  24834454.3754                   24834444.7774
        36.5004         19.0004
 -17760184.86847 -13808771.19348  22107206.8054                   22107195.7424
        46.5004         48.2504
 -12265080.16546 -10976947.42446  22724714.1954                   22724704.8914
        41.0004         41.0004
  -4745641.46245  -3964288.87145  24319976.7194                   24319970.1684
        32.7504         30.5004
 -27776424.64648 -21256781.25149  20637841.8364                   20637832.7074
        53.0004         54.7504
 23  1  4  1 29  0.0000000  0 11G23G24G22G08G10G21G12G31G01G25G32
  -1588232.35746  -3408089.27944  23759340.1564                   23759330.3244
        40.0004         26.5004
  -8349788.89345  -6466735.26543  25062384.3834                   25062376.9534
        31.7504         19.2504
 -24878002.87347 -13228340.09646  20780860.6334                   20780849.3954
        46.2504         41.0004
  -5871453.53345  -4548659.07745  25329756.5004                   25329747.7234
        34.5004         31.2504
 -23743931.60848 -19126633.36249  21222596.7504                   21222587.7974
        50.0004         54.0004
 -18673833.67847 -13604960.35446  22318216.6884                   22318204.8054
        45.0004         36.0004
  -3958024.07046  -3067009.64143  24825698.9924                   24825688.9264
        36.5004         19.0004
 -17861169.88747 -13887460.81348  22087989.8594                   22087979.0314
        47.0004         48.2504
 -12343004.19647 -11037667.46546  22709885.9924                   22709877.3324
        42.5004         40.7504
  -4818228.41845  -4020850.16545  24306165.1094                   24306157.9144
        34.5004         30.7504
 -27753757.80748 -21239118.78449  20642155.1094                   20642145.8634
        53.0004         54.7504
 23  1  4  1 29 30.0000000  0 11G23G24G22G08G10G21G12G31G01G25G32
  -1497809.14146  -3337629.69044  23776547.1174                   23776537.6954
        39.0004         26.0004
  -8238650.58845  -6380134.05143  25083533.7424                   25083526.0784
        30.5004         18.2504
 -24905132.97547 -13249480.42646  20775698.1414                   20775686.7274
        46.2504         41.5004
  -5791414.96345  -4486291.35045  25344985.7734                   25344978.2854
        34.7504         30.5004
 -23694309.36048 -19087966.69249  21232039.7424                   21232030.7304
        50.0004         54.0004
 -18700547.76347 -13625776.52746  22313133.7034                   22313121.4104
        45.2504         36.5004
  -4003591.92845  -3102517.13142  24817027.8674                   24817016.5704
        35.5004         16.7504
 -17961821.36047 -13965890.52248  22068837.1254                   22068825.4184
        47.0004         48.5004
 -12420482.33846 -11098040.06546  22695141.3444                   22695133.7384
        40.5004         41.0004
  -4890534.77045  -4077192.83845  24292404.8984                   24292398.6414
        33.5004         31.2504
 -27730776.28648 -21221211.11649  20646528.2814                   20646519.1524
        52.7504         54.7504
 23  1  4  1 30  0.0000000  0 11G23G24G22G08G10G21G12G31G01G25G32
  -1407209.96146  -3267032.99444  23793787.2274                   23793778.0984
        39.2504         26.5004
  -8127349.70455  -6293406.17352  25104713.2034                   25104706.0084
        32.2504         17.7504
 -24931933.93848 -13270364.29046  20770598.0474                   20770586.6914
        48.0004         41.5004
  -5711300.39945  -4423864.42645  25360232.1564                   25360223.4964
        35.2504         31.0004
 -23644349.14848 -19049036.67048  21241546.4534                   21241537.9104
        48.2504         53.7504
 -18726797.40047 -13646230.80146  22308138.3134                   22308126.5474
        45.5004         36.5004
  -4048713.80345  -3137677.03742  24808439.6334                   24808430.3874
        33.5004         16.2504
 -18062134.28847 -14044056.43848  22049748.0394                   22049736.4494
        47.0004         48.5004
 -12497510.24447 -11158061.79746  22680484.1484                   22680475.3134
        42.0004         41.0004
  -4962555.50345  -4133312.94345  24278700.3984                   24278693.3204
        35.0004         31.7504
 -27707479.35348 -21203057.66749  20650961.8674                   20650952.5634
        52.5004         54.7504
 23  1  4  1 30 30.0000000  0 11G23G24G22G08G10G21G12G31G01G25G32
  -1316437.81946  -3196301.54544  23811061.3054                   23811051.4734
        39.5004         26.0004
  -8015890.98945  -6206555.23542  25125924.0004                   25125916.2194
        32.5004         17.7504
 -24958408.88448 -13290994.11246  20765560.0634                   20765548.8834
        48.0004         41.2504
  -5631115.25956  -4361382.49555  25375492.2894                   25375482.7504
        36.5004         31.7504
 -23594053.11448 -19009844.98548  21251117.7734                   21251109.0554
        49.2504         53.7504
 -18752584.25947 -13666324.45446  22303230.9844                   22303219.3954
        46.0004         36.2504
  -4093389.41445  -3172489.17443  24799939.3284                   24799929.2034
        35.2504         18.5004
 -18162107.99147 -14121958.02948  22030723.0314                   22030711.8524
        47.0004         48.5004
 -12574087.49547 -11217732.39246  22665911.6564                   22665903.6414
        42.2504         41.2504
  -5034289.64845  -4189209.70145  24265050.7584                   24265043.0944
        34.2504         31.2504
 -27683870.40248 -21184661.09049  20655454.5004                   20655444.9614
        52.7504         54.7504
 23  1  4  1 31  0.0000000  0 10G23G22G08G10G21G12G31G01G25G32
  -1225490.28246  -3125433.40244  23828368.9064                   23828357.9024
        39.7504         26.2504
 -24984554.61147 -13311367.40446  20760584.5394                   20760573.5354
        47.2504         41.0004
  -5550858.73555  -4298844.96055  25390762.0634                   25390755.1024
        34.7504         30.5004
 -23543418.07648 -18970389.11348  21260753.0864                   21260744.6604
        48.7504         53.7504
 -18777904.33247 -13686054.38946  22298412.8524                   22298400.9104
        46.0004         36.7504
  -4137613.06845  -3206949.18842  24791522.8984                   24791512.9494
        34.7504         17.2504
 -18261736.63147 -14199590.73148  22011764.9694                   22011753.5554
        46.2504         48.7504
 -12650208.25446 -11277047.25946  22651426.0314                   22651418.1914
        41.2504         41.5004
  -5105730.78145  -4244878.10145  24251455.0394                   24251448.4884
        34.5004         31.0004
 -27659947.20848 -21166019.64649  20660006.5864                   20659997.6914
        53.2504         54.7504
 23  1  4  1 31 30.0000000  0 10G23G22G08G10G21G12G31G01G25G32
  -1134372.01046  -3054432.19644  23845707.4454                   23845697.6724
        38.7504         26.7504
 -25010375.54047 -13331487.59846  20755670.6954                   20755659.8674
        47.2504         41.0004
  -5470537.84945  -4236257.26445  25406047.4144                   25406038.5784
        34.5004         31.0004
 -23492448.21048 -18930672.37048  21270452.7734                   21270444.1134
        50.0004         53.7504
 -18802760.57347 -13705422.89146  22293683.2114                   22293671.0354
        47.2504         36.5004
  -4181386.58645  -3241058.43642  24783193.3284                   24783183.4384
        35.5004         16.2504
 -18361021.31147 -14276955.41848  21992871.0944                   21992860.0904
        46.0004         48.7504
 -12725873.88846 -11336007.50046  22637027.9534                   22637019.5274
        41.5004         41.5004
  -5176879.71445  -4300318.85645  24237915.9844                   24237909.7274
        34.7504         31.5004
 -27635714.81248 -21147137.25749  20664618.0704                   20664609.0004
        53.2504         54.7504
 23  1  4  1 32  0.0000000  0 11G23G24G22G08G10G21G12G31G01G25G32
  -1043082.33946  -2983297.48244  23863079.1024                   23863069.5044
        39.2504         26.5004
  -7680591.90455  -6086421.44753  25189729.9924                   25189722.3284
        32.5004         18.2504
 -25035870.73547 -13351353.97646  20750819.4224                   20750808.1254
        47.7504         41.5004
  -5390154.49655  -4173620.92855  25421344.3134                   25421336.1214
        34.5004         31.2504
 -23441142.09248 -18890693.59148  21280216.3054                   21280207.1174
        48.7504         53.5004
 -18827150.66147 -13724428.16646  22289041.8054                   22289029.5704
        46.5004         36.5004
  -4224705.88746  -3274813.75043  24774951.5944                   24774940.2384
        36.2504         18.2504
 -18459957.50547 -14354048.55348  21974044.3444                   21974033.4574
        46.2504         49.0004
 -12801080.35246 -11394609.93246  22622716.0784                   22622708.2974
        41.5004         41.0004
  -5247731.83445  -4355528.30645  24224432.9694                   24224426.3014
        33.5004         31.2504
 -27611172.81648 -21128013.63749  20669288.0704                   20669278.9414
        51.7504         54.7504
 23  1  4  1 32 30.0000000  0 11G23G24G22G08G10G21G12G31G01G25G32
   -951619.01346  -2912027.42844  23880484.3984                   23880474.0984
        39.0004         25.0004
  -7568522.58545  -5999094.79243  25211056.2344                   25211047.3984
        31.7504         19.0004
 -25061037.20847 -13370964.21346  20746030.4384                   20746019.0824
        47.5004         41.5004
                                  25436655.5864                   25436644.4654
        37.5004         32.5004
 -23389496.66448 -18850450.41148  21290043.7894                   21290034.7774
        49.7504         53.5004
 -18851070.70047 -13743067.16446  22284490.3444                   22284477.9344
        47.2504         36.2504
  -4267565.91745  -3308211.17042  24766793.0864                   24766784.6024
        34.5004         16.2504
 -18558539.31047 -14430865.54148  21955285.5944                   21955273.9454
        46.7504         49.0004
 -12875821.92146 -11452850.10746  22608493.8364                   22608485.6454
        41.7504         41.0004
  -5318280.92945  -4410501.64845  24211007.3444                   24211000.3244
        33.7504         30.2504
 -27586319.19048 -21108647.17849  20674017.5164                   20674008.4454
        52.7504         54.7504
 23  1  4  1 33  0.0000000  0 11G23G24G22G08G10G21G12G31G01G25G32
   -859990.12846  -2840628.39444  23897920.5634                   23897911.0234
        38.7504         25.5004
  -7456312.64345  -5911658.50943  25232408.2034                   25232400.7734
        31.0004         19.2504
 -25085883.29948 -13390324.80246  20741302.3284                   20741291.3244
        48.0004         41.5004
  -5229209.35655  -4048209.08355  25451971.3444                   25451962.6254
        35.0004         32.0004
 -23337519.29948 -18809948.59848  21299934.8204                   21299926.1024
        50.0004         53.2504
 -18874526.96147 -13761344.77646  22280026.4064                   22280014.8754
        47.0004         36.5004
  -4309971.12746  -3341254.15042  24758726.1644                   24758714.8094
        37.0004         17.7504
 -18656771.17747 -14507409.84948  21936591.7974                   21936580.7934
        46.0004         49.0004
 -12950103.40746 -11510731.78746  22594357.8134                   22594349.9734
        41.7504         41.2504
  -5388531.11745  -4465242.06445  24197639.5004                   24197633.2424
        33.2504         31.5004
 -27561162.42048 -21089044.50049  20678804.6954                   20678795.5084
        53.2504         55.0004
 23  1  4  1 33 30.0000000  0 11G23G24G22G08G10G21G12G31G01G25G32
   -768187.31546  -2769093.81444  23915390.5164                   23915380.1564
        38.2504         24.2504
                                  25253789.5474                   25253781.1804
        30.5004         16.2504
 -25110400.26648 -13409428.92746  20736636.9064                   20736625.7274
        48.0004         41.2504
  -5148651.66955  -3985436.96655  25467300.7734                   25467292.6994
        35.5004         30.7504
 -23285201.21248 -18769181.27048  21309890.5704                   21309881.6764
        48.7504         53.5004
 -18897509.68147 -13779253.39346  22275652.5784                   22275641.1054
        47.5004         37.5004
  -4351910.59546  -3373934.26643  24750743.6884                   24750734.3834
        36.2504         18.5004
 -18754640.96847 -14583672.01348  21917968.0704                   21917957.1254
        46.2504         49.0004
 -13023913.09346 -11568245.81546  22580312.8364                   22580304.4104
        41.7504         41.0004
  -5458470.14245  -4519740.02745  24184331.4064                   24184325.1484
        34.0004         31.7504
 -27535694.27148 -21069199.20249  20683651.2504                   20683642.0044
        52.0004         54.7504
 23  1  4  1 34  0.0000000  0 10G23G22G08G10G21G12G31G01G25G32
   -676217.14946  -2697428.82944  23932890.8834                   23932881.9304
        38.7504         24.5004
 -25134593.86447 -13428281.07346  20732033.0554                   20732021.7584
        47.5004         41.2504
  -5068043.61545  -3922625.39845  25482640.1954                   25482630.5394
        35.5004         31.2504
 -23232547.77748 -18728152.64348  21319910.1804                   21319901.3444
        49.2504         53.2504
 -18920023.95147 -13796796.98346  22271368.2664                   22271357.0274
        47.5004         36.5004
  -4393387.68546  -3406254.07543  24742852.8204                   24742842.0514
        37.5004         19.0004
 -18852151.79347 -14659654.47548  21899412.7894                   21899401.2584
        46.0004         49.0004
 -13097254.08847 -11625394.64546  22566356.4384                   22566347.9534
        42.0004         41.0004
  -5528100.58845  -4573997.53145  24171080.7664                   24171073.8054
        33.0004         31.5004
 -27509921.69248 -21049116.67549  20688555.5784                   20688546.3324
        52.5004         54.7504
 23  1  4  1 34 30.0000000  0 11G23G22G03G08G10G21G12G31G01G25G32
   -584079.05446  -2625632.99244  23950425.1564                   23950415.3834
        38.7504         25.0004
 -25158463.39747 -13446880.70746  20727490.9694                   20727479.7894
        46.0004         41.2504
                                  25757807.313
        23.750
  -4987387.11945  -3859776.20045  25497987.8364                   25497980.5234
        34.7504         31.2504
 -23179558.08048 -18686862.00048  21329993.8204                   21329984.7504
        48.5004         53.2504
 -18942067.73347 -13813973.96846  22267173.5084                   22267161.9184
        45.2504         36.7504
  -4434398.69246  -3438210.74443  24735048.0004                   24735038.6374
        36.5004         19.7504
 -18949299.63447 -14735354.09048  21880925.2734                   21880914.3874
        46.5004         49.2504
 -13170122.61846 -11682175.30746  22552489.9534                   22552481.5864
        41.2504         41.0004
  -5597417.98845  -4628011.05445  24157890.4384                   24157883.3014
        33.5004         30.2504
 -27483844.38748 -21028796.70749  20693517.6884                   20693508.5594
        53.0004         55.0004
 23  1  4  1 35  0.0000000  0 10G23G22G08G10G21G12G31G01G25G32
   -491773.30046  -2553706.50544  23967989.7734                   23967980.0594
        38.0004         24.2504
 -25182008.71648 -13465227.71146  20723010.4614                   20722999.2234
        48.0004         41.5004
  -4906684.65645  -3796891.13345  25513343.4694                   25513337.5634
        31.2504         30.7504
 -23126231.56448 -18645308.88748  21340141.8134                   21340132.2734
        48.2504         53.0004
 -18963639.40747 -13830783.07346  22263068.9304                   22263056.6954
        47.2504         37.0004
  -4474940.22846  -3469801.48143  24727334.2734                   24727323.3284
        37.5004         20.2504
 -19046080.71447 -14810767.91048  21862508.8754                   21862497.8714
        46.0004         49.2504
 -13242515.50946 -11738585.35046  22538713.7194                   22538705.7624
        41.0004         41.0004
  -5666418.50145  -4681777.69245  24144759.3914                   24144753.4844
        33.7504         32.2504
 -27457462.79748 -21008239.63149  20698538.2504                   20698528.8284
        51.7504         54.7504
 23  1  4  1 35 30.0000000  0 10G23G22G08G10G21G12G31G01G25G32
   -399301.50746  -2481650.65643  23985587.0864                   23985577.2544
        38.7504         22.7504
 -25205231.18448 -13483323.13346  20718591.5234                   20718579.8754
        48.5004         41.5004
  -4825939.33045  -3733972.71645  25528711.3984                   25528702.9144
        33.2504         31.5004
 -23072569.35748 -18603494.20448  21350353.3134                   21350344.1844
        49.0004         53.0004
 -18984739.30748 -13847224.56546  22259053.8914                   22259041.7734
        48.0004         36.7504
  -4515012.15546  -3501026.39943  24719708.6334                   24719697.8054
        37.0004         19.7504
 -19142493.31447 -14885894.61448  21844161.8984                   21844151.1884
        46.5004         49.2504
 -13314431.11546 -11794623.49646  22525029.5704                   22525020.7934
        41.0004         41.2504
  -5735100.07445  -4735295.81245  24131690.6334                   24131682.7934
        34.7504         31.7504
 -27430778.95048 -20987447.03649  20703615.8594                   20703606.5554
        52.5004         54.7504
 23  1  4  1 36  0.0000000  0 10G23G22G08G10G21G12G31G01G25G32
   -306662.99046  -2409464.88543  24003215.1644                   24003206.0354
        38.0004         22.7504
 -25228129.81847 -13501166.22846  20714233.7814                   20714222.4844
        46.2504         41.2504
  -4745153.24445  -3671022.55745  25544082.8754                   25544075.3284
        34.0004         30.0004
 -23018569.91848 -18561416.74548  21360629.0864                   21360620.1334
        48.5004         53.0004
 -19005365.02747 -13863296.55846  22255128.9224                   22255116.9224
        45.5004         37.2504
  -4554609.95145  -3531881.81843  24712171.1024                   24712162.3244
        34.7504         19.0004
 -19238532.85047 -14960730.62348  21825886.6414                   21825875.4024
        46.2504         49.5004
 -13385865.35946 -11850286.54046  22511434.9454                   22511427.3984
        40.5004         40.7504
  -5803457.94245  -4788561.66745  24118682.1804                   24118675.1604
        35.5004         32.0004
 -27403792.23548 -20966418.42349  20708751.2344                   20708741.9884
        51.5004         55.0004
 23  1  4  1 36 30.0000000  0 10G23G22G08G10G21G12G31G01G25G32
   -213861.05246  -2337151.78443  24020874.4454                   24020865.2584
        38.2504         22.7504
 -25250707.53648 -13518759.25446  20709937.4694                   20709926.2894
        48.0004         41.5004
  -4664331.55045  -3608044.69645  25559464.0234                   25559456.1254
        34.7504         31.7504
 -22964235.86348 -18519078.54448  21370968.4454                   21370959.4344
        48.7504         53.0004
 -19025518.27647 -13879000.39646  22251294.0864                   22251281.7344
        47.0004         37.0004
  -4593733.94945  -3562368.03143  24704727.1484                   24704717.3754
        35.0004         19.5004
 -19334199.33747 -15035275.93848  21807681.7344                   21807670.5554
        46.5004         49.5004
 -13456818.17647 -11905574.47346  22497934.5634                   22497925.6094
        42.0004         41.0004
  -5871491.41345  -4841574.76545  24105735.7504                   24105729.2584
        34.7504         32.0004
 -27376506.27948 -20945156.64749  20713943.6094                   20713934.5394
        52.5004         54.7504
 23  1  4  1 37  0.0000000  0 11G23G22G03G08G10G21G12G31G01G25G32
   -120890.02746  -2264706.89843  24038566.6254                   24038557.6134
        37.7504         22.7504
 -25272958.06847 -13536097.32846  20705702.9774                   20705691.7974
        47.0004         41.5004
                                  25662750.6564                   25662743.7544
        29.7504         22.5004
                                  25574854.9774                   25574842.5664
        38.2504         32.0004
 -22909560.75648 -18476474.58748  21381372.7734                   21381363.7624
        48.2504         53.0004
 -19045192.45247 -13894330.92746  22247549.6414                   22247537.6414
        46.7504         37.5004
  -4632375.36646  -3592478.16343  24697374.5944                   24697365.0554
        37.0004         21.2504
 -19429482.98247 -15109522.93448  21789550.0164                   21789538.4844
        46.2504         49.5004
 -13527280.71046 -11960480.35246  22484524.7734                   22484516.9924
        41.0004         41.0004
  -5939191.00445  -4894327.68945  24092853.5554                   24092845.7734
        35.0004         30.5004
 -27348915.67248 -20923657.48149  20719193.9534                   20719184.8244
        51.2504         54.7504
 23  1  4  1 37 30.0000000  0 10G23G22G08G10G21G12G31G01G25G32
    -27771.62246  -2192147.20143  24056286.1094                   24056277.5084
        37.0004         22.7504
 -25294902.94847 -13553197.23146  20701527.3364                   20701515.9224
        47.5004         41.5004
   -286677.58854  -3499339.77755  25590238.3444                   25590234.6684
        28.2504         30.7504
 -22854565.82048 -18433621.41748  21391837.5474                   21391829.2384
        48.2504         52.7504
 -19064407.08947 -13909303.36846  22243893.5554                   22243881.4384
        47.0004         37.2504
  -4670552.88546  -3622226.91343  24690109.1094                   24690099.1024
        36.2504         19.7504
 -19524402.27147 -15183486.01248  21771486.9774                   21771476.1484
        46.0004         49.5004
 -13597271.20947 -12015018.42046  22471206.0554                   22471197.8634
        42.0004         41.2504
  -6006574.34845  -4946834.19245  24080030.1804                   24080022.6914
        34.5004         31.2504
 -27321042.30348 -20901937.98149  20724498.3444                   20724488.8634
        51.2504         55.0004
 23  1  4  1 38  0.0000000  0 10G23G22G08G10G21G12G31G01G25G32
     65523.91246  -2119449.49243  24074040.6804                   24074032.0784
        38.0004         22.0004
 -25316512.35148 -13570035.72746  20697415.6414                   20697403.9924
        48.2504         41.5004
   -205758.00055  -3436285.53554  25605636.6094                   25605631.4694
        31.5004         29.2504
 -22799220.52448 -18390495.23448  21402369.5474                   21402361.2384
        48.0004         52.7504
 -19083131.05447 -13923893.47046  22240330.5944                   22240318.2424
        47.5004         36.7504
  -4708234.31746  -3651589.06243  24682939.7344                   24682928.0864
        36.7504         18.2504
 -19618923.83847 -15257139.18148  21753500.3674                   21753489.1884
        46.2504         49.7504
 -13666756.72346 -12069163.00046  22457983.6884                   22457975.2034
        41.5004         41.2504
  -6073607.95745  -4999068.19145  24067274.1484                   24067267.0704
        33.5004         31.2504
 -27292856.75548 -20879975.21849  20729861.6724                   20729852.4264
        50.7504         55.0004
 23  1  4  1 38 30.0000000  0 11G23G22G03G08G10G21G12G31G01G25G32
    158978.53546  -2046627.80143  24091824.5474                   24091814.6564
        37.7504         22.0004
 -25337803.69247 -13586626.37947  20693363.8524                   20693352.3204
        46.7504         42.0004
                                  25605610.9454                   25605600.8794
        34.7504         23.2504
   -124815.31746  -3373213.34645  25621043.8984                   25621034.7114
        36.7504         31.2504
 -22743542.55948 -18347109.83148  21412965.2664                   21412956.6644
        48.0004         52.7504
 -19101381.04847 -13938114.25446  22236857.9774                   22236845.5664
        45.7504         36.7504
  -4745434.41946  -3680576.11943  24675860.3524                   24675848.4694
        37.5004         19.5004
 -19713061.93347 -15330493.54048  21735586.3674                   21735575.6564
        46.5004         50.0004
 -13735751.91746 -12122925.49246  22444853.9774                   22444845.9614
        41.5004         41.5004
  -6140305.72445  -5051040.53245  24054581.8984                   24054574.9964
        34.2504         32.0004
 -27264377.20448 -20857783.36949  20735281.0634                   20735271.7584
        50.5004         55.0004
 23  1  4  1 39  0.0000000  0 10G23G22G08G10G21G12G31G01G25G32
    252591.14046  -1973683.00343  24109638.5004                   24109629.0204
        38.0004         22.5004
 -25358777.68047 -13602969.74446  20689372.6484                   20689360.9414
        47.5004         41.2504
    -43855.83456  -3318642.75455  25636451.3284                   25636441.2034
        38.0004         34.7504
 -22687532.01248 -18303465.27848  21423623.5784                   21423614.8594
        48.0004         52.5004
 -19119156.95747 -13951965.61546  22233474.0314                   22233462.5594
        47.7504         37.0004
  -4782151.26546  -3709186.61343  24668874.1094                   24668861.4064
        38.0004         19.5004
 -19806814.10447 -15403547.18648  21717746.1094                   21717734.7544
        46.2504         50.0004
 -13804254.71947 -12176304.30747  22431819.2344                   22431810.6334
        42.0004         42.0004
  -6206665.09445  -5102749.11445  24041955.1804                   24041947.7504
        35.0004         31.7504
 -27235605.04548 -20835363.51849  20740756.4454                   20740747.1994
        50.2504         54.7504
 23  1  4  1 39 30.0000000  0 10G23G22G08G10G21G12G31G01G25G32
    346367.28646  -1900610.78143  24127483.4924                   24127474.4224
        37.5004         22.7504
 -25379428.54648 -13619061.32146  20685442.4384                   20685431.1414
        48.0004         41.5004
     37130.26446  -3255536.84945  25651863.2344                   25651852.7584
        38.0004         30.5004
 -22631182.66448 -18259556.72348  21434346.2664                   21434337.8404
        48.7504         52.5004
 -19136451.58148 -13965441.94646  22230183.7894                   22230171.7894
        48.7504         36.5004
  -4818376.18446  -3737413.78043  24661980.9534                   24661967.8404
        38.2504         19.0004
 -19900171.05547 -15476292.86548  21699980.8594                   21699969.9144
        46.2504         50.0004
 -13872256.18546 -12229292.46347  22418878.3674                   22418869.8244
        41.5004         42.0004
  -6272676.28345  -5154186.40845  24029392.6414                   24029386.7344
        34.2504         32.2504
 -27206534.85848 -20812711.42249  20746288.3204                   20746278.6644
        50.5004         55.0004
 23  1  4  1 40  0.0000000  0 11G23G22G03G08G10G21G12G31G01G25G32
    440300.75346  -1827415.98243  24145358.2814                   24145349.5634
        38.0004         22.0004
 -25399762.29847 -13634905.79946  20681573.6564                   20681561.7734
        46.7504         41.2504
   -384695.86755   -438103.43754  25548392.8054                   25548382.9144
        34.7504         28.5004
    118131.57745  -3192418.86644  25667272.9844                   25667266.8444
        34.0004         29.5004
 -22574500.03448 -18215388.46848  21445133.1644                   21445124.2114
        49.0004         52.5004
 -19153269.39247 -13978546.73046  22226982.9924                   22226971.6954
        45.7504         37.0004
  -4854112.72846  -3765260.46243  24655180.8984                   24655166.9064
        38.5004         19.0004
 -19993135.72947 -15548732.86348  21682290.3054                   21682278.7734
        46.5004         50.2504
 -13939759.24347 -12281892.24747  22406032.8524                   22406024.8954
        42.5004         42.0004
  -6338341.80445  -5205354.33845  24016896.4064                   24016889.9734
        35.0004         32.5004
 -27177173.08848 -20789832.12249  20751875.6484                   20751865.9924
        51.2504         54.7504
 23  1  4  1 40 30.0000000  0 11G23G22G03G08G10G21G12G31G01G25G32
    534391.38546  -1754098.70343  24163263.1564                   24163253.3244
        37.0004         21.0004
 -25419778.41548 -13650502.78046  20677764.3444                   20677752.9884
        48.2504         41.5004
   -485006.92144   -516267.96944  25529301.4774                   25529295.1604
        27.5004         25.5004
    199145.83755  -3129290.83054  25682689.8134                   25682681.6804
        33.5004         27.0004
 -22517483.97648 -18170960.39848  21455982.5704                   21455974.0864
        48.0004         52.5004
 -19169609.39247 -13991279.21446  22223874.2584                   22223862.3164
        47.7504         36.5004
  -4889358.14546  -3792724.40743  24648472.0234                   24648460.3164
        37.0004         20.0004
 -20085704.79547 -15620864.60948  21664674.6724                   21664663.9614
        47.0004         50.5004
 -14006760.95246 -12334101.38947  22393282.8914                   22393274.9344
        41.2504         42.2504
  -6403657.87845  -5256249.96945  24004467.3914                   24004461.3094
        34.2504         31.0004
 -27147520.24248 -20766726.00749  20757518.3364                   20757509.3834
        50.2504         54.7504
 23  1  4  1 41  0.0000000  0 11G23G22G03G08G10G21G12G31G01G25G32
    628640.63146  -1680657.79043  24181198.3914                   24181189.3204
        37.2504         21.2504
 -25439475.34147 -13665851.03046  20674015.7194                   20674004.4224
        47.7504         41.0004
   -585357.31255   -594462.88354  25510205.4774                   25510197.4614
        32.5004         27.0004
    280173.00445  -3066152.77444  25698109.3204                   25698101.3634
        34.5004         29.5004
 -22460132.09547 -18126270.64848  21466896.1094                   21466887.6844
        47.5004         52.2504
 -19185468.65447 -14003637.08546  22220856.4144                   22220844.0634
        46.2504         36.5004
  -4924108.29246  -3819802.45443  24641859.9694                   24641847.2664
        37.5004         19.5004
 -20177872.75147 -15692683.79748  21647135.5864                   21647124.8754
        47.0004         50.5004
 -14073256.49046 -12385916.07447  22380629.7974                   22380620.9024
        41.2504         42.5004
  -6468619.05345  -5306869.08845  23992106.2194                   23992099.1414
        35.0004         32.5004
 -27117574.90048 -20743391.98349  20763216.8134                   20763207.3914
        49.7504         54.7504
 23  1  4  1 41 30.0000000  0 11G23G22G03G08G10G21G12G31G01G25G32
    723047.68546  -1607094.00643  24199163.6484                   24199154.5784
        37.2504         22.2504
 -25458853.41648 -13680950.83146  20670328.6334                   20670317.3364
        48.2504         41.0004
   -685745.98045   -672687.80644  25491102.2504                   25491094.4694
        31.7504         25.5004
    361209.81845  -3003007.23044  25713529.7814                   25713522.4104
        35.0004         29.5004
 -22402444.58947 -18081319.36048  21477873.9774                   21477865.1994
        47.7504         52.2504
 -19200846.66347 -14015619.95746  22217930.0004                   22217917.7074
        47.2504         37.0004
  -4958360.86346  -3846492.79143  24635341.8284                   24635329.2424
        37.5004         18.5004
 -20269637.08847 -15764188.48148  21629673.9844                   21629662.5704
        47.2504         50.7504
 -14139243.40747 -12437334.46747  22368073.2504                   22368064.0044
        42.5004         42.7504
  -6533222.34645  -5357209.33345  23979812.1484                   23979804.0164
        34.7504         31.0004
 -27087338.14548 -20719830.87349  20768970.7734                   20768961.5274
        49.7504         55.0004
 23  1  4  1 42  0.0000000  0 11G23G22G03G08G10G21G12G31G01G25G32
    817607.81746  -1533410.84743  24217158.4694                   24217148.6374
        36.5004         21.5004
 -25477917.06148 -13695805.60946  20666700.8754                   20666689.6954
        48.5004         41.0004
   -786175.85545   -750944.75544  25471991.7274                   25471984.0634
        32.0004         27.5004
    442249.74745  -2939859.21344  25728951.5234                   25728942.9804
        33.0004         27.0004
 -22344425.42747 -18036109.63848  21488914.3444                   21488906.1524
        47.5004         52.0004
 -19215746.78147 -14027230.45046  22215094.4614                   22215082.4024
        47.0004         36.5004
  -4992117.29646  -3872796.47843  24628918.7664                   24628906.0634
        37.5004         20.0004
 -20360998.82747 -15835379.44248  21612288.4924                   21612277.0784
        47.5004         50.7504
 -14204723.17546 -12488357.65147  22355611.1414                   22355603.7114
        41.2504         42.7504
  -6597468.37345  -5407271.20245  23967585.8284                   23967579.8054
        33.5004         31.5004
 -27056814.84648 -20696046.48449  20774778.7114                   20774769.6414
        49.7504         54.7504
 23  1  4  1 42 30.0000000  0 11G23G22G03G08G10G21G12G31G01G25G32
    912323.58946  -1459606.49643  24235181.9454                   24235173.1684
        36.0004         21.5004
 -25496663.46948 -13710413.19946  20663133.7274                   20663122.3134
        48.5004         41.0004
   -886642.66145   -829230.55144  25452873.9614                   25452865.6524
        33.0004         28.5004
    523293.53346  -2876708.31744  25744375.2424                   25744366.8754
        36.7504         28.7504
 -22286071.64847 -17990639.18548  21500018.8364                   21500010.6454
        47.5004         52.0004
 -19230165.14247 -14038465.54046  22212350.5084                   22212338.8014
        47.2504         36.5004
  -5025372.56246  -3898709.66243  24622589.0394                   24622577.3324
        37.0004         19.5004
 -20451951.75847 -15906251.85748  21594980.4454                   21594969.2664
        47.0004         50.7504
 -14269690.05147 -12538981.18847  22343249.8284                   22343240.8754
        43.0004         43.0004
  -6661350.79646  -5457049.69745  23955431.5944                   23955423.9884
        36.2504         33.2504
 -27026002.65548 -20672036.99149  20780642.3284                   20780633.3754
        50.5004         54.7504
 23  1  4  1 43  0.0000000  0 11G23G22G03G08G10G21G12G31G01G25G32
   1007193.00945  -1385682.37043  24253234.4224                   24253226.1134
        34.7504         21.2504
 -25515094.09647 -13724774.73246  20659626.5474                   20659614.7814
        47.7504         41.5004
   -987146.37345   -907545.12744  25433746.5004                   25433739.7734
        30.5004         28.0004
    604337.32345  -2813557.34544  25759793.6954                   25759788.1414
        32.5004         27.7504
 -22227384.80848 -17944909.21148  21511186.8134                   21511178.2704
        48.2504         52.0004
 -19244101.94647 -14049325.39446  22209698.4304                   22209686.4884
        47.0004         36.0004
  -5058125.93146  -3924231.72343  24616357.3364                   24616344.8674
        37.5004         19.2504
 -20542494.36547 -15976804.53548  21577750.6644                   21577739.3094
        47.5004         51.0004
 -14334142.74346 -12589204.07147  22330983.9144                   22330975.7814
        41.2504         43.5004
  -6724867.69645  -5506543.36145  23943343.7194                   23943337.6954
        35.0004         32.7504
 -26994903.65148 -20647804.00449  20786560.3524                   20786550.8714
        49.5004         55.0004
 23  1  4  1 43 30.0000000  0 11G23G22G03G08G10G21G12G31G01G25G32
   1102217.13145  -1311637.72643  24271316.8984                   24271308.7664
        35.7504         21.5004
 -25533207.66248 -13738889.20046  20656179.2974                   20656167.7664
        48.0004         41.0004
  -1087684.45745   -985886.47045  25414616.5004                   25414608.5434
        32.0004         30.0004
    685379.94945  -2750407.11644  25775216.9534                   25775209.8754
        33.2504         27.7504
 -22168362.86347 -17898918.11448  21522417.8914                   21522409.6994
        47.5004         52.0004
 -19257554.91547 -14059808.23846  22207138.6024                   22207126.7774
        46.7504         36.2504
  -5090373.47746  -3949359.68843  24610219.9064                   24610208.7854
        36.5004         20.2504
 -20632622.20847 -16047034.03148  21560600.4304                   21560588.8984
        47.2504         51.0004
 -14398077.22947 -12639023.14247  22318817.8754                   22318809.8594
        42.5004         43.2504
  -6788014.27345  -5555748.42145  23931326.9774                   23931320.9534
        35.0004         33.0004
 -26963517.15248 -20623346.99049  20792533.0234                   20792523.8954
        49.5004         54.7504
 23  1  4  1 44  0.0000000  0 11G23G22G03G08G10G21G12G31G01G25G32
   1197391.28045  -1237476.16743  24289428.7974                   24289420.0784
        35.5004         21.5004
 -25551008.43948 -13752759.93446  20652791.8754                   20652780.4614
        48.2504         41.0004
  -1188259.34145  -1064256.52744  25395477.5554                   25395469.8914
        33.5004         29.7504
    766414.55445  -2687263.32444  25790638.3444                   25790630.9144
        34.5004         29.0004
 -22109009.78948 -17852669.01148  21533712.9304                   21533704.1524
        48.0004         51.7504
 -19270527.95447 -14069917.10946  22204670.0634                   22204657.9454
        47.2504         36.5004
  -5122116.90646  -3974094.77743  24604179.9774                   24604168.3874
        36.5004         19.7504
 -20722336.17347 -16116941.01448  21543528.0394                   21543516.5664
        47.2504         51.0004
 -14461494.67747 -12688439.33447  22306750.6564                   22306742.2304
        42.0004         43.5004
  -6850791.04245  -5604665.34445  23919380.4224                   23919374.9844
        33.5004         32.5004
 -26931847.89148 -20598669.64849  20798559.3284                   20798550.3754
        50.0004         55.0004
 23  1  4  1 44 30.0000000  0 11G23G22G03G08G10G21G12G31G01G25G32
   1292718.07846  -1163195.65143  24307568.7584                   24307559.9224
        36.0004         20.2504
 -25568493.40748 -13766384.58146  20649464.7344                   20649452.9694
        48.7504         41.0004
  -1288866.80445  -1142651.93544  25376331.2664                   25376323.4264
        31.7504         28.0004
    847441.81245  -2624125.16944  25806057.7664                   25806049.6334
        35.5004         27.5004
 -22049322.71647 -17806159.65148  21545070.6254                   21545062.0234
        47.7504         52.0004
 -19283016.79447 -14079648.69446  22202293.3364                   22202281.2774
        47.5004         36.5004
  -5153351.15146  -3998433.12843  24598235.8524                   24598225.2584
        36.5004         19.7504
 -20811630.19247 -16186520.77148  21526535.8284                   21526524.5904
        47.0004         51.0004
 -14524389.46446 -12737448.26447  22294781.2194                   22294773.2034
        41.5004         43.5004
  -6913191.76845  -5653289.31045  23907505.1414                   23907498.5904
        32.7504         30.5004
 -26899893.38548 -20573770.04449  20804640.0394                   20804631.0274
        49.7504         54.7504
 23  1  4  1 45  0.0000000  0 11G23G22G03G08G10G21G12G31G01G25G32
   1388195.26745  -1088797.94743  24325737.2584                   24325728.4804
        34.5004         21.5004
 -25585664.66048 -13779764.77646  20646197.3754                   20646185.4924
        48.5004         41.2504
  -1389507.03245  -1221072.86745  25357182.2194                   25357173.2074
        35.2504         30.5004
    928458.39945  -2560995.31444  25821475.3134                   25821466.8284
        33.5004         28.0004
 -21989303.06447 -17759391.12848  21556492.4304                   21556483.4774
        47.7504         51.7504
 -19295022.19747 -14089003.56946  22200009.0004                   22199997.1764
        47.0004         36.7504
  -5184075.32645  -4022374.05043  24592388.8054                   24592379.0314
        35.7504         19.0004
 -20900503.11347 -16255772.39248  21509624.3914                   21509613.0354
        47.2504         51.0004
 -14586760.66547 -12786049.20347  22282913.0474                   22282904.4454
        42.2504         43.5004
  -6975214.70846  -5701618.85145  23895705.8284                   23895696.6994
        36.2504         32.5004
 -26867656.14748 -20548650.12049  20810774.5004                   20810765.6644
        49.7504         54.7504
 23  1  4  1 45 30.0000000  0 11G23G22G03G08G10G21G12G31G01G25G32
   1483821.13545  -1014284.37243  24343934.1174                   24343926.5124
        34.5004         21.2504
 -25602523.36348 -13792901.43046  20642988.7034                   20642978.5784
        48.7504         41.2504
  -1490179.75745  -1299519.14944  25338024.1804                   25338016.1644
        33.7504         29.7504
   1009460.75145  -2497876.71644  25836887.8834                   25836880.5124
        33.2504         26.0004
 -21928951.73747 -17712364.14248  21567977.0634                   21567968.1094
        47.5004         51.7504
 -19306544.63947 -14097982.11146  22197816.3754                   22197804.5514
        47.0004         36.5004
  -5214288.35345  -4045916.70943  24586639.0314                   24586629.2584
        35.2504         20.0004
 -20988952.87147 -16324694.28948  21492792.6094                   21492781.1954
        47.0004         51.0004
 -14648606.64947 -12834240.90247  22271144.6174                   22271136.1334
        42.2504         44.0004
  -7036857.71545  -5749652.34445  23883973.9064                   23883965.8324
        35.2504         32.7504
 -26835137.88348 -20523311.21949  20816962.6564                   20816953.5274
        50.0004         55.0004
 23  1  4  1 46  0.0000000  0 11G23G22G03G08G10G21G12G31G01G25G32
   1579596.36745   -939654.43943  24362159.4614                   24362151.6214
        34.2504         21.0004
 -25619068.76148 -13805793.94646  20639840.5554                   20639829.3754
        48.5004         41.0004
  -1590882.66045  -1377988.88244  25318860.3594                   25318852.9884
        33.5004         28.5004
   1090446.32345  -2434771.07044  25852298.9774                   25852291.7234
        33.5004         25.0004
 -21868267.84247 -17665078.02248  21579524.4304                   21579515.8874
        47.0004         51.7504
 -19317581.71747 -14106582.44846  22195715.8134                   22195704.1644
        47.0004         36.7504
  -5243987.21145  -4069058.70343  24580987.0474                   24580978.4454
        34.7504         19.2504
 -21076975.26147 -16393283.16548  21476042.8984                   21476031.3094
        47.7504         51.2504
 -14709923.79246 -12882020.49547  22259474.7274                   22259467.0044
        41.0004         43.5004
  -7098116.21445  -5797386.22545  23872317.2814                   23872309.9104
        35.5004         33.2504
 -26802338.22448 -20497753.04649  20823204.4614                   20823195.0984
        49.7504         55.0004
 23  1  4  1 46 30.0000000  0 11G23G22G03G08G10G21G12G31G01G25G32
   1675519.44445   -864909.28943  24380413.9064                   24380405.1884
        35.2504         21.0004
 -25635301.55647 -13818442.87846  20636751.4614                   20636740.3404
        47.7504         41.0004
  -1691614.97245  -1456481.60245  25299692.0634                   25299683.2854
        34.5004         30.0004
   1171412.89945  -2371680.31943  25867706.7734                   25867699.2274
        34.0004         22.5004
 -21807251.67447 -17617532.99048  21591135.6174                   21591126.9574
        47.2504         51.7504
 -19328134.26847 -14114805.21745  22193707.6024                   22193695.9534
        47.5004         35.7504
  -5273170.44846  -4091798.82343  24575434.6414                   24575424.6334
        36.0004         19.2504
 -21164568.33747 -16461537.51248  21459373.8444                   21459362.9574
        47.0004         51.0004
 -14770710.29747 -12929386.60547  22247909.0164                   22247899.8874
        42.0004         43.5004
  -7158987.92345  -5844818.66345  23860733.5554                   23860727.0044
        34.5004         34.0004
 -26769258.65348 -20471976.75449  20829499.0554                   20829490.1024
        50.5004         54.7504
 23  1  4  1 47  0.0000000  0 11G23G22G03G08G10G21G12G31G01G25G32
   1771588.74845   -790050.23243  24398693.4924                   24398686.8834
        34.0004         20.2504
 -25651223.46748 -13830849.56746  20633721.9454                   20633710.4734
        48.0004         41.0004
  -1792376.56145  -1534997.09044  25280517.2114                   25280509.2544
        33.5004         29.0004
   1252356.37145  -2308607.24044  25883110.4534                   25883101.2074
        34.5004         24.2504
 -21745904.82147 -17569730.28448  21602809.5864                   21602801.1024
        47.2504         51.5004
 -19338202.39547 -14122650.51645  22191791.9454                   22191779.9454
        47.0004         35.7504
  -5301837.04745  -4114136.45843  24569978.8364                   24569970.2934
        35.5004         19.5004
 -21251730.37047 -16529455.98248  21442787.6334                   21442776.4534
        47.5004         51.2504
 -14830964.67347 -12976338.08847  22236442.3594                   22236434.1684
        42.0004         43.5004
  -7219470.60745  -5891948.02645  23849224.3134                   23849217.4694
        35.5004         33.7504
 -26735901.03948 -20445983.82049  20835846.9774                   20835837.8484
        49.7504         54.7504
 23  1  4  1 47 30.0000000  0 11G23G22G03G08G10G21G12G31G01G25G32
   1867806.87045   -715075.20843  24417005.0474                   24416997.0904
        34.7504         21.2504
 -25666831.38247 -13843011.57846  20630751.8364                   20630740.3634
        47.5004         41.0004
  -1893162.77745  -1613531.79544  25261338.5234                   25261330.3914
        33.7504         28.0004
                                  25898505.8834                   25898501.9144
        26.7504         21.5004
 -21684223.97447 -17521667.34348  21614546.7814                   21614538.0634
        47.5004         51.2504
 -19347782.64747 -14130115.66546  22189968.9384                   22189956.8794
        46.2504         36.5004
  -5329981.33646  -4136067.03343  24564623.5004                   24564614.8984
        36.0004         19.5004
 -21338454.80047 -16597033.46348  21426285.1254                   21426273.8874
        47.7504         51.2504
 -14890681.28246 -13022870.49347  22225077.9064                   22225070.4184
        41.0004         43.5004
  -7279557.74445  -5938769.17345  23837789.7974                   23837782.3094
        34.2504         33.5004
 -26702262.81448 -20419772.22149  20842248.2034                   20842238.9574
        50.7504         54.7504
 23  1  4  1 48  0.0000000  0 11G23G22G03G08G10G21G12G31G01G25G32
   1964165.85045   -639990.39843  24435341.5394                   24435333.1134
        34.0004         21.0004
 -25682132.71947 -13854934.70946  20627839.9384                   20627828.6414
        47.5004         41.0004
  -1993979.67045  -1692090.40145  25242153.5084                   25242145.3164
        33.2504         30.0004
   1414168.10245  -2182520.32944  25913901.5394                   25913894.3444
        34.5004         25.2504
 -21622216.40747 -17473349.80248  21626347.1484                   21626338.0204
        47.5004         51.2504
 -19356881.19347 -14137205.44646  22188237.3834                   22188225.5594
        46.7504         36.2504
  -5357608.78746  -4157594.91543  24559366.4534                   24559356.9734
        36.5004         18.5004
 -21424746.50948 -16664273.76348  21409863.7424                   21409852.9144
        48.0004         51.5004
 -14949864.88947 -13068987.61447  22213817.0234                   22213807.8954
        42.5004         44.0004
  -7339253.58145  -5985285.40445  23826429.9454                   23826422.1054
        34.2504         32.5004
 -26668352.16848 -20393348.33849  20848701.1884                   20848692.1174
        51.0004         54.7504
 23  1  4  1 48 30.0000000  0 10G23G22G03G10G21G12G31G01G25G32
   2060671.24545   -564791.54643  24453706.2664                   24453697.7814
        34.5004         20.2504
 -25697121.65348 -13866614.39346  20624987.1414                   20624976.2544
        48.0004         41.0004
  -2094819.72645  -1770667.03945  25222963.8524                   25222956.1294
        33.0004         30.5004
 -21559876.15147 -17424773.01848  21638209.7734                   21638201.0554
        47.2504         51.2504
 -19365491.29647 -14143914.61946  22186598.8914                   22186587.0084
        46.2504         36.0004
  -5384711.48446  -4178713.95943  24554209.0314                   24554199.0824
        36.5004         19.0004
 -21510596.26447 -16731169.68648  21393526.9694                   21393516.5514
        47.7504         51.7504
 -15008506.94446 -13114682.73847  22202656.8284                   22202648.9884
        41.2504         43.5004
  -7398548.57045  -6031489.30545  23815147.1094                   23815138.5084
        35.7504         32.2504
 -26634163.63548 -20366707.93949  20855207.0314                   20855197.4924
        51.7504         55.0004
 23  1  4  1 49  0.0000000  0 10G23G22G03G10G21G12G31G01G25G32
   2157319.43145   -489481.41843  24472097.8914                   24472089.1724
        34.7504         20.5004
 -25711801.55148 -13878053.27746  20622193.9534                   20622182.8324
        48.0004         41.5004
  -2195684.34345  -1849262.80445  25203772.3754                   25203762.0744
        35.0004         30.0004
 -21497205.76447 -17375938.98448  21650135.2814                   21650126.9144
        46.7504         51.0004
 -19373615.52047 -14150245.18845  22185052.8284                   22185041.0634
        46.2504         35.5004
  -5411290.39845  -4199424.76742  24549150.2504                   24549141.1804
        35.0004         17.7504
 -21596004.26448 -16797721.37148  21377274.3204                   21377263.5514
        48.2504         51.7504
 -15066607.79946 -13159956.10947  22191600.5234                   22191592.3914
        41.2504         43.5004
  -7457442.51045  -6077380.68045  23803938.1804                   23803931.7464
        35.0004         33.2504
 -26599700.80448 -20339853.79849  20861764.8914                   20861756.1134
        51.5004         55.0004
 23  1  4  1 49 30.0000000  0 10G23G22G03G10G21G12G31G01G25G32
   2254108.13045   -414061.81643  24490517.1094                   24490507.6294
        35.0004         21.2504
 -25726174.14648 -13889252.70646  20619459.2894                   20619447.5824
        48.5004         41.5004
  -2296573.94345  -1927878.08644  25184571.7424                   25184562.7304
        33.7504         29.5004
 -21434207.33747 -17326849.35148  21662123.8364                   21662115.2344
        47.0004         51.0004
 -19381254.96147 -14156198.00946  22183599.4304                   22183587.4304
        46.5004         36.2504
  -5437344.85346  -4219726.97443  24544193.3204                   24544184.3674
        36.5004         20.2504
 -21680969.09447 -16863927.73848  21361106.3444                   21361095.0474
        47.2504         51.7504
 -15124166.72647 -13204807.23647  22180648.3134                   22180639.1844
        42.5004         44.0004
  -7515933.92645  -6122958.42745  23792807.3674                   23792801.5204
        34.7504         33.5004
 -26564966.15548 -20312787.84649  20868374.8054                   20868365.6174
        51.0004         54.7504
 23  1  4  1 50  0.0000000  0 10G23G22G03G10G21G12G31G01G25G32
   2351039.32945   -338531.17843  24508962.2504                   24508953.5314
        35.0004         20.2504
 -25740237.28948 -13900211.00546  20616782.8914                   20616771.8874
        48.2504         41.5004
  -2397484.52345  -2006509.68045  25165370.4064                   25165361.2774
        35.0004         30.2504
 -21370878.17747 -17277501.99548  21674175.1174                   21674166.1644
        47.0004         50.7504
 -19388406.57447 -14161770.70846  22182238.2814                   22182226.3404
        47.5004         36.2504
  -5462870.45846  -4239617.09243  24539334.3674                   24539326.8204
        36.0004         18.5004
 -21765485.50347 -16929784.68348  21345023.6174                   21345012.3794
        47.5004         52.0004
 -15181178.75646 -13249232.19847  22169798.5394                   22169790.2304
        41.5004         44.0004
  -7574017.13946  -6168218.09345  23781756.9384                   23781749.5084
        36.0004         34.2504
 -26529957.85848 -20285508.66049  20875036.8674                   20875027.4454
        51.2504         54.7504
 23  1  4  1 50 30.0000000  0 10G23G22G03G10G21G12G31G01G25G32
   2448110.21545   -262891.68243  24527432.5784                   24527425.3834
        33.7504         21.0004
 -25753993.42048 -13910930.06546  20614165.2274                   20614154.3404
        48.0004         41.5004
  -2498416.86945  -2085158.26144  25146161.9694                   25146154.3054
        33.5004         29.7504
 -21307220.82047 -17227898.91148  21686288.8444                   21686280.1254
        46.7504         50.5004
 -19395071.96547 -14166964.53146  22180970.3364                   22180958.1024
        47.5004         36.2504
  -5487867.22245  -4259095.11443  24534578.8284                   24534569.9924
        35.7504         18.5004
 -21849552.83847 -16995291.69348  21329026.0004                   21329014.7034
        47.2504         52.0004
 -15237643.73547 -13293230.88247  22159054.2734                   22159046.0234
        42.2504         44.0004
  -7631691.05845  -6213158.83545  23770780.7974                   23770774.2464
        34.5004         33.5004
 -26494678.86948 -20258018.54349  20881749.9384                   20881741.2774
        51.5004         54.7504
 23  1  4  1 51  0.0000000  0 10G23G22G03G10G21G12G31G01G25G32
   2545321.06845   -187143.13243  24545932.5394                   24545924.3484
        34.7504         21.5004
 -25767441.79948 -13921409.32746  20611606.1484                   20611594.9694
        48.5004         41.5004
  -2599368.43645  -2163821.80944  25126952.4924                   25126943.4804
        34.0004         29.0004
 -21243233.90847 -17178039.03748  21698465.1484                   21698456.3134
        46.7504         50.5004
 -19401249.71747 -14171778.36945  22179794.0634                   22179782.4734
        46.7504         35.7504
  -5512332.49745  -4278158.93743  24529922.8594                   24529913.8484
        35.7504         19.0004
 -21933167.34747 -17060445.86748  21313114.9304                   21313103.5744
        47.7504         52.2504
 -15293558.02147 -13336800.47947  22148413.9064                   22148405.6564
        42.0004         44.2504
  -7688951.37546  -6257777.23645  23759885.5004                   23759877.1914
        36.2504         33.2504
 -26459128.74548 -20230317.17149  20888514.8914                   20888505.5274
        51.7504         55.0004
 23  1  4  1 51 30.0000000  0 10G23G22G03G10G21G12G31G01G25G32
   2642669.54345   -111287.35943  24564458.3204                   24564448.8404
        35.2504         21.0004
 -25780584.38848 -13931650.29846  20609104.9844                   20609094.0394
        48.0004         41.5004
  -2700339.74345  -2242500.74944  25107737.6334                   25107729.9694
        33.7504         29.2504
 -21178919.37747 -17127923.85948  21710704.1334                   21710694.9454
        47.0004         50.2504
 -19406940.93747 -14176213.11546  22178711.7504                   22178699.3404
        46.2504         36.0004
  -5536266.01745  -4296808.46343  24525368.6564                   24525360.0554
        35.7504         20.0004
 -22016328.00348 -17125246.38148  21297289.6094                   21297278.3714
        48.0004         52.2504
 -15348921.22747 -13379940.63647  22137877.8674                   22137869.7934
        42.0004         44.7504
  -7745796.90245  -6302072.47545  23749066.6024                   23749059.4654
        34.7504         33.5004
 -26423310.13348 -20202406.57749  20895331.0944                   20895322.0234
        51.2504         54.7504
 23  1  4  1 52  0.0000000  0 10G23G22G03G10G21G12G31G01G25G32
   2740156.68146    -35323.51643  24583007.8524                   24582999.9534
        36.0004         20.2504
 -25793419.97148 -13941652.05646  20606662.4774                   20606651.5314
        48.0004         41.5004
  -2801327.48545  -2321192.46544  25088519.4224                   25088512.3444
        34.2504         29.2504
 -21114275.70747 -17077552.20448  21723004.7274                   21722996.3014
        46.2504         50.0004
 -19412143.05747 -14180266.71846  22177721.6334                   22177709.4574
        47.2504         36.5004
  -5559664.14045  -4315040.77043  24520915.6024                   24520907.2344
        34.5004         18.2504
 -22099030.18848 -17189689.65248  21281552.1334                   21281540.7194
        48.0004         52.5004
 -15403729.16247 -13422648.11647  22127449.3914                   22127440.3794
        43.0004         44.7504
  -7802222.80945  -6346040.72045  23738329.8834                   23738322.3364
        35.7504         33.2504
 -26387221.90848 -20174285.89649  20902198.4064                   20902189.1024
        51.5004         55.0004
 23  1  4  1 52 30.0000000  0 10G23G22G03G10G21G12G31G01G25G32
   2837779.23746     40745.84243  24601586.0234                   24601577.5394
        36.5004         20.7504
 -25805951.22948 -13951416.68346  20604277.8834                   20604266.9964
        48.0004         41.5004
  -2902332.89545  -2399897.97645  25069299.7664                   25069291.5744
        35.0004         30.0004
 -21049305.67847 -17026926.25048  21735368.1094                   21735359.5084
        46.2504         50.0004
 -19416858.52547 -14183941.12546  22176824.6094                   22176812.3164
        47.5004         36.2504
  -5582527.41145  -4332856.23542  24516564.8594                   24516556.4924
        35.2504         17.7504
 -22181273.67848 -17253775.49248  21265901.5164                   21265890.2774
        48.0004         52.5004
 -15457982.12847 -13464923.15347  22117125.4774                   22117116.8754
        43.5004         45.0004
  -7858228.53245  -6389681.57745  23727672.4534                   23727664.7894
        35.2504         33.7504
 -26350867.52748 -20145957.83449  20909116.6884                   20909107.0904
        52.0004         54.7504
 23  1  4  1 53  0.0000000  0 10G23G22G03G10G21G12G31G01G25G32
   2935537.76746    116921.14643  24620190.0864                   24620180.3134
        36.2504         20.2504
 -25818177.44447 -13960943.60646  20601951.5704                   20601940.2154
        47.7504         41.5004
  -3003353.13245  -2478615.06044  25050075.5234                   25050067.5084
        34.0004         28.0004
 -20984008.00347 -16976044.99048  21747794.4924                   21747785.5984
        47.0004         50.0004
 -19421085.64447 -14187235.00746  22176020.2734                   22176007.8634
        45.0004         37.0004
  -5604853.29945  -4350253.01243  24512317.1954                   24512307.4224
        35.0004         19.7504
 -22263054.64347 -17317500.92048  21250339.0944                   21250328.0314
        47.7504         52.5004
 -15511676.51947 -13506762.94247  22106907.0944                   22106898.9024
        43.0004         45.0004
  -7913809.77045  -6432991.64745  23717094.7424                   23717088.8954
        34.7504         34.0004
 -26314246.30948 -20117421.83849  20916085.6414                   20916076.2774
        51.0004         55.0004
 23  1  4  1 53 30.0000000  0 10G23G22G03G10G21G12G31G01G25G32
   3033431.13246    193201.52643  24638818.5634                   24638809.3754
        37.5004         21.5004
 -25830099.15948 -13970233.25446  20599683.1174                   20599671.8204
        48.0004         41.5004
  -3104387.42945  -2557343.06044  25030850.3134                   25030842.0044
        33.5004         28.7504
 -20918383.14547 -16924908.78748  21760282.3524                   21760273.6914
        46.5004         49.7504
 -19424824.88147 -14190148.70046  22175308.3444                   22175296.7544
        46.5004         36.7504
  -5626640.04745  -4367229.67842  24508170.5474                   24508161.4774
        35.0004         17.7504
 -22344370.62547 -17380864.02648  21234865.7814                   21234853.9574
        47.5004         52.7504
 -15564810.55647 -13548166.08647  22096796.5164                   22096787.8554
        43.2504         45.0004
  -7968963.74046  -6475968.79045  23706600.7814                   23706593.2344
        36.5004         33.7504
 -26277359.57648 -20088678.93449  20923104.7114                   20923095.6994
        51.0004         54.7504
 23  1  4  1 54  0.0000000  0 10G23G22G03G10G21G12G31G01G25G32
   3131457.45546    269585.52143  24657472.1954                   24657463.1254
        36.2504         22.0004
 -25841717.69348 -13979286.65946  20597471.9534                   20597460.7154
        48.0004         41.7504
  -3205435.40445  -2636081.73544  25011620.8984                   25011612.7074
        34.2504         29.0004
 -20852432.77547 -16873518.93148  21772831.7974                   21772823.1954
        46.2504         49.7504
 -19428076.49347 -14192682.44746  22174689.8834                   22174677.5314
        46.5004         36.5004
  -5647886.91646  -4383785.69143  24504129.9614                   24504118.6054
        37.5004         19.7504
 -22425220.02547 -17443863.56548  21219480.2194                   21219469.1564
        47.5004         52.7504
 -15617383.17447 -13589131.78047  22086792.3834                   22086783.7814
        43.0004         45.2504
  -8023688.79445  -6518611.69845  23696184.7114                   23696179.0984
        34.0004         32.7504
 -26240209.23448 -20059730.63449  20930174.2344                   20930164.9884
        52.2504         55.0004
 23  1  4  1 54 30.0000000  0 10G23G22G03G10G21G12G31G01G25G32
   3229617.97546    346074.05943  24676150.7424                   24676142.9024
        36.2504         22.0004
 -25853031.93448 -13988102.95746  20595318.7344                   20595307.7894
        48.5004         41.5004
  -3306493.64245  -2714828.40944  24992390.1094                   24992381.8594
        33.5004         28.7504
 -20786154.94647 -16821873.90548  21785445.2504                   21785435.8874
        47.0004         49.5004
 -19430838.25547 -14194834.48146  22174163.9384                   22174151.6454
        46.5004         37.0004
  -5668590.81445  -4399918.58143  24500188.4144                   24500179.3444
        35.5004         20.2504
 -22505598.33247 -17506496.01748  21204184.9224                   21204173.7424
        47.5004         52.7504
 -15669390.20847 -13629656.74247  22076895.6724                   22076887.4804
        42.5004         45.2504
  -8077979.84045  -6560916.43345  23685854.7424                   23685847.7234
        35.5004         33.0004
 -26202794.06548 -20030575.97349  20937294.1094                   20937284.6294
        52.0004         55.0004
