     2.11           OBSERVATION DATA    G (GPS)             RINEX VERSION / TYPE
teqc  2019Feb25     Salamtina Y.M.      20230920 03:20:32UTCPGM / RUN BY / DATE
OBSERVATION MODE: Permanent                                 COMMENT
CHUM Chumysh (CHUM)                                         MARKER NAME
25601M001                                                   MARKER NUMBER
4549261325          TRIMBLE NETRS        1.3-2              REC # / TYPE / VERS
237                 AOAD/M_T        NONE                    ANT # / TYPE
        0.0900        0.0000        0.0000                  ANTENNA: DELTA H/E/N
  1228950.3073  4508080.0085  4327868.5400                  APPROX POSITION XYZ
  74.75110459  42.99850161  716.3328  LonLatAlt  S/W        COMMENT
ANT ADDED FROM RCV_ANT.txt                                  COMMENT
Linux 2.6.32-573.12.1.x86_64|x86_64|gcc|Linux 64|=+         COMMENT
BIT 2 OF LLI FLAGS DATA COLLECTED UNDER A/S CONDITION       COMMENT
Konovalov S.M.      RS_RAS                                  OBSERVER / AGENCY
     1     1                                                WAVELENGTH FACT L1/2
     7    L1    L2    C1    P1    P2    S1    S2            # / TYPES OF OBSERV
    30.0000                                                 INTERVAL
    18                                                      LEAP SECONDS
TIME: 2023.01.02                                            COMMENT
TOUR: cont                                                  COMMENT
RSET: RAS02                                                 COMMENT
ASET: DS24                                                  COMMENT
OPER: skon (Konovalov S.M.)                                 COMMENT
SOUR: chum202301020000d.dat                                 COMMENT
SUPP: chum202301020000d.eph                                 COMMENT
SUPP: chum202301020000d.ion                                 COMMENT
SUPP: chum202301020000d.mes                                 COMMENT
Forced Modulo Decimation to 30 seconds                      COMMENT
 SNR is mapped to RINEX snr flag value [0-9]                COMMENT
  L1 & L2: min(max(int(snr_dBHz/6), 0), 9)                  COMMENT
  2023     1     2     0     0    0.0000000     GPS         TIME OF FIRST OBS
  2023     1     2    23    59   30.0000000     GPS         TIME OF LAST OBS
                                                            END OF HEADER
 23  1  2  0  0  0.0000000  0 10G23G24G27G08G22G10G21G18G15G32
 -15047984.01147 -13717584.69946  21173053.2274                   21173042.8094
        46.0004         40.0004
 -15122919.68547 -12460190.60447  22191888.1724                   22191881.0944
        42.5004         44.2504
 -13156316.47347 -10059586.67447  22956773.5864                   22956765.3954
        42.5004         42.5004
  -9984845.71446  -7713732.96046  23316311.7034                   23316303.3364
        39.7504         40.0004
  -5303636.44746  -4333444.96643  22966866.7344                   22966855.4964
        38.2504         21.7504
 -28010275.66448 -21651506.74149  20546554.3914                   20546545.3204
        51.7504         55.0004
  -6627870.34145  -3723771.84842  24636490.7274                   24636480.6604
        35.0004         16.7504
 -15967050.30246 -12463772.31045  22927716.0634                   22927705.4694
        40.7504         30.7504
  -7007901.452 4                  25495145.273
        29.750
 -15786357.10948 -18489101.71449  21128611.2584                   21128602.3634
        51.5004         54.7504
 23  1  2  0  0 30.0000000  0  9G23G24G27G08G22G10G21G18G32
 -15000800.35547 -13680818.22646  21182032.2194                   21182021.4494
        46.7504         40.2504
 -15094406.75247 -12437972.73847  22197314.5394                   22197306.5234
        42.5004         44.5004
 -13087880.43647 -10006259.90147  22969797.0394                   22969788.4964
        43.5004         42.5004
  -9971510.42646  -7703341.84446  23318849.3594                   23318840.9924
        40.0004         39.5004
  -5392027.96746  -4402321.45543  22950044.8984                   22950035.1844
        38.5004         22.5004
 -28020471.85348 -21659451.82849  20544613.9144                   20544604.7854
        52.0004         55.2504
  -6714955.07346  -3791630.07542  24619920.2814                   24619909.3364
        36.0004         16.7504
 -15865624.40246 -12384739.14845  22947016.3914                   22947007.3204
        40.2504         30.2504
 -15838527.03048 -18529753.60949  21118683.2664                   21118674.6644
        50.7504         54.7504
 23  1  2  0  1  0.0000000  0  9G23G24G27G08G22G10G21G18G32
 -14953365.25947 -13643855.81246  21191058.7194                   21191047.8324
        46.7504         40.5004
 -15065265.27047 -12415265.09147  22202860.4454                   22202851.9024
        43.0004         44.2504
 -13019058.51747  -9952632.45647  22982893.4774                   22982884.6994
        43.0004         42.5004
  -9957629.55246  -7692525.59246  23321489.9614                   23321482.7664
        39.5004         39.5004
  -5480172.59846  -4471005.52543  22933272.5314                   22933261.6454
        38.0004         23.2504
 -28030403.79348 -21667190.99649  20542724.1254                   20542715.0554
        53.0004         54.7504
  -6801909.79745  -3859386.98542  24603372.7894                   24603361.9024
        35.7504         17.7504
 -15763945.39746 -12305508.78445  22966365.5704                   22966355.7974
        41.0004         30.5004
 -15890290.88148 -18570089.06649  21108833.1174                   21108823.9304
        50.5004         55.0004
 23  1  2  0  1 30.0000000  0  9G23G24G27G08G22G10G21G18G32
 -14905679.09447 -13606697.77346  21200132.6414                   21200122.1054
        46.0004         40.7504
 -15035496.43847 -12392068.58447  22208525.8914                   22208516.8794
        43.5004         44.2504
 -12949853.72247  -9898706.63247  22996062.1334                   22996053.8834
        42.5004         42.0004
  -9943203.79146  -7681284.75846  23324234.4534                   23324227.1414
        39.2504         39.7504
  -5568069.20846  -4539496.39343  22916545.9224                   22916535.0354
        38.2504         22.5004
 -28040071.26248 -21674724.09049  20540884.6174                   20540875.6054
        52.0004         55.0004
  -6888732.73946  -3927041.22443  24586851.7034                   24586838.9414
        37.2504         18.2504
 -15662015.35646 -12226082.78645  22985762.1174                   22985752.5784
        39.5004         30.5004
 -15941648.27548 -18610107.80449  21099060.0394                   21099051.1454
        50.5004         55.0004
 23  1  2  0  2  0.0000000  0  9G23G24G27G08G22G10G21G18G32
 -14857741.23047 -13569343.60646  21209255.2034                   21209244.7854
        45.7504         40.2504
 -15005100.32147 -12368383.30247  22214309.1334                   22214301.0004
        42.2504         44.5004
 -12880268.05147  -9844484.04147  23009303.5944                   23009295.4614
        43.0004         42.2504
  -9928233.75146  -7669619.80946  23327084.0704                   23327076.2304
        39.5004         39.5004
  -5655715.74346  -4607792.34443  22899867.8204                   22899857.1684
        38.7504         22.0004
 -28049472.65048 -21682049.84249  20539095.3834                   20539086.4304
        52.2504         55.2504
  -6975421.02846  -3994590.53543  24570355.1174                   24570343.2344
        38.0004         18.2504
 -15559835.27146 -12146461.95545  23005207.3594                   23005196.3554
        40.5004         30.0004
 -15992597.92948 -18649808.82249  21089364.5314                   21089355.8134
        51.5004         55.0004
 23  1  2  0  2 30.0000000  0  9G23G24G27G08G22G10G21G18G32
 -14809553.03247 -13531794.36446  21218425.3204                   21218414.9024
        46.5004         40.2504
 -14974079.06947 -12344210.89447  22220212.2974                   22220204.2814
        42.2504         44.0004
 -12810305.61747  -9789967.87447  23022617.5634                   23022608.9614
        42.5004         42.0004
  -9912721.46846  -7657532.33546  23330035.6884                   23330027.6724
        40.0004         39.2504
  -5743112.08546  -4675893.38843  22883236.5314                   22883225.6454
        39.2504         22.5004
 -28058609.22248 -21689169.24949  20537356.7114                   20537347.7584
        52.5004         54.7504
  -7061974.13146  -4062034.49643  24553884.6644                   24553872.6054
        38.0004         19.7504
 -15457408.34946 -12066648.76344  23024696.8524                   23024688.1914
        39.7504         29.0004
 -16043140.51548 -18689192.65149  21079746.7734                   21079737.8204
        51.0004         54.7504
 23  1  2  0  3  0.0000000  0  9G23G24G27G08G22G10G21G18G32
 -14761113.26247 -13494049.08946  21227643.0164                   21227632.3634
        47.0004         40.5004
 -14942432.17147 -12319550.97247  22226235.0634                   22226226.5204
        42.5004         44.2504
 -12739967.74747  -9735159.15946  23036002.2814                   23035993.8554
        42.0004         41.7504
  -9896666.81246  -7645022.23046  23333090.8834                   23333083.3364
        39.5004         39.7504
  -5830255.61246  -4743797.39943  22866653.2344                   22866643.0514
        40.0004         23.2504
 -28067478.54648 -21696080.41249  20535668.8524                   20535659.7814
        52.2504         54.7504
  -7148388.74046  -4129370.53843  24537440.5704                   24537428.5704
        38.2504         20.0004
 -15354734.89246 -11986643.49144  23044235.6174                   23044225.9614
        39.5004         29.7504
 -16093274.06448 -18728257.74449  21070206.5234                   21070197.3954
        51.2504         54.7504
 23  1  2  0  3 30.0000000  0  9G23G24G27G08G22G10G21G18G32
 -14712423.61247 -13456109.11146  21236908.3444                   21236897.9264
        47.0004         40.2504
 -14910162.22647 -12294405.56647  22232375.4694                   22232367.1024
        42.2504         44.0004
 -12669258.88547  -9680061.34147  23049458.2194                   23049449.3244
        43.5004         42.0004
  -9880072.21846  -7632091.41046  23336249.1644                   23336240.8554
        39.7504         39.5004
  -5917146.39346  -4811504.47943  22850118.4844                   22850108.1254
        39.0004         22.7504
 -28076081.79348 -21702784.23849  20534031.8284                   20534022.9924
        53.2504         54.7504
  -7234664.22846  -4196598.16543  24521023.1644                   24521010.8134
        39.2504         19.7504
 -15251818.43346 -11906448.85544  23063819.9924                   23063810.5704
        38.7504         29.2504
 -16142999.63748 -18767004.93849  21060744.3364                   21060735.5004
        51.7504         55.0004
 23  1  2  0  4  0.0000000  0  9G23G24G27G08G22G10G21G18G32
 -14663482.97247 -13417973.55746  21246221.3364                   21246210.8014
        46.2504         40.5004
 -14877268.93247 -12268774.41747  22238635.4304                   22238626.4774
        42.5004         44.2504
 -12598180.57247  -9624675.65646  23062983.4144                   23062975.2234
        42.5004         41.7504
  -9862937.82646  -7618739.96146  23339509.7344                   23339501.5434
        39.5004         39.7504
  -6003781.80546  -4879012.56343  22833633.4144                   22833622.0004
        40.0004         23.7504
 -28084417.33048 -21709279.46249  20532445.7114                   20532436.8164
        52.7504         54.7504
  -7320797.61646  -4263715.07643  24504631.8834                   24504620.3524
        37.7504         20.2504
 -15148659.50246 -11826065.28844  23083450.8914                   23083440.8834
        39.5004         28.7504
 -16192315.45748 -18805432.84649  21051359.4614                   21051351.2114
        51.0004         54.7504
 23  1  2  0  4 30.0000000  0  9G23G24G27G08G22G10G21G18G32
 -14614291.52748 -13379642.56846  21255582.8284                   21255571.7664
        48.0004         40.5004
 -14843753.34447 -12242658.37547  22245012.3594                   22245004.3444
        42.7504         44.0004
 -12526735.68447  -9569004.33546  23076579.1174                   23076570.2814
        42.5004         41.5004
  -9845264.14346  -7604968.28346  23342872.6094                   23342864.5944
        39.5004         39.7504
  -6090160.68546  -4946320.74643  22817195.0784                   22817184.8364
        39.7504         23.7504
 -28092484.59748 -21715565.64649  20530910.3834                   20530901.3714
        53.2504         55.0004
  -7406786.81546  -4330719.60743  24488268.7734                   24488257.0084
        39.0004         21.0004
 -15045260.01246 -11745494.25944  23103125.6254                   23103117.1994
        37.2504         29.2504
 -16241221.07448 -18843541.10749  21042053.4454                   21042044.9614
        51.7504         54.7504
 23  1  2  0  5  0.0000000  0  9G23G24G27G08G22G10G21G18G32
 -14564851.09447 -13341117.55546  21264990.2894                   21264979.7544
        46.2504         40.2504
 -14809618.23747 -12216059.59947  22251508.3914                   22251499.9654
        43.0004         44.0004
 -12454928.85147  -9513050.96446  23090244.3834                   23090234.7274
        43.0004         41.7504
  -9827054.25046  -7590778.78546  23346338.2734                   23346330.0824
        38.5004         39.7504
  -6176283.53446  -5013429.43344  22800807.0314                   22800796.5554
        40.5004         25.2504
 -28100284.81848 -21721643.73549  20529426.2424                   20529417.2304
        51.5004         55.2504
  -7492631.54846  -4397611.60143  24471933.6804                   24471921.2114
        39.2504         21.2504
 -14941623.60446 -11664738.63244  23122848.6024                   23122837.9494
        39.2504         29.0004
 -16289717.73448 -18881330.70849  21032824.5704                   21032815.2664
        51.2504         54.7504
 23  1  2  0  5 30.0000000  0  9G23G24G27G08G22G10G21G18G32
 -14515160.67747 -13302397.76646  21274446.2974                   21274435.8204
        47.0004         40.5004
 -14774863.49047 -12188977.96947  22258122.6884                   22258113.8524
        44.0004         44.0004
 -12382761.63547  -9456816.78146  23103976.4844                   23103968.0594
        42.5004         41.7504
  -9808308.11346  -7576171.42846  23349905.6334                   23349897.4414
        40.0004         39.7504
  -6262147.52046  -5080336.42644  22784466.9924                   22784456.8094
        40.2504         24.0004
 -28107816.05848 -21727512.23949  20527992.8914                   20527983.9384
        53.0004         55.0004
  -7578329.14946  -4464388.92243  24455625.3204                   24455613.7304
        39.2504         19.7504
 -14837750.87246 -11583798.85744  23142615.0234                   23142604.2544
        39.2504         29.0004
 -16337803.65648 -18918800.24849  21023674.6174                   21023665.4884
        51.7504         54.7504
 23  1  2  0  6  0.0000000  0  9G23G24G27G08G22G10G21G18G32
 -14465220.94447 -13263483.69746  21283949.4694                   21283939.0514
        47.0004         40.2504
 -14739490.76847 -12161414.80547  22264853.0864                   22264844.8954
        43.0004         44.0004
 -12310237.49947  -9400304.47546  23117778.0084                   23117769.2304
        42.2504         41.5004
  -9789027.40546  -7561147.52646  23353574.7814                   23353566.0044
        40.0004         39.5004
  -6347752.19846  -5147041.36944  22768176.8054                   22768166.0944
        40.2504         25.5004
 -28115078.59648 -21733171.36649  20526610.9534                   20526601.9414
        52.5004         54.7504
  -7663877.96046  -4531050.29543  24439346.3674                   24439333.8404
        39.0004         20.5004
 -14733644.45046 -11502676.98644  23162425.7424                   23162415.7344
        39.5004         28.7504
 -16385479.10348 -18955949.93049  21014601.2194                   21014592.6764
        51.0004         54.7504
 23  1  2  0  6 30.0000000  0  9G23G24G27G08G22G10G21G18G32
 -14415031.67547 -13224375.18346  21293500.1644                   21293489.7464
        47.5004         40.0004
 -14703500.74747 -12133370.65347  22271702.4534                   22271693.6174
        43.2504         44.2504
 -12237359.00947  -9343516.04046  23131645.9454                   23131637.2854
        42.5004         41.0004
  -9769212.89146  -7545707.67946  23357344.8674                   23357336.5004
        39.0004         39.5004
  -6433095.71946  -5213542.76644  22751936.9144                   22751926.0274
        40.7504         25.7504
 -28122071.66448 -21738620.50849  20525280.3204                   20525271.0744
        53.0004         54.7504
  -7749275.67146  -4597593.95343  24423095.9304                   24423083.3444
        39.5004         20.7504
 -14629305.61646 -11421373.99844  23182280.7034                   23182270.7544
        39.0004         28.7504
 -16432743.12648 -18992779.03549  21005608.0634                   21005598.8164
        51.0004         54.7504
 23  1  2  0  7  0.0000000  0  9G23G24G27G08G22G10G21G18G32
 -14364593.29147 -13185072.54846  21303098.2114                   21303087.7344
        47.0004         40.2504
 -14666894.94447 -12104846.63147  22278668.5234                   22278659.5124
        43.7504         44.2504
 -12164129.19046  -9286453.86446  23145580.8204                   23145572.9224
        41.5004         41.0004
  -9748866.18646  -7529853.11846  23361217.0704                   23361208.5274
        40.5004         39.2504
  -6518177.30546  -5279840.07844  22735745.7504                   22735735.8014
        40.0004         25.2504
 -28128794.55948 -21743859.12949  20524001.1414                   20523991.9534
        53.0004         55.2504
  -7834519.97946  -4664018.08443  24406874.4454                   24406862.0944
        38.7504         20.2504
 -14524736.67646 -11339891.70244  23202180.1884                   23202169.1254
        41.0004         28.0004
 -16479595.64148 -19029287.47949  20996692.2424                   20996683.0554
        51.5004         55.0004
 23  1  2  0  7 30.0000000  0  9G23G24G27G08G22G10G21G18G32
 -14313906.12147 -13145576.06346  21312743.7114                   21312733.4104
        47.0004         40.2504
 -14629674.66447 -12075843.81347  22285750.4304                   22285742.1214
        42.5004         44.2504
 -12090551.21847  -9229120.37946  23159582.4534                   23159573.9104
        42.5004         40.7504
  -9727988.64346  -7513584.93446  23365189.9694                   23365181.3094
        39.0004         39.5004
  -6602995.79646  -5345932.39044  22719605.6484                   22719595.6414
        40.2504         25.0004
 -28135247.13648 -21748887.11349  20522772.9304                   20522764.1524
        53.0004         55.0004
  -7919609.57946  -4730321.65043  24390682.4614                   24390669.7584
        39.7504         20.0004
 -14419939.66846 -11258231.71244  23222122.3914                   23222111.3874
        40.2504         28.0004
 -16526036.37448 -19065475.05849  20987854.6254                   20987845.7894
        51.0004         54.7504
 23  1  2  0  8  0.0000000  0  9G23G24G27G08G22G10G21G18G32
 -14262969.96747 -13105885.56146  21322436.8134                   21322426.2194
        46.0004         40.0004
 -14591840.78247 -12046362.87347  22292950.5784                   22292941.9184
        43.2504         44.2504
 -12016627.69946  -9171517.64046  23173649.6644                   23173640.5944
        41.7504         40.5004
  -9706581.17046  -7496903.81446  23369263.7734                   23369255.1724
        38.5004         39.2504
  -6687549.87346  -5411818.66244  22703516.1724                   22703505.1094
        40.7504         25.7504
 -28141428.51848 -21753703.77949  20521596.8834                   20521587.9884
        52.5004         55.0004
  -8004542.39746  -4796503.05043  24374519.8444                   24374507.7274
        37.7504         21.5004
 -14314916.23046 -11176395.26344  23242107.6334                   23242096.9804
        40.0004         28.2504
 -16572064.57048 -19101341.17049  20979095.6254                   20979087.1994
        51.5004         54.7504
 23  1  2  0  8 30.0000000  0  9G23G24G27G08G22G10G21G18G32
 -14211784.66947 -13066000.92446  21332177.0864                   21332166.2584
        46.5004         40.5004
 -14553394.17147 -12016404.46647  22300266.1954                   22300258.3554
        42.7504         44.5004
 -11942361.06447  -9113647.55246  23187782.1174                   23187773.5164
        42.7504         40.7504
  -9684644.23446  -7479810.12246  23373437.8754                   23373429.5084
        39.0004         39.5004
  -6771837.66246  -5477497.40944  22687476.9064                   22687465.4924
        41.0004         25.7504
 -28147337.83548 -21758308.44049  20520472.5004                   20520463.4304
        52.7504         54.7504
  -8089316.61146  -4862560.84443  24358387.9144                   24358375.5044
        38.7504         20.5004
 -14209667.86346 -11094383.54744  23262135.3674                   23262124.6564
        40.5004         29.0004
 -16617679.51948 -19136885.28149  20970415.9384                   20970406.9844
        51.2504         54.7504
 23  1  2  0  9  0.0000000  0  9G23G24G27G08G22G10G21G18G32
 -14160352.04047 -13025923.56246  21341964.2194                   21341953.8014
        47.0004         39.7504
 -14514337.79647 -11985970.93647  22307698.2894                   22307690.2154
        43.0004         44.0004
 -11867756.05547  -9055513.77746  23201978.7194                   23201970.3524
        42.5004         40.2504
  -9662181.46046  -7462306.69046  23377712.5084                   23377704.3164
        38.7504         39.7504
  -6855859.53146  -5542968.99744  22671487.0234                   22671476.8984
        40.7504         26.0004
 -28152976.22848 -21762701.98949  20519399.4614                   20519390.0394
        52.5004         54.7504
  -8173930.54246  -4928493.78643  24342287.0784                   24342274.5514
        39.0004         22.0004
 -14104198.19046 -11012199.39944  23282204.4774                   23282195.2304
        39.7504         29.2504
 -16662882.51648 -19172108.39049  20961813.7274                   20961804.7734
        52.2504         54.7504
 23  1  2  0  9 30.0000000  0  9G23G24G27G08G22G10G21G18G32
 -14108671.31047 -12985652.86646  21351798.6564                   21351788.3554
        46.5004         40.5004
 -14474672.00347 -11955062.51347  22315247.0234                   22315238.3634
        43.5004         44.2504
 -11792814.52746  -8997117.79246  23216239.1724                   23216230.6884
        41.5004         40.0004
  -9639193.08446  -7444393.70846  23382086.8674                   23382078.6764
        39.7504         39.2504
  -6939613.47846  -5608231.77844  22655549.7584                   22655538.9304
        40.7504         27.7504
 -28158342.52648 -21766883.53149  20518378.3364                   20518369.0904
        52.5004         55.0004
  -8258381.79646  -4994299.92243  24326214.9064                   24326203.2584
        39.0004         20.7504
 -13998508.31346 -10929843.65444  23302317.2974                   23302307.5824
        40.7504         28.0004
 -16707672.37248 -19207009.55449  20953290.5394                   20953281.5274
        51.5004         55.0004
 23  1  2  0 10  0.0000000  0  9G23G24G27G08G22G10G21G18G32
 -14056742.18247 -12945188.62046  21361680.5784                   21361670.2194
        46.5004         40.0004
 -14434397.69147 -11923679.94347  22322910.9454                   22322902.1684
        42.7504         44.0004
 -11717539.14046  -8938461.64246  23230564.5084                   23230555.7894
        41.7504         39.5004
  -9615679.79846  -7426071.68946  23386561.4774                   23386553.4024
        39.0004         39.2504
  -7023097.80046  -5673284.49044  22639662.9844                   22639652.7424
        41.0004         27.2504
 -28163435.29848 -21770851.92349  20517409.2424                   20517400.1724
        53.0004         54.7504
  -8342668.94246  -5059978.21543  24310176.8674                   24310164.0474
        40.0004         21.5004
 -13892599.61646 -10847317.40844  23322471.4064                   23322461.5164
        40.7504         27.5004
 -16752048.09248 -19241588.02549  20944846.0084                   20944837.1134
        52.0004         54.7504
 23  1  2  0 10 30.0000000  0  9G23G24G27G08G22G10G21G18G32
 -14004565.61547 -12904531.56746  21371609.0554                   21371598.7544
        46.2504         40.0004
 -14393516.90247 -11891824.78147  22330690.5084                   22330681.4964
        43.7504         44.2504
 -11641933.45446  -8879548.12946  23244950.7734                   23244942.8164
        41.2504         39.0004
  -9591643.82846  -7407342.38646  23391135.8984                   23391127.6484
        39.7504         39.5004
  -7106312.52746  -5738127.09944  22623827.7974                   22623817.2624
        41.2504         26.5004
 -28168254.97848 -21774607.52349  20516491.9694                   20516483.1334
        53.0004         55.2504
  -8426790.17646  -5125527.21743  24294168.3204                   24294156.8484
        40.2504         20.5004
 -13786474.85546 -10764622.81044  23342666.8364                   23342656.3014
        41.7504         28.5004
 -16796010.15448 -19275844.17349  20936480.3524                   20936471.3984
        51.5004         54.7504
 23  1  2  0 11  0.0000000  0  9G23G24G27G08G22G10G21G18G32
 -13952141.70947 -12863681.77446  21381585.2814                   21381575.0394
        46.5004         40.0004
 -14352030.97647 -11859498.08947  22338584.2344                   22338576.3364
        42.5004         44.5004
 -11566000.47346  -8820379.57546  23259400.8914                   23259392.5824
        40.7504         39.5004
  -9567086.21446  -7388206.60146  23395808.7424                   23395800.4924
        40.0004         39.5004
  -7189255.04446  -5802757.62344  22608045.1024                   22608033.9804
        41.0004         26.5004
 -28172800.92148 -21778149.81749  20515626.8594                   20515617.9064
        53.7504         55.0004
  -8510742.76646  -5190944.79943  24278193.1414                   24278180.7304
        39.5004         20.5004
 -13680135.88046 -10681761.29344  23362901.8754                   23362891.3984
        41.2504         28.2504
 -16839558.28848 -19309777.76449  20928193.2114                   20928184.4924
        51.7504         54.7504
 23  1  2  0 11 30.0000000  0  9G23G24G27G08G22G10G21G18G32
 -13899471.17147 -12822639.80946  21391608.4454                   21391597.6174
        47.0004         40.0004
 -14309941.81047 -11826701.33247  22346594.0004                   22346585.5744
        42.5004         44.0004
 -11489743.68046  -8760958.68246  23273911.9614                   23273903.9454
        40.5004         38.5004
  -9542009.48846  -7368666.30146  23400580.2274                   23400572.2114
        40.2504         39.5004
  -7271926.00446  -5867176.51444  22592312.3914                   22592302.0904
        41.2504         26.0004
 -28177073.32648 -21781478.96249  20514813.5704                   20514804.8524
        53.0004         55.0004
  -8594525.61846  -5256230.12743  24262249.8204                   24262237.5864
        40.0004         22.5004
 -13573585.24346 -10598734.83144  23383175.9694                   23383167.6024
        38.7504         28.0004
 -16882692.66148 -19343388.95449  20919984.9844                   20919976.2074
        51.2504         54.7504
 23  1  2  0 12  0.0000000  0  9G23G24G27G08G22G10G21G18G32
 -13846552.80247 -12781404.73346  21401678.0084                   21401667.4144
        46.0004         40.0004
 -14267249.52747 -11793434.61147  22354718.5314                   22354709.3444
        42.5004         44.0004
 -11413164.61446  -8701286.71646  23288484.3834                   23288476.1334
        40.5004         38.5004
  -9516413.47046  -7348721.36146  23405451.1174                   23405443.1024
        41.0004         39.7504
  -7354322.80846  -5931381.82144  22576633.0784                   22576622.2504
        41.7504         26.0004
 -28181070.07248 -21784593.30849  20514053.1414                   20514044.3054
        53.2504         55.0004
  -8678135.85546  -5321380.93743  24246338.8594                   24246326.7424
        40.2504         22.0004
 -13466823.69146 -10515543.99944  23403493.7114                   23403484.0554
        38.7504         27.5004
 -16925411.63248 -19376676.44949  20911856.1484                   20911847.3134
        52.0004         54.7504
 23  1  2  0 12 30.0000000  0  9G23G24G27G08G22G10G21G18G32
 -13793387.56247 -12739977.28346  21411795.3134                   21411784.7774
        46.2504         39.7504
 -14223956.30447 -11759699.63847  22362956.6024                   22362948.1174
        42.7504         44.2504
 -11336267.17446  -8641366.61546  23303118.1804                   23303109.5784
        40.0004         38.2504
  -9490300.35146  -7328373.49046  23410419.9144                   23410412.1914
        39.7504         39.5004
  -7436444.94447  -5995373.06844  22561006.1334                   22560995.2464
        42.5004         26.5004
 -28184791.73648 -21787493.30449  20513345.2734                   20513336.2034
        52.0004         55.0004
  -8761572.62346  -5386396.58543  24230462.0234                   24230449.6724
        40.7504         21.7504
 -13359853.68746 -10432190.80644  23423850.2814                   23423839.6294
        41.0004         27.5004
 -16967715.71448 -19409640.66249  20903805.7504                   20903796.9734
        51.7504         54.7504
 23  1  2  0 13  0.0000000  0  9G23G24G27G08G22G10G21G18G32
 -13739976.10947 -12698357.98546  21421959.1024                   21421948.4494
        47.5004         39.7504
 -14180064.11447 -11725497.91547  22371308.8594                   22371300.6684
        42.2504         44.2504
 -11259054.73546  -8581201.08446  23317809.6884                   23317802.4924
        38.5004         38.5004
  -9463671.66346  -7307623.87746  23415487.7424                   23415479.4924
        40.0004         39.0004
  -7518291.49246  -6059149.57944  22545430.4144                   22545419.8204
        41.7504         27.2504
 -28188237.91048 -21790178.64349  20512689.1884                   20512680.4694
        53.7504         54.7504
  -8844833.48246  -5451275.17843  24214617.5704                   24214605.3364
        41.0004         22.7504
 -13252677.93546 -10348677.20944  23444242.4844                   23444234.5274
        38.0004         27.5004
 -17009605.16448 -19442281.77649  20895834.3444                   20895825.8014
        51.0004         54.7504
 23  1  2  0 13 30.0000000  0  9G23G24G27G08G22G10G21G18G32
 -13686318.07247 -12656546.54246  21432169.7194                   21432159.5354
        47.0004         39.7504
 -14135573.85146 -11690830.20347  22379774.7664                   22379766.7504
        41.0004         43.5004
 -11181529.74446  -8520792.00246  23332562.8444                   23332554.8874
        39.5004         38.5004
  -9436528.70846  -7286473.54746  23420653.0944                   23420644.1994
        39.7504         39.2504
  -7599860.91847  -6122710.16444  22529908.5634                   22529897.6764
        42.5004         28.0004
 -28191408.05848 -21792648.88949  20512085.8444                   20512077.0664
        53.0004         55.0004
  -8927916.23446  -5516014.95743  24198807.7894                   24198795.0864
        40.7504         22.0004
 -13145297.79046 -10265004.40144  23464679.1804                   23464667.7074
        39.7504         27.5004
 -17051079.13248 -19474599.13949  20887942.2034                   20887933.3094
        52.0004         54.7504
 23  1  2  0 14  0.0000000  0  9G23G24G27G08G22G10G21G18G32
 -13632414.17747 -12614543.50946  21442427.2894                   21442416.9304
        45.7504         39.7504
 -14090487.68747 -11655698.11747  22388355.7974                   22388345.7894
        43.0004         44.0004
 -11103695.84746  -8460142.20146  23347374.4534                   23347366.3204
        40.0004         37.7504
  -9408873.95346  -7264924.39846  23425914.9844                   23425906.6764
        39.7504         39.2504
  -7681152.89946  -6186054.53944  22514438.5864                   22514428.7544
        41.7504         27.0004
 -28194301.60148 -21794903.60349  20511535.4534                   20511526.5004
        52.5004         54.7504
  -9010819.99546  -5580615.27243  24183031.3984                   24183019.2814
        40.7504         22.7504
 -13037715.79546 -10181174.27744  23485149.8984                   23485140.7114
        37.7504         27.0004
 -17092137.92948 -19506592.99249  20880129.2274                   20880119.9224
        51.7504         54.7504
 23  1  2  0 14 30.0000000  0  9G23G24G27G08G22G10G21G18G32
 -13578264.59747 -12572349.03646  21452732.2034                   21452721.2584
        47.5004         39.5004
 -14044807.03546 -11620102.79347  22397047.2034                   22397038.8954
        41.2504         43.7504
 -11025555.90646  -8399253.94846  23362244.2664                   23362235.6054
        39.2504         37.7504
  -9380708.20546  -7242977.07846  23431275.4304                   23431266.8874
        39.2504         39.5004
  -7762165.84447  -6249181.48944  22499023.1724                   22499012.4024
        42.5004         27.5004
 -28196918.14948 -21796942.47849  20511037.3364                   20511028.3834
        52.5004         55.0004
  -9093541.75246  -5645073.76843  24167289.9384                   24167278.2304
        40.2504         22.5004
 -12929933.95946 -10097188.43544  23505660.4144                   23505650.5234
        38.5004         26.5004
 -17132781.35148 -19538263.17349  20872394.7424                   20872385.9064
        51.7504         54.7504
 23  1  2  0 15  0.0000000  0  9G23G24G27G08G22G10G21G18G32
 -13523869.27747 -12529963.08546  21463082.5784                   21463072.1024
        46.5004         39.2504
 -13998533.27946 -11584045.32047  22405852.8284                   22405844.6374
        41.5004         43.5004
 -10947112.87546  -8338129.50246  23377171.3134                   23377162.8874
        39.0004         38.2504
  -9352033.21446  -7220632.94546  23436731.3984                   23436723.4414
        39.2504         39.0004
  -7842898.71346  -6312090.19644  22483658.5554                   22483649.4264
        41.2504         27.5004
 -28199257.03348 -21798764.98549  20510592.1954                   20510583.0084
        51.5004         54.7504
  -9176080.02146  -5709389.30543  24151583.4224                   24151571.3054
        39.2504         22.0004
 -12821954.06146 -10013048.26444  23526207.5474                   23526198.7704
        37.0004         26.0004
 -17173008.98948 -19569609.37749  20864739.6024                   20864730.7664
        51.2504         54.7504
 23  1  2  0 15 30.0000000  0  9G23G24G27G08G22G10G21G18G32
 -13469228.19047 -12487385.62946  21473481.1484                   21473470.4964
        45.7504         39.5004
 -13951667.81946 -11547526.78047  22414770.2504                   22414763.0554
        40.0004         43.5004
 -10868369.40846  -8276770.95446  23392155.1414                   23392147.7114
        39.0004         37.7504
  -9322850.35046  -7197893.06046  23442285.0474                   23442277.1484
        40.2504         39.2504
  -7923350.09247  -6374779.55744  22468350.3054                   22468339.8874
        42.2504         28.0004
 -28201317.37048 -21800370.44449  20510200.4614                   20510191.0984
        52.5004         55.0004
  -9258432.41946  -5773559.96343  24135912.1484                   24135900.0314
        40.0004         22.2504
 -12713777.91746  -9928755.17844  23546793.2894                   23546783.9264
        38.0004         25.7504
 -17212820.37248 -19600631.21749  20857163.7114                   20857154.9344
        51.5004         54.7504
 23  1  2  0 16  0.0000000  0  9G23G24G27G08G22G10G21G18G32
 -13414342.61047 -12444617.65546  21483925.1414                   21483915.0164
        46.5004         39.0004
 -13904213.32747 -11510549.25747  22423801.6724                   22423792.9534
        42.0004         43.2504
 -10789329.67546  -8215181.56346  23407196.1414                   23407187.9494
        39.0004         38.0004
  -9293162.31346  -7174759.54046  23447935.2894                   23447926.4534
        40.0004         39.2504
  -8003520.06147  -6437249.64344  22453094.8444                   22453084.0164
        43.2504         28.2504
 -28203099.98348 -21801759.49949  20509861.2034                   20509851.8984
        53.5004         55.0004
  -9340598.03046  -5837585.12943  24120276.6884                   24120264.6884
        39.5004         22.0004
 -12605408.55746  -9844311.52644  23567415.8674                   23567405.8594
        38.0004         27.5004
 -17252216.43948 -19631329.43649  20849666.6954                   20849658.0354
        51.5004         54.7504
 23  1  2  0 16 30.0000000  0  9G23G24G27G08G22G10G21G18G32
 -13359211.42347 -12401658.30046  21494416.2894                   21494405.8714
        47.0004         38.7504
 -13856170.16546 -11473113.01247  22432943.2504                   22432934.9414
        41.2504         43.0004
 -10709995.49046  -8153362.72146  23422293.7114                   23422285.1094
        40.0004         38.5004
  -9262969.29046  -7151232.51946  23453680.0394                   23453671.9064
        39.2504         39.2504
  -8083406.19947  -6499498.54344  22437892.4614                   22437881.8674
        42.0004         28.2504
 -28204602.93048 -21802930.62149  20509575.0394                   20509566.2034
        53.7504         55.0004
  -9422573.49546  -5901462.09043  24104677.2894                   24104665.2304
        39.0004         22.0004
 -12496846.77746  -9759717.95144  23588074.9694                   23588064.3754
        39.2504         27.0004
 -17291195.73348 -19661702.90849  20842249.0084                   20842240.6414
        51.5004         55.0004
 23  1  2  0 17  0.0000000  0  9G23G24G27G08G22G10G21G18G32
 -13303835.56247 -12358508.28946  21504954.2194                   21504943.3914
        46.5004         39.0004
 -13807540.67846 -11435219.91747  22442197.3054                   22442189.1134
        39.7504         43.0004
 -10630370.52746  -8091317.29346  23437445.1724                   23437437.0984
        39.5004         38.0004
  -9232273.57546  -7127313.79446  23459521.0784                   23459513.2384
        39.5004         39.5004
  -8163008.32147  -6561526.15744  22422745.2974                   22422734.1764
        42.7504         27.5004
 -28205826.40048 -21803883.98149  20509342.2664                   20509333.3134
        53.7504         54.7504
  -9504357.71746  -5965190.04343  24089114.3754                   24089102.3754
        39.7504         22.5004
 -12388095.33246  -9674976.56744  23608769.1174                   23608759.2854
        38.2504         26.7504
 -17329758.81648 -19691752.04449  20834911.1564                   20834902.3204
        51.5004         54.7504
 23  1  2  0 17 30.0000000  0  9G23G24G27G08G22G10G21G18G32
 -13248215.35047 -12315167.87346  21515537.9224                   21515527.5634
        46.0004         39.0004
 -13758326.69046 -11396871.34747  22451562.9614                   22451554.5944
        40.2504         42.7504
 -10550457.96246  -8029047.76946  23452652.2194                   23452643.6764
        38.2504         38.5004
  -9201076.81346  -7103004.64246  23465457.9224                   23465449.6724
        39.5004         39.2504
  -8242325.11047  -6623331.41544  22407651.0634                   22407641.4654
        42.0004         28.0004
 -28206770.29148 -21804619.48149  20509162.9454                   20509153.8754
        53.5004         55.0004
  -9585948.92646  -6028767.62043  24073587.9304                   24073575.5784
        38.0004         22.5004
 -12279156.30846  -9590089.04844  23629499.0314                   23629489.2584
        37.5004         26.5004
 -17367905.66048 -19721476.85049  20827652.0784                   20827642.9494
        51.5004         54.7504
 23  1  2  0 18  0.0000000  0  9G23G24G27G08G22G10G21G18G32
 -13192351.07347 -12271637.27246  21526168.5314                   21526158.1724
        46.5004         39.0004
 -13708530.02646 -11358068.75547  22461037.8364                   22461030.2894
        39.2504         42.5004
 -10470260.97746  -7966556.61446  23467914.0164                   23467905.2974
        40.0004         38.7504
  -9169381.50946  -7078307.01046  23471488.7894                   23471481.3014
        39.0004         39.0004
  -8321355.94047  -6684913.86244  22392612.0394                   22392601.3874
        42.5004         27.7504
 -28207433.68048 -21805136.40449  20509036.4064                   20509027.4534
        53.2504         54.7504
  -9667345.22046  -6092193.29643  24058099.0004                   24058086.4734
        39.7504         22.7504
 -12170031.97046  -9505057.08944  23650265.1414                   23650254.7814
        38.2504         25.7504
 -17405636.27248 -19750877.31749  20820472.3134                   20820463.1844
        52.0004         55.0004
 23  1  2  0 18 30.0000000  0  9G23G24G27G08G22G10G21G18G32
 -13136242.50147 -12227916.31746  21536845.6724                   21536835.2544
        45.5004         38.7504
 -13658151.99846 -11318813.12747  22470625.3674                   22470616.9414
        39.5004         42.5004
 -10389782.18846  -7903845.88046  23483227.2814                   23483219.5004
        38.5004         37.7504
  -9137188.53146  -7053221.56946  23477614.5234                   23477607.2704
        39.5004         38.7504
  -8400099.48247  -6746272.43944  22377627.6174                   22377617.0234
        42.5004         28.2504
 -28207815.96448 -21805434.29049  20508963.6724                   20508954.8954
        53.0004         55.0004
  -9748543.85446  -6155464.94343  24042646.5864                   24042635.1134
        39.0004         22.0004
 -12060723.80946  -9419881.87144  23671064.0634                   23671055.9884
        37.2504         26.0004
 -17442950.08848 -19779953.01449  20813371.4844                   20813362.6484
        50.7504         55.0004
 23  1  2  0 19  0.0000000  0  9G23G24G27G08G22G10G21G18G32
 -13079889.62647 -12184004.99746  21547569.6174                   21547559.1994
        45.7504         38.5004
 -13607194.07646 -11279105.66147  22480321.8054                   22480313.7894
        40.2504         42.5004
 -10309024.42646  -7840917.76046  23498595.9844                   23498587.1484
        39.5004         38.0004
  -9104499.32246  -7027749.46246  23483835.6254                   23483827.4924
        39.0004         39.0004
  -8478554.36447  -6807406.07844  22362697.9144                   22362687.5554
        42.7504         28.5004
 -28207916.17848 -21805512.38149  20508944.7194                   20508935.5314
        53.5004         55.0004
  -9829543.25346  -6218581.34543  24027233.6334                   24027221.5744
        40.5004         22.7504
 -11951233.75246  -9334564.99144  23691901.6254                   23691890.7384
        39.2504         26.0004
 -17479846.81748 -19808703.70149  20806350.1564                   20806341.4384
        51.2504         54.7504
 23  1  2  0 19 30.0000000  0  9G23G24G27G08G22G10G21G18G32
 -13023293.95547 -12139904.48646  21558339.2034                   21558328.6684
        45.7504         38.5004
 -13555659.51046 -11238948.84047  22490128.3984                   22490120.6764
        38.7504         42.2504
 -10227992.14046  -7777775.71946  23514015.2894                   23514007.3324
        39.0004         37.7504
  -9071317.21546  -7001893.27346  23490150.3054                   23490141.8204
        39.5004         39.0004
  -8556720.64047  -6868314.84644  22347823.9384                   22347813.0514
        42.2504         28.2504
 -28207735.38048 -21805371.50049  20508978.8284                   20508970.2274
        53.0004         55.0004
  -9910342.81646  -6281542.04543  24011858.0234                   24011845.7304
        40.5004         22.5004
 -11841565.14046  -9249108.93144  23712770.5164                   23712760.0984
        38.5004         25.5004
 -17516327.66048 -19837130.31849  20799408.2734                   20799399.2624
        52.2504         55.2504
 23  1  2  0 20  0.0000000  0  9G23G24G27G08G22G10G21G18G32
 -12966454.31647 -12095613.86046  21569155.3524                   21569144.8754
        45.7504         38.5004
 -13503548.49946 -11198342.88847  22500045.2584                   22500037.0664
        40.2504         42.2504
 -10146687.01946  -7714421.09446  23529488.0394                   23529478.5594
        40.2504         37.7504
  -9037642.22246  -6975653.03146  23496558.6094                   23496550.2424
        41.0004         38.7504
  -8634596.33047  -6928997.17044  22333005.1334                   22332993.9534
        43.0004         28.0004
 -28207271.46948 -21805010.01249  20509067.3284                   20509058.1994
        53.0004         54.7504
  -9990938.17746  -6344343.61843  23996520.9224                   23996508.8054
        40.5004         22.7504
 -11731718.62346  -9163514.26743  23733673.7584                   23733663.2234
        39.2504         23.7504
 -17552391.17948 -19865231.75349  20792545.6334                   20792536.6214
        51.5004         55.0004
 23  1  2  0 20 30.0000000  0  9G23G24G27G08G22G10G21G18G32
 -12909371.57747 -12051133.82146  21580017.7114                   21580007.7034
        45.5004         39.0004
 -13450863.80246 -11157289.85247  22510070.3834                   22510062.3094
        40.5004         42.0004
 -10065112.71746  -7650856.68946  23545010.9384                   23545002.2774
        38.7504         37.5004
  -9003477.11746  -6949030.87346  23503059.8524                   23503051.7774
        40.2504         38.7504
  -8712181.01947  -6989452.75744  22318240.5234                   22318230.0474
        42.7504         28.0004
 -28206524.38149 -21804427.86149  20509209.3524                   20509200.5164
        54.0004         54.7504
 -10071328.70846  -6406985.56444  23981223.7114                   23981210.8914
        41.5004         24.2504
 -11621696.99046  -9077783.16044  23754610.2424                   23754599.5314
        38.5004         24.0004
 -17588037.97448 -19893008.46849  20785761.9694                   20785753.3094
        51.7504         54.7504
 23  1  2  0 21  0.0000000  0  9G23G24G27G08G22G10G21G18G32
 -12852046.38547 -12006464.84046  21590926.5554                   21590916.0204
        45.7504         38.5004
 -13397607.41746 -11115791.38047  22520205.5234                   22520196.5124
        39.7504         42.5004
  -9983272.79246  -7587085.32646  23560584.6174                   23560575.8984
        38.7504         37.5004
  -8968823.45346  -6922028.02646  23509653.9454                   23509646.1644
        39.5004         38.7504
  -8789474.16447  -7049681.15244  22303532.2344                   22303521.9344
        43.0004         28.2504
 -28205494.25648 -21803625.16949  20509405.3984                   20509396.6214
        52.7504         54.7504
 -10151512.61646  -6469466.49644  23965964.8364                   23965953.2464
        41.0004         25.5004
 -11511502.65046  -8991917.43144  23775578.1644                   23775569.3284
        37.2504         25.0004
 -17623268.38948 -19920460.72349  20779057.9774                   20779048.8484
        51.0004         55.0004
 23  1  2  0 21 30.0000000  0  9G23G24G27G08G22G10G21G18G32
 -12794477.95847 -11961606.34346  21601881.5234                   21601870.9304
        45.7504         38.5004
 -13343780.27546 -11073848.12547  22530447.6414                   22530440.2114
        39.0004         42.0004
  -9901169.29446  -7523108.56946  23576209.1414                   23576199.1914
        39.7504         37.2504
  -8933682.88746  -6894645.77846  23516340.4844                   23516333.1134
        40.0004         38.5004
  -8866473.73147  -7109680.81744  22288880.0314                   22288869.0864
        43.0004         29.5004
 -28204179.48448 -21802600.67049  20509655.6334                   20509646.7974
        52.7504         54.7504
 -10231486.88546  -6531784.10544  23950746.0004                   23950733.5904
        40.7504         24.5004
 -11401136.77846  -8905918.05743  23796580.2034                   23796570.8404
        38.2504         22.5004
 -17658081.46148 -19947587.78149  20772433.5164                   20772424.5634
        51.5004         54.7504
 23  1  2  0 22  0.0000000  0  9G23G24G27G08G22G10G21G18G32
 -12736666.69747 -11916558.61546  21612882.9844                   21612872.0984
        45.7504         38.2504
 -13289384.45246 -11031461.79847  22540798.9924                   22540791.2704
        39.5004         42.2504
  -9818805.60646  -7458929.06446  23591880.4224                   23591872.8754
        38.0004         37.0004
  -8898056.98446  -6866885.33346  23523120.8984                   23523112.8244
        41.2504         39.0004
  -8943178.86047  -7169451.01644  22274282.8594                   22274272.1484
        43.0004         28.5004
 -28202580.07748 -21801354.38449  20509959.9614                   20509951.1254
        53.0004         54.7504
 -10311250.25446  -6593937.34544  23935567.7894                   23935555.9064
        41.0004         24.5004
 -11290601.58946  -8819786.72543  23817614.1954                   23817605.0084
        37.2504         23.5004
 -17692477.32048 -19974389.74349  20765888.1644                   20765879.1524
        51.5004         55.0004
 23  1  2  0 22 30.0000000  0  9G23G24G27G08G22G10G21G18G32
 -12678613.68347 -11871322.51746  21623929.6804                   21623919.0864
        45.5004         38.2504
 -13234422.89446 -10988634.59847  22551258.3834                   22551249.6054
        40.5004         42.0004
  -9736185.61346  -7394549.87846  23607603.5084                   23607594.7304
        38.5004         36.0004
  -8861948.72546  -6838749.03146  23529992.3204                   23529983.8954
        41.5004         39.0004
  -9019589.65547  -7228991.89244  22259742.8984                   22259731.9534
        43.5004         29.0004
 -28200696.09948 -21799886.35849  20510318.3914                   20510309.7304
        53.0004         55.0004
 -10390801.29346  -6655925.15844  23920430.3984                   23920417.1094
        41.0004         26.5004
 -11179900.12146  -8733525.88743  23838681.6564                   23838671.0044
        38.7504         22.7504
 -17726456.86348 -20000867.30549  20759421.6094                   20759412.8324
        51.7504         55.0004
 23  1  2  0 23  0.0000000  0  9G23G24G27G08G22G10G21G18G32
 -12620318.68147 -11825897.85246  21635023.0704                   21635012.6524
        45.5004         38.2504
 -13178896.83146 -10945367.52546  22561823.5864                   22561815.7464
        40.0004         41.2504
  -9653311.99046  -7329973.00346  23623372.6024                   23623364.6454
        37.5004         36.0004
  -8825359.48747  -6810237.95046  23536954.5164                   23536946.6764
        42.0004         38.7504
  -9095704.81647  -7288302.39745  22245258.1564                   22245247.6804
        44.0004         30.7504
 -28198526.53848 -21798195.79249  20510731.1884                   20510722.6454
        52.2504         55.0004
 -10470137.60847  -6717745.64944  23905333.0554                   23905319.8244
        42.0004         25.2504
 -11069033.87446  -8647136.62243  23859777.4064                   23859768.1024
        36.7504         22.5004
 -17760019.60748 -20027020.08149  20753035.3834                   20753026.1374
        52.0004         54.7504
 23  1  2  0 23 30.0000000  0 10G23G24G27G08G22G10G21G18G31G32
 -12561781.27847 -11780284.30346  21646161.9774                   21646151.8524
        45.7504         38.2504
 -13122807.79546 -10901661.78446  22572497.9144                   22572489.4884
        39.5004         41.5004
  -9570187.19046  -7265200.43146  23639192.0314                   23639183.3714
        39.0004         36.7504
  -8788290.78547  -6781353.25946  23544008.9694                   23544000.1914
        42.0004         38.7504
  -9171522.18847  -7347380.86145  22230830.8204                   22230820.1094
        44.0004         30.7504
 -28196070.35148 -21796281.89249  20511198.5474                   20511189.5944
        52.7504         55.0004
 -10549256.04147  -6779396.34244  23890277.0944                   23890265.1524
        42.0004         26.5004
 -10958004.35846  -8560620.12543  23880905.9304                   23880896.3324
        37.0004         22.0004
    604501.75455    503236.69354  25306167.2114                   25306155.7384
        34.5004         29.2504
 -17793164.96448 -20052847.62949  20746727.8364                   20746719.0594
        51.7504         54.7504
 23  1  2  0 24  0.0000000  0 10G23G24G27G08G22G10G21G18G31G32
 -12503005.69847 -11734485.15146  21657346.8754                   21657336.0474
        45.5004         38.0004
 -13066161.57146 -10857521.89746  22583276.6884                   22583268.7304
        39.0004         41.5004
  -9486818.37446  -7200237.71446  23655057.1804                   23655047.7584
        38.7504         36.0004
  -8750748.03946  -6752099.19146  23551152.9924                   23551144.5664
        41.7504         38.5004
  -9247045.55247  -7406230.23045  22216459.6024                   22216448.0704
        43.7504         30.2504
 -28193331.19948 -21794147.48849  20511719.8054                   20511711.3204
        53.7504         55.2504
 -10628159.33246  -6840879.40944  23875261.4224                   23875249.8324
        41.0004         25.2504
 -10846817.74345  -8473981.16243  23902063.2814                   23902054.5634
        34.7504         22.0004
    486629.03245    411387.77545  25283735.3754                   25283725.0164
        33.0004         30.0004
 -17825896.93448 -20078353.05549  20740498.8054                   20740489.9694
        52.0004         55.0004
 23  1  2  0 24 30.0000000  0 10G23G24G27G08G22G10G21G18G31G32
 -12443985.89347 -11688495.71346  21668577.9844                   21668567.3914
        45.7504         38.2504
 -13008953.98046 -10812944.53045  22594163.7814                   22594154.7704
        39.7504         34.5004
  -9403202.28246  -7135082.30945  23670967.4144                   23670958.8714
        37.7504         35.2504
  -8712727.22447  -6722472.59646  23558388.1644                   23558379.7974
        42.0004         38.5004
  -9322267.60847  -7464844.79845  22202145.6334                   22202134.5704
        44.7504         30.5004
 -28190301.93148 -21791787.02449  20512296.2344                   20512287.6334
        53.5004         55.0004
 -10706838.94146  -6902188.18644  23860288.5864                   23860278.1094
        41.5004         26.0004
 -10735469.74346  -8387216.53543  23923253.4924                   23923243.3094
        36.7504         21.5004
    368667.75945    319469.84544  25261290.3364                   25261278.4534
        35.2504         29.0004
 -17858209.31948 -20103531.52349  20734350.2974                   20734341.3444
        51.7504         54.7504
 23  1  2  0 25  0.0000000  0 10G23G24G27G08G22G10G21G18G31G32
 -12384724.73947 -11642318.20446  21679854.7734                   21679844.2974
        45.0004         38.0004
 -12951189.64046 -10767933.37544  22605154.9694                   22605147.1294
        38.2504         29.5004
  -9319344.76846  -7069738.78145  23686925.9224                   23686917.3204
        37.7504         34.7504
  -8674233.06147  -6692477.17946  23565712.9694                   23565704.8954
        42.0004         38.5004
  -9397189.94547  -7523225.83745  22187888.3594                   22187876.8284
        44.7504         32.0004
 -28186985.00348 -21789202.41049  20512927.3834                   20512918.7234
        53.0004         55.0004
 -10785295.92046  -6963323.47044  23845359.7734                   23845347.7154
        41.5004         24.2504
 -10623965.14045  -8300329.82743  23944469.8204                   23944461.8634
        35.2504         22.2504
    250617.63045    227482.67445  25238825.3674                   25238814.3634
        35.0004         30.2504
 -17890104.76248 -20128385.11249  20728280.7584                   20728271.6884
        51.5004         54.7504
 23  1  2  0 25 30.0000000  0 10G23G24G27G08G22G10G21G18G31G32
 -12325220.48347 -11595951.27246  21691178.7734                   21691168.1804
        45.5004         38.0004
 -12892868.65446 -10722488.43245  22616254.4694                   22616245.4574
        39.0004         30.0004
  -9235246.85846  -7004207.95545  23702928.9774                   23702920.2584
        37.7504         34.0004
  -8635265.54947  -6662112.91046  23573128.4924                   23573120.1844
        42.2504         38.5004
  -9471809.71047  -7581371.08645  22173687.5944                   22173677.5274
        44.5004         31.5004
 -28183377.66348 -21786391.49949  20513613.9454                   20513605.2854
        53.7504         54.7504
 -10863525.90346  -7024281.89344  23830472.3754                   23830460.4344
        41.0004         24.7504
 -10512304.10746  -8213321.23743  23965720.6024                   23965710.5944
        37.7504         23.0004
                                  25216348.6174                   25216333.5704
        38.0004         27.7504
 -17921581.39248 -20152912.34749  20722290.8284                   20722282.1094
        51.7504         54.7504
 23  1  2  0 26  0.0000000  0 10G23G24G27G08G22G10G21G18G31G32
 -12265480.92247 -11549400.97346  21702546.1484                   21702535.9064
        45.5004         38.5004
 -12834000.50846 -10676617.16844  22627456.1334                   22627447.9414
        38.5004         29.5004
  -9150919.34146  -6938498.18545  23718977.0314                   23718967.5514
        38.2504         34.5004
  -8595833.94847  -6631387.00546  23580632.3754                   23580623.7734
        42.0004         38.5004
  -9546133.70647  -7639285.88045  22159544.2194                   22159533.7424
        44.5004         30.5004
 -28179486.99448 -21783359.80749  20514354.4144                   20514345.4614
        53.5004         55.0004
 -10941534.22446  -7085067.57944  23815627.3134                   23815616.0164
        41.2504         25.7504
 -10400496.29946  -8126198.27943  23986996.7034                   23986986.9304
        37.5004         22.5004
     14260.59445     43308.33845  25193847.8134                   25193838.4494
        35.5004         30.5004
 -17952646.88948 -20177119.21749  20716379.4774                   20716370.5824
        52.5004         54.7504
 23  1  2  0 26 30.0000000  0 10G23G24G27G08G22G10G21G18G31G32
 -12205498.78747 -11502661.66646  21713960.8674                   21713950.0984
        45.2504         38.0004
 -12774579.89346 -10630315.38445  22638763.3524                   22638754.8674
        38.5004         30.0004
  -9066357.77546  -6872606.08145  23735067.3524                   23735059.2194
        37.5004         34.0004
  -8555933.11646  -6600295.47046  23588224.5004                   23588216.7194
        41.7504         38.0004
  -9620153.18747  -7696963.39445  22145459.2504                   22145448.5984
        44.5004         31.0004
 -28175305.06548 -21780101.17349  20515150.0314                   20515141.3134
        53.7504         54.7504
 -11019311.72346  -7145673.41244  23800828.3364                   23800816.2194
        41.2504         25.5004
 -10288536.30546  -8038956.73943  24008301.7274                   24008291.7774
        38.2504         22.2504
   -104041.34946    -48875.00345  25171338.2114                   25171325.0984
        37.5004         32.0004
 -17983293.81248 -20200999.93349  20710547.6024                   20710538.5904
        51.7504         55.0004
 23  1  2  0 27  0.0000000  0 10G23G24G27G08G22G10G21G18G31G32
 -12145273.47747 -11455732.84946  21725421.3134                   21725410.7194
        46.2504         38.0004
 -12714607.99146 -10583584.03945  22650175.6724                   22650167.3054
        38.5004         30.2504
  -8981564.46746  -6806533.35545  23751203.1724                   23751194.4534
        37.2504         32.7504
  -8515563.80547  -6568838.90246  23595906.3054                   23595898.6414
        42.0004         38.2504
  -9693866.94647  -7754402.66945  22131432.4144                   22131421.1174
        44.5004         31.7504
 -28170830.44148 -21776614.45949  20516001.5394                   20515992.9384
        53.0004         54.7504
 -11096855.63946  -7206097.24044  23786071.3674                   23786059.0744
        41.2504         25.7504
 -10176425.44846  -7951597.65444  24029636.3204                   24029625.9614
        37.7504         24.7504
                                  25148813.1644                   25148803.7424
        37.7504         29.7504
 -18013521.38448 -20224553.88649  20704795.4144                   20704786.5784
        52.0004         55.0004
 23  1  2  0 27 30.0000000  0 10G23G24G27G08G22G10G21G18G31G32
 -12084812.11847 -11408620.11846  21736926.2814                   21736915.4534
        46.0004         38.0004
 -12654093.82146 -10536430.13145  22661690.7734                   22661682.7584
        38.7504         30.0004
  -8896549.36246  -6740287.80745  23767379.1804                   23767371.9264
        36.2504         33.7504
  -8474735.37247  -6537024.56046  23603676.2974                   23603667.6374
        42.2504         38.2504
  -9767280.92547  -7811608.35845  22117462.2194                   22117451.3324
        44.5004         30.7504
 -28166069.60848 -21772904.72349  20516907.3364                   20516898.9104
        53.2504         54.7504
 -11174170.51746  -7266342.58444  23771358.7894                   23771347.7854
        40.5004         25.7504
 -10064172.69246  -7864127.95143  24050997.1804                   24050986.9384
        37.5004         22.7504
                                  25126267.6724                   25126258.4844
        36.7504         31.2504
 -18043336.67248 -20247786.58349  20699121.5234                   20699113.1564
        52.0004         54.7504
 23  1  2  0 28  0.0000000  0 11G23G24G27G08G22G10G21G18G31G01G32
 -12024112.77947 -11361321.95746  21748477.4844                   21748467.0084
        45.7504         37.7504
 -12593037.23246 -10488853.58245  22673309.6174                   22673301.4264
        38.5004         30.2504
  -8811313.53846  -6673870.28045  23783601.2504                   23783592.3554
        36.7504         33.5004
  -8433447.17847  -6504851.97846  23611533.3364                   23611525.4964
        42.5004         38.0004
  -9840392.08347  -7868578.07945  22103548.9924                   22103538.5164
        45.0004         31.0004
 -28161019.77448 -21768969.79249  20517868.2504                   20517859.8834
        53.2504         55.0004
 -11251252.72246  -7326406.61044  23756690.8054                   23756679.7424
        40.7504         26.0004
  -9951777.99746  -7776547.68044  24072385.6724                   24072374.7274
        39.2504         24.2504
  -2034830.46345  -1535099.53845  25103708.9774                   25103702.5434
        34.2504         31.2504
  -1023837.19114                  25335893.492
        29.000
 -18072737.60448 -20270696.40649  20693526.8054                   20693518.0274
        52.0004         55.0004
 23  1  2  0 28 30.0000000  0 10G23G24G27G08G22G10G21G18G31G32
 -11963171.18247 -11313835.00646  21760074.2974                   21760063.5274
        45.2504         38.0004
 -12531436.06446 -10440852.67144  22685031.9694                   22685023.7194
        38.7504         29.5004
  -8725855.44046  -6607279.57245  23799862.1334                   23799853.6484
        36.0004         33.0004
  -8391697.38547  -6472319.70846  23619477.9064                   23619470.0664
        42.7504         38.0004
  -9913194.90147  -7925307.54245  22089694.9144                   22089684.4384
        44.0004         31.2504
 -28155675.90848 -21764805.73949  20518885.3914                   20518876.6134
        53.5004         55.0004
 -11328095.61846  -7386284.18744  23742068.7114                   23742055.9494
        41.0004         24.5004
  -9839239.00946  -7688854.98643  24093800.3524                   24093790.4024
        38.7504         22.5004
  -2153430.33355  -1627515.00454  25081143.2894                   25081132.4614
        33.7504         29.5004
 -18101719.77548 -20293279.91549  20688011.6954                   20688002.4494
        52.5004         54.7504
 23  1  2  0 29  0.0000000  0 11G23G24G27G08G22G10G21G18G31G01G32
 -11901990.93347 -11266162.10746  21771716.4614                   21771705.9264
        45.7504         37.5004
 -12469295.67746 -10392431.58244  22696856.7814                   22696848.7074
        38.5004         29.7504
  -8640181.74446  -6540520.80045  23816165.5554                   23816157.7734
        36.5004         34.0004
  -8349490.89347  -6439431.55646  23627510.5314                   23627501.1094
        42.5004         38.0004
  -9985692.14047  -7981798.87445  22075899.4694                   22075888.6414
        44.5004         31.0004
 -28150040.94548 -21760414.86049  20519957.7814                   20519949.0044
        52.7504         54.7504
 -11404700.38146  -7445976.21844  23727490.6954                   23727479.3404
        41.2504         25.2504
  -9726561.18846  -7601054.09143  24115242.8594                   24115232.1484
        39.7504         22.7504
  -2272099.18445  -1719984.18745  25058560.0554                   25058549.5784
        34.2504         30.0004
  -1249419.94515                  25292963.930
        31.500
 -18130286.77348 -20315539.90749  20682575.5864                   20682566.7504
        51.5004         54.7504
 23  1  2  0 29 30.0000000  0 10G23G24G27G08G22G10G21G18G31G32
 -11840571.46947 -11218302.79546  21783404.0704                   21783393.4774
        45.2504         37.5004
 -12406617.43946 -10343591.40344  22708783.7274                   22708775.8284
        38.0004         28.2504
  -8554294.65045  -6473595.82145  23832509.4534                   23832501.1454
        35.7504         33.0004
  -8306829.83147  -6406189.19546  23635626.6644                   23635619.1174
        42.2504         37.2504
 -10057882.19247  -8038050.85945  22062162.6094                   22062151.7234
        44.5004         31.2504
 -28144113.51348 -21755796.08349  20521085.7274                   20521076.9494
        52.5004         54.7504
 -11481064.39347  -7505480.61744  23712959.3674                   23712947.2504
        42.0004         26.0004
  -9613745.85246  -7513146.03643  24136710.7894                   24136700.4884
        39.0004         22.5004
  -2390833.46446  -1812504.41445  25035968.2974                   25035955.8874
        36.7504         32.2504
 -18158437.91348 -20337475.86049  20677218.6484                   20677209.4614
        51.7504         54.7504
 23  1  2  0 30  0.0000000  0 11G23G24G27G08G22G10G21G18G31G01G32
 -11778913.44047 -11170257.58746  21795137.7734                   21795126.7114
        45.7504         37.5004
 -12343403.94146 -10294334.13844  22720813.4844                   22720805.3524
        38.5004         29.0004
  -8468197.66346  -6406507.24045  23848893.7974                   23848884.3754
        37.5004         32.7504
  -8263715.95047  -6372594.00146  23643832.1804                   23643823.7544
        43.0004         37.5004
 -10129764.59347  -8094063.10945  22048483.5234                   22048472.5204
        45.2504         31.5004
 -28137893.37548 -21750949.22849  20522269.1564                   20522260.8484
        51.7504         54.7504
 -11557186.29847  -7564796.37444  23698474.0864                   23698461.0904
        42.0004         25.2504
  -9500795.50546  -7425132.80543  24158203.9694                   24158194.0784
        39.0004         22.5004
  -2509630.12045  -1905073.24845  25013359.0164                   25013349.4184
        33.5004         31.5004
  -1474715.27555   -611908.65152  25250093.2814                   25250085.7934
        31.0004         17.2504
 -18186173.67148 -20359088.13749  20671940.6644                   20671931.7114
        51.0004         54.7504
 23  1  2  0 30 30.0000000  0 10G23G24G27G08G22G10G21G18G31G32
 -11717017.83847 -11122027.26546  21806915.7274                   21806905.2504
        44.5004         37.2504
 -12279658.24646 -10244662.17144  22732943.4304                   22732935.7074
        39.0004         29.7504
  -8381894.83346  -6339258.26245  23865316.2974                   23865308.0474
        36.7504         32.5004
  -8220152.82547  -6338648.72746  23652123.1174                   23652113.7544
        43.5004         37.5004
 -10201339.06247  -8149835.41545  22034862.6954                   22034852.3954
        44.5004         31.7504
 -28131380.93148 -21745874.59749  20523508.4614                   20523499.6254
        53.0004         54.7504
 -11633064.52947  -7623922.26744  23684034.7974                   23684023.0314
        42.2504         26.2504
  -9387713.18846  -7337016.69744  24179723.2664                   24179713.3754
        38.2504         24.5004
  -2628487.93145  -1997689.75745  24990741.9534                   24990731.7704
        35.2504         31.7504
 -18213495.16248 -20380377.59949  20666741.6484                   20666732.6954
        51.5004         55.2504
 23  1  2  0 31  0.0000000  0 11G23G24G27G08G22G10G21G18G31G01G32
 -11654883.92647 -11073611.24446  21818738.9924                   21818728.8094
        44.5004         38.0004
 -12215381.48346 -10194576.38944  22745173.6804                   22745166.7774
        37.0004         29.0004
  -8295388.04946  -6271850.41845  23881776.7344                   23881769.4804
        36.7504         33.0004
  -8176141.00347  -6304353.81746  23660497.3914                   23660489.1994
        42.0004         37.5004
 -10272604.23247  -8205366.70745  22021301.7424                   22021290.9734
        44.7504         30.7504
 -28124574.48848 -21740570.88449  20524803.7664                   20524795.1644
        52.0004         54.7504
 -11708695.82846  -7682855.73844  23669642.1644                   23669630.4574
        41.7504         26.5004
  -9274499.84946  -7248798.57444  24201267.5554                   24201256.7274
        39.5004         25.2504
  -2747403.01745  -2090350.82845  24968112.0004                   24968102.5204
        34.0004         31.5004
                                  25207282.758
        31.500
 -18240401.60048 -20401343.65249  20661621.4844                   20661612.1804
        51.2504         55.0004
 23  1  2  0 31 30.0000000  0 10G23G24G27G08G22G10G21G18G31G32
 -11592511.85347 -11025009.65446  21830608.3524                   21830597.6994
        45.0004         37.0004
 -12150575.87846 -10144078.52544  22757508.4454                   22757499.0234
        39.2504         28.7504
  -8208680.58446  -6204286.12745  23898278.2034                   23898269.1334
        37.0004         33.0004
  -8131682.93847  -6269711.19046  23668956.8364                   23668949.2894
        42.0004         37.0004
 -10343559.10847  -8260656.21545  22007799.2424                   22007788.7664
        43.7504         30.0004
 -28117473.55648 -21735037.68949  20526155.2194                   20526146.3244
        52.2504         54.7504
 -11784078.41146  -7741595.39844  23655297.4694                   23655285.2344
        41.5004         27.0004
  -9161157.65746  -7160479.95743  24222833.0864                   24222825.2464
        37.5004         22.7504
  -2866372.50745  -2183054.37145  24945474.3054                   24945463.5354
        34.7504         30.2504
 -18266892.88848 -20421986.21149  20656580.2584                   20656571.3634
        51.2504         54.7504
 23  1  2  0 32  0.0000000  0 11G23G24G27G08G22G10G21G18G31G01G32
 -11529902.53147 -10976223.16846  21842522.6724                   21842511.7854
        45.2504         36.7504
 -12085244.21746 -10093170.73444  22769937.5394                   22769931.4574
        37.0004         27.5004
  -8121776.05046  -6136568.33745  23914814.3914                   23914807.1374
        36.2504         32.2504
  -8086781.76947  -6234723.27746  23677501.6724                   23677492.5434
        42.5004         36.0004
 -10414203.53747  -8315703.80845  21994356.7034                   21994345.8164
        44.7504         30.5004
 -28110078.03248 -21729274.94649  20527562.2504                   20527553.5314
        51.2504         54.7504
 -11859211.09346  -7800140.35044  23641000.0704                   23640989.2424
        40.7504         26.2504
  -9047689.35446  -7072063.12343  24244428.4064                   24244417.6374
        39.5004         23.7504
  -2985394.38945  -2275798.66045  24922825.5164                   24922814.1024
        35.0004         30.5004
                                  25164536.2274                   25164528.1524
        29.5004         15.5004
 -18292970.01748 -20442306.04549  20651617.9924                   20651609.0394
        51.2504         54.7504
 23  1  2  0 32 30.0000000  0 10G23G24G27G08G22G10G21G18G31G32
 -11467055.98947 -10927251.85446  21854482.0234                   21854471.6054
        44.5004         37.0004
 -12019388.64546 -10041854.71844  22782471.6564                   22782463.3484
        38.2504         28.5004
  -8034677.50046  -6068699.31445  23931390.1254                   23931380.5864
        36.7504         32.7504
  -8041438.81446  -6199391.11346  23686129.4694                   23686121.5124
        41.7504         36.2504
 -10484536.66347  -8370508.83345  21980972.1334                   21980961.7734
        43.7504         31.5004
 -28102387.76548 -21723282.54249  20529025.7584                   20529017.0984
        53.0004         54.7504
 -11934091.39546  -7858488.60644  23626750.7664                   23626739.1174
        41.2504         26.7504
  -8934096.84246  -6983549.49943  24266043.3914                   24266033.0904
        37.7504         23.0004
  -3104465.95845  -2368581.70045  24900166.7194                   24900155.4804
        34.5004         31.7504
 -18318632.95548 -20462303.14549  20646734.6174                   20646725.3714
        51.7504         54.7504
 23  1  2  0 33  0.0000000  0 11G23G24G27G08G22G10G21G18G31G01G32
 -11403972.54347 -10878095.94046  21866486.0314                   21866475.8484
        44.5004         36.5004
 -11953011.49646  -9990132.26244  22795102.4144                   22795094.1644
        37.7504         28.7504
  -7947387.94746  -6000681.47545  23947999.8914                   23947991.6414
        36.0004         33.2504
  -7995656.25147  -6163716.41646  23694842.3444                   23694834.5044
        42.0004         36.5004
 -10554557.71347  -8425070.68545  21967647.6414                   21967636.9884
        44.5004         31.5004
 -28094402.08148 -21717059.93349  20530545.6414                   20530536.7464
        51.7504         54.7504
 -12008717.53446  -7916638.84044  23612550.0554                   23612538.1724
        41.0004         26.5004
  -8820382.35946  -6894940.81944  24287682.8914                   24287672.0634
        39.0004         25.0004
  -3223584.54345  -2461401.38645  24877499.0704                   24877487.4804
        35.2504         32.2504
                                  25121857.7504                   25121850.6724
        32.2504         16.7504
 -18343882.01148 -20481977.73149  20641929.8444                   20641920.2464
        51.2504         54.7504
 23  1  2  0 33 30.0000000  0 11G23G24G27G08G22G10G21G18G31G01G32
 -11340652.09547 -10828755.34346  21878535.5164                   21878525.1564
        44.2504         36.0004
 -11886114.72946  -9938004.93744  22807832.7114                   22807824.5784
        37.7504         28.7504
  -7859910.27946  -5932517.07145  23964646.2584                   23964638.4184
        36.7504         33.0004
  -7949436.77646  -6127701.25946  23703637.3834                   23703630.0704
        41.5004         36.2504
 -10624265.66847  -8479388.55745  21954382.6174                   21954372.1994
        44.0004         31.7504
 -28086119.75548 -21710606.18449  20532121.7584                   20532112.6884
        52.0004         54.7504
 -12083087.98946  -7974589.82544  23598397.8054                   23598386.3324
        41.5004         27.7504
  -8706547.71146  -6806238.53044  24309344.0944                   24309334.4384
        37.5004         24.2504
  -3342746.99446  -2554255.19045  24854824.5004                   24854812.6174
        36.7504         32.2504
                                  25100544.9224                   25100536.7894
        28.5004         17.2504
 -18368717.12848 -20501329.77549  20637203.8444                   20637194.7154
        51.7504         54.7504
 23  1  2  0 34  0.0000000  0 11G23G24G27G08G22G10G21G18G31G01G32
 -11277095.13447 -10779230.43946  21890629.7664                   21890619.6994
        44.2504         36.5004
 -11818700.87046  -9885474.66844  22820661.0084                   22820652.6414
        38.0004         29.0004
  -7772247.97745  -5864208.79445  23981328.0234                   23981319.1884
        35.7504         32.2504
  -7902782.41846  -6091347.24146  23712515.2974                   23712507.9264
        41.5004         36.7504
 -10693659.97747  -8533462.03745  21941177.5554                   21941166.6684
        44.5004         31.7504
 -28077540.92748 -21703921.37849  20533753.9064                   20533745.0124
        51.5004         54.7504
 -12157199.71546  -8032339.19944  23584294.7424                   23584283.1524
        41.5004         28.0004
  -8592595.32346  -6717444.44644  24331028.9774                   24331019.4964
        39.0004         26.5004
  -3461950.89746  -2647141.32345  24832139.5004                   24832128.2034
        36.0004         31.5004
  -2372528.85455  -1199084.47052  25079251.0554                   25079242.3954
        32.2504         17.2504
 -18393138.75648 -20520359.61849  20632556.7344                   20632547.3134
        51.2504         54.7504
 23  1  2  0 34 30.0000000  0 11G23G24G27G08G22G10G21G18G31G01G32
 -11213302.48447 -10729521.90746  21902769.5084                   21902759.2074
        44.5004         36.0004
 -11750772.85946  -9832543.75144  22833587.5704                   22833579.3794
        38.7504         27.7504
  -7684404.49146  -5795759.30245  23998045.5704                   23998035.9144
        36.2504         33.2504
  -7855696.15246  -6054656.66445  23721476.0864                   23721467.3094
        41.5004         35.5004
 -10762740.44547  -8587290.97445  21928031.5474                   21928021.3054
        44.0004         32.0004
 -28068665.37648 -21697005.37049  20535443.0004                   20535434.2234
        51.0004         55.0004
 -12231051.73446  -8089886.22144  23570241.4534                   23570229.2774
        41.7504         26.5004
  -8478527.75046  -6628560.63743  24352736.2584                   24352725.3714
        38.7504         22.7504
  -3581193.91946  -2740057.96945  24809447.0944                   24809437.2624
        36.2504         32.2504
                                  25057973.3594                   25057966.6914
        31.2504         17.2504
 -18417147.73048 -20539067.90349  20627987.8284                   20627978.6994
        52.0004         54.7504
 23  1  2  0 35  0.0000000  0 10G23G24G27G08G22G10G21G18G31G32
 -11149273.94247 -10679629.54746  21914953.6564                   21914943.3554
        44.2504         36.0004
 -11682332.49446  -9779213.61144  22846611.5084                   22846602.7894
        38.5004         27.7504
  -7596382.56945  -5727170.81445  24014794.1094                   24014786.3284
        35.5004         32.5004
  -7808179.48246  -6017630.70145  23730518.0944                   23730509.2584
        41.5004         35.5004
 -10831506.07247  -8640874.55145  21914946.4844                   21914935.5394
        45.0004         33.0004
 -28059492.19548 -21689857.44349  20537188.5704                   20537179.6764
        51.5004         54.7504
 -12304642.29346  -8147229.50144  23556237.0394                   23556225.9774
        40.5004         26.7504
  -8364346.84046  -6539588.53344  24374462.9694                   24374453.8404
        38.0004         24.5004
  -3700473.15146  -2833002.76245  24786750.7814                   24786738.6054
        36.7504         32.5004
 -18440743.85948 -20557454.50049  20623497.6174                   20623488.6644
        51.5004         54.7504
 23  1  2  0 35 30.0000000  0 11G23G24G27G08G22G10G21G18G31G01G32
 -11085009.66047 -10629553.49546  21927182.2814                   21927172.2734
        44.0004         36.5004
 -11613382.09746  -9725486.03444  22859731.7344                   22859723.7774
        39.0004         28.5004
  -7508185.24745  -5658445.58845  24031577.4454                   24031568.7854
        35.2504         32.7504
  -7760234.88146  -5980271.27645  23739641.8914                   23739632.6454
        41.5004         35.5004
 -10899955.98247  -8694212.14445  21901920.5864                   21901910.1094
        44.5004         32.2504
 -28050020.88648 -21682477.20749  20538990.9454                   20538982.3444
        51.5004         55.0004
 -12377968.71046  -8204366.96144  23542283.9304                   23542272.2814
        41.5004         26.7504
  -8250054.55246  -6450529.59844  24396212.1334                   24396202.5944
        38.2504         24.5004
  -3819785.43145  -2925973.39545  24764045.2664                   24764034.6724
        35.5004         33.2504
  -2707639.40955  -1407543.01152  25015479.2424                   25015471.6954
        30.7504         15.5004
 -18463927.37348 -20575519.56949  20619085.7734                   20619076.6454
        52.0004         54.7504
 23  1  2  0 36  0.0000000  0 11G23G24G27G08G22G10G21G18G31G01G32
 -11020510.02747 -10579294.04146  21939456.6804                   21939446.0864
        45.0004         36.0004
 -11543924.08646  -9671362.91844  22872948.9614                   22872940.9454
        38.2504         27.2504
  -7419815.76845  -5589586.26145  24048393.6724                   24048386.1844
        35.0004         32.2504
  -7711864.94446  -5942580.43945  23748845.9224                   23748838.9024
        41.0004         35.5004
 -10968089.56347  -8747303.22645  21888955.1334                   21888944.4804
        45.7504         32.2504
 -28040250.73048 -21674864.09449  20540850.3984                   20540841.5634
        51.0004         54.7504
 -12451028.54546  -8261296.69844  23528380.4144                   23528369.0594
        41.0004         25.7504
  -8135653.10146  -6361385.65544  24417981.6174                   24417972.1374
        38.0004         24.2504
  -3939128.37145  -3018967.89645  24741334.6724                   24741324.8404
        34.7504         33.0004
                                  24994262.6334                   24994255.6134
        28.5004         14.7504
 -18486698.58248 -20593263.37049  20614752.9064                   20614743.3094
        51.7504         54.7504
 23  1  2  0 36 30.0000000  0 10G23G24G27G08G22G10G21G18G31G32
 -10955775.29947 -10528851.41346  21951775.4614                   21951765.1024
        44.7504         36.0004
 -11473960.95046  -9616846.19144  22886262.7424                   22886254.4924
        37.2504         27.0004
  -7331277.21146  -5520595.18545  24065243.6254                   24065233.5594
        36.0004         31.5004
  -7663071.42546  -5904559.54045  23758130.9774                   23758124.3094
        40.7504         35.7504
 -11035905.91447  -8800147.13345  21876049.9224                   21876039.3874
        45.5004         32.0004
 -28030181.44948 -21667017.90849  20542766.4304                   20542757.5354
        50.7504         54.7504
 -12523820.90746  -8318017.99644  23514529.1644                   23514517.3404
        41.5004         27.0004
  -8021144.78646  -6272158.37044  24439772.0554                   24439762.4574
        39.0004         25.2504
  -4058499.02946  -3111984.00445  24718619.9064                   24718609.2544
        36.2504         33.0004
 -18509057.88148 -20610686.20049  20610497.9144                   20610488.7854
        51.2504         55.0004
 23  1  2  0 37  0.0000000  0 10G23G24G27G08G22G10G21G18G31G32
 -10890805.70547 -10478225.77246  21964138.5704                   21964128.4454
        46.0004         36.2504
 -11403494.94046  -9561937.65144  22899672.4694                   22899664.1604
        38.0004         26.5004
  -7242572.70245  -5451474.73345  24082121.2584                   24082113.5354
        34.2504         31.7504
  -7613856.89147  -5866210.57145  23767496.9614                   23767488.7704
        42.0004         35.5004
 -11103404.80147  -8852743.64645  21863205.8364                   21863195.1844
        46.0004         32.7504
 -28019812.59848 -21658938.28749  20544739.4694                   20544730.7504
        50.5004         54.7504
 -12596343.60246  -8374529.18444  23500727.8054                   23500716.4494
        41.0004         27.0004
  -7906531.51446  -6182849.37344  24461582.9224                   24461572.5634
        38.5004         24.2504
  -4177894.66546  -3205019.57545  24695899.8674                   24695889.1564
        36.0004         32.2504
 -18531005.51248 -20627788.24849  20606321.3204                   20606312.1334
        51.2504         54.7504
 23  1  2  0 37 30.0000000  0 11G23G24G27G08G22G10G21G18G31G01G32
 -10825601.84247 -10427417.58746  21976546.2734                   21976536.0314
        44.5004         36.0004
 -11332528.88046  -9506639.40644  22913177.0084                   22913168.1724
        38.7504         26.5004
  -7153705.61246  -5382227.69045  24099033.4614                   24099024.9184
        36.7504         32.0004
  -7564224.30746  -5827535.83445  23776940.8054                   23776932.2624
        40.0004         34.0004
 -11170585.70147  -8905092.39545  21850421.6644                   21850410.8954
        45.7504         33.5004
 -28009143.55248 -21650624.74749  20546769.6414                   20546760.6294
        51.2504         54.7504
 -12668594.64546  -8430828.69044  23486979.8284                   23486967.5944
        41.7504         27.7504
  -7791816.00946  -6093460.62944  24483411.2664                   24483402.3134
        37.2504         25.0004
  -4297312.99746  -3298072.81745  24673175.6094                   24673164.7234
        37.2504         33.0004
                                  24930736.7194                   24930729.4064
        31.5004         16.2504
 -18552542.14548 -20644570.04049  20602223.1644                   20602214.2704
        52.2504         54.7504
 23  1  2  0 38  0.0000000  0 10G23G24G27G08G22G10G21G18G31G32
 -10760163.31647 -10376426.53345  21988998.4924                   21988988.3094
        45.2504         35.5004
 -11261064.51346  -9450952.92544  22926775.3444                   22926767.3284
        36.2504         26.0004
  -7064678.58145  -5312855.94645  24115973.8524                   24115965.5434
        35.0004         30.5004
  -7514174.97846  -5788536.36145  23786465.2894                   23786456.2774
        40.2504         34.2504
 -11237447.18347  -8957192.23945  21837698.0234                   21837687.6644
        46.2504         33.7504
 -27998173.62948 -21642076.76349  20548857.3754                   20548848.4804
        50.7504         55.0004
 -12740570.99446  -8486914.14744  23473282.1564                   23473271.0944
        41.2504         26.7504
  -7676999.54046  -6003993.28443  24505261.6024                   24505251.2424
        38.7504         23.5004
  -4416750.47346  -3391141.01345  24650446.5784                   24650435.8674
        36.2504         33.2504
 -18573667.47048 -20661031.32649  20598203.1174                   20598193.8714
        51.2504         55.0004
 23  1  2  0 38 30.0000000  0 11G23G24G27G08G22G10G21G18G31G01G32
 -10694491.17747 -10325253.44646  22001496.2894                   22001485.5784
        46.0004         36.2504
 -11189105.12746  -9394880.67244  22940469.0944                   22940461.1954
        39.0004         26.7504
  -6975495.33645  -5243362.49645  24132945.1804                   24132937.0474
        35.7504         30.7504
  -7463712.38846  -5749214.88245  23796069.1334                   23796060.6484
        41.2504         35.2504
 -11303989.71347  -9009043.54345  21825035.0704                   21825024.5354
        45.5004         33.7504
 -27986902.80048 -21633294.30949  20551001.8914                   20550993.3484
        51.2504         54.7504
 -12812272.08247  -8542785.09144  23459638.8594                   23459626.5664
        42.0004         27.0004
  -7562085.27946  -5914449.66543  24527127.7974                   24527118.5514
        37.5004         22.5004
  -4536204.93146  -3484222.41545  24627714.9224                   24627705.4414
        36.2504         33.5004
  -3374931.98655  -1698527.29552  24888497.1334                   24888489.2344
        32.0004         17.7504
 -18594382.62448 -20677173.00249  20594261.0004                   20594252.0474
        51.7504         55.0004
 23  1  2  0 39  0.0000000  0 11G23G24G27G08G22G10G21G18G31G01G32
 -10628587.18547 -10273899.69446  22014037.4384                   22014026.9614
        45.7504         36.5004
 -11116654.46946  -9338425.64744  22954255.9064                   22954247.8324
        37.5004         26.7504
  -6886160.46345  -5173750.90745  24149944.7034                   24149936.9804
        35.0004         30.0004
  -7412840.35146  -5709574.34545  23805748.8674                   23805741.4964
        40.2504         35.0004
 -11370213.73347  -9060646.66745  21812434.1094                   21812422.9304
        46.5004         33.5004
 -27975332.10548 -21624278.17949  20553203.6724                   20553195.1294
        50.5004         55.0004
 -12883697.53546  -8598441.30044  23446046.0704                   23446034.5394
        41.2504         28.5004
  -7447076.58946  -5824832.57743  24549014.1254                   24549004.1764
        37.7504         23.0004
  -4655675.25446  -3577316.19145  24604981.1024                   24604970.2154
        37.0004         33.0004
  -3485741.22745  -1784872.17842  24867410.0474                   24867404.2584
        31.5004         16.7504
 -18614689.36248 -20692996.43149  20590396.7664                   20590387.6374
        51.0004         54.7504
 23  1  2  0 39 30.0000000  0 11G23G24G27G08G22G10G21G18G31G01G32
 -10562447.84147 -10222362.55845  22026623.1174                   22026612.8164
        45.5004         35.7504
 -11043711.36746  -9281586.86244  22968136.7274                   22968127.9494
        37.2504         26.0004
  -6796673.34646  -5104020.68245  24166973.4534                   24166965.3794
        36.0004         31.0004
  -7361557.37046  -5669613.61945  23815507.1724                   23815499.3324
        39.0004         33.7504
 -11436114.71547  -9111998.07545  21799892.4304                   21799882.0124
        46.5004         33.5004
 -27963457.29148 -21615025.08749  20555463.6644                   20555454.9454
        51.5004         54.7504
 -12954841.00446  -8653877.75444  23432508.3984                   23432496.6334
        41.7504         28.0004
  -7331972.03746  -5735140.68643  24570918.1644                   24570908.0984
        38.0004         22.0004
  -4775154.87846  -3670417.22045  24582245.5554                   24582234.4924
        38.0004         34.0004
  -3596424.88055  -1871119.28152  24846348.9534                   24846340.5864
        32.0004         16.7504
 -18634584.37048 -20708499.03049  20586610.9924                   20586601.9804
        52.5004         54.7504
 23  1  2  0 40  0.0000000  0 11G23G24G27G08G22G10G21G18G31G01G32
 -10496076.32447 -10170644.51545  22039253.0004                   22039242.5824
        45.5004         35.0004
 -10970281.24446  -9224368.56844  22982110.6484                   22982101.2854
        38.2504         25.7504
  -6707040.06246  -5034176.54345  24184031.7274                   24184022.2464
        36.7504         31.0004
  -7309868.79246  -5629336.81445  23825343.6024                   23825334.5314
        39.2504         33.5004
 -11501695.61347  -9163100.05545  21787413.4224                   21787402.5944
        46.2504         33.7504
 -27951280.66648 -21605536.80949  20557780.5394                   20557772.0554
        50.2504         55.0004
 -13025703.85847  -8709095.54344  23419023.8914                   23419011.9494
        42.7504         28.0004
  -7216776.59346  -5645377.99043  24592837.7194                   24592829.0594
        36.7504         21.7504
  -4894643.65646  -3763525.39645  24559506.4534                   24559496.1524
        37.5004         33.5004
  -3706983.27245  -1957268.71643  24825309.6804                   24825303.2464
        31.5004         18.2504
 -18654070.85348 -20723683.30149  20582902.7664                   20582893.8134
        51.7504         54.7504
 23  1  2  0 40 30.0000000  0 11G23G24G27G08G22G10G21G18G31G01G32
 -10429471.25047 -10118744.47145  22051927.8444                   22051917.5434
        45.7504         35.7504
 -10896364.82546  -9166771.37944  22996175.7664                   22996167.2814
        37.2504         26.2504
  -6617261.88546  -4964219.52845  24201115.1414                   24201106.1294
        36.0004         30.7504
  -7257775.09946  -5588744.32545  23835256.5864                   23835247.8674
        39.2504         33.7504
 -11566953.93847  -9213950.69245  21774995.4304                   21774984.4264
        46.0004         34.0004
 -27938799.91348 -21595811.54449  20560155.2734                   20560146.7894
        51.2504         54.7504
 -13096282.15047  -8764091.61244  23405593.2814                   23405580.8714
        42.5004         28.0004
  -7101490.77446  -5555544.93443  24614776.8524                   24614766.7854
        37.5004         21.7504
  -5014137.43546  -3856637.46245  24536768.5004                   24536757.3204
        38.0004         34.7504
  -3817412.10355  -2043317.19352  24804296.8524                   24804289.0704
        31.5004         17.2504
 -18673147.61448 -20738548.31349  20579272.5474                   20579263.5354
        51.7504         54.7504
 23  1  2  0 41  0.0000000  0 11G23G24G27G08G22G10G21G18G31G01G32
 -10362634.04747 -10066663.54745  22064646.2034                   22064635.8444
        45.7504         35.5004
 -10821965.81646  -9108798.13344  23010333.6334                   23010324.7974
        37.2504         27.2504
  -6527343.20446  -4894153.02245  24218227.4304                   24218217.1884
        36.7504         31.0004
  -7205280.07046  -5547839.11045  23845245.5784                   23845238.6174
        38.5004         32.7504
 -11631890.21547  -9264550.36945  21762638.6414                   21762627.2854
        46.5004         33.7504
 -27926016.02748 -21585850.08449  20562588.3754                   20562579.3054
        50.5004         54.7504
 -13166575.25947  -8818865.43744  23392216.9304                   23392204.7544
        43.0004         28.0004
  -6986117.92446  -5465643.97343  24636732.1564                   24636721.5044
        38.5004         22.7504
  -5133634.41446  -3949752.01845  24514029.3444                   24514018.2234
        39.2504         34.0004
  -3927709.94245  -2129263.57742  24783307.1334                   24783299.7034
        32.2504         17.2504
 -18691816.12648 -20753095.19449  20575719.9534                   20575710.7664
        51.2504         54.7504
 23  1  2  0 41 30.0000000  0 11G23G24G27G08G22G10G21G18G31G01G32
 -10295564.75947 -10014401.78345  22077409.2424                   22077399.3524
        45.7504         35.5004
 -10747086.48246  -9050450.59344  23024581.6334                   23024574.0864
        37.0004         25.0004
  -6437286.84546  -4823979.21745  24235362.9694                   24235355.0124
        36.5004         31.7504
  -7152386.00146  -5506623.01145  23855310.3674                   23855304.3444
        37.0004         33.0004
 -11696503.61747  -9314898.46645  21750342.6484                   21750331.7034
        46.2504         34.0004
 -27912928.08948 -21575651.68849  20565079.0394                   20565070.0864
        52.5004         55.2504
 -13236581.26547  -8873415.58444  23378894.4924                   23378883.1954
        42.2504         28.2504
  -6870659.89745  -5375676.73243  24658701.5084                   24658692.8484
        35.5004         22.0004
  -5253131.45646  -4042866.67245  24491289.0164                   24491278.1294
        38.2504         34.7504
  -4037873.78245  -2215105.49442  24762344.9454                   24762336.1094
        33.7504         17.2504
 -18710076.62848 -20767324.15949  20572244.8364                   20572236.4694
        52.0004         54.7504
 23  1  2  0 42  0.0000000  0 11G23G24G27G08G22G10G21G18G31G01G32
 -10228263.85747  -9961959.53645  22090217.0084                   22090205.6524
        46.5004         35.5004
 -10671729.53646  -8991730.92344  23038922.3054                   23038913.8204
        36.7504         25.2504
  -6347096.09446  -4753700.77245  24252525.7894                   24252516.3674
        36.2504         31.0004
  -7099095.44546  -5465097.91245  23865453.1564                   23865444.2034
        37.5004         32.2504
 -11760793.50847  -9364994.46245  21738108.7424                   21738097.9144
        46.5004         34.0004
 -27899535.76648 -21565216.12149  20567627.5944                   20567618.3484
        51.2504         54.7504
 -13306298.27347  -8927740.50044  23365627.9224                   23365616.3324
        42.0004         28.0004
  -6755119.08646  -5285644.93643  24680689.2974                   24680679.6994
        36.5004         22.0004
  -5372626.04446  -4135979.36245  24468548.8754                   24468539.5124
        36.2504         34.5004
  -4147901.42245  -2300841.29942  24741405.5474                   24741398.6454
        31.5004         17.2504
 -18727929.64748 -20781235.60449  20568847.8284                   20568839.1684
        52.5004         54.7504
 23  1  2  0 42 30.0000000  0 11G23G24G27G08G22G10G21G18G31G01G32
 -10160731.47047  -9909336.91345  22103067.3594                   22103057.0594
        46.2504         35.5004
 -10595897.34046  -8932640.91444  23053352.5394                   23053343.8794
        37.7504         24.5004
  -6256773.93246  -4683319.81945  24269712.8914                   24269704.4654
        37.0004         31.5004
  -7045410.88446  -5423265.77845  23875667.8204                   23875659.7464
        38.0004         33.0004
 -11824759.33347  -9414837.95745  21725936.4694                   21725925.4064
        46.5004         34.5004
 -27885838.46248 -21554542.90649  20570234.0474                   20570225.3284
        52.2504         54.7504
 -13375723.91347  -8981838.39344  23352417.6094                   23352405.3164
        43.5004         28.2504
  -6639497.52546  -5195550.16843  24702691.0944                   24702681.4964
        37.5004         22.0004
  -5492114.99846  -4229087.64645  24445812.6954                   24445801.8094
        37.7504         35.2504
  -4257789.90845  -2386468.69743  24720495.9614                   24720488.3554
        34.5004         19.5004
 -18745375.47148 -20794829.74149  20565528.0864                   20565518.7234
        52.7504         55.0004
 23  1  2  0 43  0.0000000  0 11G23G24G27G08G22G10G21G18G31G01G32
 -10092967.95047  -9856534.18645  22115962.2034                   22115951.6094
        46.0004         35.7504
 -10519592.45846  -8873182.55044  23067873.7424                   23067864.7304
        37.5004         24.7504
  -6166323.42446  -4612838.91445  24286926.6484                   24286917.5784
        37.5004         31.7504
  -6991334.85246  -5381128.61745  23885958.7034                   23885950.1604
        37.0004         32.2504
 -11888400.52547  -9464428.47345  21713825.9384                   21713815.4614
        45.7504         34.5004
 -27871835.50648 -21543631.51949  20572898.3444                   20572889.8014
        51.7504         54.7504
 -13444856.41347  -9035707.86544  23339260.9844                   23339250.0984
        42.2504         28.7504
  -6523797.33946  -5105394.25243  24724708.6954                   24724698.7464
        37.7504         21.5004
  -5611595.60546  -4322189.43845  24423076.1174                   24423065.0554
        37.7504         34.5004
  -4367536.61845  -2471985.64243  24699610.8364                   24699603.8164
        31.7504         18.2504
 -18762414.61648 -20808107.00449  20562285.5634                   20562276.4344
        51.7504         54.7504
 23  1  2  0 43 30.0000000  0 11G23G24G27G08G22G10G21G18G31G01G32
 -10024973.32447  -9803551.39445  22128901.7584                   22128890.6374
        47.0004         35.7504
 -10442817.24546  -8813357.72344  23082483.4844                   23082474.5904
        37.7504         25.2504
  -6075747.39746  -4542260.20145  24304161.6334                   24304152.7974
        37.7504         31.5004
  -6936869.59246  -5338688.19245  23896322.6174                   23896315.1294
        36.0004         31.7504
 -11951716.44347  -9513765.52945  21701776.9924                   21701766.3404
        45.7504         34.7504
 -27857526.33048 -21532481.50949  20575621.6254                   20575612.8484
        51.2504         54.7504
 -13513693.64947  -9089347.25344  23326161.9304                   23326150.3404
        42.0004         28.5004
  -6408020.45746  -5015178.45143  24746739.3134                   24746729.7154
        37.2504         22.0004
  -5731064.99546  -4415282.50145  24400341.5864                   24400331.2854
        38.0004         35.0004
  -4477138.88145  -2557389.99943  24678755.5864                   24678747.1604
        35.5004         19.5004
 -18779047.22548 -20821067.46349  20559120.4614                   20559111.8594
        51.7504         54.7504
 23  1  2  0 44  0.0000000  0 11G23G24G27G08G22G10G21G18G31G01G32
  -9956748.58747  -9750389.26645  22141884.3674                   22141873.4224
        46.5004         35.2504
 -10365575.01746  -8753168.97444  23097181.7664                   23097173.1644
        37.7504         25.2504
  -5985049.73345  -4471586.68345  24321419.7664                   24321412.0434
        35.7504         32.0004
  -6882018.63646  -5295947.22145  23906761.4844                   23906753.0004
        38.2504         32.5004
 -12014707.19947  -9562849.21445  21689790.3984                   21689779.5124
        45.5004         34.5004
 -27842911.19248 -21521093.09249  20578402.8054                   20578394.2034
        52.0004         55.0004
 -13582234.69747  -9142755.87444  23313119.2974                   23313107.6484
        43.0004         29.0004
  -6292169.74146  -4924905.20043  24768786.2424                   24768775.7074
        38.0004         21.5004
  -5850520.70146  -4508364.89645  24377609.0704                   24377599.0634
        36.7504         34.2504
  -4586594.55745  -2642680.16443  24657925.3754                   24657917.7704
        33.0004         18.2504
 -18795274.50048 -20833712.09549  20556032.4064                   20556023.8054
        53.0004         54.7504
 23  1  2  0 44 30.0000000  0 11G23G24G27G08G22G10G21G18G31G01G32
  -9888292.96347  -9697047.22645  22154911.3914                   22154900.3284
        46.5004         35.0004
 -10287867.26846  -8692617.47844  23111968.3134                   23111960.6484
        37.2504         25.5004
  -5894232.45246  -4400820.00045  24338703.8204                   24338694.9264
        37.7504         32.5004
  -6826783.09746  -5252906.53745  23917272.0164                   23917263.0044
        37.7504         32.5004
 -12077371.02247  -9611678.16045  21677866.0084                   21677855.1214
        45.7504         34.5004
 -27827988.52348 -21509465.04549  20581242.4774                   20581233.6994
        51.5004         55.2504
 -13650475.71446  -9195930.67844  23300133.2194                   23300121.9224
        41.7504         27.7504
  -6176246.30646  -4834575.27343  24790845.4694                   24790835.0514
        37.5004         22.2504
  -5969958.91346  -4601433.62545  24354881.2504                   24354870.6564
        37.5004         34.2504
  -4695900.08745  -2727853.28143  24637125.2584                   24637117.7114
        33.7504         19.0004
 -18811095.84948 -20846040.42849  20553021.8134                   20553013.0944
        52.5004         55.0004
 23  1  2  0 45  0.0000000  0 11G23G24G27G08G22G10G21G18G31G01G32
  -9819607.87947  -9643526.38545  22167980.8914                   22167970.2384
        45.7504         34.7504
 -10209697.65446  -8631706.11744  23126845.7274                   23126835.7774
        39.5004         26.0004
  -5803299.60546  -4329963.25045  24356007.0864                   24355997.9574
        37.5004         32.0004
  -6771166.22446  -5209568.71945  23927854.6174                   23927846.8364
        36.0004         31.2504
 -12139708.46347  -9660252.77645  21666003.4304                   21665992.9534
        45.5004         34.2504
 -27812758.55848 -21497597.53749  20584140.5704                   20584132.0864
        52.0004         55.0004
 -13718416.39647  -9248871.45044  23287205.0084                   23287192.5984
        43.2504         29.2504
  -6060253.38846  -4744191.20743  24812919.1804                   24812907.9414
        38.2504         22.2504
  -6089378.05346  -4694487.51745  24332156.6484                   24332146.3484
        38.0004         34.5004
  -4805053.79945  -2812908.12843  24616354.7504                   24616346.6174
        34.5004         19.5004
 -18826512.81448 -20858053.63949  20550088.1414                   20550079.3054
        53.2504         54.7504
 23  1  2  0 45 30.0000000  0 11G23G24G27G08G22G10G21G18G31G01G32
  -9750692.87347  -9589826.39545  22181095.2814                   22181084.6884
        45.7504         35.5004
 -10131068.04746  -8570436.30044  23141806.3834                   23141798.8364
        38.2504         26.0004
  -5712253.71146  -4259018.38645  24373333.0004                   24373323.8714
        37.7504         32.2504
  -6715170.03346  -5165935.35145  23938511.2734                   23938503.1414
        36.7504         31.2504
 -12201718.53247  -9708572.30745  21654203.1174                   21654192.4064
        46.0004         34.5004
 -27797220.56948 -21485490.02449  20587097.3984                   20587088.7384
        51.7504         55.0004
 -13786053.67147  -9301575.82744  23274333.6484                   23274321.8834
        42.2504         28.5004
  -5944192.43846  -4653754.06743  24835004.2114                   24834993.3244
        38.0004         21.5004
  -6208774.26346  -4787523.46845  24309437.4224                   24309425.4224
        38.2504         34.5004
  -4914052.29145  -2897842.02943  24595613.1724                   24595605.4494
        34.5004         18.5004
 -18841525.11348 -20869751.52649  20547231.2194                   20547222.2664
        52.7504         54.7504
 23  1  2  0 46  0.0000000  0 11G23G24G27G08G22G10G21G18G31G01G32
  -9681549.36047  -9535948.34045  22194252.4064                   22194242.1644
        45.5004         34.7504
 -10051982.14846  -8508810.91344  23156857.0944                   23156848.0824
        39.0004         26.0004
  -5621098.73646  -4187988.57045  24390678.8524                   24390670.4844
        37.5004         32.0004
  -6658798.41546  -5122009.42545  23949238.6174                   23949230.5434
        36.7504         32.0004
 -12263401.89547  -9756637.24945  21642465.6954                   21642454.5744
        46.0004         35.0004
 -27781374.82348 -21473142.69249  20590112.7814                   20590104.0044
        51.7504         55.0004
 -13853386.90047  -9354043.28845  23261520.8914                   23261508.9494
        43.0004         30.0004
  -5828066.60245  -4563266.41343  24857100.2034                   24857091.5434
        35.2504         21.5004
  -6328145.45746  -4880540.02545  24286721.5864                   24286710.2894
        37.5004         35.0004
  -5022893.90646  -2982653.73243  24574901.7664                   24574893.0474
        36.0004         19.0004
 -18856134.32748 -20881135.32949  20544451.3444                   20544442.0394
        53.5004         54.7504
 23  1  2  0 46 30.0000000  0 11G23G24G27G08G22G10G21G18G31G01G32
  -9612176.69747  -9481891.72945  22207453.7194                   22207443.5944
        45.5004         34.7504
  -9972441.69346  -8446831.32744  23171992.7194                   23171984.4694
        38.5004         26.7504
  -5529837.03346  -4116875.53545  24408045.6804                   24408036.0234
        37.2504         32.5004
  -6602053.00245  -5077792.22645  23960036.3524                   23960028.3364
        35.0004         30.5004
 -12324757.08247  -9804446.46345  21630789.5474                   21630778.8364
        45.5004         34.0004
 -27765220.03748 -21460554.55549  20593186.8754                   20593178.2154
        52.0004         55.0004
 -13920413.45647  -9406271.76744  23248766.4534                   23248754.0434
        43.0004         29.2504
  -5711877.31945  -4472729.32443  24879209.7814                   24879201.7664
        34.5004         21.2504
  -6447488.31046  -4973534.42145  24264010.1334                   24263999.7734
        37.2504         34.0004
  -5131575.17945  -3067340.40743  24554218.8754                   24554211.6804
        35.0004         19.0004
 -18870340.11148 -20892204.76749  20541747.9144                   20541739.2544
        53.2504         54.7504
 23  1  2  0 47  0.0000000  0 11G23G24G27G08G22G10G21G18G31G01G32
  -9542574.71847  -9427656.44345  22220699.1644                   22220688.3364
        45.5004         35.0004
  -9892448.70046  -8384499.15144  23187215.1414                   23187206.1884
        38.2504         25.2504
  -5438470.99846  -4045681.23445  24425431.8834                   24425423.2234
        36.7504         32.2504
  -6544935.82745  -5033285.37045  23970904.5784                   23970896.9144
        34.7504         30.5004
 -12385782.98747  -9851999.10845  21619176.9694                   21619166.3754
        46.5004         35.0004
 -27748755.07548 -21447724.70749  20596320.0634                   20596311.4024
        52.5004         54.7504
 -13987130.72047  -9458259.23144  23236070.1884                   23236058.0704
        42.7504         29.2504
  -5595626.00645  -4382143.91943  24901332.9064                   24901323.9534
        35.5004         21.5004
  -6566799.43746  -5066504.09545  24241307.2344                   24241295.7624
        38.5004         34.5004
  -5240092.72546  -3151899.53943  24533568.9224                   24533561.0824
        36.5004         19.0004
 -18884142.34448 -20902959.74549  20539121.3364                   20539112.9104
        53.2504         55.0004
 23  1  2  0 47 30.0000000  0 11G23G24G27G08G22G10G21G18G31G01G32
  -9472745.32547  -9373243.93545  22233987.3834                   22233976.3204
        45.5004         35.0004
  -9812007.53546  -8321817.69444  23202522.7894                   23202514.0124
        39.5004         25.5004
  -5347005.32946  -3974409.29345  24442837.5394                   24442827.9414
        37.5004         32.0004
  -6487450.96146  -4988491.96845  23981844.8444                   23981836.7114
        36.0004         30.0004
 -12446480.62647  -9899295.95645  21607626.3754                   21607616.0164
        45.5004         35.0004
 -27731981.01248 -21434654.00849  20599512.1724                   20599503.3364
        51.7504         54.7504
 -14053538.79547  -9510005.78144  23223433.4304                   23223421.3714
        43.5004         29.2504
  -5479316.55246  -4291513.18743  24923467.3594                   24923456.4734
        37.0004         21.5004
  -6686077.17346  -5159447.82745  24218608.4224                   24218597.9454
        36.7504         34.7504
  -5348445.59245  -3236330.35943  24512949.2894                   24512943.0314
        34.5004         18.5004
 -18897543.20648 -20913401.97349  20536571.3674                   20536562.5904
        53.2504         54.7504
 23  1  2  0 48  0.0000000  0 11G23G24G27G08G22G10G21G18G31G01G32
  -9402687.75347  -9318653.64045  22247318.3674                   22247308.0664
        45.5004         34.5004
  -9731119.69046  -8258788.23244  23217914.9384                   23217906.4534
        38.7504         26.5004
  -5255442.11545  -3903061.29645  24460260.6804                   24460251.2584
        35.7504         31.0004
  -6429600.21345  -4943413.48645  23992853.3204                   23992845.3054
        34.0004         31.0004
 -12506848.74747  -9946336.03345  21596138.7894                   21596127.9614
        46.2504         34.7504
 -27714896.53548 -21421341.43349  20602763.2504                   20602754.2384
        52.2504         55.0004
 -14119634.29847  -9561508.76045  23210856.3204                   23210843.4414
        44.5004         30.0004
  -5362949.92646  -4200837.92543  24945610.5704                   24945599.8594
        36.5004         21.5004
  -6805317.78946  -5252362.54745  24195918.7034                   24195907.1724
        38.0004         34.5004
  -5456629.88946  -3320629.76043  24492364.4384                   24492355.4264
        36.7504         18.2504
 -18910542.16348 -20923531.03249  20534097.4384                   20534088.8954
        53.2504         54.7504
 23  1  2  0 48 30.0000000  0 11G23G24G27G08G22G10G21G18G31G01G32
  -9332402.26447  -9263885.74645  22260693.0634                   22260683.1134
        45.0004         35.2504
  -9649787.92646  -8195412.84044  23233392.8984                   23233383.0664
        39.0004         26.0004
  -5163784.27746  -3831639.62645  24477703.3754                   24477694.7734
        37.5004         31.7504
  -6371386.02145  -4898051.79244  24003930.9694                   24003922.8954
        33.5004         29.7504
 -12566886.75647  -9993118.87145  21584713.9454                   21584703.1174
        46.0004         35.0004
 -27697501.09148 -21407786.54449  20606073.3054                   20606064.5864
        52.2504         55.0004
 -14185415.37547  -9612766.74545  23198337.8364                   23198325.6024
        43.0004         30.0004
  -5246528.46945  -4110119.88943  24967762.7894                   24967754.7154
        34.2504         20.7504
  -6924518.43646  -5345246.19445  24173235.7504                   24173223.6334
        37.5004         34.7504
  -5564642.92646  -3404795.76043  24471807.1484                   24471801.6524
        36.2504         19.5004
 -18923139.70648 -20933347.28949  20531700.3594                   20531691.8754
        53.2504         54.7504
 23  1  2  0 49  0.0000000  0 11G23G24G27G08G22G10G21G18G31G01G32
  -9261889.97047  -9208941.11045  22274111.6724                   22274100.6684
        46.0004         35.0004
  -9568015.48146  -8131694.05644  23248952.0784                   23248944.2974
        38.2504         26.0004
  -5072035.65745  -3760147.20944  24495160.9774                   24495152.6684
        35.2504         29.7504
  -6312811.39145  -4852409.24745  24015078.5784                   24015068.8634
        34.7504         30.7504
 -12626595.06547 -10039644.81445  21573351.8054                   21573341.2114
        46.7504         35.2504
 -27679794.82248 -21393989.45549  20609443.0234                   20609433.9534
        52.0004         55.2504
 -14250880.58547  -9663778.60145  23185880.7734                   23185868.9494
        44.5004         31.0004
  -5130054.82445  -4019361.24743  24989928.0634                   24989918.4654
        34.7504         21.5004
  -7043676.90046  -5438096.92845  24150560.1414                   24150548.9614
        38.0004         34.5004
  -5672482.73146  -3488826.75743  24451288.0234                   24451279.3634
        38.2504         19.0004
 -18935337.12848 -20942851.77649  20529379.5554                   20529370.6604
        53.7504         54.7504
 23  1  2  0 49 30.0000000  0 11G23G24G27G08G22G10G21G18G31G01G32
  -9191150.61747  -9153819.54645  22287572.8364                   22287562.0084
        45.7504         34.5004
  -9485804.57146  -8067633.60744  23264597.6644                   23264588.5354
        39.2504         27.0004
  -4980198.76346  -3688585.97145  24512637.5784                   24512628.7424
        36.0004         31.2504
  -6253878.77345  -4806487.72745  24026292.5084                   24026283.7304
        34.7504         30.5004
 -12685972.47147 -10085912.90845  21562052.6024                   21562042.0084
        46.7504         35.5004
 -27661776.32348 -21379949.06449  20612871.8204                   20612862.9844
        52.5004         55.2504
 -14316027.66247  -9714542.54145  23173482.4924                   23173471.2544
        43.2504         30.0004
  -5013530.87146  -3928563.42743  25012103.5234                   25012093.2234
        36.7504         20.7504
  -7162789.54346  -5530911.96045  24127893.1954                   24127882.3094
        38.2504         34.2504
  -5780145.98246  -3572720.19843  24430800.3674                   24430792.8794
        36.2504         19.2504
 -18947134.40248 -20952044.45349  20527134.5704                   20527125.6764
        53.2504         55.2504
 23  1  2  0 50  0.0000000  0 11G23G24G27G08G22G10G21G18G31G01G32
  -9120184.74447  -9098521.47945  22301076.2424                   22301066.0004
        45.5004         34.2504
  -9403158.08246  -8003233.74544  23280323.8284                   23280315.5204
        39.0004         26.7504
  -4888276.77946  -3616958.47145  24530130.0394                   24530121.9654
        36.0004         31.0004
  -6194590.96645  -4760289.43945  24037574.5084                   24037565.9654
        33.5004         30.7504
 -12745018.65047 -10131922.90545  21550816.3914                   21550805.8554
        47.0004         35.5004
 -27643445.88848 -21365665.60849  20616359.6484                   20616351.2234
        52.2504         54.7504
 -14380854.79747  -9765057.18645  23161147.5944                   23161135.0084
        44.2504         30.5004
  -4896958.68945  -3837727.90943  25034284.2034                   25034276.6564
        33.0004         21.0004
  -7281854.06046  -5623689.49745  24105238.0634                   24105225.3594
        39.7504         35.5004
  -5887630.23546  -3656474.13543  24410347.4774                   24410337.9964
        38.0004         18.5004
 -18958532.31648 -20960925.93249  20524965.4384                   20524956.4844
        53.2504         54.7504
 23  1  2  0 50 30.0000000  0 11G23G24G27G08G22G10G21G18G31G01G32
  -9048992.44147  -9043046.98045  22314624.2344                   22314614.1684
        45.5004         34.2504
  -9320078.52446  -7938496.43544  23296134.0784                   23296125.1844
        39.5004         26.0004
  -4796272.65746  -3545266.95745  24547638.5634                   24547628.6134
        36.5004         30.0004
  -6134950.30845  -4713816.21945  24048924.6804                   24048915.3754
        34.7504         31.5004
 -12803733.22047 -10177674.49345  21539643.9694                   21539632.8484
        47.5004         35.5004
 -27624802.40748 -21351138.23149  20619907.6804                   20619899.0784
        52.0004         55.0004
 -14445359.88547  -9815320.89845  23148872.1954                   23148860.4304
        44.5004         30.7504
  -4780340.34046  -3746856.56543  25056478.6804                   25056468.2034
        37.5004         19.7504
  -7400866.75646  -5716426.66945  24082588.1414                   24082577.7234
        37.0004         34.7504
  -5994932.48546  -3740086.24243  24389927.2974                   24389919.6914
        37.0004         19.5004
 -18969531.22948 -20969496.51449  20522872.3444                   20522863.8014
        53.0004         54.7504
 23  1  2  0 51  0.0000000  0 11G23G24G27G08G22G10G21G18G31G01G32
  -8977574.99547  -8987397.04045  22328215.2344                   22328203.9964
        45.7504         34.2504
  -9236569.45946  -7873424.43543  23312024.6644                   23312015.9454
        38.7504         22.7504
  -4704190.24546  -3473514.41344  24565161.0474                   24565151.6844
        36.0004         29.7504
  -6074960.40245  -4667070.83445  24060340.4384                   24060331.0164
        35.0004         31.5004
 -12862116.72547 -10223168.11745  21528533.1724                   21528522.3444
        46.2504         35.2504
 -27605846.59748 -21336367.46449  20623514.5864                   20623506.0434
        52.0004         55.0004
 -14509541.94347  -9865332.86045  23136658.4454                   23136647.1484
        44.0004         30.7504
  -4663678.95846  -3655951.64643  25078680.0084                   25078668.6524
        38.5004         19.7504
  -7519825.83046  -5809122.10945  24059951.7894                   24059941.1374
        37.5004         35.5004
  -6102050.79546  -3823555.03243  24369544.8364                   24369535.7074
        38.7504         20.2504
 -18980132.58648 -20977757.31149  20520855.1174                   20520846.3404
        53.0004         55.0004
 23  1  2  0 51 30.0000000  0 11G23G24G27G08G22G10G21G18G31G01G32
  -8905931.30347  -8931570.81945  22341847.4774                   22341837.5274
        45.0004         33.7504
  -9152632.19146  -7808018.77844  23327997.2814                   23327988.6804
        38.5004         24.2504
  -4612031.24245  -3401702.23544  24582695.9844                   24582688.9064
        35.0004         29.5004
  -6014622.71445  -4620054.44745  24071819.3204                   24071812.4184
        32.0004         30.5004
 -12920167.44947 -10268402.43745  21517487.0944                   21517476.2074
        46.2504         35.7504
 -27586576.44248 -21321351.76849  20627181.7344                   20627173.2504
        51.5004         55.0004
 -14573397.70147  -9915090.60445  23124508.2894                   23124494.9414
        45.2504         31.2504
  -4546975.14545  -3565013.51343  25100883.6334                   25100876.9654
        32.0004         19.7504
  -7638727.07446  -5901772.37146  24037327.3444                   24037314.7584
        40.0004         36.0004
  -6208981.12446  -3906877.37843  24349196.6024                   24349186.5944
        38.2504         19.5004
 -18990335.63448 -20985707.74149  20518913.8444                   20518904.6564
        53.2504         55.0004
 23  1  2  0 52  0.0000000  0 11G23G24G27G08G22G10G21G18G31G01G32
  -8834062.81247  -8875569.42045  22355524.3054                   22355513.4774
        45.0004         34.0004
  -9068270.49946  -7742282.41244  23344050.4454                   23344042.3134
        38.7504         24.2504
  -4519799.60546  -3329833.41544  24600249.7894                   24600239.2544
        36.2504         29.0004
  -5953940.63845  -4572769.73245  24083368.4304                   24083360.5904
        33.5004         30.7504
 -12977886.00747 -10313377.93745  21506502.9534                   21506492.4184
        46.5004         35.5004
 -27566992.57348 -21306091.60849  20630908.5864                   20630899.9844
        52.0004         55.0004
 -14636926.28047  -9964593.38545  23112418.1414                   23112406.1994
        44.0004         31.2504
  -4430232.04146  -3474045.06043  25123101.5234                   25123092.2194
        37.5004         20.7504
  -7757568.57846  -5994376.17345  24014709.8204                   24014700.0474
        38.2504         35.2504
  -6315721.71346  -3990051.83843  24328884.5634                   24328875.3164
        38.2504         20.5004
 -19000141.96948 -20993349.03249  20517047.6414                   20517038.6294
        52.5004         55.2504
 23  1  2  0 52 30.0000000  0 11G23G24G27G08G22G10G21G18G31G01G32
  -8761969.83847  -8819393.11245  22369244.7974                   22369232.4454
        46.0004         34.0004
  -8983487.25446  -7676217.55944  23360185.5704                   23360175.9144
        39.7504         24.2504
  -4427498.59445  -3257910.54144  24617812.0634                   24617805.0434
        34.0004         28.7504
  -5892917.16145  -4525218.98845  24094981.2424                   24094972.8754
        34.5004         31.2504
 -13035271.95347 -10358094.24045  21495583.2274                   21495572.2814
        46.5004         35.7504
 -27547094.56348 -21290586.66849  20634694.5554                   20634686.1884
        51.0004         55.5004
 -14700126.45147 -10013840.24945  23100392.2274                   23100379.8754
        45.0004         31.0004
                                  25145326.1644                   25145315.3364
        38.0004         18.2504
  -7876347.27646  -6086931.03946  23992108.4224                   23992097.1254
        39.2504         36.5004
  -6422269.97146  -4073076.40143  24308607.4924                   24308599.6524
        37.5004         20.5004
 -19009552.28748 -21000681.74749  20515256.7974                   20515247.9614
        53.0004         55.2504
 23  1  2  0 53  0.0000000  0 11G23G24G27G08G22G10G21G18G31G01G32
  -8689652.20647  -8763041.72145  22383005.0234                   22382994.1374
        44.5004         34.5004
  -8898284.49246  -7609825.76443  23376398.2734                   23376389.2034
        38.7504         22.7504
  -4335130.58146  -3185935.52244  24635390.6954                   24635381.8014
        36.0004         29.5004
  -5831554.47145  -4477403.91145  24106655.5474                   24106649.9924
        31.5004         30.7504
 -13092324.64347 -10402550.89346  21484726.4844                   21484715.3634
        46.5004         36.0004
 -27526881.30448 -21274836.07949  20638541.2504                   20638532.7074
        50.5004         55.5004
 -14762995.07047 -10062828.79245  23088428.2504                   23088416.0164
        44.0004         30.5004
 -13649156.87046 -10671780.81053  25167555.2584                   25167543.6094
        37.5004         21.5004
  -7995059.68646  -6179434.25146  23969517.3364                   23969506.5664
        38.2504         36.5004
  -6528622.47846  -4155948.47143  24288370.4384                   24288361.4264
        37.7504         21.2504
 -19018566.63848 -21007705.91449  20513541.4144                   20513532.5784
        53.0004         55.0004
 23  1  2  0 53 30.0000000  0 11G23G24G27G08G22G10G21G18G31G01G32
  -8617110.85747  -8706516.02045  22396808.5314                   22396798.3484
        46.0004         33.5004
  -8812665.59946  -7543109.77143  23392690.7194                   23392682.0594
        38.2504         23.7504
  -4242699.22945  -3113911.01644  24652978.5554                   24652970.7154
        34.0004         28.7504
  -5769855.42045  -4429326.71145  24118398.2734                   24118389.9654
        33.5004         30.5004
 -13149043.96847 -10446747.74846  21473933.3594                   21473922.6484
        46.5004         36.5004
 -27506352.95348 -21258839.97349  20642447.7504                   20642438.7974
        50.2504         55.0004
 -14825531.11247 -10111558.16945  23076527.5634                   23076515.7974
        43.0004         31.0004
 -13532309.05255 -10580730.58253  25189791.6884                   25189780.1564
        35.5004         19.2504
  -8113703.66046  -6271884.07546  23946941.4144                   23946930.0594
        40.0004         37.7504
  -6634776.97846  -4238666.27343  24268169.6564                   24268161.1134
        37.0004         20.0004
 -19027186.19348 -21014422.45349  20511901.2584                   20511892.4804
        52.5004         55.0004
 23  1  2  0 54  0.0000000  0 11G23G24G27G08G22G10G21G18G31G01G32
  -8544345.56647  -8649815.79745  22410655.9774                   22410645.0904
        45.5004         34.0004
  -8726632.77646  -7476071.23044  23409062.7814                   23409053.5944
        38.0004         24.7504
  -4150206.78445  -3041839.04344  24670580.3984                   24670572.2664
        34.7504         29.2504
  -5707822.07145  -4380989.03345  24130203.1334                   24130195.2934
        33.5004         31.0004
 -13205429.05947 -10490684.18346  21463203.6884                   21463192.6254
        47.5004         36.0004
 -27485508.66548 -21242597.68549  20646414.2734                   20646405.5554
        50.7504         54.7504
 -14887732.15447 -10160026.50545  23064692.3444                   23064680.2274
        44.2504         31.7504
 -13415429.77345 -10489655.97443  25212027.9064                   25212021.1214
        33.5004         19.7504
  -8232275.65346  -6364277.86146  23924377.7344                   23924366.0864
        39.2504         37.5004
  -6740730.24446  -4321227.21843  24248007.6954                   24247998.9774
        36.5004         20.5004
 -19035411.05048 -21020831.42549  20510335.9534                   20510327.1764
        52.0004         54.7504
 23  1  2  0 54 30.0000000  0 11G23G24G27G08G22G10G21G18G31G01G32
  -8471356.96647  -8592941.59945  22424545.0634                   22424534.5864
        45.7504         34.0004
  -8640189.05346  -7408712.46044  23425511.9614                   23425503.6524
        38.0004         24.0004
  -4057656.81445  -2969722.17044  24688192.3204                   24688182.4884
        34.5004         27.2504
  -5645458.23745  -4332393.89145  24142070.0944                   24142062.8404
        33.2504         31.2504
 -13261479.80047 -10534360.08046  21452536.8834                   21452526.2304
        46.7504         36.0004
 -27464348.05948 -21226108.89849  20650440.8054                   20650431.9694
        51.2504         55.0004
 -14949596.53147 -10208232.52345  23052919.1724                   23052907.3484
        43.5004         31.7504
                                  25234279.398
        36.500
  -8350772.80246  -6456613.34846  23901826.1414                   23901817.0124
        37.7504         38.7504
  -6846479.76646  -4403629.43043  24227883.7664                   24227874.9884
        37.7504         21.5004
 -19043242.12748 -21026933.56249  20508845.7734                   20508836.9384
        52.5004         55.0004
 23  1  2  0 55  0.0000000  0 11G23G24G27G08G22G10G21G18G31G01G32
  -8398145.53847  -8535893.76545  22438476.7664                   22438466.1724
        44.7504         34.5004
  -8553337.26246  -7341035.75743  23442039.7504                   23442030.5634
        37.5004         22.7504
  -3965052.20145  -2897562.75844  24705813.1564                   24705805.3754
        33.5004         27.2504
  -5582766.45145  -4283543.12545  24154001.5084                   24153992.7894
        34.0004         31.2504
 -13317195.71847 -10577775.06846  21441934.6954                   21441923.8094
        46.5004         36.5004
 -27442870.80948 -21209373.38249  20654527.7734                   20654519.5824
        50.0004         54.7504
 -15011122.52647 -10256174.83445  23041210.2664                   23041198.6174
        42.5004         31.0004
                                  25256531.9844                   25256521.0394
        38.2504         20.5004
  -8469192.22046  -6548888.20346  23879293.9534                   23879282.4804
        40.0004         38.5004
  -6952022.75446  -4485870.69743  24207797.5864                   24207791.8554
        37.2504         21.7504
 -19050680.15948 -21032729.42749  20507430.3754                   20507421.4804
        52.0004         55.0004
 23  1  2  0 55 30.0000000  0 11G23G24G27G08G22G10G21G18G31G01G32
  -8324712.20747  -8478672.99145  22452450.4144                   22452440.3484
        44.2504         34.0004
  -8466080.83246  -7273043.75244  23458643.9774                   23458635.7274
        37.2504         24.5004
  -3872396.76945  -2825363.71544  24723446.2424                   24723436.9964
        34.5004         27.7504
  -5519749.89145  -4234439.28745  24165992.8984                   24165984.0634
        33.2504         30.5004
 -13372578.04247 -10620930.12546  21431396.0314                   21431384.9104
        46.2504         36.7504
 -27421077.16048 -21192391.32849  20658675.2584                   20658666.5984
        49.7504         54.7504
 -15072308.97347 -10303852.60045  23029568.3134                   23029555.8444
        44.5004         31.5004
 -13064625.26155 -10285547.89553  25278782.9144                   25278777.5944
        30.5004         20.0004
  -8587531.55846  -6641100.71646  23856773.8984                   23856763.7154
        38.7504         39.0004
  -7057357.17846  -4567949.47543  24187755.0474                   24187746.5634
        38.2504         21.0004
 -19057726.38148 -21038219.98149  20506089.4774                   20506080.7584
        52.0004         54.7504
 23  1  2  0 56  0.0000000  0 11G23G24G27G08G22G10G21G18G31G01G32
  -8251055.92447  -8421278.50445  22466466.8054                   22466456.4454
        44.5004         34.0004
  -8378420.99746  -7204737.39643  23475325.3204                   23475316.4844
        38.0004         23.5004
  -3779691.78145  -2753126.11544  24741087.3674                   24741077.4774
        33.5004         26.2504
  -5456409.48445  -4185083.16545  24178045.8594                   24178037.5514
        33.0004         31.2504
 -13427624.48047 -10663823.44846  21420920.9454                   21420910.0594
        47.0004         36.2504
 -27398964.95748 -21175161.05449  20662882.6644                   20662874.2384
        49.2504         55.2504
 -15133152.44847 -10351263.09045  23017988.7274                   23017978.0744
        42.5004         31.5004
 -12947644.38046 -10194394.03043  25301049.9534                   25301036.8984
        37.5004         19.0004
  -8705786.38846  -6733247.31746  23834271.5164                   23834260.2774
        41.0004         39.7504
  -7162478.60446  -4649862.27743  24167751.8524                   24167742.4304
        36.7504         20.7504
 -19064379.97648 -21043404.59549  20504823.2664                   20504814.4304
        50.5004         54.7504
 23  1  2  0 56 30.0000000  0 11G23G24G27G08G22G10G21G18G31G01G32
  -8177178.37847  -8363711.62045  22480524.5634                   22480515.0234
        44.5004         32.5004
  -8290361.94746  -7136119.95643  23492082.1954                   23492073.7114
        37.7504         22.2504
  -3686941.79445  -2680853.36844  24758737.9774                   24758727.6764
        34.5004         27.0004
  -5392750.30645  -4135478.61145  24190159.2584                   24190151.7114
        32.5004         32.2504
 -13482335.96047 -10706455.76946  21410509.2584                   21410498.8984
        47.0004         36.2504
 -27376535.60948 -21157683.64049  20667151.0944                   20667142.6094
        49.2504         55.5004
 -15193652.33747 -10398405.84745  23006477.0084                   23006464.6564
        44.7504         32.0004
 -12830643.95155 -10103224.97953  25323307.8674                   25323301.6684
        31.5004         19.0004
  -8823955.35646  -6825327.05546  23811784.4454                   23811773.1484
        40.2504         39.7504
  -7267385.70046  -4731608.03343  24147788.7034                   24147779.7504
        37.7504         21.2504
 -19070643.03148 -21048284.89449  20503631.6954                   20503622.9774
        51.2504         54.7504
 23  1  2  0 57  0.0000000  0 11G23G24G27G08G22G10G21G18G31G01G32
  -8103079.91947  -8305972.58445  22494626.0164                   22494615.3634
        45.0004         33.5004
  -8201906.44446  -7067193.59444  23508914.1564                   23508906.3754
        37.5004         24.0004
  -3594149.72345  -2608547.90244  24776393.2274                   24776386.0904
        32.2504         26.0004
  -5328774.50845  -4085627.33045  24202333.5164                   24202325.7344
        32.7504         30.5004
 -13536712.27247 -10748826.91846  21400162.5164                   21400151.5124
        47.0004         36.5004
 -27353788.07848 -21139958.30049  20671479.6644                   20671471.0044
        50.5004         55.0004
 -15253807.12147 -10445279.71845  22995029.7114                   22995017.4774
        44.5004         31.0004
 -12713626.18615                  25345578.648
        34.500
  -8942035.15746  -6917337.28646  23789314.7894                   23789303.7854
        41.5004         39.7504
  -7372075.57146  -4813184.59143  24127867.2734                   24127858.2034
        38.0004         21.5004
 -19076516.16048 -21052861.35349  20502514.0704                   20502505.1174
        52.2504         55.2504
 23  1  2  0 57 30.0000000  0 11G23G24G27G08G22G10G21G18G31G01G32
  -8028759.53347  -8248060.63645  22508768.9384                   22508757.9924
        45.5004         33.5004
  -8113055.81546  -6997959.32944  23525822.7034                   23525814.1024
        38.2504         24.0004
  -3501317.09645  -2536210.77044  24794060.8134                   24794049.8094
        33.7504         25.2504
  -5264483.28745  -4035530.28245  24214567.6094                   24214559.7114
        32.5004         31.0004
 -13590751.66247 -10790935.52346  21389878.9304                   21389867.9844
        46.5004         36.5004
 -27330720.76948 -21121983.79149  20675869.3284                   20675860.8444
        50.2504         55.0004
 -15313613.28347 -10491881.90345  22983648.3754                   22983637.1374
        43.7504         32.2504
 -12596591.59745  -9951950.68053  25367848.5864                   25367841.0984
        34.2504         18.2504
  -9060021.59446  -7009274.78146  23766862.6804                   23766851.3244
        41.2504         39.7504
  -7476544.04646  -4894588.53343  24107986.5554                   24107978.6564
        37.0004         20.2504
 -19081998.64048 -21057133.41349  20501470.6724                   20501461.8364
        52.0004         55.0004
 23  1  2  0 58  0.0000000  0 11G23G24G27G08G22G10G21G18G31G01G32
  -7954219.68247  -8189977.66845  22522953.5004                   22522942.7894
        45.0004         34.2504
  -8023815.06546  -6928421.09844  23542804.5084                   23542796.1414
        37.2504         24.5004
  -3408449.05045  -2463846.03744  24811731.5164                   24811722.8554
        32.0004         24.7504
  -5199881.58645  -3985191.31745  24226862.0864                   24226853.1914
        33.5004         31.0004
 -13644456.13847 -10832783.15146  21379659.0004                   21379648.5824
        45.7504         36.7504
 -27307335.32648 -21103761.36049  20680319.2814                   20680310.8554
        50.0004         54.7504
 -15373070.91747 -10538212.52645  22972335.2584                   22972322.2624
        44.2504         32.0004
 -12479544.58955  -9860745.13553  25390122.9454                   25390113.4654
        34.5004         18.2504
  -9177913.53446  -7101138.63446  23744427.0784                   23744417.6564
        40.0004         40.0004
  -7580790.39146  -4975819.48743  24088149.3674                   24088140.7664
        37.5004         20.0004
 -19087093.33948 -21061103.29749  20500501.3834                   20500492.3714
        51.5004         55.0004
 23  1  2  0 58 30.0000000  0 10G23G24G27G08G22G10G21G31G01G32
  -7879458.94647  -8131722.56645  22537179.2194                   22537169.4454
        44.0004         33.7504
  -7934185.12646  -6858579.61243  23559860.5474                   23559852.2974
        37.5004         22.2504
  -3315546.66345  -2391454.63744  24829411.0554                   24829402.2194
        35.0004         25.2504
  -5134970.77345  -3934611.44345  24239214.0634                   24239205.6954
        33.0004         31.5004
 -13697823.36147 -10874367.98446  21369503.9694                   21369493.1994
        47.2504         36.5004
 -27283629.63648 -21085289.40449  20684830.4694                   20684821.7504
        50.2504         55.0004
 -15432176.85447 -10584269.10845  22961087.0004                   22961075.0594
        44.5004         31.5004
  -9295706.33547  -7192925.21746  23722013.8444                   23722001.9024
        42.2504         40.2504
  -7684809.98145  -5056873.68143  24068354.4384                   24068347.1254
        34.7504         19.7504
 -19091798.98948 -21064770.03449  20499605.8674                   20499596.8554
        52.0004         54.7504
 23  1  2  0 59  0.0000000  0 11G23G24G27G08G22G10G21G18G31G01G32
  -7804479.47947  -8073297.02545  22551446.8524                   22551437.5474
        44.0004         34.0004
  -7844170.56146  -6788438.38243  23576990.3594                   23576981.3484
        37.7504         22.7504
  -3222614.79445  -2319040.15844  24847093.3134                   24847085.2974
        32.5004         24.2504
  -5069754.90545  -3883793.87245  24251623.0634                   24251615.4574
        32.2504         30.5004
 -13750855.03447 -10915691.34746  21359412.3054                   21359401.7704
        47.0004         36.0004
 -27259604.72648 -21066568.70049  20689402.2504                   20689393.8244
        51.0004         54.7504
 -15490931.27147 -10630051.75145  22949906.4144                   22949894.4144
        43.5004         32.2504
     83339.58955  -9761260.61853  25434675.5234                   25434666.6294
        33.0004         19.0004
  -9413398.73746  -7284633.60646  23699616.1094                   23699606.2194
        40.2504         40.2504
  -7788601.71945  -5137750.43643  24048603.0084                   24048595.3444
        35.2504         19.5004
 -19096118.18548 -21068135.63349  20498783.7424                   20498774.9654
        52.0004         55.0004
 23  1  2  0 59 30.0000000  0 10G23G24G27G08G22G10G21G31G01G32
  -7729279.05047  -8014699.30845  22565757.8594                   22565747.6764
        45.0004         33.5004
  -7753771.61346  -6717997.62643  23594191.9224                   23594182.8524
        37.5004         22.7504
  -3129653.61645  -2246602.91844  24864784.6724                   24864776.5984
        33.5004         25.2504
  -5004233.99045  -3832738.61145  24264092.2584                   24264083.4804
        32.7504         30.7504
 -13803548.22947 -10956750.96446  21349384.6174                   21349374.2584
        46.7504         36.7504
 -27235257.79248 -21047597.06849  20694035.3524                   20694026.8674
        50.0004         55.0004
 -15549329.24247 -10675556.67345  22938794.4064                   22938782.0554
        45.5004         32.5004
  -9530984.91246  -7376259.19546  23677240.2424                   23677230.0004
        40.7504         40.2504
  -7892160.24445  -5218445.34543  24028896.1804                   24028889.1604
        34.0004         20.0004
 -19100049.00248 -21071198.58849  20498036.1094                   20498027.0984
        51.5004         55.0004
 23  1  2  1  0  0.0000000  0 10G23G24G27G08G22G10G21G31G01G32
  -7653861.43147  -7955932.35445  22580109.9144                   22580099.3204
        46.0004         33.5004
  -7662994.41546  -6647262.17443  23611466.4694                   23611457.9844
        37.0004         22.2504
  -3036669.66145  -2174147.88944  24882480.3674                   24882469.9494
        33.5004         24.2504
  -4938414.46645  -3781450.69045  24276616.4844                   24276608.8204
        32.7504         30.2504
 -13855906.07747 -10997549.27846  21339421.1954                   21339410.6604
        46.2504         37.0004
 -27210591.77748 -21028376.81049  20698729.0084                   20698720.4064
        49.7504         55.0004
 -15607372.70147 -10720785.33245  22927748.5314                   22927736.2384
        44.0004         32.5004
  -9648465.70846  -7467802.66746  23654884.9614                   23654874.1914
        41.2504         40.5004
  -7995485.93945  -5298958.90243  24009235.0864                   24009226.7774
        34.5004         19.7504
 -19103595.51548 -21073962.10749  20497361.0234                   20497352.3054
        51.0004         55.0004
 23  1  2  1  0 30.0000000  0 10G23G24G27G08G22G10G21G31G01G32
  -7578224.65747  -7896994.63045  22594502.4774                   22594492.0594
        45.2504         33.0004
  -7571839.44246  -6576232.33643  23628811.6414                   23628803.9774
        36.5004         22.7504
  -2943663.38045  -2101675.48143  24900178.3674                   24900167.7734
        33.2504         22.7504
  -4872297.13145  -3729930.68345  24289198.7274                   24289190.3014
        33.0004         30.7504
 -13907926.21647 -11038084.44346  21329522.2894                   21329511.3444
        46.2504         36.5004
 -27185603.61648 -21008905.51849  20703484.1414                   20703475.4804
        50.0004         55.2504
 -15665056.91747 -10765734.05945  22916771.7274                   22916759.3754
        44.5004         32.5004
  -9765835.34646  -7559259.51846  23632549.3984                   23632539.6254
        40.7504         40.0004
  -8098573.76045  -5379287.04544  23989617.1644                   23989609.2074
        34.5004         29.7504
 -19106756.12048 -21076424.91049  20496759.5394                   20496750.5274
        52.2504         54.7504
 23  1  2  1  1  0.0000000  0 10G23G24G27G08G22G10G21G31G01G32
  -7502369.81147  -7837886.99545  22608937.2114                   22608927.0274
        45.0004         33.2504
  -7480310.21446  -6504910.84543  23646230.5394                   23646221.1764
        37.5004         22.5004
  -2850638.42245  -2029188.49844  24917879.9694                   24917871.4264
        33.5004         25.2504
  -4805885.73245  -3678181.52245  24301836.8364                   24301828.2934
        33.0004         30.0004
 -13959608.95147 -11078356.68946  21319687.5784                   21319676.5744
        46.0004         37.0004
 -27160293.85948 -20989183.63849  20708300.5394                   20708291.7034
        49.5004         55.2504
 -15722381.19847 -10810402.33945  22905863.8914                   22905851.1294
        45.0004         33.0004
  -9883091.74946  -7650628.14646  23610236.9534                   23610226.0664
        41.5004         40.5004
  -8201421.45945  -5459428.11345  23970045.8204                   23970038.2154
        34.5004         30.5004
 -19109532.21148 -21078588.09249  20496231.2274                   20496222.2734
        50.7504         54.7504
 23  1  2  1  1 30.0000000  0 10G23G24G27G08G22G10G21G31G01G32
  -7426297.26447  -7778609.69745  22623413.2974                   22623402.9384
        45.0004         33.0004
  -7388409.58946  -6433299.98443  23663718.0314                   23663709.6054
        36.0004         22.5004
  -9059277.68455  -6867089.27753  24935584.0944                   24935575.2584
        32.5004         22.5004
  -4739182.38645  -3626204.88345  24314527.7344                   24314521.3594
        30.7504         30.0004
 -14010953.99747 -11118365.79946  21309917.1724                   21309906.0514
        46.7504         37.2504
 -27134662.09648 -20969210.83849  20713178.3754                   20713169.4224
        50.2504         54.7504
 -15779343.77347 -10854788.76045  22895022.9534                   22895011.8324
        44.2504         33.5004
 -10000231.60946  -7741905.95046  23587945.9384                   23587935.9304
        41.2504         40.5004
  -8304026.23045  -5539379.84644  23950520.2344                   23950513.5084
        32.7504         29.2504
 -19111924.48448 -21080452.19649  20495776.1804                   20495767.2274
        51.0004         55.0004
 23  1  2  1  2  0.0000000  0 11G23G24G27G08G22G10G21G31G01G12G32
  -7350007.81647  -7719163.40745  22637930.7424                   22637920.5004
        45.2504         33.5004
  -7296140.67246  -6361402.13943  23681276.2274                   23681267.5664
        36.5004         22.5004
  -8966224.49345  -6794580.21844  24953291.8284                   24953283.7544
        32.0004         25.0004
  -4672190.56445  -3574003.49345  24327278.2274                   24327269.3914
        32.2504         30.7504
 -14061961.78647 -11158112.10146  21300210.5864                   21300199.9924
        46.2504         36.7504
 -27108707.81448 -20948986.72649  20718117.2664                   20718108.6054
        51.2504         55.0004
 -15835942.95247 -10898892.00345  22884253.1884                   22884240.4844
        45.2504         34.0004
 -10117252.39746  -7833090.96246  23565677.5474                   23565666.8954
        41.0004         40.5004
  -8406385.56445  -5619140.36845  23931043.3834                   23931034.6644
        34.0004         30.0004
    -15695.69956     10849.28953  25617212.3984                   25617202.0984
        38.2504         20.5004
 -19113934.08248 -21082018.11049  20495393.6564                   20495384.5864
        51.5004         55.0004
 23  1  2  1  2 30.0000000  0 12G23G24G27G08G22G10G21G12G31G01G25G32
  -7273501.44747  -7659548.08845  22652490.6724                   22652479.6094
        46.0004         33.2504
  -7203506.00346  -6289219.30043  23698903.9454                   23698895.4614
        36.0004         21.5004
  -8873161.26555  -6722063.54653  24970999.4304                   24970993.6414
        30.5004         23.2504
  -4604912.58745  -3521579.11045  24340079.0704                   24340071.9924
        31.7504         30.7504
 -14112631.51347 -11197594.98846  21290568.7734                   21290557.7114
        46.7504         36.7504
 -27082430.97648 -20928511.27649  20723117.3984                   20723108.8554
        49.5004         55.0004
 -15892176.92847 -10942710.69345  22873552.5554                   22873539.9694
        45.0004         33.2504
     25647.05155     38696.20853  25603886.2114                   25603877.0824
        34.7504         20.0004
 -10234150.72846  -7924180.58146  23543432.5084                   23543422.6764
        41.2504         41.5004
  -8508496.25945  -5698707.11645  23911611.0164                   23911604.2894
        33.7504         30.2504
    -15422.34555      7597.38254  25359162.0084                   25359157.8054
        33.7504         26.7504
 -19115561.40148 -21083286.14649  20495083.9614                   20495074.7734
        51.0004         54.7504
 23  1  2  1  3  0.0000000  0 11G23G24G27G08G22G10G21G12G31G01G32
  -7196779.02647  -7599764.40345  22667089.6414                   22667079.2814
        45.2504         33.0004
  -7110508.84046  -6216753.97843  23716601.1884                   23716592.0004
        36.5004         22.7504
  -8780091.72355  -6649541.70454  24988712.8524                   24988702.4924
        33.7504         24.7504
  -4537351.52745  -3468934.10745  24352937.0394                   24352927.9104
        32.0004         30.5004
 -14162963.43947 -11236814.65346  21280990.4924                   21280979.8404
        46.0004         37.0004
 -27055831.21048 -20907784.18749  20728179.5944                   20728170.4064
        49.7504         55.0004
 -15948044.37247 -10986243.75645  22862920.4534                   22862909.0394
        44.5004         33.5004
    -44132.10445    -15677.14942  25590607.6804                   25590599.1374
        35.0004         16.7504
 -10350924.30147  -8015172.94846  23521213.1564                   23521200.4534
        43.0004         41.0004
  -8610355.86745  -5778078.24345  23892229.3914                   23892219.9104
        35.7504         30.7504
 -19116807.58148 -21084257.19249  20494846.8674                   20494837.9734
        51.0004         55.0004
 23  1  2  1  3 30.0000000  0 12G23G24G27G08G22G10G21G12G31G01G25G32
  -7119841.41047  -7539813.04645  22681730.0004                   22681719.7584
        45.2504         33.5004
  -7017152.37345  -6144008.68643  23734365.4064                   23734356.9804
        35.0004         21.7504
  -8687018.79145  -6577017.41244  25006421.9924                   25006415.7934
        30.0004         25.2504
  -4469511.43745  -3416071.68544  24365847.0554                   24365837.9844
        32.0004         29.2504
 -14212957.95247 -11275771.41146  21271477.0004                   21271466.2894
        46.0004         37.0004
 -27028908.46548 -20886805.43349  20733302.5314                   20733293.9304
        50.0004         55.0004
 -16003543.69647 -11029489.97745  22852359.4694                   22852347.4694
        44.7504         33.5004
   -113662.52245    -69856.58342  25577375.6484                   25577367.4574
        33.7504         14.7504
 -10467570.06246  -8106065.76346  23499014.4534                   23499004.3284
        41.0004         41.5004
  -8711961.90945  -5857251.79945  23872893.6954                   23872885.8554
        35.0004         30.2504
                                  25327145.516
        35.250
 -19117673.83748 -21084932.19149  20494681.8524                   20494673.0164
        51.7504         54.7504
 23  1  2  1  4  0.0000000  0 12G23G24G27G08G22G10G21G12G31G01G25G32
  -7042687.79747  -7479693.38345  22696412.2274                   22696401.8674
        45.0004         32.7504
  -6923438.34746  -6070984.81643  23752198.7344                   23752191.3634
        36.0004         21.5004
  -8593944.41255  -6504491.87354  25024134.0634                   25024125.6374
        31.0004         24.7504
  -4401392.83045  -3362992.25645  24378808.4144                   24378800.4574
        32.0004         30.0004
 -14262613.58447 -11314464.09146  21262027.2194                   21262016.8014
        46.0004         36.7504
 -27001661.20748 -20865573.80349  20738487.4384                   20738478.8364
        50.0004         54.7504
 -16058672.09247 -11072447.17645  22841868.7424                   22841857.3874
        44.5004         34.0004
   -182940.212 5                  25564191.859
        33.000
 -10584084.00146  -8196855.84346  23476843.7664                   23476831.7664
        41.7504         41.7504
  -8813310.49745  -5936224.69145  23853607.9144                   23853599.6054
        35.2504         32.0004
                                  25311153.023
        39.000
 -19118159.73248 -21085310.79849  20494589.4924                   20494580.3634
        52.0004         54.7504
 23  1  2  1  4 30.0000000  0 12G23G24G27G08G22G10G21G12G31G01G25G32
  -6965318.81747  -7419405.87745  22711136.1334                   22711124.7194
        45.2504         32.2504
  -6829369.76246  -5997684.60643  23770100.4064                   23770090.8674
        36.0004         22.0004
  -8500871.50155  -6431967.57754  25041843.0944                   25041837.4804
        30.2504         24.7504
  -4332999.97644  -3309699.13444  24391821.0784                   24391815.5824
        28.7504         29.0004
 -14311930.40047 -11352892.76246  21252643.0784                   21252632.0744
        46.0004         37.0004
 -26974089.16348 -20844089.10049  20743734.3914                   20743725.5554
        49.7504         54.7504
 -16113428.21147 -11115114.28845  22831449.3054                   22831437.2464
        44.5004         33.7504
   -251961.98345   -159917.56752  25551059.4454                   25551048.3244
        35.5004         15.5004
 -10700463.15146  -8287540.89647  23454695.9144                   23454685.9654
        41.2504         42.0004
  -8914398.75746  -6014994.74745  23834370.9224                   23834363.0824
        36.7504         31.7504
                                  25295172.219
        36.250
 -19118266.28348 -21085393.82449  20494569.0864                   20494560.1334
        51.0004         55.0004
 23  1  2  1  5  0.0000000  0 11G23G24G27G08G22G10G21G12G31G01G32
  -6887735.81247  -7358951.61745  22725898.1804                   22725888.6414
        45.5004         32.7504
  -6734950.40245  -5924111.09643  23788066.8524                   23788058.9534
        35.5004         22.0004
  -8407804.17155  -6359447.54654  25059556.8134                   25059549.1484
        31.5004         25.5004
  -4264335.66445  -3256194.45144  24404890.0554                   24404881.5704
        31.5004         29.5004
 -14360909.04247 -11391057.92746  21243322.3284                   21243311.6764
        47.0004         37.5004
 -26946193.04048 -20822351.85849  20749042.4454                   20749033.7854
        50.5004         55.2504
 -16167810.94247 -11157490.43245  22821100.8364                   22821088.6024
        45.5004         33.2504
   -320725.99946   -213499.75842  25537974.8444                   25537964.5434
        37.7504         17.2504
 -10816705.60847  -8378119.41747  23432576.5864                   23432565.3484
        42.0004         42.7504
  -9015224.82346  -6093560.54645  23815184.5864                   23815177.2734
        36.0004         33.0004
 -19117995.17248 -21085182.56849  20494620.7034                   20494611.8674
        52.2504         54.7504
 23  1  2  1  5 30.0000000  0 11G23G24G27G08G22G10G21G12G31G01G32
  -6809940.91447  -7298332.24245  22740702.6414                   22740692.2814
        45.0004         31.7504
  -6640184.81345  -5850267.80343  23806100.3834                   23806092.3674
        35.5004         22.5004
  -8314746.65255  -6286935.24454  25077265.1094                   25077255.2194
        32.2504         25.0004
                                  24418004.6644                   24417998.9344
        27.5004         29.5004
 -14409551.25747 -11428960.94246  21234065.8834                   21234055.4064
        47.0004         37.7504
 -26917974.10248 -20800363.08749  20754412.3364                   20754404.0864
        49.5004         54.7504
 -16221820.43347 -11199575.75045  22810823.3444                   22810810.8754
        45.0004         33.0004
   -389230.25546   -266879.69543  25524937.4924                   25524929.5944
        36.5004         18.2504
 -10932809.87146  -8468590.28647  23410482.6174                   23410471.9064
        41.2504         42.5004
  -9115787.60746  -6171921.13245  23796047.2894                   23796040.2114
        36.2504         33.7504
 -19117348.88048 -21084678.96049  20494743.7344                   20494734.9574
        51.2504         54.7504
 23  1  2  1  6  0.0000000  0 12G23G24G27G08G22G10G21G12G31G01G25G32
  -6731927.97647  -7237542.97545  22755548.0084                   22755537.4734
        44.7504         33.0004
  -6545069.29845  -5776151.84843  23824199.8524                   23824192.5394
        35.2504         21.2504
  -8221695.40145  -6214427.78444  25094970.8134                   25094962.9144
        32.0004         26.0004
  -8852463.63345  -6831359.11044  24431174.2664                   24431167.1884
        30.5004         29.7504
 -14457850.44047 -11466596.65746  21224875.7114                   21224864.5904
        47.2504         37.0004
 -26889425.48848 -20778117.41949  20759845.2424                   20759836.6414
        50.5004         54.7504
 -16275448.90847 -11241364.17645  22800616.9694                   22800605.7894
        43.7504         33.5004
   -457465.86346   -320050.26942  25511954.0704                   25511945.2934
        37.5004         17.2504
 -11048766.43146  -8558946.04247  23388417.0944                   23388406.3834
        41.5004         42.7504
  -9216077.51846  -6250069.11545  23776965.0394                   23776955.3244
        38.0004         32.7504
                                  25247313.242
        29.000
 -19116321.63848 -21083878.50649  20494939.3204                   20494930.3674
        53.0004         54.7504
 23  1  2  1  6 30.0000000  0 12G23G24G27G08G22G10G21G12G31G01G25G32
  -6653704.71947  -7176589.81345  22770433.5004                   22770422.8484
        44.5004         31.5004
  -6449613.91745  -5701771.01843  23842364.7894                   23842356.7734
        35.0004         21.0004
  -8128660.60044  -6141933.08543  25112674.0944                   25112667.1914
        28.7504         22.7504
  -8783002.40944  -6777233.48944  24444393.0394                   24444385.1414
        29.5004         29.5004
 -14505813.52247 -11503970.48646  21215748.0704                   21215736.9494
        46.5004         37.2504
 -26860553.73848 -20755619.95449  20765339.4844                   20765330.7664
        49.7504         55.0004
 -16328700.84447 -11282859.17545  22790484.0314                   22790472.4414
        45.5004         33.2504
   -525436.46345   -373014.31742  25499015.9774                   25499010.5984
        32.5004         16.2504
 -11164579.46047  -8649189.95447  23366378.9304                   23366367.6914
        42.2504         42.7504
  -9316098.97846  -6328007.87845  23757929.9694                   23757922.5394
        37.5004         33.5004
     41689.73455   -122334.46354  25231392.8444                   25231382.4844
        35.0004         24.5004
 -19114921.44048 -21082787.43849  20495205.5704                   20495196.5594
        52.5004         55.0004
 23  1  2  1  7  0.0000000  0 12G23G24G27G08G22G10G21G12G31G01G25G32
  -6575269.76947  -7115471.70645  22785359.0474                   22785349.0984
        45.0004         31.5004
  -6353819.78446  -5627126.27543  23860594.3284                   23860586.6054
        36.0004         22.0004
  -8035659.39155  -6086300.13754  25130377.5314                   25130367.6414
        32.5004         25.2504
  -8713282.42945  -6722906.20245  24457662.0314                   24457652.1994
        32.2504         30.0004
 -14553438.74347 -11541081.03146  21206685.3364                   21206674.6844
        46.7504         37.0004
 -26831356.86648 -20732869.14749  20770895.3444                   20770886.4494
        50.2504         55.0004
 -16381573.54147 -11324058.68445  22780423.1414                   22780411.1994
        45.0004         33.5004
   -593137.33545   -425768.07242  25486133.5704                   25486126.7274
        33.5004         16.7504
 -11280243.96047  -8739318.13447  23344368.2734                   23344357.4454
        42.0004         42.5004
  -9415847.33846  -6405733.87745  23738948.9844                   23738940.9104
        37.2504         34.5004
    -41909.91556   -175055.28955  25215483.9224                   25215474.5594
        36.5004         30.5004
 -19113147.43248 -21081405.09049  20495543.3914                   20495534.4964
        51.5004         54.7504
 23  1  2  1  7 30.0000000  0 12G23G24G27G08G22G10G21G12G31G01G25G32
  -6496619.54447  -7054185.84345  22800325.9844                   22800315.5084
        44.5004         32.0004
  -6257685.81545  -5552216.65743  23878887.5164                   23878879.8524
        35.2504         22.2504
    226561.58955  -6048324.92854  25148074.8674                   25148064.6254
        32.5004         26.2504
  -8643302.50745  -6668376.38745  24470977.8444                   24470969.3014
        32.2504         30.7504
 -14600721.87847 -11577925.01746  21197687.5234                   21197677.1644
        46.5004         37.0004
 -26801830.63048 -20709861.69249  20776513.7974                   20776505.2544
        49.5004         55.0004
 -16434061.25747 -11364958.19345  22770434.6024                   22770422.8364
        44.5004         33.7504
   -660561.28945   -478306.19142  25473304.4534                   25473295.2074
        35.5004         16.7504
 -11395753.03446  -8829325.22347  23322386.8674                   23322376.8014
        40.7504         43.0004
  -9515315.67046  -6483241.63545  23720021.3594                   23720012.2304
        38.0004         33.7504
   -125415.39155   -228210.44454  25199589.2974                   25199583.8594
        32.2504         25.5004
 -19110996.32948 -21079728.90349  20495952.5004                   20495943.6054
        51.7504         55.2504
 23  1  2  1  8  0.0000000  0 12G23G24G27G08G22G10G21G12G31G01G25G32
  -6417760.15747  -6992737.01745  22815332.0164                   22815321.9494
        44.2504         31.5004
  -6161220.35445  -5477048.79943  23897243.8594                   23897236.5474
        35.0004         22.2504
                                  25165765.1564                   25165758.1954
        30.0004         26.0004
  -8573070.94245  -6613650.47045  24484340.9454                   24484333.9264
        30.7504         30.5004
 -14647668.43947 -11614506.74546  21188754.2194                   21188743.3324
        47.0004         37.2504
 -26771979.92548 -20686601.41549  20782194.5864                   20782185.5164
        50.0004         54.7504
 -16486167.41847 -11405560.38545  22760519.1954                   22760507.7814
        45.5004         33.5004
   -727711.03646   -530630.59042  25460527.0864                   25460517.0204
        37.0004         16.7504
 -11511109.29246  -8919213.20647  23300435.8444                   23300425.1334
        41.7504         42.7504
  -9614506.89446  -6560533.50045  23701144.2114                   23701136.8404
        36.0004         33.5004
   -208839.21645   -293216.08944  25183712.7344                   25183708.2974
        31.7504         25.0004
 -19108474.59148 -21077763.90249  20496432.6024                   20496423.4734
        52.0004         55.0004
 23  1  2  1  8 30.0000000  0 12G23G24G27G08G22G10G21G12G31G01G25G32
  -6338688.66547  -6931122.87445  22830378.3984                   22830368.3324
        44.0004         31.5004
  -6064423.03945  -5401622.35643  23915664.2424                   23915655.8754
        34.0004         21.2504
    412489.65455  -5903445.88554  25183453.8524                   25183445.7774
        31.0004         24.5004
  -8502587.06245  -6558727.97345  24497754.3834                   24497746.3094
        32.0004         30.0004
 -14694275.08147 -11650823.60546  21179885.2584                   21179874.3134
        46.0004         37.2504
 -26741801.37148 -20663085.66149  20787937.2424                   20787928.2304
        50.0004         54.7504
 -16537887.29347 -11445861.58745  22750677.6334                   22750665.6914
        45.2504         34.0004
   -794580.24646   -582736.37642  25447801.7734                   25447792.0594
        36.5004         17.2504
 -11626306.24346  -9008977.05647  23278514.2974                   23278503.8794
        41.2504         42.5004
  -9713414.51046  -6637604.36145  23682324.2424                   23682315.4064
        36.5004         33.7504
   -292170.86244   -358149.69144  25167853.1094                   25167851.5434
        29.2504         25.5004
 -19105579.70648 -21075508.14349  20496983.4064                   20496974.3364
        51.7504         55.0004
 23  1  2  1  9  0.0000000  0 12G23G24G27G08G22G10G21G12G31G01G25G32
  -6259403.65747  -6869342.36945  22845466.1174                   22845456.2854
        44.0004         31.7504
  -5967294.76345  -5325938.00343  23934147.3054                   23934139.1724
        35.0004         21.2504
                                  25201140.8054                   25201129.8014
        36.0004         22.0004
  -8431852.41145  -6503610.06545  24511214.1644                   24511207.2624
        32.0004         31.2504
 -14740539.95547 -11686874.14646  21171080.9774                   21171070.2074
        46.0004         37.5004
 -26711292.75848 -20639312.72949  20793743.0084                   20793734.1134
        50.2504         54.7504
 -16589217.24147 -11485858.94045  22740909.4304                   22740897.6644
        44.7504         34.0004
   -861163.89746   -634619.61243  25435132.8754                   25435123.1604
        37.5004         18.2504
 -11741339.04546  -9098612.98947  23256624.9614                   23256614.0164
        41.7504         42.5004
  -9812034.05046  -6714450.69645  23663557.8444                   23663548.6564
        38.5004         33.0004
   -375405.02745   -423007.48944  25152018.7664                   25152011.1024
        33.5004         25.7504
 -19102310.62548 -21072960.80849  20497605.3834                   20497596.6054
        53.0004         54.7504
 23  1  2  1  9 30.0000000  0 12G23G24G27G08G22G10G21G12G31G01G25G32
  -6179910.80747  -6807399.92545  22860593.4694                   22860583.4024
        44.5004         31.0004
  -5869843.71945  -5250002.12243  23952692.2194                   23952683.3834
        35.0004         20.7504
                                  25218813.8444                   25218806.7664
        30.7504         25.5004
  -8360874.47345  -6448302.60845  24524720.4844                   24524713.6994
        31.5004         30.0004
 -14786468.07847 -11722662.28346  21162341.1644                   21162330.2774
        47.0004         37.2504
 -26680458.70848 -20615286.20649  20799610.2344                   20799601.5164
        50.2504         54.7504
 -16640160.98747 -11525555.35845  22731215.1094                   22731203.3444
        45.2504         33.5004
   -927464.16646   -674088.12453  25422514.8054                   25422506.4964
        36.0004         18.5004
 -11856209.66546  -9188122.58147  23234764.8204                   23234754.8714
        40.7504         42.5004
  -9910367.57346  -6791074.24145  23644843.4304                   23644836.7034
        37.0004         34.2504
   -458543.92045   -487791.12244  25136196.3984                   25136189.8484
        31.0004         25.0004
 -19098673.36548 -21070126.58049  20498297.4844                   20498288.9414
        53.0004         55.0004
 23  1  2  1 10  0.0000000  0 12G23G24G27G08G22G10G21G12G31G01G25G32
  -6100211.71247  -6745296.76745  22875758.6414                   22875749.6294
        43.5004         31.0004
  -5772073.75445  -5173817.69843  23971295.5394                   23971287.9344
        33.5004         20.0004
    691172.46755  -5686289.82253  25236486.5944                   25236474.8874
        32.2504         22.5004
  -8289657.47055  -6392808.83055  24538273.4534                   24538265.4384
        32.2504         31.0004
 -14832060.52247 -11758188.85446  21153665.4224                   21153654.7704
        46.7504         37.5004
 -26649300.03548 -20591006.72249  20805539.6024                   20805530.8244
        50.0004         54.7504
 -16690718.13447 -11564950.53445  22721594.9534                   22721582.7194
        45.5004         34.0004
   -993479.31246   -725528.52342  25409953.0234                   25409943.8954
        36.5004         16.7504
 -11970916.29846  -9277504.36447  23212936.9064                   23212926.7814
        41.5004         42.5004
 -10008413.46546  -6867473.61445  23626186.3594                   23626179.1054
        36.5004         33.5004
   -541585.48355   -552498.75554  25120394.8984                   25120389.0514
        32.0004         29.0004
 -19094669.91648 -21067007.00949  20499059.4144                   20499050.2854
        53.2504         55.0004
 23  1  2  1 10 30.0000000  0 12G23G24G27G08G22G10G21G12G31G01G25G32
  -6020296.98347  -6683025.56745  22890966.4144                   22890956.7584
        43.2504         32.0004
  -5673977.88545  -5097379.42943  23989963.4774                   23989955.4024
        34.0004         21.2504
                                  25254148.8914                   25254140.7584
        31.5004         24.5004
  -8218194.92645  -6337123.68845  24551871.7974                   24551863.7814
        32.5004         31.7504
 -14877307.41847 -11793446.16646  21145055.0084                   21145044.4144
        46.0004         37.5004
 -26617806.54848 -20566466.35849  20811532.5784                   20811523.6254
        50.0004         54.7504
 -16740877.24747 -11604035.55645  22712050.1254                   22712037.9494
        45.0004         34.2504
  -1059195.98446   -776736.33443  25397448.3284                   25397438.2624
        37.5004         19.0004
 -12085445.99946  -9366748.27447  23191142.8594                   23191132.2664
        41.5004         42.7504
 -10106158.87846  -6943638.87645  23607586.8204                   23607578.5704
        36.5004         34.0004
   -624516.52445   -617120.38744  25104614.6334                   25104606.5004
        33.0004         25.5004
 -19090291.25848 -21063595.06949  20499892.6094                   20499883.5984
        52.0004         55.0004
 23  1  2  1 11  0.0000000  0 12G23G24G27G08G22G10G21G12G31G01G25G32
  -5940176.38147  -6620593.96445  22906214.2734                   22906203.2704
        44.0004         30.7504
  -5575568.34745  -5020696.64643  24008689.6884                   24008681.6724
        34.2504         19.5004
                                  25271806.4774                   25271797.3484
        32.0004         22.7504
  -8146498.58745  -6281256.43545  24565514.2504                   24565507.0554
        34.0004         31.5004
 -14922218.12847 -11828441.50746  21136508.9454                   21136497.7664
        46.5004         38.0004
 -26585987.38748 -20541672.21449  20817587.6724                   20817578.8364
        50.0004         55.0004
 -16790645.67947 -11642816.14645  22702578.8674                   22702566.8674
        45.0004         34.5004
  -1124620.79045   -827716.66743  25384995.7424                   25384988.2544
        35.0004         18.5004
 -12199805.20647  -9455859.33547  23169380.7814                   23169370.6564
        42.0004         42.7504
 -10203610.29046  -7019575.02345  23589041.4144                   23589034.6884
        36.5004         34.0004
   -707343.11845   -681660.67644  25088850.7114                   25088845.8054
        31.2504         26.5004
 -19085547.48548 -21059898.61949  20500795.3914                   20500786.3204
        52.2504         55.0004
 23  1  2  1 11 30.0000000  0 12G23G24G27G08G22G10G21G12G31G01G25G32
  -5859848.06547  -6558000.53045  22921499.4064                   22921489.4574
        43.5004         31.0004
  -5476845.80245  -4943770.00143  24027475.6094                   24027467.6524
        33.0004         19.0004
                                  25289455.4844                   25289444.7154
        33.5004         23.7504
  -8074569.30145  -6225207.64045  24579205.5004                   24579195.5514
        35.5004         30.7504
 -14966790.06247 -11863172.88046  21128027.2974                   21128016.2934
        47.0004         37.5004
 -26553839.82948 -20516622.17349  20823704.8914                   20823696.4064
        50.2504         55.0004
 -16840019.39047 -11681289.16745  22693184.1174                   22693171.5904
        46.0004         34.2504
  -1189747.92246   -878465.23243  25372603.3364                   25372594.2664
        36.2504         18.2504
 -12313988.03247  -9544832.95647  23147653.4064                   23147642.2854
        42.0004         42.7504
 -10300762.55046  -7095278.07045  23570556.1564                   23570546.6764
        38.7504         34.2504
   -790059.76445   -746115.24144  25073110.0164                   25073104.9344
        30.7504         26.0004
 -19080437.29648 -21055916.64749  20501767.6174                   20501758.7234
        53.5004         55.0004
 23  1  2  1 12  0.0000000  0 11G23G24G08G22G10G21G12G31G01G25G32
  -5779312.02047  -6495245.19445  22936824.8284                   22936815.1134
        43.2504         31.0004
  -5377812.55545  -4866601.25143  24046321.1094                   24046313.9144
        33.0004         20.2504
  -8002408.89845  -6168978.75645  24592934.8984                   24592926.7074
        34.2504         30.2504
 -15011022.89747 -11897640.02846  21119609.8594                   21119599.2074
        46.5004         38.0004
 -26521362.88648 -20491315.47349  20829885.1644                   20829876.4454
        50.0004         55.0004
 -16888996.52447 -11719453.16245  22683863.7664                   22683851.6484
        45.5004         34.5004
  -1254574.35245   -928979.39542  25360267.7664                   25360258.4614
        35.5004         16.7504
 -12427991.19546  -9633666.57447  23125958.0474                   23125948.3914
        41.7504         43.0004
 -10397612.23446  -7170745.34445  23552124.3054                   23552116.5234
        37.5004         34.5004
   -872662.74745   -810481.23544  25057391.3524                   25057385.2114
        31.0004         26.0004
 -19074960.97848 -21051649.39149  20502809.9924                   20502801.0394
        53.0004         54.7504
 23  1  2  1 12 30.0000000  0 12G23G24G27G08G22G10G21G12G31G01G25G32
  -5698568.44647  -6432328.12745  22952189.8444                   22952180.1294
        43.5004         30.5004
  -5278470.99845  -4789192.25543  24065226.8134                   24065217.7424
        34.0004         18.2504
                                  25324727.758
        36.500
  -7930020.70945  -6112572.37445  24606710.1724                   24606702.5664
        34.5004         30.5004
 -15054916.08847 -11931842.50346  21111257.3134                   21111246.3674
        47.0004         38.0004
 -26488556.21848 -20465751.84249  20836127.9304                   20836119.3874
        50.0004         54.7504
 -16937575.28947 -11757306.73045  22674619.0634                   22674607.0634
        45.7504         33.5004
  -1319096.67546   -979256.47142  25347990.1094                   25347980.9224
        36.5004         16.7504
 -12541811.58747  -9722357.78047  23104299.8054                   23104288.8594
        42.5004         43.5004
 -10494156.09246  -7245974.32045  23533753.8284                   23533745.1684
        39.0004         35.5004
   -955148.17345   -874755.51444  25041698.1484                   25041690.3674
        34.2504         28.5004
 -19069119.07048 -21047097.25949  20503921.5554                   20503912.7194
        53.5004         54.7504
 23  1  2  1 13  0.0000000  0 11G23G24G08G22G10G21G12G31G01G25G32
  -5617618.43447  -6369250.22845  22967594.1644                   22967584.0984
        43.7504         31.5004
  -5178824.94945  -4711545.89543  24084187.6484                   24084179.2234
        33.5004         19.2504
  -7857408.09045  -6055991.07145  24620528.5164                   24620519.7384
        34.7504         31.0004
 -15098470.33547 -11965780.86246  21102968.7734                   21102958.4144
        46.5004         37.7504
 -26455419.74248 -20439931.21549  20842433.5314                   20842425.1054
        50.0004         55.0004
 -16985754.64047 -11794849.08045  22665451.1414                   22665438.8484
        45.7504         34.0004
  -1383312.22945  -1029294.48542  25335769.0474                   25335761.0314
        34.5004         16.7504
 -12655446.31846  -9810904.30447  23082674.7664                   23082664.8164
        41.5004         43.5004
 -10590391.94246  -7320963.26545  23515439.7034                   23515431.9224
        38.0004         35.0004
  -1037513.85445   -938936.61044  25026021.3284                   25026015.8914
        31.0004         24.2504
 -19062913.09148 -21042261.42849  20505102.4224                   20505093.4694
        52.5004         54.7504
 23  1  2  1 13 30.0000000  0 11G23G24G08G22G10G21G12G31G01G25G32
  -5536461.95347  -6306011.44845  22983038.0084                   22983027.9414
        43.2504         30.5004
  -5078876.51745  -4633664.01843  24103209.1954                   24103199.5984
        34.2504         19.0004
  -7784573.49445  -5999236.83745  24634388.7584                   24634379.0434
        35.2504         31.2504
 -15141685.44847 -11999454.96446  21094745.7034                   21094734.7584
        47.5004         38.0004
 -26421952.84848 -20413853.12249  20848802.4454                   20848793.6684
        50.5004         54.7504
 -17033532.52347 -11832078.61245  22656359.2504                   22656346.8984
        46.0004         34.2504
  -1447217.47045  -1079090.62642  25323608.3984                   25323600.2074
        35.7504         17.2504
 -12768892.14847  -9899303.63447  23061087.8054                   23061076.9774
        43.0004         43.7504
 -10686316.29646  -7395709.51345  23497186.0394                   23497178.1994
        39.0004         35.5004
  -1119755.66745  -1003021.07044  25010372.2734                   25010365.7234
        31.2504         27.0004
 -19056343.37048 -21037142.16149  20506352.6644                   20506343.6524
        52.7504         54.7504
 23  1  2  1 14  0.0000000  0 12G23G24G27G08G22G10G21G12G31G01G25G32
  -5455102.31347  -6242614.36545  22998520.1724                   22998510.4574
        43.5004         31.0004
  -4978631.46045  -4555550.93643  24122283.2274                   24122274.7424
        32.7504         19.7504
    397795.39055  -5351404.62653  25377554.7114                   25377544.1764
        30.5004         22.7504
  -7711522.12145  -5942313.71845  24648289.2974                   24648280.6374
        34.7504         31.7504
 -15184563.91447 -12032866.75646  21086586.0864                   21086575.4344
        46.5004         38.0004
 -26388158.34548 -20387519.74549  20855233.3284                   20855224.4344
        50.5004         54.7504
 -17080910.23847 -11868996.30545  22647343.1644                   22647331.5744
        45.5004         34.2504
  -1510812.41046  -1128645.05543  25311509.4224                   25311498.8284
        38.5004         19.2504
 -12882148.82547  -9987555.57547  23039534.6644                   23039525.0664
        42.5004         44.0004
 -10781929.11146  -7470212.97445  23478991.0474                   23478983.8524
        39.0004         35.0004
                                  24994743.7974                   24994740.0044
        31.0004         26.7504
 -19049413.62249 -21031742.35849  20507671.0554                   20507662.6294
        54.0004         55.0004
 23  1  2  1 14 30.0000000  0 11G23G24G08G22G10G21G12G31G01G25G32
  -5373532.02747  -6179053.14745  23014043.0234                   23014032.0204
        44.2504         31.0004
  -4878084.56645  -4477202.74543  24141416.7034                   24141408.5704
        32.5004         18.2504
  -7638249.79045  -5885218.38845  24662232.7194                   24662224.7034
        35.2504         32.5004
 -15227097.85947 -12066010.07646  21078491.5234                   21078481.5164
        46.2504         38.0004
 -26354027.42348 -20360924.22949  20861728.0234                   20861719.1884
        50.0004         54.7504
 -17127877.63547 -11905594.27345  22638405.9304                   22638393.8134
        45.0004         34.0004
  -1574086.21445  -1177949.15242  25299466.1724                   25299457.5704
        34.2504         17.2504
 -12995205.18547 -10075651.42347  23018021.3054                   23018010.8874
        42.0004         44.0004
 -10877219.43046  -7544465.16646  23460859.2814                   23460850.5044
        39.2504         36.0004
                                  24979145.922
        32.500
 -19042116.70549 -21026056.44949  20509059.6884                   20509051.0274
        54.0004         55.0004
 23  1  2  1 15  0.0000000  0 12G23G24G27G08G22G10G21G12G31G01G25G32
  -5291760.69447  -6115335.25945  23029602.9064                   23029592.9574
        43.5004         30.7504
  -4777247.95045  -4398628.70943  24160603.6094                   24160597.3524
        30.5004         19.0004
                                  25412717.4614                   25412709.5634
        28.7504         24.0004
  -7564767.92845  -5827959.82345  24676214.5704                   24676207.4344
        33.5004         31.2504
 -15269296.47247 -12098892.11046  21070461.8364                   21070451.0664
        47.0004         38.5004
 -26319568.93848 -20334073.46549  20868285.6644                   20868276.4774
        51.0004         54.7504
 -17174442.86547 -11941878.88145  22629544.8594                   22629532.8594
        46.0004         34.7504
  -1637044.59546  -1227007.56442  25287487.3754                   25287476.7814
        36.7504         16.2504
 -13108067.07647 -10163595.74347  22996544.1094                   22996533.8094
        42.0004         44.5004
 -10972193.62746  -7618471.02945  23442785.8364                   23442777.7034
        39.0004         34.7504
  -1365713.59055  -1160949.53754  24963567.9774                   24963562.4804
        32.2504         24.0004
 -19034462.71348 -21020092.30249  20510516.2504                   20510507.4144
        53.5004         54.7504
 23  1  2  1 15 30.0000000  0 12G23G24G27G08G22G10G21G12G31G01G25G32
  -5209787.87447  -6051460.36345  23045201.7894                   23045191.7814
        43.2504         31.0004
  -4676123.46845  -4319830.41143  24179849.2344                   24179841.2774
        33.7504         19.5004
    527747.93254  -5190174.00853  25430281.3914                   25430273.6094
        29.2504         22.7504
  -7491078.70346  -5770539.65245  24690239.7974                   24690229.5554
        37.0004         31.2504
 -15311158.70847 -12131512.02646  21062495.8594                   21062485.5004
        47.0004         38.5004
 -26284781.67448 -20306966.51849  20874905.0784                   20874896.1254
        50.0004         54.7504
 -17220603.21347 -11977847.97645  22620760.7504                   22620748.9264
        45.2504         34.7504
  -1699683.79045  -1275817.14442  25275565.5554                   25275557.4224
        34.5004         16.7504
 -13220730.65247 -10251385.51947  22975105.3834                   22975094.4384
        42.7504         44.2504
 -11066847.68146  -7692227.41946  23424774.0234                   23424765.3054
        39.0004         36.0004
                                  24948018.5864                   24948011.3914
        33.0004         27.5004
 -19026451.46648 -21013849.77149  20512040.8284                   20512032.0514
        52.5004         54.7504
 23  1  2  1 16  0.0000000  0 11G23G24G08G22G10G21G12G31G01G25G32
  -5127605.21647  -5987421.98344  23060841.3674                   23060830.7154
        44.0004         29.5004
  -4574705.14345  -4240803.12942  24199147.0554                   24199139.6844
        31.5004         17.7504
  -7417175.88346  -5712952.98945  24704301.2584                   24704293.4184
        36.0004         31.2504
 -15352675.70747 -12163862.92346  21054594.9924                   21054584.7504
        47.2504         39.0004
 -26249656.75448 -20279596.46149  20881589.1644                   20881580.6214
        51.0004         54.7504
 -17266348.23547 -12013493.44745  22612055.7504                   22612043.9264
        45.7504         34.0004
  -1761992.12745  -1324369.08042  25263709.0784                   25263699.7154
        33.7504         15.5004
 -13333184.23347 -10339011.67847  22953706.4224                   22953695.7114
        42.5004         44.5004
 -11161169.94846  -7765725.28645  23406825.2274                   23406816.4494
        39.0004         35.5004
  -1529008.87155  -1288193.21454  24932493.7424                   24932489.7154
        33.2504         26.5004
 -19018075.08748 -21007322.72549  20513634.8054                   20513626.1454
        53.7504         54.7504
 23  1  2  1 16 30.0000000  0 12G23G24G27G08G22G10G21G12G31G01G25G32
  -5045221.77447  -5923227.12945  23076517.2344                   23076507.4024
        43.2504         30.5004
  -4473004.45245  -4161555.81043  24218503.7504                   24218492.9224
        34.2504         20.2504
                                  25465378.6024                   25465364.6684
        31.7504         24.5004
  -7343071.18545  -5655209.05145  24718401.3204                   24718395.1804
        33.5004         31.5004
 -15393856.30847 -12195951.70546  21046759.0944                   21046748.2074
        47.2504         38.7504
 -26214202.12948 -20251969.48149  20888336.2504                   20888327.5314
        50.2504         54.7504
 -17311685.55147 -12048821.22945  22603428.4534                   22603416.5704
        45.7504         34.7504
  -1823975.15345  -1372667.40542  25251912.5004                   25251905.0704
        33.7504         16.7504
 -13445432.97147 -10426478.21947  22932345.7194                   22932335.3594
        42.5004         44.5004
 -11255166.09446  -7838969.03545  23388937.6954                   23388929.7384
        39.5004         35.5004
                                  24916997.7974                   24916992.9494
        30.0004         29.2504
 -19009343.06548 -21000518.55249  20515296.7814                   20515287.6524
        53.0004         55.0004
 23  1  2  1 17  0.0000000  0 12G23G24G27G08G22G10G21G12G31G01G25G32
  -4962639.47847  -5858877.30445  23092233.1174                   23092222.7584
        43.2504         30.5004
  -4371025.56045  -4082091.73343  24237906.0554                   24237899.0354
        31.7504         19.7504
    433776.64015                  25482896.672
        31.500
  -7268768.79345  -5597311.12345  24732542.2114                   24732534.1954
        34.2504         31.0004
 -15434701.78747 -12227779.34246  21038986.3364                   21038975.6844
        47.0004         39.0004
 -26178418.97948 -20224086.51249  20895145.5474                   20895136.5354
        50.5004         54.7504
 -17356614.43947 -12083830.75645  22594878.9064                   22594866.7894
        45.0004         34.0004
  -1885630.79045  -1420710.69342  25240181.8134                   25240171.9804
        35.5004         17.7504
 -13557475.18047 -10513783.84147  22911024.8284                   22911014.5274
        42.5004         44.5004
 -11348834.57946  -7911957.45045  23371112.6094                   23371105.1804
        37.7504         35.5004
  -1691731.68155  -1414990.22454  24901530.0314                   24901524.1844
        31.5004         27.0004
 -19000257.60348 -20993438.96849  20517025.4844                   20517016.5904
        52.2504         55.0004
 23  1  2  1 17 30.0000000  0 11G23G24G08G22G10G21G12G31G01G25G32
  -4879849.72547  -5794365.86244  23107987.2894                   23107977.0474
        43.0004         29.0004
  -4268762.25445  -4002406.04843  24257367.3204                   24257358.7774
        33.5004         19.7504
  -7194262.70146  -5539254.44145  24746720.1954                   24746711.6524
        36.0004         32.2504
 -15475203.50747 -12259339.12246  21031279.5474                   21031268.6604
        47.5004         38.7504
 -26142298.14848 -20195940.42149  20902019.0164                   20902010.1214
        50.5004         55.0004
 -17401124.42547 -12118513.86845  22586408.4844                   22586396.2504
        45.5004         33.7504
  -1946947.97445  -1468490.21542  25228512.4304                   25228504.4144
        35.0004         16.7504
 -13669298.97147 -10600919.25447  22889745.5394                   22889734.8874
        42.7504         44.7504
 -11442163.34446  -7984681.15745  23353353.8364                   23353345.1764
        38.5004         34.7504
                                  24886090.5394                   24886085.0434
        32.0004         27.5004
 -18990810.50048 -20986077.58749  20518823.3134                   20518814.3014
        52.2504         55.0004
 23  1  2  1 18  0.0000000  0 11G23G24G08G22G10G21G12G31G01G25G32
  -4796862.05847  -5729700.19644  23123778.7344                   23123768.1994
        42.0004         28.5004
  -4166226.36245  -3922507.96543  24276878.3754                   24276870.5354
        32.7504         19.5004
  -7119565.22445  -5481048.57045  24760934.2034                   24760927.1844
        34.2504         31.5004
 -15515369.64647 -12290637.39746  21023635.7274                   21023624.8404
        47.2504         39.0004
 -26105848.14648 -20167537.83249  20908955.4534                   20908946.6174
        50.7504         54.7504
 -17445222.70447 -12152876.16245  22578016.9384                   22578005.5234
        45.5004         34.2504
  -2007932.23645  -1516010.36142  25216906.9844                   25216898.8524
        33.7504         17.7504
 -13780909.82147 -10687888.74147  22868507.2274                   22868496.2234
        43.0004         44.7504
 -11535158.59846  -8057144.97245  23335657.0164                   23335648.8244
        38.0004         35.2504
  -1853851.97055  -1541317.49554  24870678.1804                   24870673.3324
        31.5004         27.0004
 -18981011.74248 -20978442.18849  20520687.7814                   20520679.1804
        53.2504         54.7504
 23  1  2  1 18 30.0000000  0 12G23G24G27G08G22G10G21G12G31G01G25G32
  -4713673.12047  -5664877.69244  23139609.4534                   23139599.2704
        42.5004         29.5004
  -4063416.95045  -3842396.77843  24296445.0084                   24296435.1764
        34.5004         19.5004
                                  25535384.3524                   25535374.9304
        31.7504         25.7504
  -7044675.07345  -5422692.62745  24775186.1174                   24775177.8674
        35.2504         32.2504
 -15555196.81247 -12321671.55046  21016056.8984                   21016046.1884
        46.5004         39.2504
 -26069064.70648 -20138875.43349  20915954.9924                   20915946.2154
        51.2504         55.0004
 -17488904.66247 -12186914.04945  22569704.6024                   22569693.0124
        44.5004         34.7504
  -2068576.17845  -1563265.44042  25205368.2504                   25205358.1254
        35.5004         17.2504
 -13892300.96047 -10774687.01947  22847309.3204                   22847299.0784
        42.7504         44.5004
 -11627813.54046  -8129343.60345  23318025.5474                   23318017.0634
        37.7504         35.0004
  -1934681.69755  -1604301.70154  24855298.5004                   24855292.2424
        32.2504         27.5004
 -18970858.33049 -20970530.43349  20522619.8204                   20522611.1024
        54.0004         55.0004
 23  1  2  1 19  0.0000000  0 12G23G24G27G08G22G10G21G12G31G01G25G32
  -4630283.83447  -5599899.08744  23155478.0864                   23155468.4304
        42.5004         29.0004
  -3960337.22845  -3762074.90443  24316059.0164                   24316049.5354
        34.0004         18.2504
                                  25552845.3594                   25552837.5204
        31.2504         21.7504
  -6969595.57845  -5364189.10245  24789472.8054                   24789464.8484
        34.2504         32.0004
 -15594685.81648 -12352442.19146  21008542.0634                   21008531.7034
        48.0004         39.5004
 -26031948.06248 -20109953.37549  20923018.0864                   20923009.0164
        51.5004         54.7504
 -17532168.84647 -12220626.41645  22561471.9924                   22561459.8754
        45.2504         34.5004
  -2128877.87945  -1610253.82242  25193891.1724                   25193883.0984
        33.7504         16.2504
 -14003469.93347 -10861312.18847  22826154.4454                   22826144.2624
        42.5004         44.7504
 -11720125.69446  -8201275.15545  23300459.1884                   23300450.7624
        37.2504         34.5004
  -2015352.19755  -1667161.82854  24839947.3834                   24839940.8914
        32.2504         28.5004
 -18960351.61348 -20962343.37749  20524619.2504                   20524610.2384
        52.7504         54.7504
 23  1  2  1 19 30.0000000  0 12G23G24G27G08G22G10G21G12G31G01G25G32
  -4546698.59347  -5534767.77244  23171383.3134                   23171373.1294
        42.5004         29.5004
  -3856993.90345  -3681547.64443  24335725.6884                   24335716.4414
        34.7504         20.7504
    798073.41854  -4846809.92754  25570289.8204                   25570283.6804
        28.2504         24.0004
  -6894333.20145  -5305543.09845  24803795.0234                   24803786.9494
        34.2504         32.0004
 -15633840.59548 -12382952.40346  21001091.3594                   21001080.6484
        48.0004         40.0004
 -25994501.94748 -20080774.60249  20930144.0234                   20930134.7774
        51.0004         54.7504
 -17575017.29047 -12254014.80845  22553318.1334                   22553306.2504
        46.0004         34.2504
  -2188838.63545  -1656976.43342  25182482.2344                   25182472.6374
        35.0004         15.5004
 -14114417.36147 -10947764.71347  22805042.3754                   22805031.3134
        42.5004         45.0004
 -11812096.00046  -8272940.31045  23282957.6414                   23282949.4494
        37.5004         35.2504
  -2095863.98455  -1729898.26154  24824625.3754                   24824619.7624
        31.5004         28.5004
 -18949496.35548 -20953884.74049  20526685.0784                   20526676.0084
        52.5004         55.0004
 23  1  2  1 20  0.0000000  0 12G23G24G27G08G22G10G21G12G31G01G25G32
  -4462911.25047  -5469478.95844  23187328.1414                   23187317.5474
        42.0004         29.5004
  -3753383.10945  -3600811.94843  24355441.6954                   24355432.5084
        33.7504         19.7504
    889669.15255  -4775436.56654  25587722.7034                   25587713.7504
        30.7504         25.7504
  -6818884.69245  -5246752.04045  24818153.6724                   24818144.0744
        35.0004         33.0004
 -15672654.49648 -12413196.99646  20993705.8364                   20993694.7154
        48.2504         39.5004
 -25956719.30148 -20051333.58549  20937333.4844                   20937324.5904
        50.5004         54.7504
 -17617442.16347 -12287073.16645  22545244.8754                   22545233.1094
        45.5004         35.0004
  -2248448.34645  -1703425.58442  25171138.5474                   25171129.8284
        34.5004         14.7504
 -14225133.50447 -11034037.00647  22783974.3674                   22783963.1294
        43.5004         45.0004
 -11903714.88746  -8344331.63045  23265523.2274                   23265514.6844
        38.0004         35.5004
  -2176207.18945  -1792503.36844  24809336.8834                   24809331.3874
        30.5004         27.7504
 -18938286.71748 -20945149.95649  20528818.1174                   20528809.2814
        52.0004         54.7504
 23  1  2  1 20 30.0000000  0 12G23G24G27G08G22G10G21G12G31G01G25G32
  -4378921.16447  -5404032.19344  23203311.0634                   23203301.1134
        43.0004         29.0004
  -3649506.56745  -3519869.21843  24375208.4384                   24375198.8984
        34.5004         19.2504
                                  25605137.7734                   25605127.1804
        33.7504         27.0004
  -6743251.72845  -5187817.25745  24832546.1954                   24832537.4184
        35.7504         32.7504
 -15711126.22847 -12443174.97346  20986384.8054                   20986374.0354
        47.5004         40.2504
 -25918598.80648 -20021629.31649  20944587.9064                   20944578.9534
        52.0004         54.7504
 -17659441.00047 -12319799.53045  22537252.4694                   22537241.1134
        45.2504         35.0004
  -2307703.01445  -1749598.05742  25159861.7584                   25159854.5044
        34.2504         17.2504
 -14335613.99047 -11120125.68647  22762949.8134                   22762939.2774
        43.0004         45.0004
 -11994978.35546  -8415446.00446  23248155.8284                   23248147.7544
        38.2504         36.5004
  -2256377.20555  -1854973.48854  24794080.5164                   24794075.7274
        30.7504         27.5004
 -18926722.59548 -20936138.95149  20531018.7974                   20531009.6094
        53.5004         55.0004
 23  1  2  1 21  0.0000000  0 12G23G24G27G08G22G10G21G12G31G01G25G32
  -4294737.11747  -5338434.27244  23219330.9844                   23219320.8014
        43.0004         29.0004
  -3545375.35845  -3438728.08343  24395023.5084                   24395015.9024
        34.2504         19.5004
                                  25622526.5554                   25622522.4104
        27.5004         23.0004
  -6667445.33145  -5128747.31145  24846969.9304                   24846962.9694
        34.0004         32.5004
 -15749264.14747 -12472892.82246  20979127.2034                   20979116.3754
        47.0004         40.0004
 -25880148.37448 -19991667.95349  20951904.6644                   20951895.5944
        51.0004         54.7504
 -17701020.54047 -12352199.16445  22529339.8834                   22529328.8794
        44.0004         35.0004
  -2366607.42546  -1795497.57842  25148654.5234                   25148645.2194
        36.2504         17.7504
 -14445864.07747 -11206034.82147  22741970.5394                   22741959.0664
        43.5004         45.5004
 -12085891.71546  -8486287.57346  23230856.4614                   23230848.0354
        39.2504         36.5004
  -2336379.06145  -1917312.53444  24778856.9534                   24778851.9884
        32.5004         28.0004
 -18914813.03948 -20926858.76349  20533284.9614                   20533275.8324
        53.0004         55.0004
 23  1  2  1 21 30.0000000  0 12G23G24G27G08G22G10G21G12G31G01G25G32
  -4210359.13047  -5272685.24344  23235387.5234                   23235376.8714
        42.2504         28.2504
  -3440991.72145  -3357390.16443  24414887.3754                   24414878.8324
        34.0004         19.7504
   1163895.34355  -4561753.82453  25639903.9774                   25639897.0164
        30.5004         23.0004
  -6591468.19445  -5069544.36345  24861427.4614                   24861420.4414
        34.0004         33.0004
 -15787067.97848 -12502350.35246  20971933.7504                   20971922.3364
        48.5004         40.0004
 -25841367.10748 -19961448.79949  20959284.5314                   20959275.5204
        51.5004         55.0004
 -17742178.63747 -12384270.41745  22521508.1254                   22521496.7114
        45.7504         35.5004
  -2425158.61045  -1841121.91742  25137511.5704                   25137503.6724
        33.5004         17.7504
 -14555880.19447 -11291761.64947  22721034.5784                   22721024.0434
        43.5004         45.5004
 -12176451.56046  -8556853.64746  23213622.7034                   23213614.6884
        38.7504         36.7504
  -2416208.84945  -1979517.54344  24763668.0944                   24763660.2544
        33.5004         29.5004
 -18902558.53548 -20917309.79949  20535617.1024                   20535608.0314
        52.5004         55.0004
 23  1  2  1 22  0.0000000  0 12G23G24G27G08G22G10G21G12G31G01G25G32
  -4125781.21746  -5206780.42244  23251481.6334                   23251471.6254
        41.5004         29.0004
  -3336352.00545  -3275852.69543  24434799.3754                   24434790.7154
        33.2504         20.2504
   1255107.43355  -4490679.40154  25657262.0784                   25657254.4734
        30.7504         25.0004
  -6515316.44645  -5010205.33645  24875918.4614                   24875911.5594
        33.5004         32.2504
 -15824531.14548 -12531542.43446  20964804.5314                   20964793.4104
        48.0004         40.5004
 -25802248.48948 -19930966.76749  20966728.6724                   20966719.6024
        51.5004         54.7504
 -17782907.33947 -12416007.07045  22513758.1644                   22513746.1644
        46.2504         34.5004
  -2483347.20645  -1886463.53842  25126437.4304                   25126430.8204
        33.0004         16.7504
 -14665652.57947 -11377298.53947  22700145.4844                   22700135.3014
        43.7504         46.0004
 -12266648.35046  -8627136.86746  23196459.4064                   23196450.8054
        40.0004         37.2504
  -2495856.73345  -2041580.84544  24748510.2194                   24748503.6094
        32.0004         27.7504
 -18889953.33648 -20907487.55549  20538015.7274                   20538006.4804
        52.7504         55.0004
 23  1  2  1 22 30.0000000  0 12G23G24G27G08G22G10G21G12G31G01G25G32
  -4041006.83347  -5140722.52044  23267613.9924                   23267603.8674
        42.2504         29.2504
  -3231461.92345  -3194120.23143  24454759.3914                   24454750.8484
        34.5004         19.0004
   1346217.15145  -4419684.86844  25674602.0234                   25674592.6024
        33.5004         25.2504
  -6438995.92745  -4950734.84245  24890442.2504                   24890435.4654
        34.7504         32.2504
 -15861656.82247 -12560471.53246  20957739.9064                   20957728.4924
        47.5004         40.2504
 -25762794.94648 -19900223.76349  20974236.3054                   20974227.1764
        50.7504         54.7504
 -17823208.80147 -12447410.80145  22506088.1094                   22506076.8714
        44.0004         35.0004
  -2541173.20555  -1931522.78852  25115432.9534                   25115426.1684
        32.5004         17.2504
 -14775181.25647 -11462645.53247  22679303.5704                   22679292.4494
        44.0004         46.0004
 -12356482.34646  -8697137.36946  23179363.8284                   23179355.9304
        39.0004         37.5004
  -2575322.44045  -2103502.08244  24733387.5164                   24733381.8444
        33.0004         27.5004
 -18877001.45948 -20897395.18749  20540480.3524                   20540471.1644
        52.5004         54.7504
 23  1  2  1 23  0.0000000  0 12G23G24G27G08G22G10G21G12G31G01G25G32
  -3956037.18647  -5074512.44944  23283782.8204                   23283773.5744
        42.0004         28.5004
  -3126325.01745  -3112195.28243  24474765.7274                   24474756.4224
        33.0004         18.5004
   1437221.48755  -4348772.33453  25691918.1724                   25691908.3404
        32.5004         23.0004
  -6362510.46145  -4891135.73445  24904998.6564                   24904989.4104
        35.5004         32.5004
 -15898446.05947 -12589138.46946  20950739.2974                   20950727.8244
        47.7504         40.2504
 -25723007.28648 -19869220.40449  20981807.5314                   20981798.7544
        52.0004         54.7504
 -17863082.12947 -12478480.93045  22498500.9774                   22498489.0944
        47.0004         35.7504
  -2598634.34845  -1976297.56242  25104499.7504                   25104492.0864
        33.2504         15.5004
 -14884463.66947 -11547800.63047  22658507.6564                   22658497.0044
        43.7504         46.0004
 -12445951.16046  -8766853.31646  23162339.7034                   23162331.0434
        40.7504         38.5004
  -2654603.22045  -2165279.28344  24718301.0394                   24718295.7774
        32.5004         27.2504
 -18863704.41748 -20887033.85349  20543010.6174                   20543001.7234
        53.0004         55.0004
 23  1  2  1 23 30.0000000  0 12G23G24G27G08G22G10G21G12G31G01G25G32
  -3870870.75046  -5008149.05244  23299989.9924                   23299979.6334
        41.7504         29.0004
  -3020941.96545  -3030078.75743  24494820.7584                   24494812.0394
        34.7504         20.2504
   1528119.66055  -4277942.56954  25709217.4534                   25709207.0944
        33.5004         27.2504
  -6285860.23745  -4831408.28545  24919581.2504                   24919575.4024
        33.0004         32.0004
 -15934896.37548 -12617541.30746  20943802.7344                   20943791.7894
        49.0004         40.5004
 -25682882.90648 -19837954.66349  20989442.8054                   20989434.0864
        51.0004         55.0004
 -17902522.78947 -12509213.91345  22490995.8594                   22490983.8014
        46.5004         35.5004
  -2655725.59345  -2020784.12342  25093636.2194                   25093627.7344
        35.0004         16.2504
 -14993494.87247 -11632759.98147  22637759.9064                   22637748.6094
        44.5004         46.2504
 -12535049.83046  -8836280.85146  23145384.9144                   23145375.7854
        40.5004         38.5004
  -2733693.62545  -2226908.11944  24703250.0634                   24703244.7424
        31.7504         28.5004
 -18850061.06948 -20876402.66249  20545606.9144                   20545597.7274
        52.5004         55.0004
 23  1  2  1 24  0.0000000  0 12G23G24G27G08G22G10G21G12G31G01G25G32
  -3785512.14947  -4941635.89144  23316233.4144                   23316223.2304
        43.0004         29.0004
  -2915319.67845  -2947775.64343  24514919.8204                   24514909.8714
        34.5004         18.2504
   1618905.15055  -4207200.60254  25726493.3444                   25726482.9264
        34.2504         26.5004
  -6209052.93445  -4771558.47445  24934200.1644                   24934191.8554
        35.5004         32.0004
 -15971012.21447 -12645683.50346  20936929.9614                   20936919.2504
        46.7504         40.5004
 -25642425.55748 -19806429.46849  20997141.7894                   20997132.6604
        51.2504         54.7504
 -17941534.35847 -12539612.54645  22483572.3284                   22483560.3874
        44.5004         35.5004
  -2712448.37245  -2064983.61143  25082842.1254                   25082833.4064
        34.7504         18.5004
 -15102275.76147 -11717524.29047  22617059.4694                   22617048.4064
        44.0004         46.5004
 -12623779.57846  -8905420.89646  23128499.8594                   23128491.2584
        40.7504         39.5004
  -2812594.41555  -2288389.20454  24688237.6334                   24688231.5514
        33.2504         28.5004
 -18836076.36648 -20865505.49349  20548268.1174                   20548258.9304
        51.5004         55.0004
 23  1  2  1 24 30.0000000  0 12G23G24G27G08G22G10G21G12G31G01G25G32
  -3699959.59847  -4874971.64244  23332513.3444                   23332503.2774
        42.2504         29.7504
  -2809458.53645  -2865286.45343  24535064.6094                   24535055.4224
        35.0004         20.5004
   1709577.96555  -4136546.52653  25743745.9224                   25743737.3794
        33.7504         22.0004
  -6132088.69046  -4711586.32345  24948846.1724                   24948837.8054
        36.2504         32.5004
 -16006791.45447 -12673563.42246  20930121.6644                   20930110.4264
        47.7504         40.7504
 -25601632.84148 -19774642.94949  21004904.1334                   21004895.4734
        50.7504         54.7504
 -17980112.98647 -12569673.81346  22476230.4924                   22476218.8444
        46.2504         36.0004
  -2768797.13945  -2108891.57343  25072118.6884                   25072110.6134
        33.7504         18.2504
 -15210800.58847 -11802089.06547  22596407.8524                   22596396.7304
        44.0004         46.5004
 -12712135.12646  -8974269.36746  23111686.0554                   23111677.5124
        40.5004         39.0004
  -2891303.08555  -2337926.25754  24673258.5164                   24673253.3754
        33.0004         29.5004
 -18821748.94448 -20854341.25749  20550994.6174                   20550985.3134
        51.2504         54.7504
 23  1  2  1 25  0.0000000  0 11G23G24G08G22G10G21G12G31G01G25G32
  -3614211.81547  -4808155.22244  23348830.2194                   23348820.8554
        42.0004         28.5004
  -2703359.72345  -2782612.08843  24555254.2034                   24555246.5984
        35.5004         21.0004
  -6054969.25545  -4651493.24945  24963519.6254                   24963512.3134
        32.7504         32.0004
 -16042232.16148 -12701179.55446  20923377.3284                   20923366.3244
        48.2504         40.7504
 -25560502.50148 -19742593.34649  21012731.0864                   21012722.4844
        51.5004         54.7504
 -18018255.44847 -12599395.19945  22468972.2734                   22468960.7424
        45.0004         35.5004
  -2824767.58745  -2152504.76442  25061468.2894                   25061460.7424
        35.0004         16.7504
 -15319064.64647 -11886450.64247  22575805.4614                   22575794.2234
        44.7504         46.5004
 -12800111.82846  -9042822.62246  23094944.7974                   23094936.1954
        40.5004         39.2504
  -2969808.32655  -2399099.15254  24658319.7584                   24658313.6764
        31.7504         27.7504
 -18807077.92948 -20842909.29449  20553786.2114                   20553777.1994
        52.0004         54.7504
 23  1  2  1 25 30.0000000  0 12G23G24G27G08G22G10G21G12G31G01G25G32
  -3528276.00947  -4741192.31545  23365183.8594                   23365173.5004
        42.0004         30.0004
  -7323292.32955  -6382559.56553  24575486.9144                   24575479.1334
        34.2504         19.0004
    691497.58355  -4039119.88654  25778190.3524                   25778179.2304
        34.0004         25.5004
  -5977703.56445  -4591286.20345  24978223.3674                   24978216.3484
        34.0004         33.2504
 -16077341.60748 -12728537.56246  20916696.1954                   20916685.0744
        48.0004         41.0004
 -25519041.19748 -19710285.84549  21020620.7344                   21020612.0164
        50.7504         55.0004
 -18055967.53547 -12628781.24746  22461796.3834                   22461784.2664
        45.7504         36.0004
  -2880363.40445  -2195826.05742  25050887.4454                   25050879.8984
        35.2504         17.7504
 -15427071.63147 -11970611.91347  22555251.9304                   22555241.6884
        44.7504         46.5004
 -12887713.42146  -9111083.58546  23078273.9844                   23078266.4964
        39.7504         39.5004
  -3048116.52945  -2460118.48644  24643422.8594                   24643412.2664
        35.5004         28.0004
 -18792070.88448 -20831215.49249  20556641.9064                   20556632.6604
        51.0004         55.0004
 23  1  2  1 26  0.0000000  0 12G23G24G27G08G22G10G21G12G31G01G25G32
  -3442146.45947  -4674078.43944  23381573.4924                   23381564.0124
        42.0004         29.0004
  -7216733.16045  -6299526.42043  24595763.9384                   24595756.3914
        34.7504         21.0004
    781815.07344  -3968742.68343  25795373.6414                   25795366.5044
        28.7504         22.0004
  -5900288.37145  -4530962.73545  24992956.6174                   24992947.5474
        35.7504         32.5004
 -16112113.42448 -12755632.48746  20910079.3754                   20910068.4304
        48.5004         41.2504
 -25477242.29148 -19677715.28249  21028574.6174                   21028566.0164
        51.7504         54.7504
 -18093240.95847 -12657825.47445  22454703.7504                   22454691.3984
        47.5004         35.5004
  -2935575.54745  -2238848.38942  25040381.9614                   25040373.2424
        34.7504         17.7504
 -15534812.12047 -12054565.51847  22534750.5864                   22534739.5234
        44.5004         46.5004
 -12974930.71746  -9179045.09446  23061677.7114                   23061669.1094
        40.2504         39.5004
  -3126218.00545  -2520976.80444  24628558.2114                   24628549.5514
        34.0004         29.5004
 -18776722.44448 -20819255.66549  20559562.4614                   20559553.6844
        51.5004         55.0004
 23  1  2  1 26 30.0000000  0 11G23G24G08G22G10G21G12G31G01G25G32
  -3355823.07746  -4606813.49744  23398000.3984                   23397990.8594
        41.2504         28.7504
  -7109944.26045  -6216314.36143  24616086.0394                   24616078.3164
        35.0004         19.5004
  -5822726.51746  -4470524.91345  25007716.5704                   25007707.0904
        37.0004         31.5004
 -16146547.20048 -12782463.99646  20903526.9614                   20903515.9574
        48.5004         41.0004
 -25435105.06348 -19644881.09949  21036593.4924                   21036584.3634
        51.0004         54.7504
 -18130073.80947 -12686526.40145  22447694.3674                   22447681.9574
        46.0004         35.5004
  -2990400.04646  -2281568.61742  25029950.7894                   25029939.8444
        36.5004         16.7504
 -15642282.43947 -12138308.60947  22514299.3364                   22514288.5664
        44.2504         46.5004
 -13061760.25446  -9246704.47646  23045154.0164                   23045146.3524
        41.0004         40.0004
  -3204108.96745  -2581671.07644  24613732.3524                   24613728.5004
        33.2504         29.2504
 -18761032.95648 -20807030.08249  20562548.1954                   20562539.0084
        51.2504         55.2504
 23  1  2  1 27  0.0000000  0 11G23G24G08G22G10G21G12G31G01G25G32
  -3269311.82847  -4539402.19644  23414463.4844                   23414452.7154
        42.0004         28.0004
  -7002933.85745  -6132929.60743  24636449.5704                   24636441.1454
        34.7504         21.2504
  -5745025.57845  -4409978.68745  25022500.4384                   25022492.5394
        35.0004         32.5004
 -16180648.36448 -12809036.31746  20897037.8834                   20897026.6454
        49.0004         41.0004
 -25392634.58648 -19611787.22449  21044675.3834                   21044666.7814
        51.7504         55.0004
 -18166470.50547 -12714887.46045  22440767.9304                   22440755.9884
        46.0004         35.7504
  -3044840.23645  -2323989.38842  25019589.1414                   25019579.6604
        35.0004         16.7504
 -15749484.72047 -12221842.84847  22493899.4694                   22493888.2304
        44.7504         46.5004
 -13148204.53046  -9314063.62246  23028704.3754                   23028696.4184
        40.0004         39.5004
  -3281791.31755  -2642202.78654  24598952.4844                   24598944.9384
        34.0004         28.2504
 -18745008.68348 -20794543.62449  20565597.4454                   20565588.6094
        51.5004         55.0004
 23  1  2  1 27 30.0000000  0 11G23G24G08G22G10G21G12G31G01G25G32
  -3182610.39446  -4471842.67844  23430962.2114                   23430952.1454
        41.7504         29.0004
  -6895701.57745  -6049372.02743  24656855.2274                   24656846.9184
        34.2504         21.0004
  -5667185.46945  -4349324.06945  25037313.5634                   25037305.7234
        35.5004         32.2504
 -16214414.31947 -12835347.45246  20890612.2344                   20890601.1134
        47.7504         41.0004
 -25349827.79948 -19578431.29649  21052821.1954                   21052812.7704
        51.0004         54.7504
 -18202426.55547 -12742905.15945  22433925.7424                   22433914.2114
        46.0004         35.7504
  -3098890.22345  -2366106.18042  25009302.6644                   25009293.6524
        34.5004         16.7504
 -15856412.92547 -12305163.52347  22473551.4844                   22473540.5984
        44.2504         46.5004
 -13234257.64546  -9381117.99446  23012329.5084                   23012320.9064
        40.0004         39.7504
  -3359258.74855  -2702567.03254  24584209.2114                   24584203.4224
        35.2504         29.0004
 -18728647.62048 -20781794.73849  20568710.5784                   20568702.0354
        51.0004         54.7504
 23  1  2  1 28  0.0000000  0 11G23G24G08G22G10G21G12G31G01G25G32
  -3095720.40046  -4404136.24444  23447495.9614                   23447485.8364
        41.0004         28.0004
  -6788251.56945  -5965644.71243  24677302.2274                   24677294.0944
        35.5004         19.2504
  -5589210.64045  -4288564.45345  25052151.7034                   25052143.8054
        34.5004         32.5004
 -16247846.23448 -12861398.27746  20884250.3834                   20884239.1454
        48.0004         41.0004
 -25306685.73848 -19544814.11849  21061030.7974                   21061022.3714
        51.2504         55.0004
 -18237941.91647 -12770579.46646  22427167.5944                   22427155.8284
        46.2504         36.2504
  -3152547.82946  -2407917.21342  24999094.8284                   24999082.7114
        37.7504         17.2504
 -15963065.25847 -12388269.22847  22453256.2664                   22453245.4964
        44.2504         46.2504
 -13319918.02446  -9447866.34146  22996028.3834                   22996020.6024
        39.5004         40.2504
  -3436509.08445  -2762762.10244  24569509.2894                   24569503.8524
        34.7504         29.5004
 -18711951.88748 -20768785.07049  20571887.9224                   20571879.1454
        51.2504         55.0004
 23  1  2  1 28 30.0000000  0 11G23G24G08G22G10G21G12G31G01G25G32
  -3008641.23846  -4336282.40544  23464067.3134                   23464057.2464
        41.2504         29.2504
  -6680585.24545  -5881748.91643  24697790.0864                   24697782.4224
        33.5004         19.5004
  -5511102.56846  -4227701.07745  25067016.4694                   25067007.1054
        36.5004         32.0004
 -16280943.02048 -12887187.97946  20877952.0394                   20877940.8014
        48.0004         41.0004
 -25263206.83648 -19510934.46349  21069304.8444                   21069295.8914
        50.0004         54.7504
 -18273014.12547 -12797908.46546  22420493.8444                   22420481.9024
        46.5004         36.0004
  -3205809.84145  -2449420.02442  24988957.3524                   24988947.8714
        35.0004         16.2504
 -16069437.49447 -12471156.68847  22433014.1804                   22433003.4694
        45.0004         46.5004
 -13405181.44646  -9514305.35746  22979803.3524                   22979795.0434
        40.7504         40.0004
  -3513537.73645  -2822784.43044  24554852.0474                   24554845.3794
        33.2504         29.7504
 -18694921.15948 -20755514.36749  20575128.9064                   20575119.8954
        49.7504         55.0004
 23  1  2  1 29  0.0000000  0 11G23G24G08G22G10G21G12G31G01G25G32
  -2921374.56646  -4268282.46444  23480673.6484                   23480663.6414
        41.0004         27.5004
  -6572706.44545  -5797687.46443  24718319.3204                   24718311.1294
        34.7504         20.7504
  -5432865.22546  -4166736.88345  25081904.2114                   25081895.6094
        36.2504         32.0004
 -16313706.20648 -12912717.71946  20871717.3914                   20871706.3284
        48.2504         41.0004
 -25219391.94048 -19476793.00349  21077642.5554                   21077633.8364
        50.5004         54.7504
 -18307643.02747 -12824892.01845  22413904.2894                   22413891.9964
        46.2504         35.7504
  -3258674.15945  -2490612.93342  24978898.3444                   24978888.5124
        35.2504         16.2504
 -16175527.56247 -12553824.26447  22412825.5784                   22412814.7504
        44.2504         46.5004
 -13490046.16646  -9580433.71646  22963654.5784                   22963646.0944
        41.2504         40.0004
  -3590342.39045  -2882632.14444  24540235.9844                   24540229.5514
        34.7504         29.5004
 -18677557.42048 -20741984.17149  20578432.9454                   20578423.9344
        50.5004         55.0004
 23  1  2  1 29 30.0000000  0 11G23G24G08G22G10G21G12G31G01G25G32
  -2833920.55346  -4200136.52644  23497315.4224                   23497305.4734
        41.0004         28.0004
  -6464617.50445  -5713462.31542  24738886.5004                   24738879.4224
        33.5004         17.7504
  -5354501.22845  -4105673.98945  25096816.3284                   25096807.7274
        35.2504         32.7504
 -16346135.30147 -12937987.14946  20865546.3134                   20865535.0744
        47.7504         41.0004
 -25175240.51648 -19442389.30849  21086044.0474                   21086035.4454
        51.0004         55.0004
 -18341826.76047 -12851528.69946  22407399.1254                   22407387.2424
        45.5004         36.2504
  -3311137.47745  -2531493.36743  24968914.7424                   24968905.4384
        35.0004         18.2504
 -16281331.84147 -12636269.15547  22392692.2194                   22392681.3324
        44.5004         46.5004
 -13574508.97646  -9646248.89146  22947581.5474                   22947573.3554
        41.5004         40.5004
  -3666919.35145  -2942302.40845  24525665.0784                   24525658.2934
        34.7504         30.2504
 -18659861.34448 -20728195.02149  20581800.3204                   20581791.4264
        50.7504         55.0004
 23  1  2  1 30  0.0000000  0 11G23G24G08G22G10G21G12G31G01G25G32
  -2746279.76446  -4131845.06744  23513993.1484                   23513983.6094
        41.0004         27.2504
  -6356321.19845  -5629075.61443  24759496.0864                   24759487.6604
        34.7504         20.7504
  -5276013.65546  -4044514.93445  25111751.9534                   25111743.0594
        36.0004         32.0004
 -16378230.56647 -12962996.43846  20859438.8134                   20859427.8094
        47.5004         41.2504
 -25130752.53548 -19407723.36249  21094510.1024                   21094501.2074
        51.7504         55.0004
 -18375564.09347 -12877817.52846  22400979.7114                   22400967.2424
        45.0004         36.2504
  -3363197.08245  -2572059.25543  24959006.4694                   24958998.9224
        33.2504         18.2504
 -16386847.21247 -12718488.91847  22372613.6254                   22372602.6804
        45.5004         46.7504
 -13658566.91746  -9711748.58846  22931585.9224                   22931577.4964
        41.5004         40.5004
  -3743265.26045  -3001792.61745  24511136.8134                   24511129.5004
        33.7504         30.7504
 -18641833.72048 -20714147.51249  20585231.0784                   20585222.0084
        51.2504         55.0004
 23  1  2  1 30 30.0000000  0 11G23G24G08G22G10G21G12G31G01G25G32
  -2658452.49046  -4063408.29244  23530705.6484                   23530696.4614
        40.7504         27.5004
  -6247819.71555  -5544529.02853  24780142.6414                   24780134.8014
        33.2504         18.2504
  -5197404.73746  -3983261.22345  25126710.7194                   25126701.4144
        36.5004         31.0004
 -16409991.89348 -12987745.52046  20853395.0944                   20853383.9734
        48.0004         41.0004
 -25085927.42448 -19372794.72549  21103039.8054                   21103031.4964
        50.2504         54.7504
 -18408853.64847 -12903757.44746  22394644.6564                   22394632.2464
        46.5004         36.5004
  -3414850.01045  -2612308.22442  24949177.1414                   24949169.4774
        33.7504         16.2504
 -16492070.40247 -12800481.01647  22352589.2424                   22352578.6484
        45.5004         47.0004
 -13742216.89546  -9776930.39146  22915667.7814                   22915659.6484
        41.5004         41.0004
  -3819376.51545  -3061099.99345  24496653.9304                   24496646.5594
        34.5004         30.5004
 -18623475.20848 -20699842.16249  20588724.4454                   20588715.5514
        50.2504         55.2504
 23  1  2  1 31  0.0000000  0 11G23G24G08G22G10G21G12G31G01G25G32
  -2570440.75046  -3994827.77844  23547454.0554                   23547443.9884
        40.0004         28.0004
  -6139117.66755  -5459826.15453  24800828.9844                   24800819.9734
        32.5004         21.0004
  -5118678.85246  -3921916.31145  25141693.6804                   25141683.6134
        36.2504         32.5004
 -16441421.00747 -13012235.72546  20847414.0944                   20847402.9144
        47.7504         41.2504
 -25040766.29248 -19337604.23949  21111633.7344                   21111625.3674
        51.2504         54.7504
 -18441695.40047 -12929348.43146  22388394.7114                   22388383.1214
        46.0004         36.7504
  -3466095.08545  -2652239.33342  24939426.2424                   24939418.1684
        34.5004         17.2504
 -16596999.36847 -12882243.83147  22332622.4454                   22332611.5594
        46.2504         47.2504
 -13825457.43146  -9841793.13846  22899828.5474                   22899819.5354
        41.2504         41.2504
  -3895251.23045  -3120223.04445  24482214.8834                   24482207.1604
        34.5004         30.5004
 -18604788.22548 -20685280.87049  20592280.4064                   20592271.8054
        52.0004         54.7504
 23  1  2  1 31 30.0000000  0 11G23G24G08G22G10G21G12G31G01G25G32
  -2482243.90546  -3926103.03444  23564237.4304                   23564227.6564
        40.2504         28.5004
  -6030216.26145  -5374967.87543  24821549.6644                   24821543.4064
        32.2504         19.2504
  -5039837.63245  -3860481.64745  25156692.1564                   25156686.1334
        33.0004         31.0004
 -16472516.91947 -13036466.30046  20841496.8444                   20841485.7814
        47.5004         41.0004
 -24995268.07148 -19302151.09049  21120291.6724                   21120283.2464
        50.7504         54.7504
 -18474087.11047 -12954588.71846  22382230.1484                   22382219.0274
        45.0004         36.5004
  -3516928.19246  -2691849.56542  24929755.2424                   24929744.8244
        36.7504         17.7504
 -16701630.62847 -12963774.67647  22312711.9534                   22312701.1254
        45.7504         47.2504
 -13908284.60047  -9906333.78946  22884066.5004                   22884057.8404
        42.0004         41.0004
  -3970884.91445  -3179158.25745  24467821.6484                   24467814.9224
        33.7504         30.5004
 -18585772.49748 -20670463.42349  20595898.9304                   20595890.2704
        50.7504         54.7504
 23  1  2  1 32  0.0000000  0 11G23G24G08G22G10G21G12G31G01G25G32
  -2393863.28946  -3857235.09944  23581055.7584                   23581045.9264
        40.0004         27.0004
  -5921118.88555  -5289956.95653  24842311.8284                   24842303.5784
        33.5004         19.2504
  -4960884.81055  -3798959.98355  25171718.1564                   25171709.9064
        34.5004         31.2504
 -16503280.73248 -13060438.10146  20835642.0554                   20835631.4024
        48.5004         41.0004
 -24949432.91248 -19266435.40349  21129013.9614                   21129005.3014
        51.0004         54.7504
 -18506028.16747 -12979477.85646  22376152.8134                   22376140.8714
        45.7504         36.5004
  -3567347.29545  -2731137.18742  24920159.0394                   24920149.7344
        34.2504         17.7504
 -16805961.47747 -13045071.42347  22292857.9454                   22292847.5274
        45.7504         47.5004
 -13990696.04746  -9970550.49946  22868384.5004                   22868376.1334
        41.7504         41.0004
  -4046274.75745  -3237903.47845  24453474.4534                   24453468.7814
        34.2504         31.0004
 -18566429.57448 -20655391.00349  20599580.1564                   20599571.2034
        51.5004         54.7504
 23  1  2  1 32 30.0000000  0 11G23G24G08G22G10G21G12G31G01G25G32
  -2305299.50346  -3788224.43044  23597908.2894                   23597899.4534
        40.2504         26.7504
  -5811828.48755  -5204795.60153  24863107.6954                   24863101.2034
        30.2504         19.0004
  -4881822.95845  -3737353.36245  25186762.2974                   25186755.4534
        34.0004         31.0004
 -16533712.54048 -13084151.19146  20829851.4384                   20829840.3754
        48.2504         41.2504
 -24903260.86048 -19230457.19349  21137800.0164                   21137791.3554
        51.0004         55.0004
 -18537517.66047 -13004015.12846  22370160.5164                   22370148.6334
        46.0004         36.0004
  -3617350.15045  -2770100.41642  24910643.3204                   24910633.4884
        35.2504         16.7504
 -16909988.85947 -13126131.71347  22273062.7584                   22273052.1054
        46.0004         47.5004
 -14072689.20946 -10034441.26446  22852780.6174                   22852772.9534
        41.0004         41.0004
  -4121417.69345  -3296456.33245  24439175.4844                   24439169.6954
        34.2504         31.0004
 -18546760.57348 -20640064.51449  20603322.8364                   20603313.8244
        51.7504         55.0004
 23  1  2  1 33  0.0000000  0 11G23G24G08G22G10G21G12G31G01G25G32
  -2216553.18446  -3719071.53444  23614797.1254                   23614786.9414
        40.0004         27.0004
  -5702347.50255  -5119485.76353  24883942.0314                   24883934.6604
        32.2504         18.2504
  -4802655.33146  -3675664.32145  25201830.3134                   25201819.6604
        36.2504         31.0004
 -16563812.36747 -13107605.59246  20824123.8444                   20824112.7814
        47.7504         41.0004
 -24856751.98948 -19194216.54149  21146650.4774                   21146641.7584
        50.2504         54.7504
 -18568554.39747 -13028199.60446  22364254.3204                   22364242.4964
        46.5004         36.0004
  -3666933.44645  -2808736.77242  24901209.1334                   24901197.5434
        35.0004         16.7504
 -17013709.47747 -13206952.96147  22253325.6174                   22253314.2624
        46.0004         47.7504
 -14154261.09147 -10098003.76546  22837258.6024                   22837250.1174
        42.0004         41.2504
  -4196310.35345  -3354814.19245  24424924.7274                   24424917.7074
        35.0004         30.7504
 -18526766.33748 -20624484.58549  20607127.8834                   20607118.8134
        51.5004         54.7504
 23  1  2  1 33 30.0000000  0 11G23G24G08G22G10G21G12G31G01G25G32
  -2127625.66546  -3649777.45144  23631719.5004                   23631709.6094
        39.2504         26.0004
  -5592679.62145  -5034030.28643  24904811.0944                   24904803.5474
        32.5004         18.2504
  -4723385.39346  -3613895.49545  25216914.4384                   25216904.4304
        36.0004         30.7504
 -16593581.26448 -13130802.13246  20818458.7114                   20818448.1174
        48.0004         41.2504
 -24809906.71548 -19157713.74849  21155564.6564                   21155555.9384
        50.0004         55.0004
 -18599137.55847 -13052030.64646  22358434.3674                   22358422.6024
        46.2504         37.0004
  -3716095.75845  -2847045.13142  24891853.0784                   24891842.1334
        34.7504         15.5004
 -17117121.35647 -13287533.63148  22233646.3914                   22233635.6214
        46.0004         48.0004
 -14235409.72346 -10161236.45846  22821815.9534                   22821808.4064
        41.0004         41.0004
  -4270950.02145  -3412974.94745  24410721.1334                   24410714.1134
        34.0004         30.5004
 -18506448.57948 -20608652.56549  20610994.0084                   20610985.2894
        51.7504         54.7504
 23  1  2  1 34  0.0000000  0 11G23G24G08G22G10G21G12G31G01G25G32
  -2038515.87546  -3580341.33844  23648676.5634                   23648666.5554
        40.2504         26.2504
                                  24925714.9694                   24925707.5984
        31.7504         18.2504
  -4644014.79045  -3552048.23344  25232015.6954                   25232009.2034
        32.5004         29.0004
 -16623017.98547 -13153739.83446  20812857.3444                   20812846.3984
        47.5004         41.5004
 -24762723.13548 -19120947.33649  21164543.7194                   21164534.8244
        50.2504         54.7504
 -18629264.93747 -13075506.52646  22352701.7424                   22352689.2734
        46.0004         36.7504
  -3764832.44545  -2885021.72642  24882580.1094                   24882568.5784
        35.2504         16.7504
 -17220219.55447 -13367869.88147  22214027.2424                   22214016.7074
        45.0004         47.7504
 -14316130.56246 -10224135.79346  22806456.1024                   22806447.1484
        41.2504         41.0004
  -4345331.76345  -3470934.73145  24396566.8834                   24396559.8634
        34.5004         31.0004
 -18485806.60648 -20592567.91349  20614922.2034                   20614913.0164
        51.2504         55.0004
 23  1  2  1 34 30.0000000  0 11G23G24G08G22G10G21G12G31G01G25G32
  -1949227.01746  -3510765.70044  23665666.9774                   23665657.7304
        39.0004         26.2504
  -6948211.11655  -6090288.59453  24946655.0864                   24946646.7774
        33.5004         19.2504
  -4564548.33645  -3490126.39945  25247137.8674                   25247130.6134
        33.5004         30.7504
 -16652125.27447 -13176420.83146  20807318.4454                   20807307.7344
        46.7504         41.0004
 -24715203.94648 -19083919.41449  21173586.2894                   21173578.0394
        50.0004         54.7504
 -18658937.64947 -13098628.12646  22347054.9694                   22347043.0864
        45.2504         37.0004
  -3813143.80545  -2922666.90542  24873386.4924                   24873376.6604
        35.2504         16.7504
 -17323003.60947 -13447961.33648  22194468.6954                   22194457.2234
        46.0004         48.0004
 -14396423.41046 -10286701.65746  22791176.7114                   22791167.7584
        41.2504         41.0004
  -4419454.91245  -3528693.02845  24382461.1024                   24382454.6094
        34.2504         30.0004
 -18464843.88048 -20576233.32649  20618910.9694                   20618902.3094
        52.0004         54.7504
 23  1  2  1 35  0.0000000  0 11G23G24G08G22G10G21G12G31G01G25G32
  -1859758.16046  -3441049.82344  23682691.8444                   23682683.0664
        38.2504         24.7504
  -6837996.85845  -6004407.38943  24967628.2894                   24967620.0984
        31.0004         18.5004
  -4484987.62345  -3428130.98245  25262277.5314                   25262269.6334
        32.2504         30.5004
 -16680901.74847 -13198844.04646  20801841.8364                   20801831.3594
        46.5004         41.0004
 -24667347.40148 -19046628.61349  21182692.7424                   21182684.4344
        49.5004         54.7504
 -18688152.87947 -13121393.24246  22341495.4844                   22341483.4844
        45.2504         36.5004
  -3861025.44945  -2959977.27643  24864273.1804                   24864264.5204
        35.0004         19.0004
 -17425469.12047 -13527804.57647  22174969.8754                   22174959.1054
        45.5004         47.7504
 -14476283.87446 -10348930.58846  22775979.3754                   22775971.7114
        41.5004         41.5004
  -4493314.44345  -3586245.91144  24368405.4144                   24368399.8594
        33.0004         29.2504
 -18443559.81348 -20559648.35249  20622961.2034                   20622952.4844
        51.0004         55.0004
 23  1  2  1 35 30.0000000  0 11G23G24G08G22G10G21G12G31G01G25G32
  -1770110.11146  -3371194.30744  23699752.2664                   23699742.8444
        38.7504         26.0004
  -6727605.81545  -5918388.43542  24988635.2894                   24988627.5084
        33.5004         17.7504
  -4405335.30745  -3366064.35645  25277434.2424                   25277427.9844
        32.0004         30.2504
 -16709347.85847 -13221009.83646  20796429.3984                   20796417.8674
        46.7504         41.0004
 -24619153.28148 -19009074.77049  21191864.1094                   21191855.2734
        50.5004         54.7504
 -18716910.00647 -13143801.39846  22336022.9454                   22336010.8284
        45.7504         37.2504
  -3908474.65146  -2996950.68242  24855245.3054                   24855235.1804
        37.0004         16.7504
 -17527612.99647 -13607397.20348  22155532.3524                   22155521.6994
        46.5004         48.2504
 -14555709.34946 -10410820.57046  22760864.8134                   22760856.7384
        41.2504         41.0004
  -4566907.30045  -3643591.00544  24354401.4144                   24354395.5084
        33.0004         29.2504
 -18421955.54948 -20542813.85949  20627072.6884                   20627063.8524
        53.0004         54.7504
 23  1  2  1 36  0.0000000  0 11G23G24G08G22G10G21G12G31G01G25G32
  -1680283.99146  -3301200.02644  23716846.4224                   23716836.3554
        40.0004         25.7504
  -6617041.26645  -5832234.21743  25009674.6954                   25009666.7974
        32.5004         19.2504
  -5901014.76055  -4531528.83955  25292610.0784                   25292601.0664
        33.0004         30.2504
 -16737464.69047 -13242919.05346  20791078.9224                   20791067.9184
        47.2504         41.5004
 -24570622.46048 -18971258.55749  21201099.0084                   21201090.2304
        50.2504         54.7504
 -18745208.10647 -13165851.87146  22330637.8914                   22330626.0664
        45.5004         36.7504
  -3955489.88645  -3033585.93042  24846298.8594                   24846289.6724
        35.0004         17.7504
 -17629432.95847 -13686737.42548  22136156.4774                   22136145.8834
        46.0004         48.0004
 -14634697.67346 -10472369.91246  22745834.1254                   22745826.4614
        41.5004         41.2504
  -4640230.70345  -3700726.15245  24340448.8524                   24340442.8284
        34.5004         30.5004
 -18400032.56548 -20525731.02049  20631244.5004                   20631235.6644
        53.5004         54.7504
 23  1  2  1 36 30.0000000  0 11G23G24G08G22G10G21G12G31G01G25G32
  -1590280.79846  -3231067.75144  23733973.1724                   23733963.5164
        39.7504         26.0004
  -6506306.12645  -5745947.15842  25030747.2114                   25030738.9024
        32.2504         17.7504
  -5821189.63245  -4469327.41945  25307798.3754                   25307792.2344
        31.5004         30.5004
 -16765252.49247 -13264571.87146  20785790.7194                   20785779.8324
        47.5004         41.0004
 -24521754.99248 -18933180.03149  21210398.3444                   21210389.6844
        49.5004         54.5004
 -18773046.40647 -13187544.03546  22325341.1334                   22325328.6054
        46.2504         37.0004
  -4002068.61946  -3069881.04342  24837435.4614                   24837425.5124
        36.7504         17.7504
 -17730925.98747 -13765822.89248  22116843.3594                   22116832.4144
        45.7504         48.2504
 -14713246.23046 -10533576.58146  22730886.5634                   22730878.5474
        41.5004         41.5004
  -4713281.48345  -3757648.86345  24326547.7814                   24326541.9344
        33.5004         31.7504
 -18377792.11548 -20508400.80149  20635476.8834                   20635467.9304
        52.7504         54.7504
 23  1  2  1 37  0.0000000  0 11G23G24G08G22G10G21G12G31G01G25G32
  -1500100.28246  -3160797.33244  23751133.8204                   23751124.2234
        38.7504         26.0004
  -6395402.19045  -5659528.51643  25051850.7274                   25051843.1804
        32.5004         19.0004
  -5741281.78755  -4407061.58554  25323006.8204                   25322997.5164
        34.5004         29.7504
 -16792710.86248 -13285968.00146  20780565.7814                   20780555.0124
        48.0004         41.5004
 -24472550.02248 -18894838.52349  21219761.6564                   21219753.1724
        49.5004         54.5004
 -18800423.60647 -13208876.93346  22320131.1804                   22320119.0634
        45.2504         36.5004
  -4048207.65146  -3105833.54743  24828655.4534                   24828644.9774
        36.0004         19.2504
 -17832088.59247 -13844650.88648  22097592.7894                   22097581.9614
        46.2504         48.5004
 -14791351.56346 -10594437.87246  22716023.9224                   22716015.4384
        41.5004         40.7504
  -4786055.70945  -3814356.08245  24312699.1484                   24312692.9494
        33.5004         30.5004
 -18355234.34648 -20490823.33249  20639769.4064                   20639760.2774
        53.7504         54.7504
 23  1  2  1 37 30.0000000  0 11G23G24G08G22G10G21G12G31G01G25G32
  -1409744.12846  -3090390.04544  23768328.3134                   23768318.7734
        40.0004         25.5004
  -6284333.12345  -5572981.20642  25072986.8444                   25072979.4144
        31.5004         17.7504
  -5661295.26156  -4344734.38755  25338229.9064                   25338219.0204
        36.7504         31.5004
 -16819841.12947 -13307108.46347  20775403.3444                   20775392.1644
        47.5004         42.0004
 -24423008.26648 -18856234.57049  21229189.4534                   21229180.6174
        49.0004         54.2504
 -18827339.32447 -13229850.21346  22315009.1884                   22314996.8954
        45.7504         36.7504
  -4093905.05245  -3141441.98043  24819956.2894                   24819949.3284
        33.0004         19.0004
 -17932918.59547 -13923219.70848  22078405.0784                   22078394.5434
        46.2504         48.5004
 -14869011.80046 -10654952.34646  22701246.7114                   22701237.2894
        41.5004         41.2504
  -4858550.87245  -3870845.79745  24298904.2034                   24298897.0664
        34.2504         30.0004
 -18332361.13748 -20473000.05749  20644121.8524                   20644112.8984
        52.0004         54.7504
 23  1  2  1 38  0.0000000  0 11G23G24G08G22G10G21G12G31G01G25G32
  -1319213.01646  -3019846.42544  23785555.9064                   23785546.4264
        38.5004         25.7504
  -6173101.45445  -5486307.26243  25094153.1254                   25094145.6954
        31.0004         18.2504
  -5581232.62045  -4282347.91845  25353464.3674                   25353454.1844
        35.7504         31.5004
 -16846643.60247 -13327993.51346  20770303.0234                   20770291.4924
        46.5004         41.7504
 -24373129.77048 -18817368.22249  21238680.5164                   21238672.3244
        48.5004         54.2504
 -18853792.50747 -13250463.09046  22309975.4454                   22309963.2704
        45.7504         36.7504
  -4139158.54746  -3176704.42042  24811348.5084                   24811337.8554
        36.2504         17.7504
 -18033412.88147 -14001526.93948  22059282.3284                   22059271.1484
        46.2504         48.5004
 -14946224.26246 -10715117.91646  22686552.3204                   22686544.4804
        40.7504         41.2504
  -4930763.75645  -3927115.58144  24285161.8754                   24285154.8554
        34.0004         29.5004
 -18309173.51848 -20454931.79349  20648534.4534                   20648525.3244
        52.5004         55.0004
 23  1  2  1 38 30.0000000  0 11G23G24G08G22G10G21G12G31G01G25G32
  -1228505.91146  -2949165.67544  23802816.3204                   23802807.4264
        38.7504         25.7504
  -6061708.53445  -5399507.58743  25115351.2734                   25115343.0824
        32.7504         18.2504
                                  25368712.8524                   25368702.6094
        34.5004         31.0004
 -16873116.86047 -13348622.01246  20765265.0864                   20765253.9064
        46.5004         41.7504
 -24322912.98048 -18778238.27549  21248236.9304                   21248228.3874
        48.7504         54.2504
 -18879780.44247 -13270713.43946  22305029.4454                   22305017.7384
        45.5004         37.2504
  -4183963.95445  -3211617.78143  24802820.4304                   24802811.5354
        34.2504         19.5004
 -18133566.85447 -14079568.99048  22040223.8364                   22040212.2464
        45.7504         48.7504
 -15022984.58746 -10774931.14646  22671945.8284                   22671937.5784
        41.5004         41.2504
  -5002689.44445  -3983161.52144  24271474.4844                   24271468.5204
        33.0004         29.5004
 -18285670.79648 -20436617.99449  20653006.7974                   20652997.4924
        52.5004         54.7504
 23  1  2  1 39  0.0000000  0 11G23G24G08G22G10G21G12G31G01G25G32
  -1137625.70346  -2878350.04743  23820110.9144                   23820101.7274
        38.5004         23.2504
  -5950158.82355  -5312585.72152  25136578.0634                   25136570.3984
        30.0004         17.2504
                                  25383976.8284                   25383966.8794
        37.0004         31.0004
 -16899263.51447 -13368996.03147  20760289.3444                   20760278.0474
        47.0004         42.0004
 -24272359.97548 -18738846.34849  21257856.8524                   21257848.4264
        48.7504         54.0004
 -18905304.88047 -13290602.61046  22300172.3054                   22300160.7154
        46.2504         37.0004
  -4228320.90346  -3246181.63943  24794380.7814                   24794370.8324
        36.5004         19.2504
 -18233379.75947 -14157345.27248  22021229.8204                   22021218.3484
        46.2504         48.7504
 -15099292.16546 -10834391.59946  22657425.0004                   22657416.3404
        41.5004         41.5004
  -5074326.84545  -4038982.84445  24257841.3444                   24257836.9064
        32.5004         30.5004
 -18261856.09248 -20418061.08549  20657538.4614                   20657529.4494
        53.2504         54.7504
 23  1  2  1 39 30.0000000  0 11G23G24G08G22G10G21G12G31G01G25G32
  -1046572.26146  -2807399.42944  23837437.8984                   23837428.4774
        39.0004         25.5004
                                  25157835.0864                   25157827.9494
        29.7504         16.2504
  -5340616.03355  -4104783.09954  25399251.4774                   25399242.7584
        33.7504         29.7504
 -16925083.02548 -13389115.12247  20755376.2894                   20755365.0514
        48.0004         42.0004
 -24221469.63048 -18699191.54849  21267540.7974                   21267532.4884
        49.0004         54.0004
 -18930363.26047 -13310128.61446  22295404.1954                   22295392.6054
        47.0004         36.7504
  -4272226.33345  -3280393.70643  24786024.2194                   24786014.7974
        35.0004         18.2504
 -18332847.84047 -14234852.84848  22002301.9694                   22002290.6134
        47.0004         49.0004
 -15175143.57546 -10893496.59346  22642990.8834                   22642982.9264
        41.5004         41.2504
  -5145671.90345  -4094576.34845  24244265.9224                   24244260.6604
        33.5004         31.2504
 -18237729.59648 -20399261.21049  20662129.5474                   20662120.4184
        53.2504         54.7504
 23  1  2  1 40  0.0000000  0 11G23G24G08G22G10G21G12G31G01G25G32
   -955348.71946  -2736316.23844  23854798.0234                   23854787.6054
        39.0004         24.5004
  -5726599.87455  -5138384.05452  25179119.6484                   25179113.0394
        30.5004         16.7504
  -5260278.68956  -4042182.62255  25414540.2664                   25414531.5474
        36.7504         32.2504
 -16950578.19047 -13408981.47746  20750524.7814                   20750513.7194
        47.5004         41.5004
 -24170244.84948 -18659276.15349  21277288.6174                   21277280.1914
        50.0004         54.0004
 -18954957.35347 -13329292.84646  22290724.1644                   22290712.1054
        47.5004         36.7504
  -4315680.25745  -3314253.98642  24777754.7664                   24777745.6374
        34.5004         17.2504
 -18431970.42047 -14312091.21248  21983439.0864                   21983428.0824
        46.5004         49.0004
 -15250538.55046 -10952245.90946  22628643.5394                   22628635.4064
        41.2504         41.5004
  -5216723.72145  -4149941.32344  24230745.4614                   24230738.9694
        33.2504         29.7504
 -18213294.76348 -20380221.09149  20666779.3754                   20666770.3634
        53.7504         54.7504
 23  1  2  1 40 30.0000000  0 11G23G24G08G22G10G21G12G31G01G25G32
   -863952.03946  -2665098.14144  23872189.6884                   23872180.1484
        39.2504         25.7504
  -5614594.78255  -5051107.36053  25200434.3674                   25200426.8204
        32.0004         18.5004
  -5179878.16844  -3979532.78644  25429833.7424                   25429829.4804
        27.5004         28.5004
 -16975745.54047 -13428592.39547  20745735.7734                   20745724.4184
        47.5004         42.0004
 -24118681.69648 -18619097.08548  21287100.6094                   21287092.1844
        48.5004         53.7504
 -18979082.93347 -13348091.99746  22286133.2664                   22286121.5004
        47.7504         36.7504
  -4358676.45345  -3347757.57043  24769574.2974                   24769563.8204
        35.7504         19.2504
 -18530741.11547 -14389055.38048  21964643.8754                   21964632.5784
        46.2504         49.0004
 -15325470.73047 -11010634.60946  22614384.4384                   22614376.2464
        42.0004         41.5004
  -5287475.46345  -4205072.49045  24217281.5704                   24217276.0164
        34.0004         30.5004
 -18188548.87648 -20360938.58549  20671488.4534                   20671479.3244
        52.2504         55.0004
 23  1  2  1 41  0.0000000  0 11G23G24G08G22G10G21G12G31G01G25G32
   -772383.25846  -2593745.94644  23889614.0944                   23889605.2584
        38.7504         24.2504
  -5502440.67045  -4963714.38342  25221775.7894                   25221768.0084
        31.7504         17.2504
  -5099416.92054  -3916835.76955  25445145.4614                   25445143.1914
        28.0004         30.0004
 -17000585.70848 -13447948.36647  20741008.4614                   20740997.5164
        48.2504         42.0004
 -24066780.27048 -18578654.44349  21296977.4534                   21296968.7934
        49.5004         54.0004
 -19002739.11447 -13366525.38946  22281631.7114                   22281619.6524
        47.5004         37.2504
  -4401212.37745  -3380902.46343  24761480.0474                   24761469.5124
        34.2504         18.2504
 -18629157.04547 -14465743.11448  21945915.6024                   21945904.6564
        45.7504         49.0004
 -15399937.61747 -11068660.76046  22600213.9304                   22600205.6214
        42.2504         41.7504
  -5357924.12345  -4259967.47645  24203875.6484                   24203869.5664
        33.5004         31.2504
 -18163493.13548 -20341414.64049  20676256.4064                   20676247.2194
        53.0004         55.0004
 23  1  2  1 41 30.0000000  0 11G23G24G08G22G10G21G12G31G01G25G32
   -680646.50346  -2522262.86944  23907072.0784                   23907061.8364
        38.5004         25.5004
                                  25243146.0554                   25243137.6294
        31.7504         16.7504
  -5018902.32745  -3854097.13645  25460470.1414                   25460465.7034
        32.5004         31.7504
 -17025102.75347 -13467052.55746  20736343.0784                   20736332.0744
        46.5004         41.5004
 -24014543.95548 -18537950.84548  21306917.5634                   21306908.9614
        50.0004         53.7504
 -19025928.10747 -13384594.74346  22277218.6094                   22277207.2544
        45.5004         37.2504
  -4443289.48245  -3413689.90343  24753472.2114                   24753461.9104
        35.5004         18.5004
 -18727218.78647 -14542154.84548  21927254.7814                   21927244.1294
        46.2504         49.2504
 -15473940.12546 -11126325.05047  22586131.8204                   22586123.6294
        41.7504         42.0004
  -5428069.85645  -4314626.43245  24190527.9384                   24190521.0354
        34.2504         31.2504
 -18138132.01749 -20321652.73749  20681082.5164                   20681073.3874
        54.0004         55.0004
 23  1  2  1 42  0.0000000  0 11G23G24G08G22G10G21G12G31G01G25G32
   -588741.79146  -2450648.91344  23924559.8204                   23924550.7504
        38.5004         24.2504
                                  25264540.6884                   25264532.6134
        28.5004         15.5004
  -4938335.40055  -3791317.66054  25475798.5004                   25475794.5904
        30.0004         26.5004
 -17049296.23347 -13485904.61347  20731739.4614                   20731728.3404
        46.5004         42.0004
 -23961972.75148 -18496986.29848  21316921.2114                   21316913.2544
        48.0004         53.5004
 -19048648.92647 -13402299.27446  22272895.0314                   22272883.4414
        45.0004         37.2504
  -4484904.67846  -3446117.43043  24745553.1884                   24745542.7114
        36.0004         18.5004
 -18824922.85247 -14618287.87048  21908662.5704                   21908651.8014
        46.2504         49.2504
 -15547474.81747 -11183624.79746  22572138.7344                   22572130.1334
        42.0004         41.5004
  -5497908.74645  -4369046.25245  24177237.8754                   24177231.3834
        35.5004         31.7504
 -18112465.78748 -20301653.08749  20685966.7194                   20685957.3554
        52.5004         54.7504
 23  1  2  1 42 30.0000000  0 10G23G08G22G10G21G12G31G01G25G32
   -496665.52146  -2378901.29043  23942082.7734                   23942073.1764
        38.5004         22.7504
  -4857715.83945  -3728497.21145  25491142.8524                   25491137.0634
        32.0004         30.7504
 -17073161.95947 -13504501.27747  20727197.9064                   20727186.8444
        46.2504         42.0004
 -23909061.69648 -18455756.92748  21326990.1024                   21326981.7344
        48.5004         53.5004
 -19070896.22547 -13419634.82846  22268661.5004                   22268650.0864
        45.0004         37.0004
  -4526051.32446  -3478179.80942  24737725.1564                   24737713.2154
        36.7504         17.7504
 -18922261.87947 -14694136.45348  21890139.9064                   21890128.8444
        46.0004         49.5004
 -15620534.72447 -11240554.59546  22558235.4534                   22558227.5554
        42.0004         41.5004
  -5567433.30145  -4423221.15045  24164009.1024                   24164002.4344
        35.0004         32.5004
 -18086491.06148 -20281413.04349  20690909.2814                   20690900.4454
        52.5004         55.0004
 23  1  2  1 43  0.0000000  0 10G23G08G22G10G21G12G31G01G25G32
   -404421.97746  -2307023.33044  23959635.0314                   23959626.4884
        38.0004         24.7504
  -4777049.66556  -3665640.51255  25506498.4304                   25506485.9614
        37.5004         31.7504
 -17096703.84948 -13522845.60947  20722717.9694                   20722706.7894
        48.5004         42.0004
 -23855814.76948 -18414265.84048  21337122.7584                   21337114.1564
        49.5004         53.5004
 -19092672.20747 -13436603.12846  22264517.8524                   22264506.0864
        47.0004         37.2504
  -4566730.86046  -3509878.17143  24729982.5164                   24729972.9184
        36.5004         18.5004
 -19019236.39447 -14769700.99748  21871686.0554                   21871675.1684
        46.2504         49.5004
 -15693120.93946 -11297115.27546  22544422.1174                   22544414.8054
        41.2504         41.2504
  -5636643.78045  -4477151.30945  24150837.0084                   24150830.9844
        34.0004         32.0004
 -18060212.51848 -20260936.26849  20695909.8914                   20695900.9964
        52.5004         55.0004
 23  1  2  1 43 30.0000000  0 10G23G08G22G10G21G12G31G01G25G32
   -312012.82846  -2235016.33344  23977220.5554                   23977211.4844
        37.7504         24.0004
  -4696340.16745  -3602749.88444  25521851.5004                   25521843.8954
        32.5004         28.7504
 -17119923.61047 -13540938.92447  20718299.5394                   20718288.3594
        46.7504         42.0004
 -23802232.70248 -18372513.60048  21347319.1644                   21347310.4454
        48.7504         53.2504
 -19113977.48747 -13453204.65746  22260464.0554                   22260451.7624
        46.2504         37.5004
  -4606940.77246  -3541210.57543  24722333.2814                   24722321.1644
        37.5004         18.5004
 -19115844.26947 -14844979.85548  21853301.8364                   21853291.1844
        45.5004         49.5004
 -15765231.69446 -11353305.47346  22530701.2034                   22530692.1334
        41.5004         41.0004
  -5705538.06245  -4530835.04845  24137726.7344                   24137719.8324
        33.2504         30.7504
 -18033631.98848 -20240224.17449  20700968.1884                   20700958.6484
        52.0004         55.0004
 23  1  2  1 44  0.0000000  0 10G23G08G22G10G21G12G31G01G25G32
   -219436.99646  -2162879.42944  23994836.7894                   23994827.7774
        37.7504         24.0004
  -4615588.72445  -3539826.81245  25537219.8524                   25537211.6604
        34.7504         30.0004
 -17142819.70848 -13558780.04346  20713942.4774                   20713931.1214
        48.7504         41.7504
 -23748313.79248 -18330498.88648  21357579.8674                   21357571.2074
        48.7504         53.2504
 -19134809.23648 -13469437.19746  22256499.6804                   22256487.9144
        48.0004         37.2504
  -4646677.98946  -3572174.64643  24714770.6724                   24714760.0784
        36.5004         19.5004
 -19212081.14847 -14919969.61948  21834988.3754                   21834977.7814
        46.0004         49.5004
 -15836862.48546 -11409121.68746  22517070.0554                   22517061.7464
        40.7504         41.5004
  -5774110.93745  -4584268.37645  24124677.2664                   24124671.2424
        34.5004         32.5004
 -18006748.65448 -20219276.12449  20706083.7274                   20706074.4804
        52.2504         54.7504
 23  1  2  1 44 30.0000000  0 10G23G08G22G10G21G12G31G01G25G32
   -126696.44046  -2090614.20743  24012484.4694                   24012476.1024
        37.5004         23.7504
  -4534799.29144  -3476873.85044  25552588.5394                   25552585.1564
        27.5004         29.7504
 -17165393.64548 -13576370.11747  20709646.7974                   20709635.5594
        48.0004         42.0004
 -23694059.14348 -18288222.56148  21367903.7814                   21367895.6484
        48.7504         53.2504
 -19155167.80048 -13485301.02046  22252625.6644                   22252613.5474
        48.0004         37.0004
  -4685941.48646  -3602769.57143  24707298.6334                   24707288.2734
        36.0004         19.2504
 -19307945.28147 -14994668.93648  21816746.4774                   21816735.2974
        47.2504         49.7504
 -15908012.07146 -11464562.90246  22503529.9454                   22503522.0474
        41.2504         41.0004
  -5842360.52245  -4637449.82045  24111690.1564                   24111683.8404
        33.7504         31.5004
 -17979564.71248 -20198093.83749  20711256.6804                   20711247.6094
        51.7504         54.7504
 23  1  2  1 45  0.0000000  0  9G23G22G10G21G12G31G01G25G32
    -33788.67246  -2018218.66243  24030165.3674                   24030156.4734
        38.5004         23.0004
 -17187642.50147 -13593706.89147  20705413.0084                   20705401.9454
        47.0004         42.0004
 -23639466.06948 -18245682.52648  21378292.6414                   21378283.9224
        49.2504         53.0004
 -19175049.76947 -13500793.47346  22248842.3364                   22248829.9844
        46.5004         37.7504
  -4724725.36045  -3632990.72843  24699917.3674                   24699908.5904
        35.0004         20.2504
 -19403430.62547 -15069073.09848  21798576.0164                   21798565.4804
        45.5004         49.7504
 -15978674.56247 -11519624.59546  22490084.6254                   22490075.2624
        42.2504         41.5004
  -5910280.47645  -4690374.35145  24098765.8984                   24098759.3484
        34.0004         31.5004
 -17952078.12548 -20176675.71949  20716487.5164                   20716478.2114
        51.7504         55.0004
 23  1  2  1 45 30.0000000  0 11G23G03G08G22G10G21G12G31G01G25G32
     59279.80046  -1945697.89143  24047874.4384                   24047866.7734
        37.2504         22.2504
                                  25643293.984
        28.500
                                  25583364.8914                   25583356.6414
        39.0004         37.2504
 -17209572.68248 -13610795.35047  20701239.5944                   20701228.6484
        48.7504         42.0004
 -23584540.19948 -18202883.16448  21388744.4384                   21388736.5394
        49.0004         53.2504
 -19194460.39048 -13515918.63446  22245148.7424                   22245136.4494
        48.0004         37.2504
  -4763033.31245  -3662841.06443  24692628.9774                   24692619.2624
        35.5004         20.0004
 -19498539.99147 -15143184.28348  21780477.5234                   21780466.6374
        46.0004         49.7504
 -16048853.25346 -11574309.28946  22476729.4224                   22476721.2894
        41.5004         41.5004
  -5977873.25545  -4743043.97645  24085902.8754                   24085897.1454
        34.2504         31.7504
 -17924295.34648 -20155026.80849  20721774.5234                   20721764.7504
        52.2504         54.7504
 23  1  2  1 46  0.0000000  0 11G23G03G08G22G10G21G12G31G01G25G32
    152502.15246  -1873057.24743  24065616.0314                   24065606.3754
        38.2504         22.7504
                                  25624250.1334                   25624241.9414
        33.0004         29.2504
   -434267.36956  -3366113.91354  25598753.7344                   25598742.6134
        36.2504         28.5004
 -17231190.74148 -13627640.59647  20697126.1564                   20697114.6254
        48.2504         42.0004
 -23529287.41848 -18159829.07848  21399258.8364                   21399250.8794
        48.2504         53.0004
 -19213403.57347 -13530679.56346  22241543.1804                   22241531.9414
        47.7504         37.5004
  -4800869.29145  -3692323.58843  24685426.5084                   24685418.7854
        34.2504         19.2504
 -19593276.43247 -15217004.87848  21762449.7734                   21762438.8874
        45.7504         50.0004
 -16118551.61847 -11628619.70046  22463465.9454                   22463457.9304
        42.2504         41.7504
  -6045141.79045  -4795460.95245  24073102.1484                   24073095.6564
        34.5004         32.0004
 -17896223.56248 -20133152.70249  20727116.3134                   20727106.9494
        51.0004         55.0004
 23  1  2  1 46 30.0000000  0 10G23G08G22G10G21G12G31G01G25G32
    245899.99146  -1800279.82843  24083388.1174                   24083378.6374
        37.5004         22.2504
   -353348.36856  -3303060.32555  25614151.5314                   25614141.6414
        36.7504         30.5004
 -17252474.36748 -13644225.24746  20693075.8054                   20693064.6844
        48.5004         41.7504
 -23473685.76748 -18116503.13848  21409839.7894                   21409831.3634
        48.0004         53.0004
 -19231856.93248 -13545058.79546  22238032.0554                   22238019.8204
        49.0004         36.7504
  -4838208.30245  -3721418.88643  24678321.9614                   24678313.6524
        34.5004         19.2504
 -19687614.82047 -15290515.30748  21744497.5474                   21744486.6604
        46.5004         50.0004
 -16187744.67146 -11682536.37946  22450299.1644                   22450290.7974
        41.7504         41.5004
  -6112060.54845  -4847605.35145  24060368.1564                   24060360.6094
        35.0004         31.5004
 -17867841.36548 -20111036.70649  20732517.0634                   20732507.8754
        51.2504         54.7504
 23  1  2  1 47  0.0000000  0 11G23G03G08G22G10G21G12G31G01G25G32
    339452.96646  -1727381.53243  24101190.5944                   24101181.7584
        37.5004         22.7504
                                  25586131.672
        28.500
   -272411.13856  -3239992.35655  25629555.9844                   25629544.9224
        39.0004         34.2504
 -17273443.72147 -13660565.01346  20689085.5474                   20689074.3094
        46.5004         41.7504
 -23417754.81648 -18072920.61948  21420482.9064                   21420474.5984
        48.0004         53.0004
 -19249839.59947 -13559071.27246  22234609.9064                   22234598.1994
        46.0004         37.0004
  -4875068.18645  -3750140.78143  24671307.1564                   24671299.2584
        34.5004         19.5004
 -19781571.92947 -15363728.62448  21726618.2274                   21726607.2234
        46.0004         50.2504
 -16256449.54346 -11736072.64747  22437224.8134                   22437216.9144
        41.7504         42.5004
  -6178645.97345  -4899490.05045  24047697.7974                   24047689.9574
        35.5004         31.5004
 -17839169.33048 -20088694.87349  20737973.5474                   20737964.2424
        51.2504         54.7504
 23  1  2  1 47 30.0000000  0 11G23G03G08G22G10G21G12G31G01G25G32
    433175.25946  -1654351.30643  24119026.0704                   24119016.9414
        37.2504         22.2504
                                  25567063.6484                   25567059.2114
        25.7504         22.0004
                                  25644959.6484                   25644952.8634
        35.0004         28.5004
 -17294084.16648 -13676648.47846  20685157.7034                   20685146.5824
        48.5004         41.7504
 -23361479.53148 -18029069.77148  21431191.4064                   21431183.0984
        48.2504         52.7504
 -19267336.15248 -13572704.96246  22231280.6884                   22231268.5704
        48.0004         37.2504
  -4911431.52845  -3778475.75343  24664388.3914                   24664378.9694
        35.2504         19.5004
 -19875130.05847 -15436631.05848  21708814.9224                   21708803.6254
        46.2504         50.2504
 -16324648.77946 -11789214.90547  22424246.5784                   22424238.6804
        41.7504         42.0004
  -6244879.82445  -4951100.82545  24035093.2814                   24035086.0864
        34.5004         31.5004
 -17810193.50748 -20066116.31649  20743487.3444                   20743477.9224
        50.7504         54.7504
 23  1  2  1 48  0.0000000  0 11G23G03G08G22G10G21G12G31G01G25G32
    527043.52546  -1581207.33243  24136887.8524                   24136879.3094
        36.5004         22.7504
   -725932.69855   -608948.39354  25547989.5784                   25547979.3364
        34.0004         28.5004
   -110471.66545  -3113805.83243  25660365.7424                   25660361.7734
        34.2504         22.5004
 -17314418.89447 -13692493.72247  20681288.0394                   20681276.9184
        46.5004         42.0004
 -23304882.92248 -17984968.53848  21441961.4774                   21441953.4024
        48.5004         52.7504
 -19284367.61847 -13585976.23846  22228040.1414                   22228027.5554
        46.2504         37.0004
  -4947318.90245  -3806439.85343  24657558.9224                   24657549.6764
        35.2504         19.2504
 -19968308.82847 -15509237.88248  21691083.3914                   21691072.3284
        46.0004         50.5004
 -16392362.41547 -11841978.78747  22411361.4144                   22411353.1644
        42.5004         42.5004
  -6310781.70045  -5002452.88145  24022552.1804                   24022546.4494
        34.0004         31.5004
 -17780937.49348 -20043319.43449  20749054.7194                   20749045.1214
        51.2504         54.7504
 23  1  2  1 48 30.0000000  0 11G23G03G08G22G10G21G12G31G01G25G32
    621076.57846  -1507934.96843  24154782.5164                   24154773.6804
        37.0004         22.0004
   -826225.71754   -687098.90654  25528902.2114                   25528895.8364
        26.7504         26.5004
    -29477.77345  -3061078.40354  25675779.5234                   25675772.2704
        33.2504         29.7504
 -17334428.48548 -13708085.61247  20677480.5084                   20677469.5634
        48.5004         42.0004
 -23247945.25247 -17940601.56048  21452796.3444                   21452788.3284
        47.5004         52.7504
 -19300914.58848 -13598869.98246  22224890.9614                   22224879.0204
        48.0004         37.5004
  -4982708.50446  -3834016.06643  24650825.2504                   24650814.7734
        36.0004         19.7504
 -20061085.84247 -15581531.64748  21673428.5634                   21673417.3834
        46.5004         50.7504
 -16459568.32547 -11894347.02947  22398573.1094                   22398564.7424
        43.0004         42.7504
  -6376328.77645  -5053528.50745  24010078.5004                   24010072.9454
        33.7504         31.2504
 -17751382.56648 -20020289.62749  20754678.4384                   20754669.2504
        50.7504         55.0004
 23  1  2  1 49  0.0000000  0 11G23G03G08G22G10G21G12G31G01G25G32
    715267.41446  -1434539.66343  24172706.2894                   24172697.7464
        36.7504         22.0004
                                  25509807.1484                   25509802.4774
        28.7504         24.5004
     51528.95246  -2997956.40645  25691197.4694                   25691186.8754
        36.7504         30.0004
 -17354120.03748 -13723429.67446  20673733.2814                   20673722.2774
        48.5004         41.5004
 -23190673.21448 -17895974.03248  21463695.3204                   21463687.0124
        48.0004         52.7504
 -19316981.76048 -13611389.87246  22221833.6174                   22221821.2074
        48.5004         37.2504
  -5017604.42146  -3861207.64743  24644184.9534                   24644174.8284
        36.0004         19.0004
 -20153464.48447 -15653514.99148  21655849.4384                   21655838.8444
        46.5004         50.7504
 -16526270.33547 -11946322.62447  22385880.2344                   22385871.9264
        42.2504         43.0004
  -6441524.15645  -5104330.04045  23997672.2814                   23997666.9024
        33.7504         32.2504
 -17721536.05348 -19997032.61749  20760358.3204                   20760349.0744
        50.5004         54.7504
 23  1  2  1 49 30.0000000  0 11G23G03G08G22G10G21G12G31G01G25G32
    809611.04646  -1361025.29443  24190659.9144                   24190651.0784
        36.7504         21.0004
  -1026936.59545   -843496.60744  25490708.7584                   25490699.3364
        34.2504         27.0004
    132541.33645  -2934829.88744  25706609.8914                   25706603.3404
        33.5004         29.0004
 -17373497.90248 -13738529.31346  20670045.8594                   20670034.6804
        48.0004         41.5004
 -23133070.78247 -17851089.05348  21474656.4384                   21474648.3634
        47.5004         52.5004
 -19332573.37147 -13623539.18746  22218866.2974                   22218854.1804
        47.0004         37.2504
  -5052008.63246  -3888016.06743  24637638.1804                   24637626.1804
        37.2504         18.5004
 -20245446.20547 -15725189.04448  21638345.7974                   21638335.1454
        46.5004         51.0004
 -16592470.18747 -11997906.90947  22373282.0864                   22373273.6604
        42.5004         43.0004
  -6506368.86845  -5154858.34245  23985333.6414                   23985326.8554
        34.5004         31.5004
 -17691403.09948 -19973552.39149  20766092.3834                   20766083.3714
        50.0004         54.7504
 23  1  2  1 50  0.0000000  0 11G23G03G08G22G10G21G12G31G01G25G32
    904110.25945  -1287389.66843  24208640.9384                   24208633.7424
        35.0004         22.0004
  -1127352.96345   -921742.98244  25471600.1884                   25471592.5234
        32.5004         26.5004
    213560.27745  -2871698.19244  25722027.5554                   25722019.6564
        31.7504         25.5004
 -17392558.93347 -13753382.05447  20666418.5944                   20666407.4144
        47.7504         42.0004
 -23075134.78147 -17805944.14948  21485681.7504                   21485673.1484
        47.5004         52.5004
 -19347685.37448 -13635314.77946  22215991.3054                   22215978.7774
        48.2504         36.5004
  -5085915.60746  -3914437.03843  24631185.2584                   24631173.6684
        36.5004         19.0004
 -20337024.43547 -15796548.68848  21620919.4844                   21620908.3054
        47.0004         51.0004
 -16658161.67347 -12049095.11247  22360782.6334                   22360773.4454
        43.2504         43.5004
  -6570856.26945  -5205108.26145  23973061.7274                   23973053.8874
        35.0004         32.0004
 -17660981.04048 -19949846.89649  20771881.3594                   20771872.4064
        49.7504         54.7504
 23  1  2  1 50 30.0000000  0 11G23G03G08G22G10G21G12G31G01G25G32
    998769.51745  -1213629.35243  24226655.1414                   24226646.6564
        35.5004         22.5004
  -1227802.38045  -1000015.17544  25452483.3914                   25452477.4264
        32.2504         25.7504
    294587.92445  -2808559.86344  25737446.2424                   25737439.9844
        32.7504         26.0004
 -17411298.48948 -13767984.30446  20662852.6564                   20662841.1254
        48.2504         41.7504
 -23016860.13847 -17760535.37248  21496770.8134                   21496762.8554
        47.2504         52.5004
 -19362311.22647 -13646711.56446  22213207.0704                   22213195.5394
        46.5004         37.2504
  -5119318.34946  -3940465.03943  24624830.9064                   24624818.0864
        38.5004         20.5004
 -20428191.49947 -15867587.94748  21603570.6954                   21603559.4574
        47.0004         51.0004
 -16723337.39946 -12099881.36747  22348378.8674                   22348371.1454
        41.5004         43.2504
  -6634978.05245  -5255073.30745  23960859.6254                   23960852.1374
        34.2504         32.2504
 -17630265.77348 -19925912.93049  20777726.2034                   20777717.1914
        50.0004         54.7504
 23  1  2  1 51  0.0000000  0 11G23G03G08G22G10G21G12G31G01G25G32
   1093582.31345  -1139749.42643  24244698.0004                   24244689.1644
        34.7504         21.5004
  -1328289.16445  -1078316.53544  25433361.4064                   25433354.2704
        33.2504         25.7504
    375616.26645  -2745420.89644  25752864.8984                   25752858.8164
        30.5004         25.5004
 -17429722.61148 -13782340.75746  20659347.1414                   20659335.4344
        48.7504         41.5004
 -22958252.43347 -17714867.06248  21507923.5314                   21507915.2234
        47.5004         52.5004
 -19376456.52547 -13657733.87246  22210515.1724                   22210503.9924
        47.5004         36.7504
  -5152220.22146  -3966102.87443  24618569.3984                   24618556.1684
        37.7504         19.7504
 -20518950.06047 -15938308.88948  21586299.6484                   21586289.0554
        46.7504         51.0004
 -16788000.37247 -12150268.10647  22336075.1334                   22336065.9454
        43.0004         43.7504
  -6698736.64345  -5304755.31645  23948727.1414                   23948719.3594
        34.5004         31.0004
 -17599263.74548 -19901755.50949  20783625.6484                   20783616.7544
        50.0004         54.7504
 23  1  2  1 51 30.0000000  0 11G23G03G08G22G10G21G12G31G01G25G32
   1188548.69346  -1065749.79343  24262769.4694                   24262761.1024
        36.2504         22.2504
  -1428811.54445  -1156645.65444  25414233.4454                   25414225.5474
        32.2504         28.2504
    456642.93856  -2682283.10155  25768287.2034                   25768277.6644
        36.2504         30.5004
 -17447830.95148 -13796451.15546  20655900.8754                   20655889.5784
        48.5004         41.7504
 -22899311.27247 -17668938.92148  21519139.7584                   21519131.2154
        47.5004         52.5004
 -19390119.99347 -13668380.73946  22207915.5234                   22207903.8754
        47.5004         37.0004
  -5184618.56746  -3991348.35843  24612404.5474                   24612390.3794
        38.2504         19.7504
 -20609296.65847 -16008708.81948  21569107.1884                   21569096.5354
        47.0004         51.0004
 -16852147.46447 -12200252.87347  22323867.1484                   22323859.0164
        42.0004         43.5004
  -6762128.20145  -5354151.31145  23936661.9924                   23936658.0234
        33.0004         32.0004
 -17567975.25448 -19877374.86349  20789579.9064                   20789570.6604
        50.0004         54.7504
 23  1  2  1 52  0.0000000  0 11G23G03G08G22G10G21G12G31G01G25G32
   1283667.84845   -991631.13143  24280869.8754                   24280861.9774
        34.5004         21.5004
  -1529368.71945  -1235001.84144  25395098.0474                   25395090.3244
        33.5004         29.5004
    537665.82245  -2619148.54744  25783703.9384                   25783697.3874
        33.5004         26.5004
 -17465624.00048 -13810315.86146  20652514.5634                   20652503.2074
        48.0004         41.7504
 -22840036.70447 -17622750.97448  21530419.4454                   21530411.1374
        47.2504         52.2504
 -19403300.71047 -13678651.44546  22205407.0554                   22205395.2304
        47.5004         37.0004
  -5216510.76446  -4016199.45143  24606336.4774                   24606321.7814
        38.0004         19.7504
 -20699228.32847 -16078785.44048  21551994.0004                   21551983.1724
        47.0004         51.2504
 -16915776.36347 -12249833.80747  22311759.6564                   22311751.5824
        42.0004         44.0004
  -6825149.70345  -5403258.95745  23924672.3754                   23924665.7074
        35.2504         33.0004
 -17536401.32348 -19852771.80549  20795588.1254                   20795578.9964
        49.7504         54.7504
 23  1  2  1 52 30.0000000  0 11G23G03G08G22G10G21G12G31G01G25G32
   1378938.18146   -917394.69343  24298999.9454                   24298991.4024
        36.0004         21.2504
  -1629960.09245  -1313384.67045  25375955.9304                   25375948.3834
        32.2504         30.0004
    618681.46145  -2556019.41144  25799120.5864                   25799113.0984
        33.7504         29.7504
 -17483102.74448 -13823935.66946  20649188.7504                   20649178.2734
        49.0004         41.7504
 -22780429.55347 -17576303.87948  21541762.1564                   21541753.9064
        47.5004         52.2504
 -19415999.58747 -13688546.67546  22202990.8364                   22202979.0704
        47.5004         36.7504
  -5247896.18646  -4040655.60742  24600362.3754                   24600348.9104
        37.5004         17.2504
 -20788742.90847 -16148537.04548  21534960.0234                   21534948.8444
        47.2504         51.2504
 -16978885.27347 -12299009.58647  22299750.2114                   22299741.7854
        42.5004         44.0004
  -6887798.74345  -5452076.34545  23912749.6254                   23912743.4264
        35.0004         32.5004
 -17504543.52548 -19827947.56149  20801650.2344                   20801641.3984
        50.0004         55.0004
 23  1  2  1 53  0.0000000  0 11G23G03G08G22G10G21G12G31G01G25G32
   1474359.86445   -843040.27843  24317157.3524                   24317149.3954
        35.2504         21.7504
  -1730583.83345  -1391792.73644  25356808.7194                   25356799.4144
        33.7504         28.5004
    699687.79545  -2502570.58055  25814537.1644                   25814528.1524
        33.5004         33.7504
 -17500266.57448 -13837310.08246  20645922.5084                   20645911.3874
        48.5004         41.5004
 -22720489.36447 -17529597.27748  21553168.3674                   21553160.3524
        47.5004         52.2504
 -19428214.15947 -13698064.54246  22200666.5394                   22200654.3054
        47.7504         36.5004
  -5278771.70346  -4064714.49343  24594486.8444                   24594473.6724
        37.7504         19.0004
 -20877837.29747 -16217961.24148  21518005.9694                   21517994.9064
        46.7504         51.2504
 -17041470.94246 -12347777.65347  22287840.1024                   22287831.8524
        41.2504         43.5004
  -6950071.37445  -5500600.47245  23900899.5474                   23900892.9964
        35.0004         33.2504
 -17472401.99348 -19802902.21149  20807766.7114                   20807757.8164
        50.2504         54.7504
 23  1  2  1 53 30.0000000  0 11G23G03G08G22G10G21G12G31G01G25G32
   1569931.06345   -768569.40043  24335344.1254                   24335336.3444
        34.5004         21.2504
  -1831239.85445  -1470225.91445  25337656.1094                   25337646.7464
        34.7504         31.0004
    780681.11545  -2439458.92744  25829948.8754                   25829940.3324
        34.5004         27.0004
 -17517117.50947 -13850440.67346  20642715.9924                   20642704.6954
        47.5004         41.7504
 -22660217.00647 -17482631.84048  21564637.9614                   21564629.6524
        47.0004         52.0004
 -19439945.70448 -13707206.01646  22198434.5234                   22198421.9964
        48.0004         36.7504
  -5309136.59846  -4088375.49143  24588708.7894                   24588694.9734
        37.7504         19.0004
 -20966509.62047 -16287056.54448  21501132.0314                   21501121.0864
        47.0004         51.5004
 -17103532.08347 -12396136.96547  22276030.9844                   22276022.6174
        42.0004         44.2504
  -7011965.53245  -5548829.67945  23889121.9774                   23889112.8484
        35.2504         31.7504
 -17439978.67948 -19777637.29649  20813936.4774                   20813927.8754
        50.0004         54.7504
 23  1  2  1 54  0.0000000  0 11G23G03G08G22G10G21G12G31G01G25G32
   1665651.43945   -693982.26443  24353558.7974                   24353551.1914
        35.0004         20.5004
  -1931926.26545  -1548682.75944  25318493.7974                   25318485.9574
        33.2504         29.5004
    861659.15045  -2376359.19844  25845358.5234                   25845350.6254
        34.7504         27.5004
 -17533655.31448 -13863327.28346  20639568.7584                   20639557.4614
        48.7504         41.5004
 -22599612.56547 -17435407.63748  21576170.3594                   21576162.2274
        47.0004         52.0004
 -19451192.86947 -13715970.05246  22196293.7504                   22196281.9264
        47.0004         36.5004
  -5338988.05546  -4111636.48043  24583028.0004                   24583014.8284
        36.7504         19.5004
 -21054756.47647 -16355820.32248  21484339.0394                   21484327.9184
        47.5004         51.2504
 -17165065.71547 -12444085.26847  22264321.4534                   22264313.0274
        42.2504         44.0004
  -7073477.59145  -5596761.14745  23877414.1884                   23877408.3984
        34.0004         32.2504
 -17407274.02848 -19752153.16249  20820160.0004                   20820151.1644
        50.5004         55.0004
 23  1  2  1 54 30.0000000  0 10G23G03G22G10G21G12G31G01G25G32
   1761520.26345   -619279.45543  24371802.4384                   24371794.6564
        34.7504         21.0004
  -2032642.07245  -1627162.54544  25299326.6954                   25299319.6174
        34.0004         29.5004
 -17549880.36347 -13875970.18646  20636481.1564                   20636469.8014
        47.7504         41.7504
 -22538675.95447 -17387924.60248  21587766.2034                   21587758.4224
        47.0004         52.0004
 -19461955.17647 -13724356.27646  22194245.7894                   22194234.0824
        47.7504         36.5004
  -5368324.33446  -4134495.98943  24577446.8444                   24577431.4454
        38.0004         19.2504
 -21142574.92547 -16424250.28148  21467628.2034                   21467616.8484
        47.0004         51.5004
 -17226069.53746 -12491620.68847  22252711.3054                   22252703.5234
        41.0004         43.5004
  -7134604.39846  -5644392.46745  23865785.1484                   23865776.8984
        36.0004         33.2504
 -17374288.89948 -19726450.47349  20826436.7894                   20826428.3054
        50.5004         54.7504
 23  1  2  1 55  0.0000000  0 11G23G03G08G22G10G21G12G31G01G25G32
   1857535.84845   -544462.30143  24390073.5554                   24390066.1254
        34.2504         20.7504
  -2133387.03945  -1705664.99344  25280156.6484                   25280148.6334
        34.7504         29.5004
   -183855.26855  -2268824.26254  25876165.6644                   25876158.0594
        30.2504         26.0004
 -17565793.98047 -13888370.40346  20633452.9224                   20633441.8594
        47.5004         41.5004
 -22477408.03547 -17340183.40948  21599425.3914                   21599417.5514
        47.0004         51.7504
 -19472233.00447 -13732364.98946  22192289.8594                   22192277.8594
        47.2504         36.7504
  -5397144.63746  -4156953.44442  24571962.7114                   24571947.2544
        38.0004         17.7504
 -21229963.40947 -16492345.19448  21450998.8284                   21450987.5314
        47.5004         51.5004
 -17286542.06747 -12538742.16147  22241206.6254                   22241196.9104
        42.7504         44.0004
  -7195343.96746  -5691721.90545  23854227.6334                   23854220.3794
        36.0004         34.5004
 -17341025.21548 -19700530.72449  20832766.8444                   20832757.7734
        50.2504         55.0004
 23  1  2  1 55 30.0000000  0 11G23G03G08G22G10G21G12G31G01G25G32
   1953698.07245   -469530.86743  24408373.2814                   24408365.6174
        34.2504         21.5004
  -2234159.30945  -1784188.78744  25260979.9774                   25260972.6054
        33.5004         29.5004
                                  25891563.8444                   25891556.4734
        35.0004         28.0004
 -17581395.94948 -13900527.79546  20630484.0634                   20630472.7074
        48.0004         41.5004
 -22415808.78247 -17292184.03448  21611147.5704                   21611138.7934
        47.0004         51.7504
 -19482025.64247 -13739995.61546  22190426.3134                   22190414.8984
        47.0004         36.7504
  -5425446.00546  -4179006.53943  24566576.2584                   24566563.4384
        37.5004         19.7504
 -21316918.59847 -16560102.48948  21434451.4384                   21434440.3164
        47.5004         51.5004
 -17346480.29746 -12585447.28147  22229798.4844                   22229791.2304
        41.0004         43.7504
  -7255692.41345  -5738746.70545  23842740.1644                   23842735.8444
        32.5004         33.5004
 -17307483.14348 -19674394.05149  20839149.5164                   20839140.6804
        50.2504         54.7504
 23  1  2  1 56  0.0000000  0 11G23G03G08G22G10G21G12G31G01G25G32
   2050006.47345   -394485.58243  24426700.7504                   24426692.8524
        34.7504         20.7504
  -2334957.30445  -1862732.58044  25241798.5234                   25241790.6254
        33.0004         28.5004
    -22050.08555  -2142742.43353  25906955.7504                   25906948.5554
        31.7504         22.5004
 -17596686.17047 -13912442.24946  20627574.4224                   20627563.4774
        47.7504         41.7504
 -22353877.77347 -17243926.13648  21622932.4774                   21622924.2274
        47.5004         51.5004
 -19491331.67347 -13747247.08146  22188655.4774                   22188643.7704
        46.7504         36.5004
  -5453226.52346  -4200653.85343  24561290.5314                   24561277.1254
        37.5004         19.2504
 -21403437.31247 -16627519.66748  21417987.8914                   21417976.3594
        47.5004         51.7504
 -17405881.62746 -12631734.00347  22218495.2034                   22218486.8364
        41.2504         43.7504
  -7315646.42345  -5785464.06045  23831334.1884                   23831326.3484
        35.7504         33.5004
 -17273663.28348 -19648040.91749  20845585.4774                   20845576.8754
        50.7504         55.0004
