     2.10           OBSERVATION DATA    G (GPS)             RINEX VERSION / TYPE
teqc  2004Apr5                          20041208 15:58:11UTCPGM / RUN BY / DATE
OBSERVATION MODE: Permanent                                 COMMENT
CHUM Chumysh (CHUM)                                         MARKER NAME
25601M001                                                   MARKER NUMBER
T136                ROGUE SNR-8000       3.20               REC # / TYPE / VERS
113                 AOAD/M_T        NONE                    ANT # / TYPE
        0.0900        0.0000        0.0000                  ANTENNA: DELTA H/E/N
  1228950.8674  4508079.8891  4327868.4885                  APPROX POSITION XYZ
  74.75109758  42.99850107  716.3211  LonLatAlt  S/W        COMMENT
Linux 2.0.36|Pentium II|gcc -static|Linux|486/DX+           COMMENT
BIT 2 OF LLI FLAGS DATA COLLECTED UNDER A/S CONDITION       COMMENT
Konovalov           IVTAN                                   OBSERVER / AGENCY
     1     1                                                WAVELENGTH FACT L1/2
     5    L1    L2    C1    P2    P1                        # / TYPES OF OBSERV
    30.0000                                                 INTERVAL
    P1 =    P1  TurboRogue; =    Y1  Benchmark              COMMENT
    L1 = L1(P1) TurboRogue; = L1(Y1) Benchmark              COMMENT
    P2 =    P2  TurboRogue; =    Y2  Benchmark              COMMENT
    L2 = L2(P2) TurboRogue; = L2(Y2) Benchmark              COMMENT
 SNR is mapped to RINEX snr flag value [1,4-9]              COMMENT
    SNR:  >=316 >=100 >=31.6 >=10 >=3.2    >0 bad=0         COMMENT
L1 & L2:      9     8     7     6     5     4     1         COMMENT
  2002     1     5     0     0    0.0000000     GPS         TIME OF FIRST OBS
  2002     1     5    23    59   30.0000000     GPS         TIME OF LAST OBS
                                                            END OF HEADER
 02  1  5  0  0  0.0000000  0  7G 1G20G25G11G14G29G22
  -5824873.94948  -4538860.93945  23989585.073    23989586.467
 -18728646.96649 -14593745.75146  21795710.957    21795710.898
 -24080677.33049 -18764159.14247  20499151.789    20499151.815
 -12734309.09348  -9922839.23045  22918224.750    22918225.446
  -4383477.17149  -3415695.32745  22779565.710    22779566.288
 -12768767.26849  -9949685.74447  21343601.586    21343601.904
  -6356121.05448  -4952821.63044  23435552.344    23435553.019
 02  1  5  0  0 30.0000000  0  7G 1G20G25G11G14G29G22
  -5906052.63648  -4602117.02345  23974135.972    23974138.595
 -18804035.95049 -14652490.40746  21781364.859    21781365.045
 -24066114.75749 -18752811.68047  20501922.983    20501923.051
 -12671957.45248  -9874253.53145  22930089.460    22930087.861
  -4309467.28249  -3358025.29845  22793649.205    22793649.805
 -12719760.95049  -9911499.01247  21352927.604    21352927.964
  -6468576.11548  -5040448.97944  23414153.326    23414156.894
 02  1  5  0  1  0.0000000  0  8G 1G20G25G11G14G29G30G22
  -5987155.76148  -4665314.22245  23958704.370    23958706.328
 -18879070.11449 -14710958.59446  21767087.020    21767085.974
 -24051109.30949 -18741119.11947  20504778.472    20504778.592
 -12609228.33649  -9825373.70845  22942027.665    22942025.759
  -4235313.62249  -3300243.23445  22807760.978    22807760.577
 -12670537.16849  -9873142.83746  21362294.485    21362294.994
         -.54858          .06454  23589357.027    23589356.700
  -6580922.82848  -5127991.89944  23392774.535    23392773.248
 02  1  5  0  1 30.0000000  0  8G 1G20G25G11G14G29G30G22
  -6068182.50048  -4728451.91145  23943284.612    23943287.564
 -18953746.57549 -14769148.03846  21752875.630    21752875.920
 -24035662.22149 -18729082.42447  20507717.773    20507717.845
 -12546123.90948  -9776201.42645  22954034.712    22954035.527
  -4161016.35949  -3242349.27145  22821898.547    22821899.518
 -12621095.96349  -9834617.23646  21371702.693    21371703.264
     50464.70648     39323.62744  23598960.809    23598959.736
  -6693157.85448  -5215447.76745  23371416.858    23371417.790
 02  1  5  0  2  0.0000000  0  8G 1G20G25G11G14G29G30G22
  -6149148.38048  -4791542.18145  23927877.094    23927880.052
 -19028078.87649 -14827069.30746  21738730.761    21738730.952
 -24019789.81649 -18716714.31347  20510737.843    20510738.048
 -12482662.65348  -9726751.12645  22966111.436    22966111.026
  -4086591.36949  -3184355.78545  22836060.944    22836061.462
 -12571452.83749  -9795934.29446  21381149.490    21381149.944
    101454.63648     79056.03744  23608662.920    23608663.489
  -6805293.54248  -5302826.22145  23350077.538    23350079.224
 02  1  5  0  2 30.0000000  0  8G 1G20G25G11G14G29G30G22
  -6230048.77748  -4854581.41545  23912482.938    23912484.476
 -19102060.18449 -14884717.07946  21724653.274    21724652.672
 -24003489.25049 -18704012.56647  20513839.751    20513840.080
 -12418843.24149  -9677021.72945  22978256.994    22978255.863
  -4012035.04549  -3126259.97045  22850249.697    22850250.201
 -12521604.26749  -9757091.26646  21390635.545    21390636.034
    152971.84048    119199.28944  23618466.570    23618467.804
  -6917322.54948  -5390121.56444  23328760.186    23328761.217
 02  1  5  0  3  0.0000000  0  8G 1G20G25G11G14G29G30G22
  -6310899.21348  -4917581.73145  23897096.326    23897098.614
 -19175703.49749 -14942101.47646  21710638.428    21710638.618
 -23986777.38249 -18690990.32447  20517020.179    20517020.482
 -12354683.79848  -9627027.35845  22990463.844    22990464.553
  -3937363.26349  -3068074.18245  22864458.515    22864458.940
 -12471565.61149  -9718100.11946  21400157.698    21400158.047
    204999.12548    159740.01045  23628366.813    23628368.164
  -7029257.25548  -5477343.42345  23307459.571    23307460.253
 02  1  5  0  3 30.0000000  0  8G 1G20G25G11G14G29G30G22
  -6391670.93448  -4980520.72045  23881727.388    23881727.680
 -19248978.46949 -14999198.85546  21696694.920    21696695.047
 -23969627.06549 -18677626.43447  20520283.892    20520284.061
 -12290158.54548  -9576747.95745  23002744.139    23002742.561
  -3862548.14749  -3009776.70545  22878695.177    22878695.858
 -12421308.84549  -9678939.01246  21409721.169    21409721.679
    257563.09948    200698.97345  23638369.974    23638370.788
  -7141066.15348  -5564467.25044  23286183.034    23286183.262
 02  1  5  0  4  0.0000000  0  8G 1G20G25G11G14G29G30G22
  -6472367.29148  -5043400.96245  23866370.913    23866372.273
 -19321886.13449 -15056010.02246  21682821.522    21682821.308
 -23952043.17349 -18663924.68947  20523629.928    20523630.209
 -12225274.06748  -9526188.65745  23015090.843    23015090.357
  -3787593.99949  -2951370.88845  22892959.031    22892958.680
 -12370838.12149  -9639611.19246  21419325.427    21419325.994
    310658.18248    242071.76345  23648473.089    23648474.549
  -7252749.78548  -5651493.43945  23264929.974    23264931.183
 02  1  5  0  4 30.0000000  0  8G 1G20G25G11G14G29G30G22
  -6553004.55348  -5106235.18045  23851025.890    23851027.714
 -19394440.72049 -15112546.06346  21669014.251    21669013.996
 -23934043.30149 -18649898.80347  20527055.220    20527055.349
 -12160049.44148  -9475364.29545  23027502.322    23027503.067
  -3712517.75449  -2892869.94145  22907244.716    22907245.194
 -12320169.95049  -9600129.51946  21428967.254    21428967.586
    364266.37948    283844.38045  23658674.881    23658675.683
  -7364321.53048  -5738432.46445  23243698.487    23243700.127
 02  1  5  0  5  0.0000000  0  8G 1G20G25G11G14G29G30G22
  -6633585.11048  -5169025.17745  23835692.115    23835694.314
 -19466642.53449 -15168807.22146  21655274.852    21655274.910
 -23915631.71949 -18635552.10947  20530558.685    20530558.888
 -12094490.38948  -9424279.30345  23039978.671    23039977.578
  -3637322.44249  -2834276.21845  22921554.576    22921554.027
 -12269307.54949  -9560496.49346  21438646.028    21438646.404
    418383.04148    326013.21145  23668973.673    23668974.515
  -7475780.96248  -5825283.95744  23222488.510    23222488.494
 02  1  5  0  5 30.0000000  0  8G 1G20G25G11G14G29G30G22
  -6714109.64548  -5231771.55245  23820367.945    23820370.764
 -19538490.06549 -15224792.31046  21641602.927    21641602.929
 -23896810.25549 -18620886.03047  20534140.243    20534140.496
 -12028600.11848  -9372936.27245  23052516.350    23052516.544
  -3562009.35049  -2775590.69345  22935886.289    22935885.639
 -12218251.67149  -9520712.70346  21448361.674    21448362.205
    473005.75548    368576.36745  23679367.261    23679368.272
  -7587125.45748  -5912045.90345  23201300.511    23201301.436
 02  1  5  0  6  0.0000000  0  8G 1G20G25G11G14G29G30G22
  -6794562.93148  -5294462.37745  23805059.055    23805060.835
 -19609965.95049 -15280487.80246  21628001.471    21628001.397
 -23877565.53949 -18605890.14147  20537802.467    20537802.620
 -11962366.68148  -9321325.82045  23065120.912    23065121.013
  -3486563.98649  -2716802.11545  22950242.533    22950242.762
 -12166987.65949  -9480766.73846  21458116.868    21458117.022
    528147.52848    411543.96244  23689860.317    23689860.799
  -7698337.22948  -5998704.41645  23180137.383    23180137.203
 02  1  5  0  6 30.0000000  0  8G 1G20G25G11G14G29G30G22
  -6874935.75748  -5357090.51545  23789765.120    23789767.443
 -19681059.14949 -15335885.10546  21614472.632    21614472.481
 -23857889.98549 -18590558.54047  20541546.727    20541546.992
 -11895783.94948  -9269443.18645  23077790.897    23077789.855
  -3410978.20849  -2657904.12145  22964626.751    22964627.113
 -12115507.31549  -9440652.20046  21467913.353    21467913.846
    583815.10848    454921.32345  23700453.923    23700455.253
  -7809404.18948  -6085250.09945  23159002.097    23159003.698
 02  1  5  0  7  0.0000000  0  8G 1G20G25G11G14G29G30G22
  -6955232.71048  -5419659.53845  23774484.611    23774486.621
 -19751772.10249 -15390986.10546  21601016.737    21601016.654
 -23837790.11249 -18574896.29947  20545371.564    20545371.684
 -11828859.68048  -9217294.44045  23090526.067    23090525.701
  -3335257.16749  -2598900.72945  22979035.889    22979035.841
 -12063815.38149  -9400372.78146  21477749.887    21477750.085
    640001.99148    498703.29844  23711145.658    23711147.021
  -7920328.08248  -6171684.31345  23137894.123    23137894.689
 02  1  5  0  7 30.0000000  0  8G 1G20G25G11G14G29G30G22
  -7035464.11248  -5482177.45645  23759216.708    23759217.953
 -19822112.91349 -15445797.12946  21587631.428    21587631.341
 -23817277.28849 -18558912.27347  20549275.275    20549275.429
 -11761607.04848  -9164889.79545  23103324.954    23103325.119
  -3259411.63749  -2539800.33345  22993468.658    22993468.479
 -12011922.77849  -9359937.00546  21487624.752    21487625.209
    696695.95948    542880.40245  23721934.186    23721936.155
  -8031116.08948  -6258012.62445  23116812.225    23116814.008
 02  1  5  0  8  0.0000000  0  8G 1G20G25G11G14G29G30G22
  -7115639.43748  -5544651.69645  23743959.393    23743960.974
 -19892089.10049 -15500324.02446  21574314.946    21574314.605
 -23796362.76449 -18542615.23547  20553255.265    20553255.494
 -11694038.53548  -9112239.03245  23116181.114    23116181.855
  -3183452.08049  -2480611.09645  23007923.458    23007923.600
 -11959839.26549  -9319352.46446  21497535.864    21497536.275
    753885.26948    587443.49444  23732816.757    23732818.562
  -8141774.81348  -6344240.21245  23095754.338    23095754.408
 02  1  5  0  8 30.0000000  0  8G 1G20G25G11G14G29G30G22
  -7195753.00548  -5607077.80545  23728715.838    23728717.718
 -19961692.88949 -15554560.74746  21561070.241    21561069.758
 -23775042.63749 -18526002.13947  20557312.288    20557312.305
 -11626151.82048  -9059340.32544  23129100.837    23129101.017
  -3107373.73849  -2421329.29145  23022400.574    23022400.247
 -11907560.00149  -9278615.38946  21507484.490    21507484.824
    811573.21048    632395.14844  23743794.665    23743795.726
  -8252295.77448  -6430360.44545  23074722.571    23074724.447
 02  1  5  0  9  0.0000000  0  8G 1G20G25G11G14G29G30G22
  -7275805.41148  -5669456.25545  23713481.533    23713482.988
 -20030922.93749 -15608506.23646  21547895.637    21547895.518
 -23753319.05349 -18509074.66547  20561445.682    20561445.855
 -11557950.82448  -9006196.69644  23142078.890    23142077.734
  -3031177.78249  -2361955.83545  23036900.152    23036899.526
 -11855086.06549  -9237726.63046  21517469.760    21517470.262
    869757.13848    677733.25944  23754866.470    23754868.907
  -8362676.65848  -6516371.50945  23053717.748    23053718.565
 02  1  5  0  9 30.0000000  0  8G 1G20G25G11G14G29G30G22
  -7355771.33948  -5731767.30045  23698263.270    23698265.713
 -20099751.73049 -15662139.06346  21534798.138    21534798.235
 -23731168.28449 -18491814.31747  20565660.793    20565660.959
 -11489412.89748  -8952790.53044  23155120.269    23155121.821
  -2954839.50649  -2302471.48445  23051426.813    23051427.119
 -11802392.60549  -9196666.81246  21527497.166    21527497.608
    928460.13948    723475.89244  23766036.947    23766038.058
  -8472889.34648  -6602251.53145  23032744.495    23032746.013
 02  1  5  0 10  0.0000000  0  8G 1G20G25G11G14G29G30G22
  -7435658.23348  -5794016.76645  23683063.195    23683064.863
 -20168184.78249 -15715463.51846  21521775.733    21521775.334
 -23708599.49749 -18474228.24247  20569955.614    20569955.472
 -11420548.89248  -8899130.30944  23168224.974    23168224.720
  -2878367.37949  -2242882.83345  23065979.305    23065978.902
 -11749487.64149  -9155442.19246  21537564.576    21537564.944
    987672.34848    769615.24445  23777305.220    23777307.320
  -8582938.32448  -6688003.99145  23011803.704    23011803.545
 02  1  5  0 10 30.0000000  0  8G 1G20G25G11G14G29G30G22
  -7515469.00348  -5856206.92645  23667873.468    23667878.266
 -20236222.87449 -15768480.21146  21508828.384    21508828.370
 -23685617.19349 -18456319.94747  20574329.045    20574328.970
 -11351364.70748  -8845220.56444  23181390.791    23181389.491
  -2801764.77648  -2183192.51345  23080555.867    23080556.435
 -11696374.41149  -9114055.28346  21547671.826    21547672.395
   1047388.71848    816147.48444  23788668.347    23788669.902
  -8692823.38048  -6773628.71145  22990893.187    22990892.802
 02  1  5  0 11  0.0000000  0  8G 1G20G25G11G14G29G30G22
  -7595213.69248  -5918345.59645  23652700.441    23652700.641
 -20303874.16749 -15821195.50046  21495955.268    21495954.709
 -23662233.38149 -18438098.79247  20578778.639    20578778.428
 -11281873.49748  -8791071.57744  23194614.330    23194614.466
  -2725042.53548  -2123408.96845  23095155.842    23095155.638
 -11643063.69749  -9072514.48146  21557816.182    21557816.517
   1107596.87848    863062.91144  23800126.209    23800126.397
  -8802551.84348  -6859131.39145  22970012.804    22970014.929
 02  1  5  0 11 30.0000000  0  8G 1G20G25G11G14G29G30G22
  -7674902.76248  -5980440.93745  23637534.658    23637537.634
 -20371147.03549 -15873615.91846  21483153.081    21483152.857
 -23638460.02749 -18419574.09547  20583302.591    20583302.341
 -11212089.19748  -8736694.20544  23207893.566    23207894.538
  -2648212.06049  -2063541.07745  23109776.803    23109776.297
 -11589566.62949  -9030828.48546  21567996.690    21567997.225
   1168284.02348    910351.59044  23811673.339    23811674.260
  -8912131.34548  -6944518.03345  22949159.959    22949160.828
 02  1  5  0 12  0.0000000  0  8G 1G20G25G11G14G29G30G22
  -7754525.36148  -6042484.50045  23622382.316    23622383.709
 -20438028.57149 -15925731.39746  21470426.411    21470426.180
 -23614287.71749 -18400738.52947  20587902.806    20587902.579
 -11142003.72348  -8682082.17644  23221230.994    23221230.377
  -2571262.98748  -2003580.78445  23124418.787    23124419.546
 -11535872.71849  -8988989.08846  21578214.438    21578214.629
   1229458.77348    958020.17744  23823315.471    23823316.050
  -9021548.08748  -7029777.83245  22928338.953    22928340.800
 02  1  5  0 12 30.0000000  0  8G 1G20G25G11G14G29G30G22
  -7834070.01848  -6104467.32145  23607245.449    23607249.534
 -20504505.29349 -15977531.44046  21457776.779    21457776.333
 -23589706.87849 -18381584.63047  20592580.313    20592580.007
 -11071608.99248  -8627229.15744  23234626.328    23234623.155
  -2494184.68148  -1943519.80445  23139086.582    23139086.265
 -11481970.92249  -8946987.70846  21588471.497    21588471.969
   1291130.28448   1006075.89144  23835051.328    23835052.766
  -9130787.60548  -7114899.53845  22907551.219    22907552.729
 02  1  5  0 13  0.0000000  0  8G 1G20G25G11G14G29G30G22
  -7913530.49648  -6166384.55645  23592125.085    23592127.372
 -20570569.02749 -16029009.67546  21445204.458    21445204.046
 -23564713.30949 -18362109.12047  20597336.317    20597336.161
 -11000901.96348  -8572132.78244  23248080.848    23248081.804
  -2416971.76548  -1883353.91645  23153779.971    23153780.320
 -11427855.74449  -8904820.06646  21598769.023    21598769.505
   1353302.42748   1054521.70244  23846882.022    23846882.527
  -9239840.78148  -7199876.03545  22886799.349    22886800.703
 02  1  5  0 13 30.0000000  0  8G 1G20G25G11G14G29G30G22
  -7992925.29448  -6228250.63045  23577017.980    23577020.285
 -20636236.29549 -16080178.97446  21432708.516    21432708.413
 -23539326.87349 -18342327.48647  20602167.258    20602167.074
 -10929904.30948  -8516809.96544  23261591.749    23261590.576
  -2339643.35648  -1823098.01445  23168494.400    23168494.633
 -11373546.24849  -8862501.00546  21609104.017    21609104.482
   1415954.15348   1103341.24144  23858804.226    23858803.347
  -9348723.28048  -7284719.54945  22866079.626    22866080.029
 02  1  5  0 14  0.0000000  0  8G 1G20G25G11G14G29G30G22
  -8072239.39548  -6290053.81545  23561923.304    23561926.500
 -20701490.27049 -16131026.22346  21420291.022    21420290.681
 -23513534.59049 -18322229.60747  20607075.352    20607075.144
 -10858604.72248  -8461251.85544  23275159.936    23275157.565
  -2262185.65248  -1762741.38745  23183234.790    23183235.114
 -11319027.88149  -8820019.18046  21619478.538    21619479.179
   1479098.11448   1152544.34244  23870819.948    23870820.529
  -9457417.37248  -7369416.23745  22845395.685    22845394.626
 02  1  5  0 14 30.0000000  0  8G 1G20G25G11G14G29G30G22
  -8151486.69248  -6351804.92245  23546843.035    23546845.862
 -20766342.82749 -16181560.68346  21407950.038    21407950.056
 -23487352.36849 -18301827.88247  20612057.633    20612057.333
 -10787019.74948  -8405471.37144  23288781.595    23288780.215
  -2184613.08248  -1702295.25745  23197996.386    23197995.905
 -11264315.40949  -8777386.11046  21629889.768    21629890.118
   1542717.81048   1202118.07744  23882927.111    23882928.493
  -9565933.88948  -7453974.54545  22824745.718    22824746.739
 02  1  5  0 15  0.0000000  0  8G 1G20G25G11G14G29G30G22
  -8230659.84948  -6413498.29145  23531779.039    23531778.368
 -20830784.45849 -16231774.93846  21395687.329    21395687.347
 -23460774.30949 -18281117.71247  20617115.337    20617115.206
 -10715145.18048  -8349465.26344  23302458.776    23302458.767
  -2106918.46248  -1641754.01045  23212780.834    23212779.422
 -11209401.68049  -8734596.21246  21640339.720    21640340.002
   1606818.31548   1252066.55044  23895124.915    23895126.307
  -9674262.51448  -7538386.46745  22804131.566    22804133.819
 02  1  5  0 15 30.0000000  0  8G 1G20G25G11G14G29G30G22
  -8309757.96148  -6475133.16845  23516725.769    23516728.893
 -20894812.37849 -16281666.82346  21383503.028    21383503.055
 -23433801.07249 -18260099.61047  20622248.275    20622247.953
 -10642983.20448  -8293235.17044  23316191.713    23316189.736
  -2029102.08948  -1581117.89845  23227589.296    23227589.829
 -11154286.27449  -8691649.16146  21650827.858    21650828.238
   1671398.29048   1302388.57344  23907413.428    23907416.443
  -9782399.44648  -7622649.00445  22783553.694    22783554.893
 02  1  5  0 16  0.0000000  0  8G 1G20G25G11G14G29G30G22
  -8388778.45748  -6536707.56545  23501689.588    23501690.281
 -20958422.02949 -16331232.78246  21371398.600    21371398.354
 -23406432.03749 -18238773.09447  20627456.434    20627456.138
 -10570534.72348  -8236781.79844  23329977.791    23329975.041
  -1951162.07548  -1520385.43045  23242420.464    23242421.191
 -11098967.12149  -8648543.35046  21661354.936    21661354.973
   1736457.73248   1353084.25744  23919794.254    23919793.857
  -9890339.22248  -7706757.91845  22763013.526    22763015.021
 02  1  5  0 16 30.0000000  0  8G 1G20G25G11G14G29G30G22
  -8467726.31648  -6598225.36245  23486665.920    23486667.400
 -21021616.29749 -16380475.07246  21359373.207    21359373.167
 -23378673.93249 -18217143.40547  20632738.362    20632738.101
 -10497808.02148  -8180111.69144  23343817.263    23343819.267
  -1873104.04348  -1459561.01745  23257274.817    23257274.431
 -11043449.95249  -8605283.22446  21671919.731    21671920.001
   1801989.21448   1404147.73344  23932264.397    23932263.051
  -9998083.89448  -7790714.80545  22742510.384    22742511.539
 02  1  5  0 17  0.0000000  0  8G 1G20G25G11G14G29G30G22
  -8546598.06248  -6659683.85445  23471657.144    23471658.763
 -21084390.15549 -16429389.76446  21347428.123    21347427.824
 -23350525.09649 -18195209.24547  20638095.097    20638094.708
 -10424803.00348  -8123224.68144  23357710.669    23357710.759
  -1794925.51848  -1398642.70145  23272151.758    23272151.567
 -10987731.88349  -8561866.55646  21682521.978    21682521.837
   1867993.42648   1455579.58944  23944824.623    23944825.926
 -10105627.25948  -7874514.82145  22722045.595    22722046.583
 02  1  5  0 17 30.0000000  0  8G 1G20G25G11G14G29G30G22
  -8625397.60648  -6721086.07345  23456662.415    23456663.906
 -21146745.28349 -16477978.18046  21335561.811    21335561.705
 -23321991.47449 -18172975.25447  20643525.030    20643524.785
 -10351526.82748  -8066126.38744  23371653.756    23371656.979
  -1716631.22948  -1337634.17645  23287050.283    23287051.285
 -10931817.52849  -8518296.94746  21693162.098    21693162.663
   1934464.05048   1507374.86644  23957473.416    23957475.024
 -10212970.20348  -7958158.68145  22701618.942    22701619.176
 02  1  5  0 18  0.0000000  0  8G 1G20G25G11G14G29G30G22
  -8704118.05148  -6782426.66845  23441682.098    23441684.166
 -21208672.93449 -16526233.49146  21323777.209    21323777.070
 -23293067.86449 -18150437.38147  20649028.849    20649028.505
 -10277975.54648  -8008813.73644  23385649.856    23385650.298
  -1638214.94348  -1276530.60145  23301972.737    23301973.447
 -10875700.15249  -8474569.14746  21703840.948    21703841.231
   2001405.55848   1559537.04444  23970211.439    23970212.701
 -10320102.89348  -8041638.69345  22681232.212    22681232.090
 02  1  5  0 18 30.0000000  0  8G 1G20G25G11G14G29G30G22
  -8782751.31148  -6843699.32445  23426718.410    23426721.052
 -21270163.26349 -16574148.03346  21312076.642    21312076.497
 -23263748.21149 -18127590.90147  20654608.429    20654608.088
 -10204144.75848  -7951283.29144  23399699.990    23399700.111
  -1559669.41048  -1215326.27645  23316919.622    23316918.559
 -10819372.58049  -8430677.54446  21714559.901    21714560.288
   2068823.33748   1612070.40844  23983040.742    23983040.699
 -10427014.42548  -8124946.38445  22660887.676    22660889.115
 02  1  5  0 19  0.0000000  0  8G 1G20G25G11G14G29G30G22
  -8861307.27148  -6904911.75245  23411770.544    23411771.907
 -21331224.33549 -16621728.09246  21300456.627    21300456.498
 -23234043.84749 -18104444.64647  20660261.021    20660260.777
 -10130047.44948  -7893545.14244  23413800.204    23413798.741
  -1481005.26548  -1154029.55845  23331888.401    23331888.543
 -10762845.06549  -8386630.15046  21725316.702    21725317.147
   2136705.05148   1664965.22344  23995959.002    23995956.860
 -10533711.86748  -8208087.25345  22640583.438    22640585.447
 02  1  5  0 19 30.0000000  0  8G 1G20G25G11G14G29G30G22
  -8939799.95748  -6966074.87345  23396833.593    23396835.845
 -21391868.08649 -16668982.96546  21288916.322    21288916.132
 -23203970.86649 -18081011.16347  20665983.536    20665983.170
 -10055701.04048  -7835612.89744  23427947.480    23427948.105
  -1402237.27648  -1092651.92645  23346877.639    23346877.447
 -10706132.33749  -8342438.43246  21736108.623    21736108.714
   2205033.86048   1718208.51244  24008960.933    24008963.862
 -10640206.23748  -8291069.87345  22620318.019    22620320.111
 02  1  5  0 20  0.0000000  0  8G 1G20G25G11G14G29G30G22
  -9018220.37748  -7027181.67345  23381910.798    23381911.987
 -21452083.90949 -16715904.38847  21277458.216    21277458.061
 -23173522.62749 -18057285.26247  20671777.658    20671777.414
  -9981100.12448  -7777482.33044  23442143.455    23442147.164
  -1323357.44648  -1031187.13245  23361888.520    23361887.213
 -10649226.21049  -8298096.01846  21746937.996    21746938.456
   2273816.09448   1771805.02244  24022049.742    24022052.994
 -10746485.97248  -8373885.26145  22600094.281    22600095.674
 02  1  5  0 20 30.0000000  0  8G 1G20G25G11G14G29G30G22
  -9096553.50248  -7088220.45045  23367004.102    23367005.632
 -21511855.01549 -16762479.27747  21266084.016    21266083.769
 -23142685.24949 -18033256.14047  20677645.917    20677645.760
  -9906232.63948  -7719144.08944  23456390.343    23456391.021
  -1244351.49048   -969624.07245  23376922.350    23376920.632
 -10592112.08749  -8253591.52246  21757805.992    21757806.750
   2343064.22348   1825764.63144  24035227.651    24035229.653
 -10852533.03448  -8456519.34145  22579913.531    22579914.529
 02  1  5  0 21  0.0000000  0  8G 1G20G25G11G14G29G30G22
  -9174796.93448  -7149189.32245  23352114.711    23352116.547
 -21571176.58749 -16808703.87947  21254795.599    21254795.391
 -23111458.55949 -18008923.66247  20683588.101    20683587.877
  -9831099.59448  -7660598.87744  23470687.830    23470685.771
  -1165217.60448   -907961.30245  23391981.105    23391981.132
 -10534787.95149  -8208923.38146  21768714.337    21768715.065
   2412778.18048   1880087.13244  24048492.342    24048496.737
 -10958341.85348  -8538967.76745  22559779.960    22559780.595
 02  1  5  0 21 30.0000000  0  8G 1G20G25G11G14G29G30G22
  -9252950.81948  -7210088.41445  23337242.451    23337244.543
 -21630047.40449 -16854577.24647  21243592.379    21243592.381
 -23079844.57449 -17984289.39747  20689603.928    20689603.784
  -9755704.42448                  23485034.884
  -1085956.77548   -846199.64645  23407063.941    23407063.607
 -10477254.80249  -8164092.37146  21779662.619    21779663.136
   2482954.95848   1934770.33744  24061848.420    24061848.942
 -11063910.03448  -8621228.70045  22539690.789    22539692.174
 02  1  5  0 22  0.0000000  0  8G 1G20G25G11G14G29G30G22
  -9331015.24048  -7270917.80345  23322387.698    23322388.572
 -21688465.84549 -16900098.10947  21232475.952    21232475.942
 -23047845.47649 -17959355.04147  20695693.109    20695693.034
  -9680050.63548  -7542898.45644  23499432.257    23499430.532
  -1006569.88548   -784339.75945  23422170.825    23422170.582
 -10419513.24249  -8119098.97346  21790650.335    21790650.999
   2553591.70048   1989812.02144  24075289.153    24075291.602
 -11169234.72948  -8703299.89245  22519648.000    22519648.314
 02  1  5  0 22 30.0000000  0  8G 1G20G25G11G14G29G30G22
  -9409019.45448  -7331700.27545  23307543.252    23307545.382
 -21746459.11749 -16945287.66847  21221440.289    21221440.030
 -23015492.08849 -17934144.61147  20701849.767    20701849.664
  -9604170.94948  -7483771.41444  23513870.539    23513870.051
   -927087.03548   -722405.07345  23437295.607    23437295.832
 -10361593.08449  -8073966.40146  21801672.514    21801673.312
   2624656.55348   2045187.17744  24088813.143    24088812.859
 -11274342.45849  -8785202.02045  22499646.807    22499648.716
 02  1  5  0 23  0.0000000  0  8G 1G20G25G11G14G29G30G22
  -9486981.43848  -7392449.83745  23292707.808    23292709.802
 -21804043.51749 -16990158.63247  21210482.310    21210482.146
 -22982804.35149 -17908673.65047  20708069.987    20708070.145
  -9528086.45148  -7424484.81444  23528349.193    23528348.755
   -847526.97548   -660410.25045  23452435.475    23452435.406
 -10303513.08849  -8028709.28146  21812724.619    21812725.184
   2696128.76748   2100879.84244  24102413.618    24102413.256
 -11379248.14648  -8866946.71545  22479683.252    22479684.544
 02  1  5  0 23 30.0000000  0  8G 1G20G25G11G14G29G30G22
  -9564845.28248  -7453122.92345  23277891.315    23277893.561
 -21861161.40149 -17034666.07347  21199613.040    21199613.135
 -22949728.66049 -17882900.38547  20714364.146    20714364.100
  -9451744.68048  -7364997.74944  23542876.434    23542878.181
   -767834.65448   -598312.34645  23467600.937    23467600.695
 -10245217.90949  -7983284.47946  21823817.706    21823818.086
   2768061.61148   2156931.40644  24116101.304    24116106.575
 -11483893.15048  -8948488.26245  22459769.905    22459771.054
 02  1  5  0 24  0.0000000  0  8G 1G20G25G11G14G29G30G22
  -9642613.70048  -7513721.65745  23263092.349    23263092.769
 -21917813.46049 -17078810.53347  21188832.722    21188832.767
 -22916269.34749 -17856828.20047  20720731.265    20720731.276
  -9375151.78848  -7305314.99044  23557451.520    23557449.799
   -688013.27348   -536113.89745  23482790.112    23482789.632
 -10186710.68049  -7937694.44546  21834951.750    21834951.577
   2840449.67748                  24129876.688
 -11588277.04249  -9029826.36145  22439906.855    22439907.526
 02  1  5  0 24 30.0000000  0  8G 1G20G25G11G14G29G30G22
  -9720297.53448  -7574254.49345  23248309.163    23248310.521
 -21974008.66949 -17122599.00747  21178138.986    21178138.893
 -22882439.31449 -17830467.13847  20727168.387    20727168.701
  -9298321.81448  -7245447.54544  23572072.470    23572074.585
   -608074.82348   -473824.21045  23498001.868    23498002.123
 -10128002.73849  -7891948.02146  21846123.181    21846123.745
   2913279.30548   2270088.05344  24143734.674    24143737.861
 -11692408.00249  -9110967.36645  22420091.182    22420092.954
 02  1  5  0 25  0.0000000  0  8G 1G20G25G11G14G29G30G22
  -9797894.09048  -7634719.30145  23233542.635    23233545.719
 -22029742.83149 -17166028.22147  21167533.030    21167532.774
 -22848237.97449 -17803816.74347  20733676.714    20733676.897
  -9221255.62848                  23586735.710
   -528017.14148   -411441.61345  23513236.574    23513237.536
 -10069092.30349  -7846043.80746  21857333.542    21857333.931
   2986550.42748   2327182.45444  24157678.740    24157680.566
 -11796280.47949  -9191906.95645  22400324.843    22400325.539
 02  1  5  0 25 30.0000000  0  8G 1G20G25G11G14G29G30G22
  -9875402.34348  -7695115.29445  23218793.995    23218794.646
 -22085013.24649 -17209096.07447  21157015.426    21157015.228
 -22813665.91349 -17776877.47047  20740255.963    20740255.985
  -9143955.60648                  23601446.746
   -447840.33948   -348966.19045  23528493.383    23528493.961
 -10009978.80849  -7799981.35946  21868582.792    21868582.595
   3060261.13248   2384619.40544  24171704.986    24171706.397
 -11899890.63849  -9272642.15345  22380608.502    22380610.243
 02  1  5  0 26  0.0000000  0  8G 1G20G25G11G14G29G30G22
  -9952833.05348  -7755450.87645  23204059.654    23204060.775
 -22139828.88349 -17251809.55547  21146584.453    21146584.648
 -22778735.82749 -17749659.21547  20746902.915    20746902.851
  -9066435.59547                  23616196.364
   -367555.63748   -286406.69245  23543771.745    23543771.274
  -9950673.54549  -7753769.47646  21879868.063    21879868.268
   3134398.03248   2442388.37544  24185812.824    24185813.165
 -12003246.27949  -9353179.00445  22360940.560    22360941.925
 02  1  5  0 26 30.0000000  0  8G 1G20G25G11G14G29G30G22
 -10030187.42848  -7815726.98145  23189339.217    23189341.068
 -22194189.14549 -17294168.20147  21136240.092    21136239.783
 -22743451.13649 -17722164.64647  20753617.309    20753617.324
  -8988700.54348                  23630991.041
   -287165.58548   -223765.11345  23559068.631    23559069.495
  -9891178.63249  -7707409.82846  21891189.337    21891189.770
   3208956.89348   2500486.15144  24200000.799    24200000.455
 -12106346.02249  -9433516.46745  22341321.352    22341322.347
 02  1  5  0 27  0.0000000  0  8G 1G20G25G11G14G29G30G22
 -10107457.40248  -7875937.30145  23174635.328    23174636.594
 -22248084.51049 -17336164.58847  21125984.139    21125984.104
 -22707805.92849 -17694389.15847  20760400.531    20760400.360
  -8910745.76748                  23645825.498
   -206662.59948   -161035.51645  23574388.374    23574388.171
  -9831486.58949  -7660896.56546  21902548.635    21902549.137
   3283943.09348   2558916.96744  24214269.670    24214272.003
 -12209178.94649  -9513646.00945  22321752.791    22321754.759
 02  1  5  0 27 30.0000000  0  8G 1G20G25G11G14G29G30G22
 -10184638.16948  -7936078.11745  23159948.543    23159948.770
 -22301508.50049 -17377793.67147  21115817.964    21115817.922
 -22671797.51249 -17666330.64747  20767252.826    20767253.012
  -8832570.05348                  23660701.674
   -126042.90148    -98214.96345  23589729.812    23589730.542
  -9771593.38349  -7614226.55846  21913945.935    21913946.258
   3359358.37448   2617682.16244  24228622.491    24228622.823
 -12311737.51249  -9593561.77245  22302236.725    22302238.640
 02  1  5  0 28  0.0000000  0  8G 1G20G25G11G14G29G30G22
 -10261733.90148  -7996152.70445  23145276.882    23145278.627
 -22354463.63949 -17419057.41547  21105741.133    21105740.947
 -22635432.08349 -17637993.94447  20774172.653    20774172.737
  -8754180.99748                  23675618.689
    -45311.44048    -35307.35445  23605091.953    23605092.375
  -9711503.74749  -7567403.48746  21925380.304    21925380.735
   3435195.70048   2676776.14844  24243053.162    24243058.059
 -12414023.05549  -9673264.78745  22282772.192    22282773.576
 02  1  5  0 28 30.0000000  0  8G 1G20G25G11G14G29G30G22
 -10338750.34348  -8056165.49545  23130621.863    23130624.216
 -22406954.05049 -17459959.03147  21095752.226    21095752.258
 -22598717.20949 -17609384.94547  20781159.490    20781159.499
  -8675587.53648  -6760200.14244  23690573.594    23690574.693
     35525.10248     27682.14445  23620475.617    23620473.777
  -9651224.24949  -7520432.46946  21936851.397    21936851.451
   3511446.41148   2736192.26944  24257563.858    24257565.461
 -12516038.43749  -9752757.29545  22263359.442    22263362.012
 02  1  5  0 29  0.0000000  0  8G 1G20G25G11G14G29G30G22
 -10415679.24148  -8116110.06645  23115982.688    23115983.692
 -22458969.49049 -17500490.54547  21085853.836    21085853.932
 -22561646.38549 -17580498.58847  20788213.753    20788213.733
  -8596784.85748                  23705570.851
    116474.09148     90759.27845  23635878.597    23635878.138
  -9590746.78649  -7473307.19246  21948360.340    21948361.081
   3588116.05048   2795934.85144  24272153.104    24272152.856
 -12617772.59649  -9832030.67245  22243999.865    22244001.186
 02  1  5  0 29 30.0000000  0  8G 1G20G25G11G14G29G30G22
 -10492534.19248  -8175997.01845  23101357.295    23101358.309
 -22510522.10349 -17540661.40947  21076043.791    21076043.660
 -22524235.66849 -17551347.38047  20795332.813    20795332.841
  -8517789.90648                  23720602.892
    197521.68148    153913.20545  23651301.848    23651302.415
  -9530085.72549  -7426038.84646  21959903.252    21959903.968
   3665188.16548   2855991.05744  24286819.697    24286823.338
 -12719236.19549  -9911093.21745  22224692.206    22224693.251
 02  1  5  0 30  0.0000000  0  8G 1G20G25G11G14G29G30G22
 -10569305.51549  -8235818.80145  23086748.956    23086750.086
 -22561600.73849 -17580462.93947  21066323.952    21066323.837
 -22486477.40349 -17521925.35147  20802518.136    20802518.222
  -8438596.99848                  23735672.570
    278676.28248    217150.56045  23666745.496    23666745.710
  -9469232.27849  -7378620.59846  21971482.971    21971483.462
   3742669.22748   2916365.88144  24301564.243    24301564.848
 -12820416.93549  -9989935.34845  22205437.929    22205439.672
 02  1  5  0 30 30.0000000  0  8G 1G20G25G11G14G29G30G22
 -10645974.86948  -8295561.11745  23072158.079    23072160.139
 -22612185.36749 -17619879.53047  21056697.824    21056697.674
 -22448355.35649 -17492219.85247  20809772.271    20809772.410
  -8359190.81748                  23750782.011
    359955.31048    280484.86645  23682211.896    23682210.054
  -9408168.78749  -7331038.67146  21983103.662    21983103.793
   3820574.53648   2977071.30444  24316388.096    24316390.216
 -12921293.77949 -10068540.67346  22186242.143    22186243.268
 02  1  5  0 31  0.0000000  0  8G 1G20G25G11G14G29G30G22
 -10722537.34948  -8355220.15945  23057588.800    23057590.012
 -22662269.54149 -17658906.15847  21047167.164    21047167.181
 -22409866.55449 -17462228.57247  20817096.362    20817096.583
  -8279570.02148                  23765935.814
    441362.84948    343919.31545  23697703.020    23697704.184
  -9346891.10449  -7283289.85046  21994764.183    21994764.657
   3898906.42248   3038109.18744  24331295.296    24331294.095
 -13021858.95849 -10146903.14546  22167105.250    22167106.304
 02  1  5  0 31 30.0000000  0  8G20G 1G25G11G14G29G30G22
 -22711872.63449 -17697557.91947  21037728.261    21037728.046
 -10799013.74549  -8414812.12445  23043036.353    23043037.202
 -22371033.58849 -17431969.11647  20824485.791    20824486.101
  -8199759.00348                  23781121.764
    522877.06548    407436.85345  23713215.105    23713217.471
  -9285420.45649  -7235390.66146  22006461.648    22006461.808
   3977640.85748   3099460.72644  24346277.659    24346277.229
 -13122130.59849 -10225036.88046  22148024.148    22148025.085
 02  1  5  0 32  0.0000000  0  8G20G 1G25G11G14G29G30G22
 -22760994.85349 -17735834.97347  21028380.323    21028380.370
 -10875405.92848  -8474338.46645  23028499.086    23028500.885
 -22331860.73849 -17401444.81547  20831940.531    20831940.674
  -8119762.97748                  23796344.894
    604495.52748    471035.66645  23728746.931    23728745.861
  -9223759.53049  -7187343.20346  22018195.050    22018195.598
   4056773.04548   3161122.16844  24361335.032    24361336.375
 -13222107.65349 -10302941.07546  22128998.852    22128998.901
 02  1  5  0 32 30.0000000  0  8G20G 1G25G11G14G29G30G22
 -22809633.14649 -17773734.93947  21019124.784    21019125.042
 -10951712.43549  -8533798.05045  23013979.336    23013979.660
 -22292348.56649 -17370656.10747  20839459.342    20839459.438
  -8039584.06048                  23811603.176
    686218.78148    534716.12345  23744297.833    23744299.339
  -9161907.47849  -7139146.80946  22029965.562    22029965.992
   4136301.38948   3223092.29344  24376469.671    24376469.408
 -13321785.91649 -10380612.44246  22110030.889    22110031.849
 02  1  5  0 33  0.0000000  0  8G20G 1G25G11G14G29G30G22
 -22857773.28049 -17811246.72947  21009964.370    21009964.137
 -11027920.64849  -8593181.06145  22999477.008    22999478.145
 -22252486.25349 -17339594.56347  20847044.584    20847044.625
  -7959212.68648                  23826897.328
    768058.53448    598487.34945  23759871.814    23759871.301
  -9099852.22949  -7090792.08246  22041774.083    22041774.525
   4216235.78848   3285378.90044  24391680.687    24391683.473
 -13421149.86249 -10458038.88046  22091122.299    22091123.418
 02  1  5  0 33 30.0000000  0  8G20G 1G25G11G14G29G30G22
 -22905412.56349 -17848368.24847  21000898.899    21000898.836
 -11104029.44648  -8652486.58345  22984993.005    22984995.056
 -22212275.02549 -17308261.13247  20854696.703    20854696.803
  -7878651.45448                  23842226.754
    850015.19448    662349.65545  23775467.611    23775466.408
  -9037593.38049  -7042278.70346  22053621.486    22053621.936
   4296574.14648   3347980.19544  24406969.267    24406968.462
 -13520195.78049 -10535217.50846  22072274.600    22072275.457
 02  1  5  0 34  0.0000000  0  8G20G 1G25G11G14G29G30G22
 -22952560.50049 -17885106.90147  20991926.790    20991926.736
 -11180049.50649  -8711722.97245  22970528.445    22970529.026
 -22171727.47649 -17276665.64547  20862412.653    20862412.655
  -7797914.55448                  23857590.079
    932077.01348    726293.94245  23791083.020    23791083.194
  -8975142.47949  -6993615.68246  22065505.700    22065506.414
   4377302.71348   3410885.62544  24422330.010    24422332.064
 -13618931.64649 -10612154.53246  22053486.095    22053487.744
 02  1  5  0 34 30.0000000  0  8G 1G20G25G11G14G29G30G22
 -11255998.02848  -8770903.62045  22956074.115    22956075.430
 -22999232.87949 -17921474.98547  20983045.301    20983045.265
 -22130863.32849 -17244823.45347  20870188.864    20870188.831
  -7717022.80948                  23872984.463
   1014225.82148    790305.98245  23806716.236    23806716.840
  -8912517.56349  -6944817.06346  22077422.649    22077423.047
   4458401.12848   3474079.18644  24437762.913    24437763.474
 -13717372.05649 -10688861.33446  22034753.336    22034754.715
 02  1  5  0 35  0.0000000  0  8G 1G20G25G11G14G29G30G22
 -11331852.18748  -8830010.72845  22941639.962    22941641.384
 -23045405.14849 -17957453.37847  20974259.199    20974259.224
 -22089661.65649 -17212718.25247  20878029.404    20878029.264
  -7635956.73347                  23888407.774
   1096483.85448    854403.14045  23822369.074    23822369.057
  -8849696.25249  -6895865.40346  22089377.280    22089377.763
   4539889.24548   3537576.42244  24453270.138    24453271.723
 -13815491.19349 -10765317.78846  22016082.256    22016083.219
 02  1  5  0 35 30.0000000  0  8G 1G20G25G11G14G29G30G22
 -11407599.11149  -8889034.28545  22927227.052    22927227.832
 -23091063.17549 -17993031.05547  20965570.543    20965570.403
 -22048111.74749 -17180341.70147  20885936.115    20885936.110
  -7554707.12648                  23903872.002
   1178862.79648    918594.49545  23838045.107    23838045.237
  -8786666.51849  -6846751.33546  22101371.655    22101371.754
   4621776.97748   3601385.03744  24468852.036    24468854.791
 -13913273.63849 -10841511.88746  21997474.091    21997475.527
 02  1  5  0 36  0.0000000  0  8G 1G20G25G11G14G29G30G22
 -11483249.56648  -8947982.66145  22912829.384    22912830.714
 -23136216.52149 -18028215.47947  20956978.262    20956978.309
 -22006226.46049 -17147703.81947  20893906.772    20893906.541
  -7473288.30747                  23919364.170
   1261350.84248    982870.90245  23853741.828    23853740.833
  -8723439.98249  -6797483.92446  22113403.012    22113403.791
   4704050.24548   3665494.08944  24484508.600    24484510.323
 -14010727.65649 -10917450.08246  21978929.688    21978930.406
 02  1  5  0 36 30.0000000  0  8G 1G20G25G11G14G29G30G22
 -11558805.61649  -9006857.48145  22898453.723    22898453.520
 -23180865.54049 -18063006.92347  20948481.813    20948481.780
 -21964010.02849 -17114807.90347  20901940.311    20901940.139
  -7391705.77147                  23934888.750
   1343945.12948   1047230.07045  23869459.912    23869459.321
  -8660019.38449  -6748065.28646  22125471.554    22125472.390
   4786703.81848   3729899.50444  24500236.985    24500238.540
 -14107852.45149 -10993131.72646  21960447.116    21960448.633
 02  1  5  0 37  0.0000000  0  7G 1G20G25G14G29G30G22
 -11634267.13548  -9065658.65445  22884092.493    22884094.846
 -23225008.78349 -18097404.25247  20940081.364    20940081.400
 -21921464.69049 -17081655.69447  20910036.257    20910036.119
   1426645.02148   1111671.51045  23885196.053    23885196.941
  -8596405.32349  -6698495.91746  22137577.038    22137577.582
   4869734.96748   3794599.10344  24516037.450    24516040.527
 -14204645.29049 -11068554.70646  21942028.014    21942029.078
 02  1  5  0 37 30.0000000  0  8G 1G20G25G11G14G29G30G22
 -11709627.78448  -9124381.19345  22869751.305    22869753.036
 -23268638.60349 -18131401.51447  20931779.145    20931778.981
 -21878585.92549 -17048243.66647  20918195.840    20918195.695
         -.85057                  23966030.410
   1509455.97748   1176199.52845  23900954.941    23900954.646
  -8532592.03949  -6648771.29846  22149720.331    22149720.724
   4953146.73248   3859595.36144  24531910.202    24531910.974
 -14301097.07949 -11143711.93846  21923674.014    21923675.253
 02  1  5  0 38  0.0000000  0  7G 1G20G25G14G29G30G22
 -11784897.98049  -9183033.27745  22855430.052    22855430.353
 -23311764.11749 -18165005.80847  20923572.550    20923572.567
 -21835386.43749 -17014581.72747  20926416.449    20926416.534
   1592366.40348   1240805.02945  23916732.423    23916732.331
  -8468590.80049  -6598900.23046  22161899.148    22161899.958
   5036925.65648   3924877.59844  24547852.006    24547853.004
 -14397215.72149 -11218609.56246  21905383.088    21905384.962
 02  1  5  0 38 30.0000000  0  8G 1G20G25G11G14G29G30G22
 -11860084.27048  -9241619.96645  22841120.619    22841121.821
 -23354390.70549 -18198221.33247  20915461.135    20915461.114
 -21791875.06749 -16980676.76847  20934696.576    20934696.567
         -.62157                  23997286.539
   1675368.92248   1305482.30945  23932526.478    23932527.483
  -8404409.09149  -6548888.51546  22174113.147    22174113.556
   5121061.85748   3990438.32644  24563863.242    24563865.926
 -14493004.99449 -11293250.54946  21887155.241    21887155.969
 02  1  5  0 39  0.0000000  0  8G 1G20G25G11G14G29G30G22
 -11935182.01848  -9300137.65945  22826830.169    22826831.810
 -23396512.22349 -18231043.29347  20907445.874    20907445.770
 -21748049.45349 -16946526.94147  20943036.182    20943036.224
     82333.61947                  24012953.536
   1758467.06348   1370234.07945  23948340.691    23948340.252
  -8340042.81249  -6498732.98346  22186361.350    22186361.887
   5205556.91148   4056278.68944  24579941.713    24579941.160
 -14588457.57149 -11367629.17446  21868990.671    21868992.329
 02  1  5  0 39 30.0000000  0  8G 1G20G25G11G14G29G30G22
 -12010176.70449  -9358575.03745  22812560.242    22812560.946
 -23438112.99149 -18263459.47747  20899529.278    20899529.310
 -21703896.88049 -16912122.34047  20951437.850    20951437.953
    164818.93848                  24028650.331
   1841674.86548   1435071.31145  23964174.583    23964174.180
  -8275478.18349  -6448422.93046  22198647.376    22198647.854
   5290422.27348   4122407.48644  24596090.636    24596091.714
 -14683556.27249 -11441732.04546  21850894.714    21850896.314
 02  1  5  0 40  0.0000000  0  8G 1G20G25G11G14G29G30G22
 -12085074.48848  -9416936.92846  22798306.141    22798307.914
 -23479197.68449 -18295473.52547  20891711.015    20891710.852
 -21659425.54549 -16877469.35047  20959900.544    20959900.782
    247445.82748                  24044373.776
   1924985.07048   1499988.36145  23980027.455    23980026.538
  -8210722.15449  -6397963.69046  22210970.531    22210970.114
   5375648.59148   4188817.69644  24612309.636    24612310.268
 -14778304.70549 -11515561.99146  21832864.149    21832865.538
 02  1  5  0 40 30.0000000  0  8G 1G20G25G11G14G29G30G22
 -12159870.86749  -9475219.79746  22784073.643    22784074.627
 -23519760.75449 -18327081.11047  20883991.909    20883991.843
 -21614633.35549 -16842566.34747  20968424.296    20968424.244
    330215.09948                  24060124.810
   2008401.29248   1564987.98545  23995900.621    23995901.276
  -8145771.08049  -6347352.48646  22223330.065    22223330.578
   5461237.01448   4255509.99944  24628595.896    24628597.229
 -14872695.79949 -11589113.48746  21814902.461    21814903.930
 02  1  5  0 41  0.0000000  0  8G 1G20G25G11G14G29G30G22
 -12234569.26049  -9533426.32546  22769859.273    22769860.054
 -23559804.66549 -18358284.15947  20876371.950    20876371.948
 -21569526.01449 -16807417.77247  20977007.999    20977007.954
    413119.56548                  24075901.499
   2091918.73948   1630066.49845  24011794.274    24011795.709
  -8080629.31449  -6296592.67946  22235725.829    22235726.172
   5547180.85148   4322479.24544  24644950.290    24644950.761
 -14966730.54649 -11662387.31146  21797007.928    21797009.468
 02  1  5  0 41 30.0000000  0  8G 1G20G25G11G14G29G30G22
 -12309158.04948  -9591547.43546  22755663.069    22755665.203
 -23599316.10149 -18389072.29247  20868853.433    20868853.267
 -21524093.96349 -16772016.17947  20985653.080    20985653.103
    496167.67848                  24091704.274
   2175548.51748   1695232.51745  24027708.472    24027710.841
  -8015285.67549  -6245675.57746  22248160.565    22248161.073
   5633488.83448   4389732.20544  24661374.785    24661377.846
 -15060394.31449 -11735372.05746  21779184.680    21779186.396
 02  1  5  0 42  0.0000000  0  8G 1G20G25G11G14G29G30G22
 -12383642.13949  -9649586.95246  22741492.173    22741492.051
 -23638299.05149 -18419448.61347  20861435.220    20861435.116
 -21478344.76749 -16736367.45747  20994358.979    20994358.975
    579350.61848                  24107532.900
   2259284.43648   1760481.25145  24043642.324    24043640.762
  -7949746.14949  -6194605.82546  22260632.268    22260632.501
   5720152.59148   4457262.42744  24677865.664    24677864.908
 -15153689.76549 -11808069.80146  21761431.143    21761432.571
 02  1  5  0 42 30.0000000  0  8G 1G20G25G11G14G29G30G22
 -12458028.33849  -9707550.20946  22727335.805    22727336.974
 -23676759.21649 -18449417.57247  20854116.198    20854116.087
 -21432287.38749 -16700478.59347  21003123.459    21003123.362
    662658.06548                  24123387.831
   2343118.70548   1825806.65545  24059595.653    24059598.334
  -7884018.41649  -6143389.43246  22273139.623    22273139.541
   5807161.69448   4525061.76644  24694423.354    24694425.733
 -15246621.20049 -11880483.90046  21743746.805    21743748.229
 02  1  5  0 43  0.0000000  0  8G 1G20G25G11G14G29G30G22
 -12532309.92849  -9765431.93546  22713199.707    22713201.801
 -23714688.68049 -18478973.00147  20846898.512    20846898.375
 -21385916.96349 -16664345.79747  21011947.381    21011947.251
    746093.21948                  24139263.892
   2427057.12048   1891213.18545  24075569.043    24075569.435
  -7818096.35949  -6092021.61546  22285684.680    22285685.459
   5894520.15448   4593133.29844  24711046.460    24711050.998
 -15339179.26449 -11952607.05946  21726133.718    21726134.881
 02  1  5  0 43 30.0000000  0  8G 1G20G25G11G14G29G30G22
 -12606479.04349  -9823226.02346  22699087.696    22699088.064
 -23752078.31049 -18508107.77647  20839783.547    20839783.378
 -21339228.15649 -16627964.91247  21020832.193    21020831.885
    829660.33648                  24155165.982
   2511106.53248   1956706.20844  24091562.360    24091562.099
  -7751973.15449  -6040497.05546  22298267.463    22298268.111
   5982232.37148   4661480.52844  24727738.358    24727738.472
 -15431353.47249 -12024431.10746  21708593.209    21708594.303
 02  1  5  0 44  0.0000000  0  8G 1G20G25G11G14G29G30G22
 -12680545.58349  -9880940.19046  22684991.765    22684993.169
 -23788937.02249 -18536828.84947  20832769.531    20832769.219
 -21292233.05349 -16591345.35647  21029775.266    21029774.978
    913345.79648                  24171090.985
   2595256.09548   2022277.25144  24107575.768    24107574.459
  -7685659.32149  -5988823.95746  22310886.123    22310886.368
   6070284.96848   4730092.98744  24744493.143    24744496.480
 -15523151.27049 -12095961.85046  21691125.135    21691126.006
 02  1  5  0 44 30.0000000  0  8G 1G20G25G11G14G29G30G22
 -12754504.97949  -9938570.86546  22670918.399    22670919.042
 -23825259.31149 -18565131.92947  20825857.548    20825857.395
 -21244929.24649 -16554485.25047  21038776.744    21038776.400
    997150.87148                  24187038.860
   2679509.41948   2087929.16645  24123609.530    24123610.123
  -7619151.37249  -5936999.59346  22323542.293    22323542.982
   6158679.44348   4798971.77244  24761314.440    24761313.947
 -15614565.63449 -12167193.81446  21673729.079    21673730.056
 02  1  5  0 45  0.0000000  0  8G 1G20G25G11G14G29G30G22
 -12828357.35149  -9996118.16546  22656865.096    22656865.230
 -23861044.28549 -18593016.32447  20819047.770    20819047.853
 -21197319.10149 -16517386.44247  21047836.668    21047836.345
   1081071.62248                  24203008.111
   2763865.24448   2153660.98844  24139660.638    24139661.992
  -7552449.99949  -5885024.49046  22336235.710    22336236.253
   6247412.42648   4868114.36244  24778200.095    24778203.065
 -15705594.12449 -12238125.08946  21656407.200    21656408.730
 02  1  5  0 45 30.0000000  0  7G 1G20G25G14G29G30G22
 -12902104.81249 -10053583.71046  22642830.451    22642832.066
 -23896292.64349 -18620482.57347  20812340.303    20812340.212
 -21149406.62849 -16480052.04947  21056954.006    21056953.693
   2848320.82948   2219470.48945  24155732.946    24155732.351
  -7485558.15949  -5832900.99946  22348964.519    22348965.071
   6336478.50648   4937516.56344  24795148.202    24795152.725
 -15796236.19449 -12308755.25846  21639158.561    21639159.407
 02  1  5  0 46  0.0000000  0  8G 1G20G25G 4G14G29G30G22
 -12975752.10849 -10110971.19346  22628816.549    22628817.840
 -23931008.32449 -18647533.75347  20805734.304    20805734.462
 -21101199.00649 -16442487.66747  21066127.572    21066127.168
         -.26658                  25324893.813
   2932870.03048   2285352.93044  24171821.719    24171821.986
  -7418481.46349  -5780633.45046  22361728.171    22361728.539
   6425869.59248   5007171.88844  24812158.745    24812163.795
 -15886494.22649 -12379086.18146  21621982.815    21621984.082
 02  1  5  0 46 30.0000000  0  8G 1G20G25G 4G14G29G30G22
 -13049310.27149 -10168289.22746  22614818.753    22614819.333
 -23965201.56549 -18674177.83647  20799227.645    20799227.312
 -21052710.08649 -16404704.09347  21075354.663    21075354.409
    -53250.89148                  25314760.294
   3017500.77548   2351298.94944  24187926.230    24187928.298
  -7351232.08349  -5728231.35246  22374525.799    22374526.630
   6515571.04348                  24829229.622
 -15976377.05949 -12449124.73946  21604878.525    21604880.276
 02  1  5  0 47  0.0000000  0  8G 1G20G25G 4G14G29G30G22
 -13122757.20849 -10225520.57846  22600841.275    22600842.827
 -23998849.23949 -18700396.80047  20792824.434    20792824.486
 -21003920.13749 -16366685.95547  21084639.131    21084639.205
   -106043.10248                  25304714.967
   3102234.33348   2417325.05344  24204051.215    24204050.213
  -7283788.47049  -5675677.89946  22387360.133    22387360.729
   6605602.00748   5147223.21144  24846360.802    24846364.137
 -16065859.82649 -12518851.56546  21587850.693    21587851.628
 02  1  5  0 47 30.0000000  0  8G 1G20G25G 4G14G29G30G22
 -13196085.88449 -10282659.77146  22586888.240    22586889.470
 -24031943.15249 -18726184.26747  20786526.939    20786526.760
 -20954823.66749 -16328428.96947  21093981.824    21093981.962
   -158369.00548                  25294758.303
   3187076.68948   2483435.93944  24220195.415    24220196.161
  -7216144.42449  -5622968.27046  22400232.190    22400232.580
   6695966.02448   5217636.69144  24863557.217    24863557.635
 -16154933.17449 -12588259.35846  21570900.357    21570901.921
 02  1  5  0 48  0.0000000  0  8G 1G20G25G 4G14G29G30G22
 -13269295.67049 -10339706.33746  22572956.778    22572957.382
 -24064481.92349 -18751539.15247  20780335.326    20780335.210
 -20905422.69049 -16289934.69947  21103382.579    21103382.333
   -210226.99148                  25284889.419
   3272027.25348   2549631.14344  24236361.710    24236361.783
  -7148300.44649  -5570102.84846  22413142.543    22413143.424
   6786660.35848   5288307.70644  24880815.484    24880817.608
 -16243593.99049 -12657345.70546  21554029.316    21554030.523
 02  1  5  0 48 30.0000000  0  8G 1G20G25G 4G14G29G30G22
 -13342397.56749 -10396668.83846  22559045.222    22559046.236
 -24096475.78649 -18776469.43547  20774247.317    20774247.032
 -20855730.52249 -16251213.52947  21112838.795    21112838.703
   -261627.11648                  25275108.238
   3357074.07448   2615901.33944  24252545.101    24252545.981
  -7080268.28249  -5517090.78446  22426088.389    22426089.025
   6877670.69948   5359224.85444  24898133.747    24898137.551
 -16331850.82049 -12726117.25646  21537233.945    21537234.975
 02  1  5  0 49  0.0000000  0  8G 1G20G25G 4G14G29G30G22
 -13415397.84449 -10453552.15046  22545154.581    22545155.202
 -24127929.74849 -18800979.01547  20768261.747    20768261.509
 -20805755.49149 -16212271.94747  21122348.364    21122348.461
   -312574.77148                  25265414.172
   3442210.04248   2682241.02744  24268745.621    24268746.666
  -7012055.11649  -5463937.69746  22439069.047    22439069.555
   6968987.48848                  24915511.141
 -16419707.67949 -12794577.13846  21520515.714    21520517.099
 02  1  5  0 49 30.0000000  0  8G 1G20G25G 4G14G29G30G22
 -13488293.61849 -10510354.03546  22531282.506    22531283.776
 -24158840.36949 -18825065.21547  20762379.326    20762379.156
 -20755497.38049 -16173109.78547  21131912.288    21131912.085
   -363066.32348                  25255806.116
   3527436.62048   2748651.30144  24284964.405    24284964.268
  -6943659.09349  -5410642.10846  22452084.257    22452085.264
   7060609.87348   5501774.88844  24932946.455    24932949.106
 -16507159.22449 -12862721.19346  21503874.020    21503875.382
 02  1  5  0 50  0.0000000  0  8G 1G20G25G 4G14G29G30G22
 -13561066.92949 -10567060.47846  22517434.067    22517435.836
 -24189188.84949 -18848713.37947  20756604.211    20756604.213
 -20704940.42249 -16133714.74847  21141533.340    21141533.220
   -413082.90348                  25246287.412
   3612770.78848   2815145.40244  24301203.057    24301203.122
  -6875063.13249  -5357190.72146  22465137.877    22465137.564
   7152552.67048   5573418.61744  24950442.703    24950435.999
 -16594185.31149 -12930533.71946  21487313.619    21487314.974
 02  1  5  0 50 30.0000000  0  8G 1G20G25G 4G14G29G30G22
 -13633717.83149 -10623671.53846  22503609.919    22503610.469
 -24218974.44249 -18871922.93247  20750936.050    20750935.844
 -20654086.91249 -16094088.63147  21151210.014    21151210.249
   -462623.69048                  25236860.280
   3698211.32948   2881722.37544  24317461.608    24317461.242
  -6806268.11649  -5303584.23746  22478229.031    22478230.629
   7244812.25748   5645309.16344  24967999.417    24967998.768
 -16680783.44349 -12998012.77546  21470834.453    21470836.061
 02  1  5  0 51  0.0000000  0  8G 1G20G25G 4G14G29G30G22
 -13706259.16949 -10680197.22746  22489804.352    22489805.453
 -24248209.17049 -18894703.24147  20745373.053    20745372.870
 -20602951.88849 -16054243.15547  21160940.813    21160940.813
   -511700.75848                  25227521.826
   3783744.46848   2948371.53344  24333737.774    24333739.288
  -6737288.05149  -5249833.56346  22491355.485    22491356.876
   7337372.44448                  24985612.692
 -16766964.44949 -13065166.80246  21454435.041    21454436.183
 02  1  5  0 51 30.0000000  0  8G 1G20G25G 4G14G29G30G22
 -13778686.87149 -10736634.38746  22476022.641    22476024.396
 -24276888.25649 -18917050.58047  20739915.738    20739915.502
 -20551533.65549 -16014177.00047  21170725.384    21170725.393
   -560309.03948                  25218271.701
   3869373.13148   3015095.10444  24350032.760    24350031.844
  -6668119.55949  -5195936.05746  22504518.366    22504518.188
   7430233.95548   5789793.76744  25003283.440    25003281.206
 -16852721.73949 -13131990.65746  21438116.040    21438117.018
 02  1  5  0 52  0.0000000  0  8G 1G20G25G 4G14G29G30G22
 -13850998.86249 -10792981.37846  22462262.569    22462263.006
 -24305008.73149 -18938962.64147  20734564.516    20734564.198
 -20499832.26049 -15973890.19447  21180563.433    21180563.385
   -608445.71748                  25209110.265
   3955098.40648   3081893.98744  24366346.143    24366345.805
  -6598761.52549  -5141890.85245  22517716.107    22517716.853
   7523395.69348                  25021011.533
 -16938050.69549 -13198480.74446  21421878.267    21421879.383
 02  1  5  0 52 30.0000000  0  8G 1G20G25G 4G14G29G30G22
 -13923203.73149 -10849244.89246  22448521.534    22448523.077
 -24332578.64549 -18960445.68847  20729318.068    20729317.869
 -20447859.02149 -15933391.56447  21190453.616    21190453.597
   -656118.85348                  25200039.648
   4040910.54248   3148760.51344  24382674.511    24382675.232
  -6529223.50749  -5087705.40845  22530948.795    22530948.972
   7616845.38648   5935205.16844  25038794.668    25038794.163
 -17022957.81449 -13264642.11846  21405720.877    21405721.674
 02  1  5  0 53  0.0000000  0  8G 1G20G25G 4G14G29G30G22
 -13995296.46949 -10905421.02546  22434803.044    22434804.065
 -24359592.26749 -18981495.26547  20724177.580    20724177.263
 -20395611.25149 -15892679.01747  21200396.157    21200396.362
   -703322.35948                  25191057.612
   4126813.24848   3215697.63244  24399022.183    24399019.902
  -6459501.20449  -5033376.37545  22544216.971    22544217.860
   7710584.48248   6008248.62444  25056632.704    25056634.061
 -17107435.79549 -13330469.10146  21389645.541    21389646.764
 02  1  5  0 53 30.0000000  0  8G 1G20G25G 4G14G29G30G22
 -14067265.30849 -10961500.62146  22421108.369    22421109.229
 -24386037.17849 -19002101.69047  20719145.088    20719144.991
 -20343079.07749 -15851744.85447  21210392.757    21210392.923
   -750044.04548                  25182166.067
   4212817.66248   3282714.01644  24415388.381    24415389.584
  -6389584.28149  -4978895.68245  22557521.483    22557521.948
   7804621.52248   6081524.26244  25074527.246    25074525.851
 -17191470.72249 -13395950.85246  21373654.147    21373655.115
 02  1  5  0 54  0.0000000  0  8G 1G20G25G 4G14G29G30G22
 -14139110.01249 -11017483.48346  22407435.981    22407436.887
 -24411912.46749 -19022264.25547  20714221.057    20714221.069
 -20290265.13049 -15810591.12647  21220442.947    21220443.244
   -796282.93248                  25173367.346
   4298922.59548   3349808.70344  24431773.093    24431775.519
  -6319473.18149  -4924263.70545  22570862.753    22570863.843
   7898953.15948   6155029.45144  25092477.926    25092477.409
 -17275060.20949 -13461085.50346  21357747.176    21357748.228
 02  1  5  0 54 30.0000000  0  8G 1G20G25G 4G14G29G30G22
 -14210828.92649 -11073368.32046  22393788.312    22393789.417
 -24437216.00149 -19041981.29547  20709405.843    20709406.036
 -20237170.03749 -15769218.32247  21230546.793    21230547.022
   -842036.67948                  25164660.592
   4385128.38048   3416981.96044  24448177.606    24448175.672
  -6249167.34649  -4869479.97045  22584241.806    22584242.258
   7993577.71948                  25110484.377
 -17358200.08349 -13525869.80746  21341926.656    21341927.970
 02  1  5  0 55  0.0000000  0  7G 1G20G25G 4G14G29G22
 -14282425.54749 -11129157.87246  22380164.787    22380165.613
 -24461950.65649 -19061255.05247  20704699.236    20704699.582
 -20183799.15849 -15727630.62347  21240702.775    21240703.015
   -887308.16648                  25156045.784
   4471430.55748   3484230.34244  24464601.050    24464601.186
  -6178671.25249  -4814547.97245  22597657.011    22597658.208
 -17440891.75049 -13590304.85246  21326190.582    21326191.715
 02  1  5  0 55 30.0000000  0  7G 1G20G25G 4G14G29G22
 -14353899.72449 -11184852.00346  22366562.395    22366563.821
 -24486115.51049 -19080084.80847  20700100.728    20700100.906
 -20130155.10549 -15685830.05847  21250910.997    21250911.213
   -932096.55748                  25147522.389
   4557828.11248   3551553.07844  24481041.032    24481040.207
  -6107985.66449  -4759468.29645  22611107.856    22611108.513
 -17523132.97449 -13654388.90646  21310540.508    21310541.824
 02  1  5  0 56  0.0000000  0  7G 1G20G25G 4G14G29G22
 -14425280.73049 -11240473.55146  22352979.566    22352980.427
 -24509739.55649 -19098493.15647  20695605.404    20695605.517
 -20076269.43649 -15643841.22347  21261165.282    21261165.302
   -976430.87948                  25139085.663
   4644290.61048   3618926.33244  24497495.262    24497493.859
  -6037141.00849  -4704264.71145  22624589.173    22624590.652
 -17604950.95349 -13718143.15346  21294971.247    21294972.758
 02  1  5  0 56 30.0000000  0  7G 1G20G25G 4G14G29G22
 -14496554.38949 -11296011.44846  22339416.920    22339417.431
 -24532807.87549 -19116468.46947  20691215.699    20691215.897
 -20022130.24749 -15601654.83747  21271467.340    21271467.497
  -1020295.88848                  25130739.383
   4730831.21248   3686360.50144  24513963.764    24513962.112
  -5966123.93749  -4648926.76045  22638103.742    22638104.313
 -17686328.99849 -13781554.60446  21279485.837    21279486.597
 02  1  5  0 57  0.0000000  0  7G 1G20G25G 4G14G29G22
 -14567682.23449 -11351435.72346  22325880.912    22325881.698
 -24555281.67849 -19133980.52347  20686938.907    20686939.031
 -19967701.53949 -15559242.85547  21281824.824    21281824.788
  -1063652.77648                  25122488.182
   4817487.18848   3753884.57444  24530452.292    24530449.939
  -5894897.07048  -4593425.34145  22651657.192    22651657.837
 -17767226.65049 -13844591.71646  21264091.114    21264092.111
 02  1  5  0 57 30.0000000  0  7G 1G20G25G 4G14G29G22
 -14638660.84049 -11406743.70146  22312375.105    22312376.458
 -24577156.94949 -19151026.18747  20682776.187    20682776.221
 -19912981.64149 -15516603.97247  21292237.735    21292237.795
  -1106497.45048                  25114335.066
   4904260.78648   3821500.28444  24546965.578    24546964.983
  -5823457.83648  -4537758.43745  22665252.115    22665252.500
 -17847638.31449 -13907250.12846  21248789.585    21248790.212
 02  1  5  0 58  0.0000000  0  7G 1G20G25G 4G14G29G22
 -14709534.59849 -11461969.98446  22298888.262    22298888.665
 -24598477.82649 -19167639.85847  20678719.161    20678719.461
 -19858018.01749 -15473775.17547  21302696.928    21302696.913
  -1148873.88348                  25106271.167
   4991106.32748   3889172.07944  24563491.985    24563493.959
  -5751851.82048  -4481961.56645  22678878.120    22678878.516
 -17927606.42449 -13969562.91746  21233571.906    21233573.090
 02  1  5  0 58 30.0000000  0  7G 1G20G25G 4G14G29G22
 -14780310.79349 -11517120.25546  22285419.412    22285420.230
 -24619251.19549 -19183826.89747  20674766.317    20674766.243
 -19802820.35349 -15430764.00547  21313200.651    21313200.753
  -1190789.12048                  25098295.827
   5078015.29348                  24580030.303
  -5680087.24748  -4426041.15145  22692533.819    22692534.943
 -18007136.18849 -14031534.14146  21218437.912    21218439.100
 02  1  5  0 59  0.0000000  0  7G 1G20G25G 4G14G29G22
 -14850947.19649 -11572161.60046  22271978.163    22271979.128
 -24639434.37949 -19199554.05047  20670925.562    20670925.733
 -19747348.57849 -15387539.24247  21323756.864    21323756.776
  -1232200.40148                  25090414.247
   5165028.51548   4024695.67844  24596588.635    24596587.849
  -5608123.40748  -4369965.46445  22706228.541    22706228.799
 -18086183.29649 -14093129.26546  21203395.680    21203397.081
 02  1  5  0 59 30.0000000  0  7G 1G20G25G 4G14G29G22
 -14921468.46749 -11627113.21846  22258558.700    22258559.525
 -24659051.70049 -19214840.27147  20667191.931    20667192.113
 -19691629.69849 -15344121.93147  21334359.619    21334359.752
  -1273131.77448                  25082625.757
   5252120.62148   4092559.54944  24613161.541    24613163.202
  -5535985.51648  -4313754.14445  22719955.904    22719957.078
 -18164770.23549 -14154365.81846  21188441.336    21188442.321
 02  1  5  1  0  0.0000000  0  7G 1G20G25G 4G14G29G22
 -14991863.17849 -11681966.22646  22245162.095    22245163.464
 -24678091.04549 -19229676.12347  20663568.920    20663569.172
 -19635654.52749 -15300504.91347  21345011.447    21345011.693
  -1313571.20748                  25074930.053
   5339302.09748   4160493.07844  24629750.946    24629747.791
  -5463663.22248  -4257399.10945  22733718.341    22733718.476
 -18242883.58249 -14215233.34846  21173576.594    21173578.223
 02  1  5  1  0 30.0000000  0  7G 1G20G25G 4G14G29G22
 -15062118.77649 -11736710.83746  22231793.940    22231794.441
 -24696539.86249 -19244051.82047  20660058.612    20660058.561
 -19579413.59649 -15256680.81147  21355713.833    21355713.689
  -1353506.08448                  25067330.819
   5426583.79648   4228504.66744  24646361.587    24646361.707
  -5391145.26948  -4200891.65245  22747518.290    22747519.029
 -18320508.89849 -14275720.58946  21158804.779    21158805.807
 02  1  5  1  1  0.0000000  0  7G 1G20G25G 4G14G29G22
 -15132225.32549 -11791339.30046  22218452.664    22218453.210
 -24714388.05349 -19257959.49847  20656662.083    20656662.244
 -19522898.95549 -15212643.43447  21366467.772    21366468.084
  -1392926.22648                  25059829.780
   5513974.26848   4296601.06844  24662990.903    24662991.781
  -5318422.59548  -4144224.64745  22761357.096    22761357.800
 -18397634.24949 -14335818.24446  21144128.581    21144129.693
 02  1  5  1  1 30.0000000  0  7G 1G20G25G 4G14G29G22
 -15202202.82649 -11845867.19646  22205135.531    22205136.884
 -24731655.15649 -19271414.38047  20653375.853    20653375.925
 -19466132.61749 -15168409.92847  21377270.293    21377270.462
  -1431851.11548  -1115728.87444  25052422.896    25052421.856
   5601452.67648   4364765.90144  24679637.530    24679639.800
  -5245516.36848  -4087414.63245  22775230.415    22775231.750
 -18474277.68049 -14395540.37946  21129543.399    21129544.949
 02  1  5  1  2  0.0000000  0  8G 1G20G25G 4G14G29G13G22
 -15272059.44949 -11900300.91546  22191843.165    22191843.303
 -24748349.38349 -19284422.86747  20650198.930    20650198.963
 -19409125.24649 -15123988.60347  21388118.519    21388118.518
  -1470288.67148                  25045107.179
   5689009.38548   4432991.80644  24696299.587    24696304.480
  -5172435.96648  -4030468.89245  22789137.467    22789139.950
         -.45058                  25089578.245
 -18550445.26949 -14454891.72746  21115049.976    21115050.839
 02  1  5  1  2 30.0000000  0  8G 1G20G25G 4G14G29G13G22
 -15341783.86849 -11954631.62946  22178574.479    22178575.088
 -24764459.11949 -19296975.90447  20647133.703    20647133.936
 -19351868.17949 -15079372.70847  21399013.895    21399014.077
  -1508227.31348                  25037888.595
   5776654.37148                  24712977.067
  -5099171.06248  -3973379.38845  22803078.801    22803080.038
    -91859.42348                  25072096.919
 -18626123.92549 -14513862.09246  21100647.880    21100649.105
 02  1  5  1  3  0.0000000  0  8G 1G20G25G 4G14G29G13G22
 -15411365.25049 -12008850.87746  22165333.249    22165334.172
 -24779973.38749 -19309064.94047  20644181.492    20644181.651
 -19294353.11349 -15034555.77747  21409958.719    21409958.800
  -1545656.04848  -1204407.96744  25030766.392    25030769.613
   5864397.29248   4569657.45944  24729674.586    24729675.174
  -5025712.00048  -3916138.57845  22817057.904    22817058.233
   -183720.09848                  25054616.831
 -18701300.90849 -14572441.54246  21086342.626    21086343.950
 02  1  5  1  3 30.0000000  0  7G 1G20G25G 4G14G29G22
 -15480806.88249 -12062961.23146  22152120.185    22152120.896
 -24794895.50849 -19320692.56447  20641342.008    20641342.211
 -19236585.82449 -14989542.30847  21420951.783    21420951.832
  -1582578.08148                  25023740.040
   5952233.53348   4638101.18744  24746389.268    24746392.446
  -4952063.27448  -3858749.98445  22831072.777    22831074.483
 -18775977.72149 -14630631.24646  21072132.349    21072132.914
 02  1  5  1  4  0.0000000  0  8G 1G20G25G 4G14G29G13G22
 -15550106.51249 -12116960.93246  22138932.153    22138933.061
 -24809223.03849 -19331856.87147  20638615.535    20638615.607
 -19178565.94649 -14944332.02047  21431992.272    21431992.380
  -1618990.92748  -1261552.09644  25016811.457    25016812.737
   6040164.19648   4706618.39444  24763121.929    24763126.074
  -4878223.85148  -3801212.80645  22845124.512    22845125.028
         -.83658                  25019655.234
 -18850150.16949 -14688427.94246  21058017.618    21058018.455
 02  1  5  1  4 30.0000000  0  8G 1G20G25G 4G14G29G13G22
 -15619300.54049 -12170878.35546  22125764.567    22125765.767
 -24822992.22349 -19342586.10447  20635995.557    20635995.502
 -19120332.47549 -14898955.29047  21443073.916    21443074.022
  -1654930.41348                  25009971.969
   6128151.57748   4775179.87944  24779866.070    24779866.100
  -4804231.20648  -3743556.22645  22859204.530    22859204.289
    -91910.06448                  25002164.201
 -18923852.72449 -14745858.49246  21043992.051    21043993.335
 02  1  5  1  5  0.0000000  0  8G 1G20G25G 4G14G29G13G22
 -15688360.44349 -12224691.24646  22112624.144    22112625.272
 -24836174.45049 -19352857.96447  20633487.016    20633486.988
 -19061859.48449 -14853391.92247  21454201.092    21454200.784
  -1690368.12148  -1317170.68844  25003229.078    25003232.276
   6216222.91448   4843806.72844  24796624.464    24796626.199
  -4730057.75548  -3685758.77745  22873319.119    22873320.735
   -183831.66648                  24984670.323
 -18997055.04449 -14802899.24846  21030062.542    21030063.380
 02  1  5  1  5 30.0000000  0  8G 1G20G25G 4G14G29G13G22
 -15757265.99049 -12278383.87246  22099511.264    22099512.345
 -24848749.24649 -19362656.50547  20631093.887    20631094.022
 -19003129.24949 -14807628.11147  21465377.042    21465377.152
  -1725283.42848                  24996584.738
   6304397.22448   4912513.88844  24813404.415    24813405.782
  -4655684.45448  -3627805.57545  22887472.333    22887473.079
   -275745.18648                  24967181.190
 -19069735.09249 -14859533.03646  21016231.835    21016232.825
 02  1  5  1  6  0.0000000  0  8G 1G25G20G 4G14G29G13G22
 -15826034.28449 -12331969.53946  22086423.956    22086425.264
 -18944161.04649 -14761678.86847  21476598.240    21476598.094
 -24860734.05949 -19371995.31947  20628813.064    20628813.251
  -1759693.81448  -1371190.72544  24990035.867    24990038.301
   6392656.04748   4981286.90244  24830199.917    24830200.700
  -4581129.54548  -3569710.87045  22901659.319    22901661.006
   -367667.90248                  24949689.267
 -19141908.23449 -14915771.83646  21002497.102    21002498.378
 02  1  5  1  6 30.0000000  0  8G 1G25G29G20G 4G14G13G22
 -15894675.35649 -12385456.07746  22073363.236    22073364.042
 -18884967.71749 -14715554.20047  21487862.365    21487862.167
  -4506404.52148  -3511483.61545  22915878.647    22915879.318
 -24872138.90249 -19380882.20647  20626642.684    20626642.920
  -1793609.14948  -1397618.30944  24983582.229    24983584.437
   6480988.03548   5050116.84844  24847009.062    24847009.372
   -459610.81248                  24932192.177
 -19213582.78749 -14971622.12146  20988858.470    20988859.652
 02  1  5  1  7  0.0000000  0  8G 1G25G29G20G 4G14G13G22
 -15963175.80049 -12438833.03446  22060328.468    22060328.825
 -18825538.08349 -14669245.40547  21499171.289    21499171.327
  -4431497.16448  -3453114.28845  22930134.365    22930134.929
 -24882950.40649 -19389306.75347  20624585.645    20624585.864
  -1827015.84848  -1423649.49644  24977224.505    24977228.316
   6569405.05548   5119013.07544  24863833.860    24863833.303
   -551560.54748                  24914694.881
 -19284743.68049 -15027072.15246  20975317.173    20975318.515
 02  1  5  1  7 30.0000000  0  8G 1G25G29G20G 4G14G13G22
 -16031532.73749 -12492098.16846  22047319.061    22047320.359
 -18765871.27349 -14622751.79147  21510525.539    21510525.568
  -4356405.49948  -3394601.32345  22944422.585    22944424.119
 -24893165.82549 -19397266.82047  20622641.626    20622641.919
  -1859911.07648                  24970964.814
   6657908.82048   5187976.85244  24880676.266    24880677.621
   -643514.32148                  24897196.021
 -19355386.12149 -15082118.19546  20961873.900    20961875.254
 02  1  5  1  8  0.0000000  0  8G 1G25G29G20G 4G14G13G22
 -16099746.95749 -12545252.08746  22034339.023    22034340.064
 -18705970.73049 -14576076.04647  21521924.326    21521924.245
  -4281131.47448  -3335946.27145  22958746.963    22958747.908
 -24902785.93949 -19404763.01147  20620810.712    20620810.788
  -1892295.53448                  24964803.764
   6746497.61448   5257006.96144  24897534.199    24897534.558
   -735473.27048                  24879697.892
 -19425509.28949 -15136759.60846  20948530.191    20948531.465
 02  1  5  1  8 30.0000000  0  8G 1G25G29G20G 4G14G13G22
 -16167813.65749 -12598291.06446  22021387.415    22021388.053
 -18645834.05249 -14529216.29947  21533367.900    21533368.210
  -4205671.91148  -3277146.64145  22973107.308    22973108.220
 -24911806.05549 -19411791.67147  20619094.311    20619094.609
  -1924164.65148                  24958738.078
   6835174.47648   5326105.64044  24914408.725    24914407.999
   -827433.00248                  24862198.142
 -19495106.92149 -15190991.51446  20935286.297    20935287.673
 02  1  5  1  9  0.0000000  0  8G 1G20G25G 4G14G29G13G22
 -16235747.14849 -12651226.23246  22008458.783    22008460.482
 -24920240.83849 -19418364.23047  20617489.482    20617489.498
 -18585478.27549 -14482185.82947  21544853.016    21544853.508
  -1955532.60348  -1523792.53344  24952769.103    24952772.183
   6923923.92448   5395260.88044  24931297.614    24931294.445
  -4130042.02648  -3218214.29545  22987498.123    22987499.651
   -919407.92648                  24844695.741
 -19564191.35049 -15244823.52446  20922139.750    20922140.908
 02  1  5  1  9 30.0000000  0  8G 1G25G29G20G 4G14G13G22
 -16303541.25249 -12704052.78746  21995558.144    21995559.603
 -18524899.41549 -14434981.52847  21556380.927    21556381.092
  -4054236.86848  -3159145.38045  23001924.646    23001925.153
 -24928084.06149 -19424475.82947  20615996.981    20615997.099
  -1986393.20848                  24946896.514
   7012750.65448   5464476.33844  24948200.795    24948203.903
  -1011392.21148                  24827192.371
 -19632754.82449 -15298249.59746  20909092.790    20909093.761
 02  1  5  1 10  0.0000000  0  8G 1G25G29G20G 4G14G13G22
 -16371185.98449 -12756762.94846  21982686.655    21982686.997
 -18464090.07749 -14387597.63147  21567952.622    21567953.007
  -3978247.83048  -3099933.16245  23016383.999    23016384.997
 -24935326.31449 -19430119.14347  20614618.998    20614619.021
  -2016736.87848  -1571484.16744  24941122.788    24941123.754
   7101663.36248   5533758.84244  24965119.869    24965121.464
  -1103376.65848                  24809686.250
 -19700785.96649 -15351260.86646  20896146.633    20896147.762
 02  1  5  1 10 30.0000000  0  8G 1G25G29G20G 4G14G13G22
 -16438663.95449 -12809343.20146  21969845.150    21969846.135
 -18403035.37649 -14340022.54647  21579570.846    21579571.236
  -3902058.67248  -3040565.04845  23030882.237    23030883.324
 -24941950.23949 -19435280.64247  20613358.487    20613358.621
  -2046546.16848  -1594712.17944  24935450.386    24935450.275
   7190678.07548   5603120.75944  24982059.256    24982061.831
  -1195343.50648                  24792187.681
 -19768265.87149 -15403842.59647  20883305.416    20883306.647
 02  1  5  1 11  0.0000000  0  8G 1G25G29G20G 4G14G13G22
 -16506016.21049 -12861825.45046  21957028.242    21957029.738
 -18341778.57549 -14292289.98147  21591227.592    21591227.830
  -3825711.90648  -2981074.06745  23045411.027    23045410.940
 -24947997.13549 -19439992.50547  20612207.585    20612207.604
  -2075862.41748                  24929871.742
   7279752.38048                  24999010.107
  -1287334.75048                  24774680.522
 -19835233.68849 -15456025.31147  20870562.481    20870563.554
 02  1  5  1 11 30.0000000  0  8G 1G25G29G20G 4G14G13G22
 -16573219.60049 -12914191.71146  21944240.128    21944241.256
 -18280299.30949 -14244384.06747  21602926.974    21602927.227
  -3749185.46248  -2921443.10945  23059973.278    23059973.243
 -24953444.36549 -19444237.09847  20611170.826    20611170.971
  -2104662.74048                  24924390.394
   7368907.91648   5742000.81644  25015975.329    25015975.876
  -1379327.33648                  24757174.986
 -19901665.10949 -15507790.04947  20857920.136    20857921.481
 02  1  5  1 12  0.0000000  0  8G 1G25G29G20G 4G14G13G22
 -16640278.90049 -12966445.70146  21931479.319    21931480.064
 -18218604.38849 -14196310.11447  21614667.299    21614667.277
  -3672485.38648  -2861676.86445  23074569.177    23074570.761
 -24958297.01849 -19448018.38647  20610247.317    20610247.456
  -2132952.08348                  24919007.391
   7458138.54048   5811531.05744  25032955.335    25032955.920
  -1471326.09748                  24739669.520
 -19967563.24549 -15559139.23846  20845380.825    20845381.890
 02  1  5  1 12 30.0000000  0  8G 1G25G29G20G 4G14G13G22
 -16707181.53749 -13018577.62046  21918747.978    21918748.345
 -18156684.02849 -14148060.49447  21626450.242    21626450.253
  -3595600.58148  -2801766.66545  23089200.211    23089200.980
 -24962542.92849 -19451326.88247  20609439.541    20609439.662
  -2160718.13548                  24913724.386
   7547455.27948                  25049952.473
  -1563318.83248                  24722161.983
 -20032914.08449 -15610061.95747  20832944.993    20832945.977
 02  1  5  1 13  0.0000000  0  8G 1G25G29G20G 4G14G13G22
 -16773934.01049 -13070592.53146  21906044.903    21906045.753
 -18094547.05349 -14099642.08247  21638274.538    21638274.761
  -3518538.67748  -2741718.47545  23103863.648    23103865.014
 -24966188.93149 -19454167.92247  20608745.774    20608746.082
  -2187967.61148                  24908539.574
   7636850.61648                  25066963.830
  -1655312.36148                  24704658.207
 -20097722.67549 -15660562.14947  20820611.724    20820613.248
 02  1  5  1 13 30.0000000  0  8G 1G25G20G 4G14G29G13G22
 -16840529.14049 -13122484.83446  21893373.091    21893374.135
 -18032188.74949 -14051051.20447  21650140.849    21650140.894
 -24969228.51049 -19456536.42347  20608167.202    20608167.359
  -2214693.63348  -1725736.43544  24903454.061    24903451.291
   7726329.95248                  25083991.000
  -3441293.87648  -2681527.74845  23118563.459    23118564.785
  -1747300.37048                  24687152.430
 -20161980.44749 -15710633.12647  20808384.359    20808385.490
 02  1  5  1 14  0.0000000  0  8G 1G25G20G 4G14G29G13G22
 -16906964.11549 -13174252.33946  21880730.499    21880731.519
 -17969608.94049 -14002287.72646  21662049.472    21662049.544
 -24971659.24749 -19458430.49947  20607704.683    20607704.951
  -2240893.87248                  24898466.027
   7815894.58848                  25101034.866
  -3363864.90348  -2621193.54145  23133297.524    23133299.642
  -1839280.17148  -1433204.12944  24669649.447    24669652.665
 -20225683.25749 -15760271.66547  20796262.200    20796262.990
 02  1  5  1 14 30.0000000  0  8G 1G25G20G 4G14G29G13G22
 -16973235.67349 -13225892.50646  21868119.490    21868120.493
 -17906806.81649 -13953351.01746  21674000.254    21674000.512
 -24973478.41949 -19459848.03647  20607358.575    20607358.670
  -2266565.45348                  24893581.051
   7905546.49448   6160159.72844  25118095.478    25118097.500
  -3286249.54648  -2560714.09145  23148066.980    23148066.667
  -1931191.86548                  24652135.906
 -20288826.47849 -15809474.16747  20784246.119    20784247.262
 02  1  5  1 15  0.0000000  0  8G 1G25G20G 4G14G29G13G22
 -17039353.81949 -13277413.12246  21855537.463    21855538.454
 -17843794.97849 -13904250.89546  21685991.082    21685991.229
 -24974696.40049 -19460797.11047  20607126.610    20607126.947
  -2291718.71948  -1785755.93944  24888796.661    24888793.404
   7995274.44048   6230077.46944  25135169.504    25135168.870
  -3208459.29848  -2500098.34945  23162870.253    23162870.658
  -2022604.63448                  24634652.562
 -20351418.70649 -15858247.32247  20772335.349    20772336.272
 02  1  5  1 15 30.0000000  0  8G 1G20G25G 4G14G29G13G22
 -17105329.32049 -13328822.58146  21842983.185    21842983.618
 -24975324.60549 -19461286.62147  20607006.782    20607006.856
 -17780586.24049 -13854997.34646  21698019.148    21698019.268
  -2316364.82748  -1804960.70844  24884107.597    24884106.458
   8085065.82648                  25152256.776
  -3130506.30248  -2439355.82145  23177704.238    23177705.281
  -2114581.96548                  24617145.333
 -20413469.48749 -15906598.57047  20760527.689    20760528.318
 02  1  5  1 16  0.0000000  0  8G 1G20G25G 4G14G29G13G22
 -17171152.84649 -13380113.62646  21830456.637    21830458.011
 -24975354.43149 -19461309.86047  20607001.263    20607001.500
 -17717173.88849 -13805585.14146  21710086.150    21710086.278
  -2340494.89348  -1823763.29344  24879515.665    24879518.899
   8174928.61548   6370067.41744  25169357.624    25169361.535
  -3052382.43748  -2378480.12845  23192571.050    23192571.926
  -2206560.08348                  24599641.023
 -20474968.16849 -15954519.61247  20748824.425    20748825.518
 02  1  5  1 16 30.0000000  0  8G 1G20G25G 4G14G29G13G22
 -17236826.30949 -13431287.73546  21817959.839    21817960.884
 -24974788.15649 -19460868.60747  20607109.156    20607109.352
 -17653562.32449 -13756017.69546  21722191.183    21722190.857
  -2364111.20148                  24875020.076
   8264859.63948                  25186469.895
  -2974090.88648  -2317473.76045  23207469.152    23207470.788
  -2298541.61448                  24582139.290
 -20535915.14249 -16002010.75247  20737226.759    20737227.736
 02  1  5  1 17  0.0000000  0  8G 1G20G25G 4G14G29G13G22
 -17302333.19749 -13482332.05046  21805494.819    21805495.282
 -24973609.88549 -19459950.47347  20607333.721    20607333.711
 -17589737.39949 -13706284.00246  21734336.254    21734336.598
  -2387197.71648                  24870624.836
   8354874.02348                  25203599.374
  -2895616.53648  -2256324.96645  23222401.621    23222403.719
  -2390510.21548                  24564636.736
 -20596292.72349 -16049058.20947  20725737.652    20725738.206
 02  1  5  1 17 30.0000000  0  8G 1G20G25G 4G14G29G13G22
 -17367665.76049 -13533240.52946  21793061.882    21793062.517
 -24971812.74749 -19458550.10647  20607675.617    20607675.582
 -17525693.87949 -13656379.97546  21746523.561    21746523.743
  -2409747.50648                  24866334.295
   8444977.76748                  25220746.098
  -2816953.09148  -2195028.82845  23237371.701    23237373.110
  -2482458.36348  -1934382.60444  24547140.566    24547139.049
 -20656092.07249 -16095655.09847  20714357.892    20714358.910
 02  1  5  1 18  0.0000000  0  8G 1G20G25G 4G14G29G13G22
 -17432840.94449 -13584026.36646  21780659.426    21780660.193
 -24969414.20449 -19456681.11347  20608131.877    20608131.822
 -17461451.23049 -13606320.78146  21758748.742    21758748.788
  -2431777.63848                  24862143.099
   8535152.53148                  25237905.747
  -2738118.88748  -2133599.64945  23252373.071    23252374.774
  -2574402.78648                  24529643.575
 -20715328.77449 -16141813.56247  20703085.666    20703086.288
 02  1  5  1 18 30.0000000  0  8G 1G20G25G 4G14G29G13G22
 -17497853.70149 -13634685.63846  21768288.123    21768288.764
 -24966410.22549 -19454340.35247  20608703.372    20608703.534
 -17397006.76449 -13556104.32646  21771011.946    21771012.021
  -2453283.95348  -1911650.65844  24858053.052    24858048.852
   8625401.74648                  25255079.616
  -2659110.14748  -2072034.45245  23267407.719    23267410.660
  -2666339.69148  -2077666.59644  24512148.343    24512150.635
 -20773996.65749 -16187528.78747  20691921.699    20691922.317
 02  1  5  1 19  0.0000000  0  8G 1G20G25G 4G14G29G13G22
 -17562706.57649 -13685220.32746  21755947.096    21755947.653
 -24962804.00149 -19451530.31047  20609389.662    20609389.797
 -17332366.01449 -13505734.92946  21783312.492    21783312.788
  -2474269.62748  -1928003.10144  24854059.145    24854058.886
   8715721.28448                  25272268.069
  -2579931.15348  -2010336.60245  23282475.106    23282475.787
  -2758271.53848  -2149301.83844  24494655.155    24494654.708
 -20832097.43149 -16232802.11047  20680865.444    20680866.607
 02  1  5  1 19 30.0000000  0  8G 1G20G25G 4G14G29G13G22
 -17627409.69949 -13735638.32746  21743634.426    21743634.958
 -24958606.59549 -19448259.60647  20610188.632    20610188.637
 -17267541.17849 -13455222.08346  21795648.589    21795648.666
  -2494745.54948                  24850160.639
   8806099.49948                  25289466.244
  -2500593.29648  -1948514.96244  23297573.530    23297573.935
  -2850208.78648  -2220941.16144  24477158.909    24477158.954
 -20889639.91249 -16277640.39347  20669915.221    20669916.592
 02  1  5  1 20  0.0000000  0  8G 1G20G25G 4G14G29G13G22
 -17691945.13949 -13785925.66546  21731353.664    21731354.308
 -24953800.79749 -19444514.82847  20611103.303    20611103.449
 -17202516.72549 -13404553.69246  21808022.100    21808022.512
  -2514694.23348                  24846362.569
   8896553.05748                  25306678.575
  -2421080.00248  -1886556.60044  23312703.171    23312705.577
  -2942133.86948                  24459666.708
 -20946604.96049 -16322028.73247  20659075.030    20659075.860
 02  1  5  1 20 30.0000000  0  8G 1G20G25G 4G14G29G13G22
 -17756304.19849 -13836075.56546  21719106.781    21719107.525
 -24948378.80549 -19440289.90447  20612135.088    20612135.105
 -17137286.81349 -13353725.20946  21820435.328    21820435.595
  -2534107.84648                  24842669.088
   8987088.93548                  25323907.895
  -2341384.26248  -1824456.09745  23327870.139    23327870.772
  -3034038.39948  -2364184.92544  24442178.650    24442176.226
 -21002983.15949 -16365959.78947  20648346.706    20648347.483
 02  1  5  1 21  0.0000000  0  8G 1G20G25G 4G14G29G13G22
 -17820492.82949 -13886092.67146  21706892.216    21706892.569
 -24942347.30949 -19435590.04047  20613282.716    20613282.668
 -17071859.42249 -13302742.84146  21832885.622    21832886.095
  -2552992.88648                  24839076.831
   9077700.04148                  25341149.631
  -2261513.27248  -1762219.03444  23343068.744    23343067.760
  -3125928.48948  -2435787.49444  24424691.121    24424696.697
 -21058779.20649 -16409437.22247  20637728.883    20637730.027
 02  1  5  1 21 30.0000000  0  8G 1G20G25G 4G14G29G13G22
 -17884517.59849 -13935982.09346  21694708.264    21694708.845
 -24935714.01349 -19430421.23847  20614544.985    20614545.072
 -17006243.93949 -13251613.91146  21845371.306    21845371.771
  -2571356.68748  -2003655.19344  24835583.527    24835583.168
   9168377.82848                  25358406.551
  -2181475.09948  -1699851.69244  23358298.468    23358300.985
  -3217810.90748  -2507384.18544  24407207.435    24407209.734
 -21113998.58049 -16452465.29547  20627221.445    20627222.442
 02  1  5  1 22  0.0000000  0  8G 1G20G25G 4G14G29G13G22
 -17948370.58449 -13985737.66346  21682557.624    21682558.378
 -24928471.80449 -19424777.96447  20615923.056    20615922.979
 -16940434.80749 -13200334.09146  21857894.799    21857895.252
  -2589192.32748  -2017553.04744  24832189.553    24832189.138
   9259128.74048                  25375676.372
  -2101263.29048  -1637349.04844  23373563.440    23373565.316
  -3309678.11648  -2578968.95144  24389725.431    24389725.730
 -21168632.59049 -16495037.24347  20616824.607    20616825.727
 02  1  5  1 22 30.0000000  0  8G 1G20G25G 4G14G29G13G22
 -18012055.69249 -14035362.41846  21670438.839    21670439.308
 -24920625.63949 -19418664.06647  20617416.039    20617416.187
 -16874438.39649 -13148908.33546  21870453.562    21870454.055
  -2606504.37148                  24828894.361
   9349947.35148                  25392957.481
  -2020883.18848  -1574715.27244  23388858.427    23388859.815
  -3401534.39048  -2650545.20844  24372245.562    24372245.889
 -21222684.03049 -16537155.23947  20606538.524    20606539.610
 02  1  5  1 23  0.0000000  0  8G 1G20G25G 4G14G29G13G22
 -18075564.35649 -14084849.68446  21658353.196    21658353.824
 -24912167.85849 -19412073.59147  20619025.761    20619025.863
 -16808248.59449 -13097331.87946  21883049.111    21883049.551
  -2623284.84148  -2044118.65644  24825699.841    24825701.267
   9440840.68348                  25410255.303
  -1940327.59548  -1511944.74744  23404188.029    23404189.223
  -3493371.71248  -2722106.73244  24354769.524    24354768.412
 -21276143.38749 -16578811.87047  20596366.190    20596366.715
 02  1  5  1 23 30.0000000  0  8G 1G20G25G 4G14G29G13G22
 -18138894.79749 -14134198.06946  21646302.149    21646302.702
 -24903097.84949 -19405006.05247  20620751.915    20620751.956
 -16741865.91649 -13045605.13546  21895681.489    21895681.670
  -2639533.10348                  24822607.042
   9531808.85848                  25427566.007
  -1859596.40848  -1449037.42045  23419552.151    23419553.139
  -3585188.25748  -2793652.00844  24337296.786    24337299.510
 -21329008.20249 -16620005.22347  20586306.275    20586306.834
 02  1  5  1 24  0.0000000  0  8G 1G20G25G 4G14G29G13G22
 -18202047.73749 -14183408.14646  21634285.112    21634285.245
 -24893417.57849 -19397462.98547  20622593.570    20622593.584
 -16675293.81849 -12993730.78846  21908349.402    21908349.784
  -2655250.88748  -2069027.20244  24819616.626    24819619.419
   9622849.53248                  25444890.211
  -1778691.89348  -1385995.00144  23434947.102    23434947.647
  -3676985.14648  -2865182.02944  24319829.367    24319827.705
 -21381278.29049 -16660735.15147  20576359.581    20576360.459
 02  1  5  1 24 30.0000000  0  8G 1G20G25G 4G14G29G13G22
 -18265018.03249 -14232475.89346  21622301.251    21622301.778
 -24883122.85149 -19389441.12347  20624552.721    20624552.718
 -16608529.63449 -12941706.76446  21921054.511    21921054.987
  -2670433.74548  -2080857.98444  24816729.125    24816728.391
   9713966.25748                  25462230.407
  -1697610.25848  -1322814.61144  23450375.875    23450378.653
  -3768757.02648                  24302365.291
 -21432947.55949 -16700996.90747  20566527.251    20566527.942
 02  1  5  1 25  0.0000000  0  8G 1G20G25G 4G14G29G13G22
 -18327816.00549 -14281409.37346  21610350.756    21610351.753
 -24872225.09249 -19380949.36347  20626626.908    20626626.914
 -16541586.16449 -12889543.04446  21933793.131    21933793.620
  -2685093.05148  -2092280.81544  24813939.637    24813940.132
   9805147.20948                  25479581.207
  -1616363.54948  -1259505.54245  23465837.580    23465839.023
  -3860515.50048  -3008192.58944  24284904.278    24284904.863
 -21484025.58849 -16740797.95747  20556807.885    20556808.504
 02  1  5  1 25 30.0000000  0  8G 1G20G25G 4G14G29G13G22
 -18390451.17349 -14330215.99146  21598432.734    21598433.262
 -24860735.20249 -19371996.20547  20628813.154    20628813.024
 -16474475.73349 -12837249.22046  21946563.714    21946564.121
  -2699239.25648  -2103303.81044  24811248.186    24811245.246
   9896381.12048                  25496941.918
  -1534962.84848  -1196076.52445  23481327.310    23481329.465
  -3952270.10248  -3079689.60044  24267443.316    24267444.685
 -21534521.25349 -16780145.22347  20547198.957    20547199.480
 02  1  5  1 26  0.0000000  0  8G 1G20G25G 4G14G29G13G22
 -18452914.65349 -14378888.82246  21586546.126    21586546.616
 -24848645.37049 -19362575.55647  20631113.659    20631113.677
 -16407191.29049 -12784819.80446  21959367.552    21959367.925
  -2712864.49648  -2113920.87344  24808654.970    24808652.599
   9987675.34248                  25514315.195
  -1453400.73348  -1132521.74244  23496847.651    23496849.697
  -4044011.96548  -3151176.75344  24249986.054    24249986.540
 -21584424.85049 -16819031.13547  20537702.229    20537702.794
 02  1  5  1 26 30.0000000  0  8G 1G20G25G 4G14G29G13G22
 -18515201.69349 -14427424.17146  21574692.811    21574693.483
 -24835951.97549 -19352684.60247  20633529.264    20633529.091
 -16339730.85049 -12732253.24846  21972205.256    21972205.403
  -2725965.06948  -2124129.12244  24806161.311    24806159.026
  10079033.31148   7853779.71744  25531700.545    25531703.703
  -1371673.87348  -1068838.55544  23512400.168    23512401.223
  -4135736.43748  -3222650.31544  24232530.841    24232531.720
 -21633730.84849 -16857451.38647  20528319.384    20528319.980
 02  1  5  1 27  0.0000000  0  7G 1G25G 4G20G29G13G22
 -18577311.75449 -14475821.60846  21562874.101    21562874.475
 -16272096.42649 -12679551.11746  21985075.314    21985075.666
  -2738541.52148                  24803766.949
 -24822655.81449 -19342323.95947  20636059.398    20636059.363
  -1289783.47748  -1005027.95845  23527983.341    23527985.157
  -4227443.78048  -3294110.56044  24215080.180    24215081.289
 -21682438.16649 -16895405.13147  20519050.943    20519051.536
 02  1  5  1 27 30.0000000  0  7G 1G25G 4G20G29G13G22
 -18639217.11849 -14524059.54546  21551093.874    21551094.439
 -16204262.87849 -12626693.83246  21997984.225    21997984.125
  -2750567.25748                  24801478.339
 -24808730.82349 -19331473.31747  20638709.348    20638709.329
  -1207703.50948   -941069.66044  23543603.174    23543604.198
  -4319106.42848  -3365535.95444  24197636.816    24197635.405
 -21730518.44549 -16932870.28147  20509901.139    20509901.857
 02  1  5  1 28  0.0000000  0  7G 1G25G 4G20G29G13G22
 -18700913.97749 -14572135.01446  21539353.462    21539353.648
 -16136229.08449 -12573680.50846  22010930.288    22010930.329
  -2762039.57248                  24799295.682
 -24794174.12949 -19320130.43847  20641479.231    20641479.200
  -1125431.53048   -876961.72045  23559258.542    23559260.944
  -4410720.82348  -3436923.72344  24180203.451    24180203.314
 -21777967.13649 -16969843.28447  20500872.344    20500873.264
 02  1  5  1 28 30.0000000  0  7G 1G25G 4G20G29G13G22
 -18762420.42349 -14620062.09946  21527648.902    21527649.346
 -16068015.37349 -12520526.98946  22023910.834    22023910.962
  -2772977.65248  -2160762.20244  24797214.695    24797216.977
 -24779005.19149 -19308310.49247  20644365.454    20644365.420
  -1042987.18548   -812719.45544  23574947.505    23574951.584
  -4502305.14148  -3508288.06744  24162775.183    24162774.785
 -21824801.76249 -17006337.79347  20491959.716    20491960.552
 02  1  5  1 29  0.0000000  0  7G 1G25G 4G20G29G13G22
 -18823756.02249 -14667856.06546  21515976.964    21515977.471
 -15999643.66549 -12467250.36046  22036921.869    22036921.578
  -2783402.19648                  24795231.592
 -24763245.03549 -19296029.84947  20647364.788    20647364.739
   -960391.78148   -748359.53244  23590664.684    23590665.872
  -4593879.18248  -3579644.40844  24145349.575    24145348.795
 -21871041.21549 -17042368.52947  20483160.700    20483161.677
 02  1  5  1 29 30.0000000  0  7G 1G25G 4G20G29G13G22
 -18884913.74649 -14715511.42846  21504339.425    21504339.978
 -15931109.06349 -12413846.79646  22049963.360    22049963.522
  -2793307.43748  -2176603.61344  24793346.936    24793348.012
 -24746887.94449 -19283284.06647  20650477.828    20650477.712
   -877639.79648   -683877.55644  23606412.198    23606414.619
  -4685436.28848  -3650987.57944  24127926.829    24127926.136
 -21916677.96149 -17077929.62447  20474476.346    20474477.256
 02  1  5  1 30  0.0000000  0  7G 1G25G 4G20G29G13G22
 -18945894.73549 -14763029.07546  21492735.072    21492735.590
 -15862415.76949 -12360319.57946  22063035.382    22063035.790
  -2802695.79748                  24791561.068
 -24729936.64649 -19270075.26447  20653703.650    20653703.456
   -794734.12748   -619275.87244  23622188.657    23622189.673
  -4776978.32848  -3722318.99944  24110505.536    24110505.805
 -21961712.89549 -17113021.77647  20465906.343    20465907.049
 02  1  5  1 30 30.0000000  0  7G 1G25G 4G20G29G13G22
 -19006692.32449 -14810403.81246  21481165.353    21481166.041
 -15793559.45149 -12306665.33746  22076138.353    22076138.215
  -2811561.78948                  24789873.301
 -24712386.04849 -19256399.47547  20657043.212    20657043.220
   -711669.66548   -554550.43744  23637995.226    23637995.721
  -4868498.35348  -3793633.26544  24093091.795    24093090.605
 -22006138.63849 -17147639.23347  20457452.373    20457453.376
 02  1  5  1 31  0.0000000  0  7G 1G25G 4G20G29G13G22
 -19067306.46249 -14857635.60046  21469630.814    21469631.426
 -15724542.65149 -12252886.03746  22089271.669    22089272.057
  -2819906.62048  -2197330.25544  24788284.839    24788288.827
 -24694237.42949 -19242257.69747  20660496.338    20660496.532
   -628448.18448   -489702.65344  23653832.516    23653832.113
  -4959996.95648  -3864930.82144  24075679.459    24075677.441
 -22049954.76549 -17181781.66647  20449114.777    20449115.997
 02  1  5  1 31 30.0000000  0  7G 1G25G 4G20G29G13G22
 -19127735.62349 -14904723.24546  21458131.900    21458132.385
 -15655366.48849 -12198982.56546  22102435.691    22102435.635
  -2827730.17048                  24786794.748
 -24675490.78149 -19227649.92347  20664063.550    20664063.588
   -545069.69648   -424732.51144  23669697.645    23669700.050
  -5051472.58148  -3936210.49444  24058272.257    24058275.128
 -22093159.53849 -17215447.71947  20440893.001    20440894.071
 02  1  5  1 32  0.0000000  0  7G 1G25G 4G20G29G13G22
 -19187982.96749 -14951669.21346  21446667.201    21446667.668
 -15586036.45349 -12144959.19346  22115628.416    22115628.766
  -2835037.08848                  24785403.357
 -24656150.99749 -19212579.96447  20667744.206    20667744.212
   -461539.07148   -359643.85544  23685594.618    23685594.152
  -5142928.90848  -4007475.09244  24040868.682    24040865.967
 -22135755.64949 -17248639.49047  20432787.349    20432787.975
 02  1  5  1 32 30.0000000  0  7G 1G25G20G 4G29G13G22
 -19248043.40449 -14998469.53746  21435237.592    21435238.087
 -15516549.74149 -12090813.72846  22128851.497    22128851.351
 -24636214.58049 -19197045.09947  20671538.112    20671538.035
  -2841823.50048  -2214408.33144  24784111.893    24784112.661
   -377852.72648   -294433.83544  23701519.060    23701522.399
  -5234361.04348  -4078720.86944  24023468.708    24023470.996
 -22177737.45549 -17281352.57947  20424798.354    20424799.069
 02  1  5  1 33  0.0000000  0  8G 1G25G20G 4G 6G29G13G22
 -19307909.49449 -15045118.42946  21423845.991    21423846.593
 -15446901.61649 -12036542.49246  22142105.316    22142105.428
 -24615675.41349 -19181040.55547  20675446.342    20675446.550
  -2848083.05648                  24782920.537
         -.79057                  25535329.914
   -294004.75648   -229097.89944  23717474.141    23717477.323
  -5325761.77448  -4149942.13744  24006076.505    24006076.275
 -22219097.21749 -17313580.96047  20416927.515    20416928.349
 02  1  5  1 33 30.0000000  0  8G 1G25G20G 4G 6G29G13G22
 -19367546.69649 -15091588.96846  21412496.863    21412497.574
 -15377059.94649 -11982120.43946  22155395.550    22155395.965
 -24594500.87249 -19164540.91847  20679475.840    20679475.893
  -2853783.06748                  24781837.200
    -11665.74148                  25533110.008
   -209962.63648   -163610.64644  23733467.579    23733467.048
  -5417096.69648  -4221112.18444  23988695.280    23988694.061
 -22259800.18049 -17345297.55147  20409182.340    20409183.126
 02  1  5  1 34  0.0000000  0  8G 1G25G20G 4G 6G29G13G22
 -19426969.71649 -15137892.61047  21401189.061    21401189.555
 -15307042.33049 -11927561.28846  22168719.525    22168720.013
 -24572707.37549 -19147558.97847  20683623.043    20683623.046
  -2858939.40748                  24780855.549
    -22853.41648                  25530980.839
   -125742.72148    -97984.88644  23749494.059    23749496.282
  -5508381.07748  -4292242.77944  23971325.328    23971326.234
 -22299860.95049 -17376513.73447  20401558.963    20401559.737
 02  1  5  1 34 30.0000000  0  8G 1G25G20G 4G 6G29G13G22
 -19486193.30049 -15184040.84647  21389919.644    21389920.059
 -15236865.22949 -11872877.86546  22182073.886    22182074.211
 -24550311.36949 -19130107.54947  20687884.743    20687884.849
  -2863568.52048                  24779975.524
    -33578.79548                  25528939.792
    -41361.43348    -32233.37244  23765551.379    23765554.318
  -5599629.68148  -4363345.54344  23953961.141    23953962.581
 -22339293.79849 -17407240.62147  20394055.061    20394055.706
 02  1  5  1 35  0.0000000  0  8G 1G25G20G 4G 6G29G13G22
 -19545202.49049 -15230022.02647  21378689.836    21378690.427
 -15166516.49149 -11818060.69246  22195460.954    22195460.779
 -24527299.77949 -19112176.44747  20692263.764    20692263.837
  -2867657.05648                  24779198.117
    -43827.50048                  25526989.459
     43194.47548     33654.24544  23781641.773    23781644.210
  -5690828.08048  -4434409.13444  23936605.809    23936605.057
 -22378083.79949 -17437466.58647  20386673.750    20386674.580
 02  1  5  1 35 30.0000000  0  8G 1G25G20G 4G 6G29G13G22
 -19604020.33949 -15275854.11047  21367497.762    21367498.122
 -15096021.73149 -11763129.74446  22208875.539    22208875.972
 -24503697.39649 -19093784.98547  20696754.964    20696755.047
  -2871229.47648  -2237322.85544  24778518.676    24778521.375
    -53622.85248                  25525125.679
    127900.07548     99658.45244  23797760.834    23797761.690
  -5781999.61748  -4505451.84844  23919257.525    23919256.227
 -22416253.90949 -17467209.52647  20379410.452    20379411.245
 02  1  5  1 36  0.0000000  0  8G 1G25G20G 4G 6G29G13G22
 -19662644.37549 -15321535.17347  21356342.069    21356342.620
 -15025381.03449 -11708085.07246  22222318.046    22222318.243
 -24479503.40349 -19074932.52947  20701359.123    20701359.293
  -2874284.70648  -2239703.77144  24777937.807    24777936.617
    -62962.47948                  25523348.303
    212756.38648    165780.06944  23813908.613    23813912.183
  -5873141.78848  -4576471.63344  23901912.113    23901914.944
 -22453801.28549 -17496467.21447  20372265.259    20372265.918
 02  1  5  1 36 30.0000000  0  8G 1G25G20G 4G 6G29G13G22
 -19721080.60049 -15367069.88447  21345221.740    21345222.341
 -14954602.94349 -11652933.34246  22235786.776    22235787.214
 -24454725.64449 -19055625.19047  20706074.048    20706074.193
  -2876830.45348                  24777452.641
    -71852.68448                  25521656.665
    297755.58848    232013.09444  23830083.709    23830086.772
  -5964260.84848  -4647473.43744  23884574.386    23884573.118
 -22490731.83049 -17525244.25947  20365237.364    20365238.333
 02  1  5  1 37  0.0000000  0  8G 1G25G20G 4G 6G29G13G22
 -19779285.32849 -15412424.20947  21334145.831    21334146.283
 -14883646.38349 -11597642.54946  22249289.472    22249289.422
 -24429322.50749 -19035830.54647  20710908.275    20710908.397
  -2878825.05448  -2243241.72044  24777072.588    24777072.636
    -80250.51348                  25520058.343
    382939.38948    298389.94044  23846294.166    23846299.395
  -6055313.60248  -4718423.59544  23867246.364    23867245.732
 -22527002.05949 -17553506.77247  20358335.119    20358336.062
 02  1  5  1 37 30.0000000  0  8G 1G25G20G 4G 6G29G13G22
 -19837268.82449 -15457606.14747  21323111.718    21323112.263
 -14812523.65949 -11542222.27846  22262823.754    22262824.159
 -24403306.15349 -19015558.06947  20715859.201    20715859.316
  -2880279.93348                  24776796.116
    -88166.61248    -68700.32044  25518552.147    25518554.033
    468295.64548    364901.14444  23862536.709    23862539.896
  -6146310.47948  -4789330.16944  23849930.798    23849930.661
 -22562622.13649 -17581262.67747  20351557.137    20351557.944
 02  1  5  1 38  0.0000000  0  8G 1G25G20G 4G 6G29G13G22
 -19895056.15649 -15502635.22747  21312115.098    21312115.546
 -14741262.41749 -11486694.06846  22276384.309    22276384.653
 -24376703.45949 -18994828.70447  20720921.668    20720921.618
  -2881222.00548                  24776616.670
    -95626.43148                  25517132.519
    553797.74548    431526.01044  23878807.311    23878810.894
  -6237276.61448  -4860212.81244  23832620.579    23832621.635
 -22597616.98149 -17608531.38647  20344898.085    20344898.700
 02  1  5  1 38 30.0000000  0  8G 1G25G20G 4G 6G29G13G22
 -19952650.63949 -15547514.03147  21301155.543    21301156.097
 -14669868.46449 -11431062.45146  22289970.122    22289970.506
 -24349519.86249 -18973646.68947  20726094.296    20726094.160
  -2881656.15148  -2245447.71244  24776533.749    24776535.099
   -102633.73247                  25515798.857
    639440.60648    498260.53244  23895105.035    23895107.238
  -6328215.78448  -4931074.48644  23815315.076    23815313.382
 -22631990.03149 -17635315.58347  20338357.010    20338357.785
 02  1  5  1 39  0.0000000  0  8G 1G25G20G 4G 6G29G13G22
 -20010053.77149 -15592243.73247  21290232.301    21290232.871
 -14598346.27349 -11375330.90746  22303580.372    22303580.333
 -24321758.46949 -18952014.44347  20731377.084    20731376.804
  -2881585.40248                  24776545.388
   -109190.33447    -85082.51144  25514551.058    25514551.496
    725221.06348    565102.31644  23911428.786    23911431.955
  -6419129.49048  -5001916.26944  23798014.921    23798012.843
 -22665742.65649 -17661616.32947  20331934.245    20331934.869
 02  1  5  1 39 30.0000000  0  8G 1G25G20G 4G 6G29G13G22
 -20067259.38049 -15636819.51947  21279346.188    21279346.700
 -14526691.24249 -11319495.85946  22317215.801    22317216.002
 -24293415.15549 -18929928.75147  20736770.840    20736770.815
  -2881005.56848                  24776655.814
   -115290.48147                  25513390.534
    811143.60448    632054.74044  23927779.156    23927782.971
  -6510011.90448  -5072733.65244  23780719.616    23780721.024
 -22698868.78549 -17687428.90047  20325630.495    20325631.256
 02  1  5  1 40  0.0000000  0  8G 1G25G20G 4G 6G29G13G22
 -20124246.48149 -15681225.03947  21268501.909    21268502.455
 -14454885.31949 -11263543.22846  22330880.249    22330880.831
 -24264471.20149 -18907375.02447  20742278.620    20742278.803
  -2879897.63648                  24776866.946
   -120914.21147                  25512320.171
    897227.02148    699132.59444  23944160.161    23944165.367
  -6600842.08548  -5143510.40044  23763436.536    23763434.960
 -22731347.90249 -17712737.30547  20319449.758    20319450.354
 02  1  5  1 40 30.0000000  0  8G 1G25G20G 4G 6G29G13G22
 -20181002.11849 -15725450.19747  21257701.808    21257702.274
 -14382918.01949 -11207464.85446  22344574.860    22344575.145
 -24234915.86449 -18884344.90447  20747902.872    20747902.891
  -2878250.46548                  24777179.230
   -126048.97847                  25511342.986
    983482.46348    766344.43744  23960574.108    23960576.572
  -6691607.61648  -5214236.73744  23746163.390    23746163.885
 -22763167.04649 -17737531.44447  20313395.071    20313395.752
 02  1  5  1 41  0.0000000  0  8G 1G25G20G 4G 6G29G13G22
 -20237531.15349 -15769498.78347  21246944.212    21246944.982
 -14310796.87449 -11151266.60846  22358299.035    22358299.500
 -24204756.00549 -18860843.72547  20753641.708    20753641.765
  -2876070.56448  -2241095.20244  24777595.002    24777596.377
   -130700.36847                  25510458.246
   1069903.28748    833685.17044  23977019.741    23977024.586
  -6782313.96248  -5284916.96045  23728902.940    23728901.847
 -22794331.20149 -17761815.20147  20307464.573    20307465.175
 02  1  5  1 41 30.0000000  0  8G 1G25G20G 4G 6G29G13G22
 -20293835.55849 -15813372.33547  21236230.261    21236230.996
 -14238526.49049 -11094952.07146  22372052.400    22372052.352
 -24173995.89349 -18836874.81547  20759495.227    20759495.252
  -2873361.97748                  24778109.414
   -134870.77747                  25509664.483
   1156485.53948    901151.66744  23993496.590    23993497.762
  -6872963.07948  -5355552.56844  23711653.362    23711654.368
 -22824842.80049 -17785590.47347  20301658.449    20301659.326
 02  1  5  1 42  0.0000000  0  8G 1G25G20G 4G 6G29G13G22
 -20349919.44849 -15857074.05347  21225557.759    21225558.199
 -14166112.95549 -11038525.98846  22385831.691    22385832.552
 -24142641.72849 -18812443.00847  20765461.903    20765461.942
  -2870130.53648                  24778726.144
   -138565.00347                  25508961.558
   1243223.46148    968739.50344  24010001.801    24010004.294
  -6963558.90948  -5426146.79144  23694412.857    23694413.933
 -22854706.11049 -17808860.59047  20295975.630    20295976.215
 02  1  5  1 42 30.0000000  0  8G 1G25G20G 4G 6G29G13G22
 -20405793.44949 -15900612.22347  21214925.125    21214925.532
 -14093569.40249 -10981998.59146  22399636.129    22399636.779
 -24110706.33749 -18787558.29647  20771538.885    20771538.788
  -2866388.85848                  24779437.927
   -141794.42048                  25508347.219
   1330104.36748   1036438.70044  24026535.023    24026538.878
  -7054112.50348  -5496707.82744  23677181.292    23677182.393
 -22883931.99149 -17831634.00847  20290414.058    20290414.846
 02  1  5  1 43  0.0000000  0  8G 1G25G20G 4G 6G29G13G22
 -20461457.82749 -15943987.05147  21204332.875    21204333.298
 -14020899.22749 -10925372.52546  22413465.185    22413465.443
 -24078192.19949 -18762222.61847  20777725.794    20777726.145
  -2862139.29148                  24780246.807
   -144560.00148                  25507821.171
   1417126.42248   1104247.90644  24043095.183    24043097.571
  -7144624.43448  -5567236.57144  23659956.610    23659955.252
 -22912521.04849 -17853911.19847  20284973.666    20284974.269
 02  1  5  1 43 30.0000000  0  8G 1G25G20G 4G 6G29G13G22
 -20516899.87049 -15987188.62747  21193782.542    21193783.050
 -13948091.77849 -10868639.49646  22427319.706    22427320.708
 -24045088.93549 -18736427.87647  20784025.682    20784025.904
  -2857371.08448  -2226524.16644  24781154.034    24781154.306
   -146849.77248   -114428.14744  25507385.258    25507387.417
   1504299.93148   1172175.14744  24059683.172    24059686.404
  -7235082.31248  -5637723.21244  23642744.832    23642741.998
 -22940461.03349 -17875682.61847  20279656.947    20279657.703
 02  1  5  1 44  0.0000000  0  8G 1G25G20G 4G 6G29G13G22
 -20572120.79149 -16030217.91047  21183274.030    21183274.449
 -13875150.75649 -10811802.39146  22441199.976    22441200.566
 -24011399.84849 -18710176.65347  20790436.678    20790436.775
  -2852087.19848  -2222406.82244  24782160.939    24782160.524
   -148665.45348   -115843.01144  25507039.944    25507041.446
   1591622.21948   1240218.26044  24076301.407    24076303.283
  -7325487.36048  -5708168.67644  23625539.278    23625538.596
 -22967753.52249 -17896949.49647  20274463.330    20274463.993
 02  1  5  1 44 30.0000000  0  8G 1G25G20G 4G 6G29G13G22
 -20627117.89049 -16073072.77847  21172808.356    21172808.990
 -13802075.97749 -10754861.06246  22455106.037    22455106.739
 -23977124.70149 -18683468.75947  20796958.422    20796958.596
  -2846287.15148  -2217887.31544  24783264.895    24783264.009
   -150005.29748                  25506785.033
   1679093.88948   1308377.82544  24092946.292    24092949.475
  -7415837.25048  -5778571.15844  23608347.525    23608347.834
 -22994396.21349 -17917710.03747  20269393.183    20269393.780
 02  1  5  1 45  0.0000000  0  8G 1G20G25G 4G 6G29G13G22
 -20681896.67749 -16115757.53647  21162384.401    21162385.009
 -23942271.15649 -18656310.16247  20803591.072    20803591.281
 -13728875.30649 -10697821.63646  22469035.487    22469036.703
  -2839978.49248                  24784464.706
   -150875.51848                  25506619.310
   1766707.68348   1376648.10644  24109617.642    24109624.648
  -7506137.54548  -5848935.02744  23591163.580    23591164.278
 -23020395.07049 -17937968.89247  20264445.918    20264446.517
 02  1  5  1 45 30.0000000  0  8G 1G20G25G 4G 6G29G13G22
 -20736450.79249 -16158267.22647  21152002.950    21152003.547
 -23906835.40249 -18628697.89747  20810334.737    20810334.977
 -13655544.73149 -10640681.00446  22482989.650    22482990.302
  -2833156.74748                  24785763.616
   -151270.53348                  25506544.313
   1854468.10848   1445032.62444  24126318.949    24126324.098
  -7596382.05648  -5919255.35244  23573990.347    23573989.828
 -23045744.12449 -17957721.40847  20259622.309    20259622.857
 02  1  5  1 46  0.0000000  0  8G 1G20G25G 4G 6G29G13G22
 -20790759.42749 -16200585.63447  21141668.623    21141669.110
 -23870798.78349 -18600617.43047  20817192.262    20817192.362
 -13582065.92949 -10583424.85546  22496972.347    22496972.942
  -2825803.40648  -2201925.99944  24787163.009    24787166.339
   -151170.43448   -117794.31244  25506563.357    25506567.725
   1942393.91948   1513546.04644  24143050.720    24143051.364
  -7686550.23548  -5989516.24244  23556832.909    23556830.662
 -23070423.08549 -17976951.77247  20254925.847    20254926.418
 02  1  5  1 46 30.0000000  0  8G 1G20G25G 4G 6G29G13G22
 -20844820.19449 -16242710.90447  21131380.942    21131381.653
 -23834161.64649 -18572069.02547  20824163.525    20824163.772
 -13508439.24849 -10526053.47546  22510983.193    22510983.702
  -2817918.15648  -2195781.61144  24788663.604    24788664.233
   -150573.83248                  25506677.039
   2030485.41348   1582188.59044  24159814.615    24159818.339
  -7776639.91248  -6059715.96144  23539687.933    23539688.401
 -23094430.32649 -17995658.71647  20250357.258    20250357.877
 02  1  5  1 47  0.0000000  0  8G 1G20G25G 4G 6G29G13G22
 -20898652.61749 -16284658.24247  21121137.108    21121137.705
 -23796945.92749 -18543069.77847  20831245.487    20831245.539
 -13434686.44949 -10468583.82346  22525017.799    22525018.988
  -2809522.68648  -2189239.74344  24790261.624    24790259.956
   -149500.98148                  25506881.134
   2118721.36248   1650943.64644  24176604.902    24176610.622
  -7866670.72248  -6129869.78245  23522556.813    23522556.897
 -23117785.77649 -18013857.77347  20245913.279    20245913.863
 02  1  5  1 47 30.0000000  0  8G 1G20G25G 4G 6G29G13G22
 -20952261.39149 -16326431.30747  21110935.861    21110936.372
 -23759158.64049 -18513625.15547  20838436.307    20838436.406
 -13360814.77749 -10411021.54446  22539075.168    22539075.945
  -2800623.93648                  24791955.161
   -147957.58548                  25507174.908
   2207095.00048                  24193422.628
  -7956647.77448  -6199981.73044  23505433.833    23505434.224
 -23140494.77449 -18031553.10647  20241591.763    20241592.323
 02  1  5  1 48  0.0000000  0  8G 1G20G25G 4G 6G29G13G22
 -21005640.64249 -16368025.52147  21100777.990    21100778.340
 -23720796.32649 -18483732.45747  20845736.068    20845736.120
 -13286820.49649 -10353363.71746  22553155.809    22553156.426
  -2791217.98448                  24793745.502
   -145938.54248                  25507559.118
   2295610.53048   1788778.92144  24210266.725    24210270.090
  -8046565.04348  -6270047.11345  23488323.759    23488322.866
 -23162552.01849 -18048740.57447  20237394.394    20237395.004
 02  1  5  1 48 30.0000000  0  8G 1G20G25G 4G 6G29G13G22
 -21058788.57749 -16409439.49047  21090664.352    21090664.930
 -23681859.84949 -18453392.36047  20853145.671    20853145.967
 -13212704.37149 -10295610.96246  22567259.550    22567260.188
  -2781305.50248  -2167252.34744  24795631.215    24795631.747
   -143443.22348                  25508034.008
   2384267.47548   1857862.04844  24227137.332    24227140.733
  -8136420.94248  -6340064.66745  23471224.971    23471225.898
 -23183956.51049 -18065419.40347  20233321.338    20233321.899
 02  1  5  1 49  0.0000000  0  8G 1G20G25G 4G 6G29G13G22
 -21111699.70749 -16450668.93547  21080595.696    21080596.198
 -23642346.13349 -18422602.46747  20860665.363    20860665.357
 -13138463.63749 -10237761.10146  22581387.296    22581388.337
  -2770883.05448  -2159130.88144  24797614.714    24797613.940
   -140467.03648                  25508600.543
   2473069.60748                  24244036.529
  -8226210.54748  -6410030.58444  23454137.998    23454138.487
 -23204703.32049 -18081585.75547  20229373.522    20229374.269
 02  1  5  1 49 30.0000000  0  8G 1G20G25G 4G 6G29G13G22
 -21164370.89349 -16491711.40447  21070572.568    21070573.047
 -23602254.94349 -18391362.59547  20868293.949    20868294.331
 -13064097.43649 -10179813.48346  22595538.906    22595540.103
  -2759949.93748  -2150611.65444  24799695.155    24799693.953
   -137007.82948                  25509258.849
   2562017.68048                  24260962.800
  -8315930.80448  -6479942.40145  23437065.719    23437064.394
 -23224790.34149 -18097237.98747  20225550.873    20225551.604
 02  1  5  1 50  0.0000000  0  8G 1G20G25G 4G 6G29G13G22
 -21216801.26049 -16532566.23147  21060594.988    21060595.546
 -23561587.97949 -18359674.07147  20876032.633    20876032.905
 -12989607.40349 -10121769.37546  22609713.763    22609714.643
  -2748507.76148  -2141695.66944  24801872.931    24801873.662
   -133065.88548                  25510009.042
   2651110.68948   2065791.17144  24277915.872    24277921.639
  -8405580.84348  -6549799.53745  23420004.505    23420004.597
 -23244217.41349 -18112375.97047  20221853.868    20221854.612
 02  1  5  1 50 30.0000000  0  8G 1G20G25G 4G 6G29G13G22
 -21269006.76849 -16573245.84447  21050661.195    21050661.684
 -23520363.78749 -18327551.34247  20883877.860    20883877.951
 -12915012.17849 -10063643.29746  22623909.188    22623910.008
  -2736574.71948  -2132397.16644  24804143.968    24804140.368
   -128658.18748                  25510847.738
   2740330.70648   2135313.03744  24294894.175    24294892.921
  -8495176.86548  -6619614.58145  23402955.979    23402955.213
 -23263001.25949 -18127012.73647  20218279.718    20218280.294
 02  1  5  1 51  0.0000000  0  8G 1G20G25G 4G 6G29G13G22
 -21320971.92549 -16613738.16547  21040772.652    21040773.274
 -23478569.57149 -18294984.43847  20891830.695    20891830.777
 -12840298.39149 -10005424.82746  22638126.875    22638127.424
  -2724137.61148  -2122705.92044  24806509.948    24806507.937
   -123770.44548                  25511777.817
   2829691.17348                  24311899.580
  -8584703.35648  -6689375.46145  23385918.889    23385917.753
 -23281127.26449 -18141136.90047  20214830.172    20214830.887
 02  1  5  1 51 30.0000000  0  8G 1G20G25G 4G 6G29G13G22
 -21372699.93649 -16654045.70347  21030928.753    21030929.259
 -23436211.65349 -18261978.28947  20899891.115    20899891.422
 -12765472.21349  -9947118.77346  22652365.552    22652366.126
  -2711202.36448  -2112626.52144  24808971.110    24808972.516
   -118407.43148                  25512798.287
   2919186.67048   2274680.80444  24328929.822    24328935.323
  -8674164.17448  -6759085.14945  23368895.592    23368893.832
 -23298599.80249 -18154751.87247  20211505.473    20211506.285
 02  1  5  1 52  0.0000000  0  8G 1G20G25G 4G 6G29G13G22
 -21424172.22549 -16694153.97447  21021133.736    21021134.462
 -23393273.76149 -18228520.21147  20908062.271    20908062.199
 -12690517.21249  -9888712.35246  22666629.798    22666630.193
  -2697752.66148  -2102146.21844  24811530.826    24811531.293
   -112551.22848                  25513912.576
   3008833.80948   2344535.52744  24345989.628    24345995.409
  -8763540.90348  -6828729.33345  23351887.610    23351887.106
 -23315401.08249 -18167843.78947  20208308.280    20208308.887
 02  1  5  1 52 30.0000000  0  7G 1G20G25G 4G29G13G22
 -21475391.14049 -16734064.81447  21011387.114    21011387.738
 -23349760.96649 -18194614.16147  20916342.302    20916342.496
 -12615438.03449  -9830209.18046  22680916.597    22680917.211
  -2683793.06048  -2091268.60844  24814186.589    24814188.418
   3098628.36148                  24363075.776
  -8852835.66348  -6898309.61345  23334894.769    23334895.526
 -23331534.25749 -18180415.10647  20205238.299    20205239.031
 02  1  5  1 53  0.0000000  0  7G 1G20G25G 4G29G13G22
 -21526363.58249 -16773783.59847  21001687.608    21001688.189
 -23305682.83249 -18160267.58647  20924729.959    20924730.308
 -12540243.76549  -9771616.31446  22695225.293    22695225.868
  -2669332.99648  -2080001.02144  24816938.182    24816937.566
   3188561.41248                  24380191.685
  -8942055.48548  -6967831.51345  23317917.465    23317917.472
 -23347007.14949 -18192471.91947  20202293.918    20202294.562
 02  1  5  1 53 30.0000000  0  7G 1G20G25G 4G29G13G22
 -21577119.80449 -16813333.90147  20992028.980    20992029.529
 -23261072.49549 -18125506.30747  20933219.131    20933219.152
 -12464967.39249  -9712959.47346  22709550.149    22709550.453
  -2654405.26548  -2068369.04844  24819779.205    24819780.256
   3278600.68848                  24397324.838
  -9031230.77848  -7037318.73145  23300947.056    23300946.480
 -23361850.99449 -18204038.56247  20199469.295    20199470.079
 02  1  5  1 54  0.0000000  0  7G 1G20G25G 4G29G13G22
 -21627619.47149 -16852684.28847  20982419.244    20982419.714
 -23215892.37949 -18090301.04447  20941816.834    20941817.057
 -12389570.83049  -9654208.98846  22723897.410    22723899.289
  -2638971.82848                  24822714.578
   3368784.45348                  24414486.076
  -9120320.90748  -7106739.57045  23283994.514    23283995.472
 -23376026.61549 -18215084.50947  20196771.741    20196772.390
 02  1  5  1 54 30.0000000  0  8G 1G20G25G 4G27G29G13G22
 -21677846.00249 -16891821.84147  20972861.616    20972862.177
 -23170128.97249 -18054641.27347  20950524.818    20950525.322
 -12314040.12149  -9595353.97646  22738270.358    22738271.384
  -2623018.78148  -2043912.03544  24825749.844    24825751.040
         -.31958          .19654  25603919.025    25603923.807
   3459127.17648                  24431678.074
  -9209310.26148  -7176081.88845  23267059.815    23267059.465
 -23389518.49549 -18225597.67347  20194204.214    20194204.810
 02  1  5  1 55  0.0000000  0  8G 1G20G25G 4G27G29G13G22
 -21727787.99949 -16930737.68047  20963357.773    20963358.389
 -23123773.67549 -18018520.28747  20959346.240    20959346.505
 -12238365.87449  -9536387.10946  22752671.113    22752672.080
  -2606537.36948                  24828886.236
    -84791.84148    -66071.10944  25587781.873    25587786.290
   3549638.04448                  24448901.766
  -9298187.42348  -7245336.78445  23250147.867    23250147.963
 -23402316.56649 -18235570.20947  20191768.752    20191769.421
 02  1  5  1 55 30.0000000  0  8G 1G20G25G 4G27G29G13G22
 -21777460.91549 -16969443.84447  20953905.333    20953905.887
 -23076844.92949 -17981952.45747  20968276.909    20968276.845
 -12162566.21549  -9477322.51346  22767095.249    22767096.154
  -2589545.65648  -2017829.13844  24832119.428    24832119.080
   -169512.75048   -132087.37344  25571662.010    25571665.518
   3640299.58548                  24466154.897
  -9386967.71548  -7314516.22245  23233253.449    23233252.869
 -23414436.98249 -18245014.70347  20189462.391    20189462.985
 02  1  5  1 56  0.0000000  0  8G 1G20G25G 4G27G29G13G22
 -21826881.66649 -17007953.51447  20944501.078    20944501.643
 -23029362.47549 -17944953.17047  20977312.210    20977312.686
 -12086660.75549  -9418175.47946  22781539.661    22781541.020
  -2572063.14348                  24835445.341
   -254181.23148                  25555548.035
   3731092.60048                  24483432.738
  -9475668.39548  -7383633.60645  23216373.697    23216373.660
 -23425898.35149 -18253945.65347  20187281.424    20187282.050
 02  1  5  1 56 30.0000000  0  8G20G 1G25G 4G27G29G13G22
 -22981332.32649 -17907527.10747  20986452.093    20986452.455
 -21876053.23249 -17046269.01847  20935143.664    20935144.245
 -12010654.95849  -9358950.26146  22796003.411    22796003.917
  -2554095.41948                  24838864.459
   -338801.18348   -264000.38444  25539446.449    25539449.929
   3822012.17348                  24500733.477
  -9564292.56048  -7452691.36045  23199509.405    23199509.024
 -23436704.77049 -18262366.25047  20185225.047    20185225.809
 02  1  5  1 57  0.0000000  0  8G20G 1G25G 4G27G29G13G22
 -22932764.20549 -17869681.84647  20995694.742    20995694.893
 -21924982.45649 -17084395.69047  20925832.854    20925833.496
 -11934558.02549  -9299654.01846  22810483.802    22810484.869
  -2535652.00748  -1975834.08644  24842375.256    24842372.339
   -423380.38648   -329906.24844  25523351.294    25523355.086
   3913049.34048                  24518057.843
  -9652846.98348  -7521694.76945  23182657.767    23182656.100
 -23446864.02649 -18270282.56547  20183291.677    20183292.518
 02  1  5  1 57 30.0000000  0  8G20G 1G25G 4G27G29G13G22
 -22883645.89049 -17831407.86447  21005041.292    21005041.678
 -21973654.14349 -17122321.68547  20916571.090    20916571.734
 -11858356.98949  -9240276.68446  22824984.870    22824985.497
  -2516720.39848  -1961082.21344  24845977.743    24845980.610
   -507904.63248   -395769.30244  25507267.846    25507270.937
   4004217.19048                  24535407.076
  -9741316.61248  -7590632.13745  23165822.669    23165822.335
 -23456362.43349 -18277683.93447  20181484.261    20181485.015
 02  1  5  1 58  0.0000000  0  8G20G 1G25G 4G27G29G13G22
 -22833984.02849 -17792710.34147  21014491.119    21014491.483
 -22022071.64749 -17160049.61447  20907357.620    20907358.254
 -11782057.65249  -9180822.74346  22839504.326    22839505.097
  -2497306.71648  -1945954.69944  24849672.080    24849675.293
   -592378.73848   -461593.20744  25491192.688    25491194.126
   4095510.11548                  24552779.561
  -9829705.00648  -7659506.19545  23149003.272    23149002.859
 -23465204.62849 -18284573.97147  20179801.740    20179802.572
 02  1  5  1 58 30.0000000  0  8G20G 1G25G 4G27G29G13G22
 -22783778.60749 -17753589.26347  21024045.811    21024045.803
 -22070231.94949 -17197577.12247  20898192.945    20898193.422
 -11705659.68049  -9121291.93646  22854041.384    22854042.261
  -2477410.86148  -1930451.44444  24853458.522    24853456.616
   -676800.69148   -527376.46744  25475127.610    25475128.715
   4186928.84048                  24570176.710
  -9918009.68148  -7728314.99945  23132198.987    23132198.090
 -23473389.15049 -18290951.53547  20178244.245    20178245.123
 02  1  5  1 59  0.0000000  0  8G20G 1G25G 4G27G29G13G22
 -22733032.73849 -17714047.06047  21033701.814    21033702.146
 -22118135.13749 -17234904.28447  20889077.165    20889077.724
 -11629164.86949  -9061685.67246  22868599.014    22868600.032
  -2457035.42048  -1914574.53044  24857336.680    24857339.784
   -761171.36448   -593119.83844  25459072.791    25459077.988
   4278471.44348                  24587595.482
 -10006230.01949  -7797058.11245  23115412.012    23115410.865
 -23480917.22349 -18296817.58347  20176811.708    20176812.497
 02  1  5  1 59 30.0000000  0  8G20G 1G25G 4G27G29G13G22
 -22681742.49749 -17674080.67147  21043462.028    21043462.539
 -22165774.44549 -17272025.82947  20880011.685    20880012.519
 -11552569.11149  -9002000.76146  22883174.438    22883176.139
  -2436175.96248  -1898320.41544  24861306.306    24861304.348
   -845484.78048   -658818.53244  25443028.165    25443033.162
   4370142.58048                  24605041.952
 -10094359.66648  -7865730.54245  23098640.110    23098639.437
 -23487783.25449 -18302167.74947  20175505.280    20175506.062
 02  1  5  2  0  0.0000000  0  8G20G 1G25G 4G27G29G13G22
 -22629899.83449 -17633683.82246  21053328.152    21053328.238
 -22213138.54949 -17308932.93547  20870998.541    20870999.438
 -11475863.64649  -8942230.35846  22897770.429    22897771.727
  -2414824.33148  -1881682.74844  24865369.425    24865372.072
   -929730.96048   -724464.89544  25426995.574    25426997.972
   4461951.22448                  24622510.745
 -10182387.21349  -7934323.42845  23081890.924    23081889.043
 -23493977.62549 -18306994.54347  20174326.453    20174327.215
 02  1  5  2  0 30.0000000  0  8G20G 1G25G 4G27G29G13G22
 -22577505.81949 -17592857.35447  21063297.913    21063298.211
 -22260225.42349 -17345624.01747  20862038.079    20862039.005
 -11399048.67449  -8882374.62246  22912388.604    22912389.181
  -2392981.55148  -1864662.41544  24869526.317    24869523.164
  -1013909.14348   -790058.22844  25410977.613    25410977.253
   4553897.41348                  24640008.570
 -10270310.81448  -8002835.32445  23065157.716    23065158.052
 -23499499.72949 -18311297.49747  20173275.431    20173276.206
 02  1  5  2  1  0.0000000  0  8G20G 1G25G 4G27G29G13G22
 -22524561.69949 -17551602.23346  21073372.802    21073373.146
 -22307033.00549 -17382097.47247  20853131.119    20853131.821
 -11322124.71849  -8822433.96846  22927026.527    22927028.790
  -2370648.05048  -1847259.73544  24873776.053    24873776.421
  -1098018.16448   -855597.66344  25394971.826    25394973.693
   4645980.81548                  24657532.239
 -10358128.61149  -8071264.74045  23048447.257    23048446.071
 -23504348.99649 -18315076.16647  20172352.783    20172353.753
 02  1  5  2  1 30.0000000  0  8G20G 1G25G 4G27G29G13G22
 -22471065.75449 -17509917.11446  21083553.168    21083553.306
 -22353556.53649 -17418349.58847  20844278.190    20844278.980
 -11245089.22849  -8762406.40846  22941685.976    22941686.880
  -2347822.00148  -1829473.20944  24878119.698    24878120.250
  -1182054.35948   -921080.34344  25378981.328    25378982.090
   4738204.27048                  24675081.544
 -10445835.84649  -8139608.01445  23031757.844    23031757.570
 -23508522.15549 -18318327.99947  20171558.643    20171559.540
 02  1  5  2  2  0.0000000  0  7G20G 1G25G27G29G13G22
 -22417049.37649 -17467826.46446  21093831.636    21093831.914
 -22399823.89949 -17454402.09147  20835473.389    20835474.236
 -11167972.57949  -8702315.60046  22956360.913    22956361.477
  -1266046.91848   -986529.02544  25362997.036    25362999.798
   4830537.47248                  24692652.767
 -10533460.76949  -8207887.16545  23015082.165    23015082.497
 -23512048.84149 -18321076.08347  20170887.698    20170888.529
 02  1  5  2  2 30.0000000  0  7G20G 1G25G27G29G13G22
 -22362499.20849 -17425319.87646  21104212.210    21104212.645
 -22445818.62049 -17490242.14947  20826721.134    20826721.952
 -11090760.57549  -8642150.49846  22971054.022    22971055.388
  -1349980.45148  -1051931.73044  25347025.659    25347028.198
   4922994.74748                  24710245.545
 -10620986.43949  -8276088.96745  22998427.704    22998425.496
 -23514914.07749 -18323308.75247  20170342.277    20170343.090
 02  1  5  2  3  0.0000000  0  7G20G 1G25G27G29G13G22
 -22307422.43549 -17382402.94846  21114693.607    21114693.591
 -22491544.73849 -17525872.90447  20818019.775    20818020.249
 -11013459.74348  -8581916.17945  22985763.839    22985766.268
  -1433859.97148  -1117292.36744  25331063.299    25331066.934
   5015569.67048                  24727863.111
 -10708417.38449  -8344216.97445  22981789.027    22981787.234
 -23517123.60149 -18325030.47747  20169921.884    20169922.625
 02  1  5  2  3 30.0000000  0  8G20G 1G25G 3G27G29G13G22
 -22251827.43449 -17339082.20446  21125272.603    21125272.747
 -22537007.23649 -17561298.23747  20809368.543    20809369.084
 -10936077.09248  -8521618.10845  23000489.044    23000489.965
         -.84858                  25216029.926
  -1517691.61448  -1182615.57744  25315110.340    25315114.002
   5108255.34848                  24745500.394
 -10795758.45249  -8412274.94145  22965169.332    22965168.802
 -23518683.96649 -18326246.36747  20169625.106    20169625.853
 02  1  5  2  4  0.0000000  0  8G20G 1G25G 3G27G29G13G22
 -22195691.34349 -17295339.83446  21135955.023    21135955.163
 -22582180.06649 -17596497.86247  20800772.652    20800773.211
 -10858589.22749  -8461238.04745  23015235.247    23015236.512
    -89379.07948                  25199021.921
  -1601450.23648  -1247881.97944  25299172.209    25299173.665
   5201075.59048                  24763163.931
 -10882983.30149  -8480242.36045  22948570.628    22948569.847
 -23519570.69949 -18326937.35047  20169456.225    20169457.044
 02  1  5  2  4 30.0000000  0  8G20G25G 1G 3G27G29G13G22
 -22139011.31049 -17251173.61346  21146740.797    21146741.002
 -10780992.25848  -8400772.97045  23030000.518    23030002.673
 -22627057.17749 -17631467.05047  20792232.704    20792233.241
   -178810.30248                  25182004.340
  -1685131.33148  -1313087.96744  25283247.553    25283250.779
   5294034.06248                  24780853.534
 -10970086.12749  -8548114.67645  22931995.453    22931995.277
 -23519779.55849 -18327100.12147  20169416.519    20169417.443
 02  1  5  2  5  0.0000000  0  8G20G25G 1G 3G27G29G13G22
 -22081808.93049 -17206600.37146  21157626.403    21157626.834
 -10703306.67848  -8340238.85545  23044784.463    23044785.274
 -22671656.72349 -17666219.95947  20783745.780    20783746.283
   -268311.67848                  25164973.011
  -1768754.00148  -1378248.43044  25267335.255    25267334.220
   5387110.41248                  24798565.318
 -11057085.47149  -8615906.36845  22915439.821    22915439.852
 -23519330.60849 -18326750.31447  20169501.742    20169502.648
 02  1  5  2  5 30.0000000  0  8G20G25G 1G 3G27G29G13G22
 -22024083.68249 -17161619.69946  21168610.548    21168610.910
 -10625530.96048  -8279634.51145  23059585.142    23059586.931
 -22715974.60949 -17700753.38947  20775312.668    20775313.118
   -357877.58548                  25147928.088
  -1852315.24748  -1443361.01444  25251433.427    25251435.536
   5480306.57448                  24816300.338
 -11143977.21149  -8683614.20545  22898904.655    22898904.338
 -23518221.28149 -18325885.92847  20169712.816    20169714.051
 02  1  5  2  6  0.0000000  0  7G20G25G 1G27G29G13G22
 -21965836.50149 -17116232.32646  21179694.931    21179695.342
 -10547665.24348  -8218960.02845  23074401.586    23074404.079
 -22760008.48549 -17735065.51847  20766932.821    20766933.235
  -1935813.91248  -1508424.84544  25235544.375    25235546.098
   5573622.91447                  24834057.452
 -11230758.45749  -8751235.95945  22882391.866    22882390.993
 -23516451.16549 -18324506.64047  20170049.846    20170051.001
 02  1  5  2  6 30.0000000  0  7G20G25G 1G27G29G13G22
 -21907075.06049 -17070444.23446  21190876.884    21190877.320
 -10469716.27148  -8158220.67645  23089235.349    23089236.861
 -22803763.00949 -17769159.96947  20758606.467    20758607.074
  -2019255.77348  -1573444.37944  25219665.790    25219668.443
   5667052.23648                  24851837.852
 -11317433.94849  -8818775.29045  22865896.905    22865896.763
 -23514026.62849 -18322617.41947  20170511.163    20170512.259
 02  1  5  2  7  0.0000000  0  7G20G25G13G 1G 3G27G22
 -21847794.79249 -17024251.86446  21202157.690    21202158.185
 -10391678.09148  -8097411.80145  23104086.053    23104086.993
 -11403995.47149  -8886225.82745  22849425.849    22849424.706
 -22847229.83349 -17803030.23847  20750335.187    20750335.999
         -.69058                  25096727.801
  -2102633.55948  -1638414.04744  25203799.279    25203801.354
 -23510941.29849 -18320213.29247  20171098.586    20171099.699
 02  1  5  2  7 30.0000000  0  7G20G25G13G 1G27G 4G22
 -21787996.36849 -16977655.73046  21213536.560    21213537.164
 -10313550.51848  -8036533.28545  23118952.589    23118954.514
 -11490440.67349  -8953585.71945  22832975.261    22832974.849
 -22890406.50649 -17836674.41447  20742118.898    20742119.514
  -2185945.75648  -1703332.58544  25187946.346    25187948.543
        -1.03458         -.73254  24937212.087    24937211.176
 -23507194.37149 -18317293.63147  20171811.301    20171812.413
 02  1  5  2  8  0.0000000  0  7G20G25G 1G27G 4G13G22
 -21727669.91249 -16930648.15046  21225016.563    21225017.164
 -10235322.25048  -7975576.28345  23133839.653    23133840.522
 -22933279.26349 -17870081.77547  20733960.489    20733961.227
  -2269180.07748  -1768190.43244  25172107.162    25172109.139
     28916.32848     22532.29944  24942715.499    24942715.682
 -11576755.85249  -9020844.28845  22816549.986    22816549.736
 -23502774.38849 -18313849.51347  20172652.720    20172653.920
 02  1  5  2  8 30.0000000  0  7G20G25G13G 1G27G 4G22
 -21666826.38649 -16883237.65846  21236594.945    21236595.430
 -10157003.14048  -7914548.50745  23148743.000    23148744.172
 -11662948.63349  -9088007.50545  22800148.266    22800146.790
 -22975855.88049 -17903258.37447  20725858.705    20725859.467
  -2352345.35948  -1832994.46344  25156281.070    25156280.739
     58295.92448     45425.50244  24948305.381    24948305.956
 -23497690.77649 -18309888.28247  20173619.516    20173620.916
 02  1  5  2  9  0.0000000  0  7G20G25G13G 1G27G 4G22
 -21605486.74149 -16835440.57746  21248267.132    21248267.940
 -10078612.63548  -7853465.10045  23163660.662    23163662.667
 -11749036.24349  -9155088.77045  22783766.349    22783764.928
 -23018153.58549 -17936217.64047  20717809.917    20717810.592
  -2435459.95248  -1897759.06644  25140465.482    25140468.345
     88117.67848     68663.24644  24953979.965    24953982.283
 -23491963.01649 -18305425.12147  20174709.659    20174711.204
 02  1  5  2  9 30.0000000  0  8G20G25G13G 1G 3G27G 4G22
 -21543656.49449 -16787261.21446  21260033.456    21260034.092
 -10000155.44248  -7792329.73245  23178590.830    23178592.941
 -11835020.88949  -9222089.79045  22767403.769    22767403.550
 -23060174.29149 -17968961.06447  20709813.668    20709814.395
         -.04158                  25011204.505
  -2518527.15748  -1962486.69344  25124657.495    25124658.736
    118376.28048     92241.38044  24959738.057    24959741.255
 -23485595.10749 -18300463.14247  20175921.272    20175922.700
 02  1  5  2 10  0.0000000  0  8G20G25G13G 1G 3G27G 4G22
 -21481310.06349 -16738679.62646  21271897.519    21271898.011
  -9921604.36548  -7731121.21145  23193538.114    23193539.113
 -11920873.35349  -9288987.80345  22751066.971    22751065.677
 -23101888.86149 -18001465.94347  20701875.263    20701875.896
    -90016.97348                  24994074.953
  -2601518.90548  -2027155.52544  25108865.300    25108865.583
    149097.52448    116179.98544  24965583.661    24965586.872
 -23478559.90649 -18294981.19647  20177260.423    20177261.884
 02  1  5  2 10 30.0000000  0  8G20G25G13G 1G 3G27G 4G22
 -21418453.22549 -16689700.32346  21283858.560    21283859.217
  -9842964.08448  -7669843.18845  23208503.072    23208504.224
 -12006595.67549  -9355784.43545  22734754.364    22734754.048
 -23143299.55249 -18033734.03547  20693995.052    20693995.642
   -180063.15548                  24976941.831
  -2684438.64648  -2091768.26744  25093085.633    25093088.455
    180275.96448    140474.87144  24971517.510    24971515.671
 -23470861.84449 -18288982.73747  20178725.525    20178726.941
 02  1  5  2 11  0.0000000  0  8G20G25G13G 1G 3G27G 4G22
 -21355104.74249 -16640337.92146  21295913.980    21295914.474
  -9764252.08248  -7608509.27445  23223482.150    23223483.968
 -12092202.79649  -9422491.28945  22718463.606    22718463.539
 -23184421.61749 -18065777.22147  20686169.821    20686170.411
   -270152.42748                  24959797.232
  -2767302.68248  -2156337.58344  25077317.433    25077319.210
    211893.22148    165111.68444  24977534.396    24977534.480
 -23462518.11149 -18282481.15747  20180312.622    20180313.962
 02  1  5  2 11 30.0000000  0  8G20G 1G25G 3G27G 4G13G22
 -21291263.88949 -16590591.85546  21308062.059    21308062.647
 -23225250.62949 -18097592.05747  20678400.536    20678401.089
  -9685466.37248  -7547117.93045  23238474.309    23238476.554
   -360278.67248                  24942648.046
  -2850107.83648  -2220861.03845  25061559.733    25061561.694
    243950.50548    190091.35644  24983634.757    24983636.991
 -12177690.75349  -9489105.28545  22702196.221    22702194.534
 -23453526.40049 -18275474.66147  20182023.854    20182025.174
 02  1  5  2 12  0.0000000  0  8G20G25G13G 1G 3G27G 4G22
 -21226902.40049 -16540440.09446  21320309.477    21320310.027
  -9606577.50048  -7485646.20745  23253486.173    23253488.518
 -12263027.66349  -9555601.59946  22685957.591    22685955.597
 -23265754.90049 -18129153.84847  20670692.930    20670693.379
   -450409.11148                  24925497.225
  -2932823.50548  -2285314.74644  25045819.411    25045820.284
    276476.20548    215436.05744  24989824.504    24989824.070
 -23443857.25049 -18267940.28847  20183863.931    20183865.509
 02  1  5  2 12 30.0000000  0  8G20G25G13G 1G 3G27G 4G22
 -21162024.68049 -16489886.07746  21332655.828    21332656.413
  -9527588.35848  -7424096.35745  23268517.885    23268518.732
 -12348213.88749  -9621980.46345  22669745.637    22669745.457
 -23305935.08949 -18160463.10747  20663046.953    20663047.508
   -540542.78548                  24908343.375
  -3015451.67148  -2349700.29644  25030096.292    25030096.579
    309466.36848    241142.71644  24996101.903    24996105.396
 -23433513.44449 -18259880.20747  20185832.436    20185833.883
 02  1  5  2 13  0.0000000  0  8G20G25G13G 1G 3G27G 4G22
 -21096653.16649 -16438947.29446  21345095.612    21345096.253
  -9448519.96848  -7362484.74845  23283563.432    23283565.741
 -12433268.16849  -9688256.54945  22653562.242    22653559.748
 -23345809.92949 -18191534.43547  20655459.170    20655459.648
   -630697.21348                  24891188.459
  -3098012.24948  -2414033.15944  25014384.932    25014387.019
    342899.01648    267194.08344  25002464.032    25002465.272
 -23422516.05849 -18251310.84347  20187925.325    20187926.771
 02  1  5  2 13 30.0000000  0  8G20G25G13G 1G 3G27G 4G22
 -21030798.64749 -16387632.13946  21357627.168    21357627.735
  -9369381.95948  -7300818.89745  23298623.287    23298624.037
 -12518197.50749  -9754435.27645  22637399.287    22637398.294
 -23385386.55249 -18222373.38847  20647927.904    20647928.406
   -720878.25048                  24874027.288
  -3180513.59748  -2478319.89944  24998685.862    24998687.679
    376763.50348    293582.04344  25008907.193    25008906.210
 -23410874.39749 -18242239.44147  20190140.766    20190142.165
 02  1  5  2 14  0.0000000  0  8G20G25G13G 1G 3G27G 4G22
 -20964480.49249 -16335955.70646  21370247.480    21370248.033
  -9290192.16548  -7239112.70545  23313693.340    23313695.047
 -12603017.78349  -9820529.00345  22621259.129    22621258.388
 -23424680.82349 -18252992.32747  20640450.534    20640451.080
   -811100.25348                  24856858.024
  -3262972.59448  -2542573.62144  24982994.210    24982995.465
    411040.77248                  25015429.537
 -23398606.56749 -18232680.12447  20192475.214    20192476.411
 02  1  5  2 14 30.0000000  0  8G20G25G13G 1G 3G27G 4G22
 -20897668.03149 -16283894.10746  21382961.344    21382962.281
  -9210918.42848  -7177341.08445  23328777.615    23328780.302
 -12687694.21549  -9886510.66345  22605146.098    22605145.523
 -23463658.36449 -18283364.46747  20633033.427    20633033.877
   -901327.46448                  24839688.995
  -3345355.99848  -2606768.45644  24967317.214    24967317.020
    445762.13748                  25022037.023
 -23385680.36249 -18222607.78947  20194935.199    20194936.407
 02  1  5  2 15  0.0000000  0  8G20G25G13G 1G 3G27G 4G22
 -20830371.85149 -16231455.58046  21395767.295    21395768.381
  -9131569.97648  -7115511.27045  23343877.739    23343880.085
 -12772233.83349  -9952385.70246  22589057.757    22589056.554
 -23502325.91949 -18313495.05947  20625675.217    20625675.710
   -991565.51848                  24822516.966
  -3427671.85148  -2670910.65344  24951652.880    24951655.740
    480917.29148    374740.76144  25028727.419    25028724.465
 -23372105.01149 -18212029.61947  20197518.554    20197519.834
 02  1  5  2 15 30.0000000  0  8G20G25G13G 1G 3G27G 4G22
 -20762580.98549 -16178631.59246  21408667.596    21408668.293
  -9052134.21448  -7053613.39845  23358994.115    23358995.816
 -12856621.70949 -10018142.49745  22573000.481    22572999.459
 -23540668.85149 -18343372.70447  20618378.534    20618379.019
  -1081798.20448                  24805346.208
  -3509906.81848  -2734989.79944  24936004.054    24936006.978
    516517.10848                  25035502.902
 -23357868.09249 -18200935.94347  20200227.556    20200228.876
 02  1  5  2 16  0.0000000  0  8G20G25G13G 1G 3G27G 4G22
 -20694304.86349 -16125429.47846  21421660.326    21421660.975
  -8972619.19248  -6991653.79145  23374124.512    23374127.846
 -12940863.70549 -10083785.62446  22556968.757    22556968.058
 -23578692.85149 -18373001.83047  20611143.066    20611143.527
  -1172029.73548                  24788174.698
  -3592067.77348  -2799011.29344  24920369.042    24920370.923
    552552.86848                  25042359.971
 -23342977.98349 -18189333.29147  20203060.964    20203062.389
 02  1  5  2 16 30.0000000  0  8G20G25G13G 1G 3G27G 4G22
 -20625547.42049 -16071852.31046  21434743.923    21434744.894
  -8893027.40548  -6929634.37845  23389271.442    23389273.051
 -13024959.44949 -10149314.79146  22540966.310    22540964.902
 -23616398.02849 -18402382.52447  20603968.117    20603968.601
  -1262258.66548                  24771005.669
  -3674155.94148  -2862976.03544  24904748.683    24904750.039
    589020.81848                  25049299.492
 -23327437.02249 -18177223.48247  20206018.210    20206019.632
 02  1  5  2 17  0.0000000  0  8G20G25G13G 1G 3G27G 4G22
 -20556332.84949 -16017918.93846  21447915.416    21447915.936
  -8813381.11748  -6867572.46445  23404427.391    23404428.699
 -13108929.16849 -10214745.75746  22524987.686    22524986.949
 -23653804.55349 -18431530.50247  20596849.828    20596850.348
  -1352503.92248                  24753832.920
  -3756192.98248  -2926900.97344  24889137.120    24889136.612
    625897.27948                  25056316.130
 -23311267.99849 -18164624.27247  20209095.115    20209096.597
 02  1  5  2 17 30.0000000  0  8G20G25G13G 1G 3G27G 4G22
 -20486645.82049 -15963617.41946  21461176.407    21461176.953
  -8733663.54148  -6805455.04045  23419596.667    23419599.505
 -13192753.88349 -10280063.72946  22509035.654    22509034.853
 -23690893.54849 -18460431.05547  20589792.133    20589792.788
  -1442745.39648                  24736660.059
  -3838160.99848  -2990772.11144  24873539.489    24873542.990
    663197.83848                  25063413.950
 -23294454.37849 -18151522.77847  20212294.909    20212296.164
 02  1  5  2 18  0.0000000  0  8G20G25G13G 1G 3G27G 4G22
 -20416483.78949 -15908945.76746  21474528.188    21474528.645
  -8653870.77348  -6743279.01145  23434781.873    23434783.840
 -13276427.11449 -10345263.67846  22493114.114    22493112.637
 -23727658.68449 -18489079.24647  20582796.065    20582796.966
  -1532974.90648                  24719489.739
  -3920054.83348  -3054585.45644  24857955.403    24857956.692
    700925.39048                  25070592.603
 -23276992.13449 -18137915.86647  20215617.864    20215619.253
 02  1  5  2 18 30.0000000  0  8G20G25G13G 1G 3G27G 4G22
 -20345857.77949 -15853912.58046  21487967.986    21487968.169
  -8574011.90148  -6681051.48045  23449977.432    23449980.605
 -13359955.48949 -10410350.74546  22477218.271    22477217.815
 -23764106.90149 -18517480.49047  20575859.933    20575860.736
  -1623198.44848                  24702320.713
  -4001882.64548  -3118347.37744  24842384.576    24842386.436
    739069.44048                  25077851.877
 -23258891.03249 -18123811.14047  20219062.669    20219064.036
 02  1  5  2 19  0.0000000  0  8G20G25G13G 1G 3G27G 4G22
 -20274765.82049 -15798516.31246  21501496.393    21501496.612
  -8494083.44848  -6618769.74845  23465188.202    23465191.307
 -13443333.50949 -10475320.65446  22461353.212    22461351.688
 -23800232.56549 -18545630.39647  20568985.479    20568986.309
  -1713408.61648                  24685154.344
  -4083640.21248  -3182054.53244  24826825.049    24826827.543
    777631.86048                  25085190.973
 -23240147.95449 -18109206.17547  20222629.345    20222630.609
 02  1  5  2 19 30.0000000  0  8G20G25G13G 1G 3G27G 4G22
 -20203209.58249 -15742758.26746  21515112.979    21515113.787
  -8414085.40048  -6556433.76845  23480411.468    23480414.341
 -13526558.75249 -10540171.52546  22445515.598    22445514.022
 -23836033.49049 -18573527.25947  20562172.698    20562173.405
  -1803601.90448                  24667991.232
  -4165326.27748  -3245705.99244  24811283.081    24811281.683
    816611.49248                  25092608.905
 -23220763.23649 -18094101.23347  20226318.108    20226319.317
 02  1  5  2 20  0.0000000  0  8G20G25G 1G 3G27G 4G13G22
 -20131175.11449 -15686627.57846  21528820.759    21528821.358
  -8334002.17848  -6494031.43345  23495650.016    23495652.232
 -23871491.96249 -18601157.27847  20555425.223    20555426.361
  -1893758.98548                  24650835.321
  -4246924.21548  -3309288.83244  24795753.281    24795758.494
    856022.77948                  25100108.492
 -13609613.19649 -10604889.29446  22429709.960    22429709.876
 -23200721.46149 -18078484.29847  20230132.082    20230133.299
 02  1  5  2 20 30.0000000  0  8G20G25G 1G 3G27G 4G13G22
 -20058686.89849 -15630143.31946  21542614.855    21542615.691
  -8253856.64348  -6431580.53345  23510902.596    23510905.173
 -23906628.37749 -18628536.34547  20548738.915    20548739.818
  -1983898.97048                  24633681.592
  -4328455.93048  -3372820.00744  24780239.748    24780239.638
    895841.37848                  25107684.999
 -13692516.90949 -10669489.61746  22413935.043    22413933.553
 -23180046.02949 -18062373.60247  20234066.443    20234067.812
 02  1  5  2 21  0.0000000  0  8G20G25G 1G 3G27G 4G13G22
 -19985737.83649 -15573299.96546  21556496.464    21556497.106
  -8173639.89948  -6369074.12645  23526166.601    23526170.009
 -23941431.80249 -18655655.93447  20542116.289    20542117.125
  -2074009.43348                  24616534.370
  -4409911.63348  -3436291.94744  24764738.490    24764742.819
    936074.95148                  25115339.748
 -13775259.06849 -10733964.05346  22398188.851    22398188.261
 -23158728.54149 -18045762.60647  20238123.073    20238124.449
 02  1  5  2 21 30.0000000  0  8G20G25G 1G 3G27G 4G13G22
 -19912334.56749 -15516102.68546  21570465.026    21570465.774
  -8093356.57348  -6306515.89145  23541444.237    23541446.985
 -23975904.96349 -18682518.17147  20535556.330    20535557.068
  -2164091.70748                  24599392.474
  -4491295.34048  -3499707.84844  24749251.066    24749251.941
    976717.18848    761078.13044  25123074.009    25123079.166
 -13857842.02849 -10798314.45246  22382475.118    22382473.548
 -23136774.36049 -18028655.48947  20242300.723    20242302.143
 02  1  5  2 22  0.0000000  0  8G20G25G 1G 3G27G 4G13G22
 -19838490.24449 -15458561.72446  21584516.946    21584517.495
  -8013018.45548  -6243914.91345  23556732.891    23556735.652
 -24010057.22149 -18709130.35947  20529057.336    20529058.090
  -2254153.52248  -1756478.89344  24582254.510    24582257.066
  -4572617.59948  -3563075.83744  24733776.571    24733779.795
   1017755.11248                  25130884.041
 -13940274.83549 -10862547.84046  22366788.135    22366787.142
 -23114195.51449 -18011061.62347  20246597.244    20246598.734
 02  1  5  2 22 30.0000000  0  8G20G 1G25G 3G27G 4G13G22
 -19764203.50249 -15400676.02446  21598653.103    21598653.649
 -24043883.08049 -18735488.21447  20522620.673    20522621.551
  -7932622.25148  -6181268.68945  23572031.386    23572034.575
  -2344188.07448                  24565121.035
  -4653874.27348  -3626392.68344  24718314.078    24718314.741
   1059190.56548                  25138769.476
 -14022551.82949 -10926659.81146  22351130.600    22351129.503
 -23090989.30749 -17992978.90347  20251013.236    20251014.631
 02  1  5  2 23  0.0000000  0  8G20G 1G25G 3G27G 4G13G22
 -19689464.67349 -15342438.05046  21612875.507    21612876.295
 -24077369.05849 -18761581.22347  20516248.517    20516249.238
  -7852156.83948  -6118568.56245  23587343.112    23587346.874
  -2434180.20448  -1896759.37644  24547995.688    24548000.290
  -4735052.81748  -3689648.73044  24702867.142    24702869.124
   1101033.28348                  25146732.837
 -14104659.67949 -10990639.99046  22335507.416    22335505.862
 -23067144.88949 -17974398.87747  20255550.880    20255552.293
 02  1  5  2 23 30.0000000  0  8G20G 1G25G 3G27G 4G13G22
 -19614275.67449 -15283849.29146  21627183.920    21627184.642
 -24110513.19649 -18787407.86347  20509941.158    20509941.834
  -7771622.11548  -6055814.40945  23602669.593    23602672.944
  -2524126.31248                  24530879.488
  -4816152.69248  -3752843.43744  24687432.124    24687435.213
   1143281.64448                  25154772.314
 -14186596.06949 -11054486.56146  22319913.720    22319913.689
 -23042663.19949 -17955322.28047  20260209.587    20260211.034
 02  1  5  2 24  0.0000000  0  8G20G 1G25G 3G27G 4G13G22
 -19538640.44449 -15224912.82146  21641576.620    21641577.954
 -24143315.22849 -18812967.92847  20503699.148    20503700.060
  -7691019.92948  -5993007.69145  23618006.880    23618009.014
  -2614024.69448                  24513772.668
  -4897174.79548  -3815977.55544  24672017.023    24672017.631
   1185932.50548                  25162887.379
 -14268360.17249 -11118198.88346  22304355.587    22304355.078
 -23017546.55149 -17935750.90947  20264989.059    20264990.474
 02  1  5  2 24 30.0000000  0  8G20G 1G25G 3G27G 4G13G22
 -19462570.59949 -15165637.69246  21656052.597    21656053.553
 -24175782.92949 -18838267.48247  20497520.792    20497521.517
  -7610360.26848  -5930156.18345  23633356.177    23633362.146
  -2703881.61348                  24496672.391
  -4978128.00648  -3879057.99544  24656610.675    24656612.981
   1228974.34947                  25171076.440
 -14349959.54849 -11181782.86246  22288828.283    22288826.105
 -22991805.55249 -17915693.03247  20269887.468    20269888.977
 02  1  5  2 25  0.0000000  0  8G20G 1G25G 3G27G 4G13G22
 -19386068.32749 -15106025.60946  21670610.305    21670611.098
 -24207914.37849 -18863305.01247  20491406.266    20491407.110
  -7529643.49748  -5867260.18745  23648717.142    23648720.016
  -2793693.86948                  24479583.009
  -5059011.76648                  24641218.383
   1272405.38547                  25179340.731
 -14431392.19549 -11245236.89746  22273330.515    22273330.969
 -22965441.26549 -17895149.47847  20274904.509    20274906.076
 02  1  5  2 25 30.0000000  0  8G20G 1G25G 3G27G 4G13G22
 -19309140.18549 -15046081.67346  21685249.479    21685250.489
 -24239712.54749 -18888082.84847  20485355.140    20485356.167
  -7448874.03848  -5804323.14845  23664086.652    23664088.847
  -2883462.55348                  24462499.388
  -5139829.93248                  24625839.192
   1316219.21548                  25187680.274
 -14512660.69749 -11308563.02646  22257867.110    22257866.291
 -22938459.22049 -17874124.55447  20280039.165    20280040.646
 02  1  5  2 26  0.0000000  0  8G20G 1G25G 3G27G 4G13G22
 -19231778.37549 -14985799.81746  21699970.916    21699971.711
 -24271165.15549 -18912591.41547  20479370.160    20479371.062
  -7368042.17948  -5741337.48245  23679468.539    23679472.504
  -2973174.01548                  24445428.368
  -5220571.74948                  24610475.416
   1360424.16748                  25196092.944
 -14593752.47449 -11371751.46646  22242435.245    22242434.249
 -22910850.16049 -17852611.05147  20285293.167    20285294.518
 02  1  5  2 26 30.0000000  0  8G20G 1G25G 3G27G 4G13G22
 -19153994.72249 -14925189.25846  21714772.715    21714773.269
 -24302280.29949 -18936837.02147  20473449.406    20473450.203
  -7287158.26748  -5678311.25045  23694860.975    23694862.521
  -3062834.97748                  24428366.683
  -5301246.64048                  24595122.896
   1405008.52048                  25204576.668
 -14674675.65449 -11434808.52846  22227036.011    22227035.379
 -22882625.22049 -17830617.64347  20290664.196    20290665.731
 02  1  5  2 27  0.0000000  0  8G20G 1G25G 3G27G 4G13G22
 -19075782.61949 -14864244.83946  21729656.086    21729656.756
 -24333047.22049 -18960811.28647  20467594.514    20467595.455
  -7206213.27248  -5615237.45345  23710264.105    23710266.510
  -3152432.94848                  24411315.754
  -5381845.05948  -4193639.84545  24579784.287    24579782.649
   1449979.30148                  25213133.391
 -14755418.75249 -11497725.26746  22211671.454    22211670.320
 -22853776.48349 -17808138.16247  20296153.769    20296155.369
 02  1  5  2 27 30.0000000  0  8G20G 1G25G 3G27G 4G13G22
 -18997129.96649 -14802957.13546  21744623.082    21744624.079
 -24363449.70149 -18984501.57247  20461809.255    20461810.070
  -7125193.35648  -5552105.28345  23725682.291    23725683.882
  -3241949.89548                  24394281.865
  -5462351.86648  -4256367.35546  24564467.059    24564466.555
   1495349.07347                  25221765.645
 -14835965.46549 -11560488.98046  22196343.478    22196342.954
 -22824290.59649 -17785162.20047  20301764.619    20301766.090
 02  1  5  2 28  0.0000000  0  8G20G 1G25G 3G27G 4G13G22
 -18918056.71049 -14741341.68646  21759670.690    21759671.459
 -24393503.81049 -19007920.39847  20456090.269    20456091.268
  -7044116.62748  -5488928.82045  23741110.662    23741112.969
  -3331400.36648                  24377259.786
  -5543145.94347                  24549156.730
   1541097.89348                  25230472.991
 -14916331.29449 -11623111.72846  22181051.117    22181050.789
 -22794186.51749 -17761704.53047  20307493.367    20307494.898
 02  1  5  2 28 30.0000000  0  7G20G 1G25G27G 4G13G22
 -18838582.09549 -14679413.49246  21774793.920    21774794.784
 -24423224.65649 -19031079.54147  20450434.274    20450435.298
  -6963000.28448  -5425721.50145  23756546.504    23756549.815
  -5624270.35447                  24533862.368
   1587207.05748                  25239248.087
 -14996531.34249 -11685605.31146  22165788.992    22165788.355
 -22763482.49049 -17737779.37247  20313336.181    20313337.799
 02  1  5  2 29  0.0000000  0  6G20G 1G25G 4G13G22
 -18758690.03949 -14617160.01646  21789996.882    21789998.007
 -24452591.82949 -19053963.09147  20444845.799    20444846.853
  -6881826.03348  -5362469.03545  23771993.086    23771996.015
   1633693.01148                  25248094.387
 -15076544.87349 -11747953.55146  22150562.819    22150562.341
 -22732161.07649 -17713373.13347  20319296.333    20319297.886
 02  1  5  2 29 30.0000000  0  7G20G 1G25G 3G27G13G22
 -18678391.41249 -14554589.73746  21805277.294    21805277.951
 -24481612.20649 -19076576.41147  20439323.586    20439324.504
  -6800602.78748  -5299178.42844  23787450.625    23787450.994
         -.47858                  24326265.965
         -.63458          .19254  24503318.091    24503320.488
 -15156378.60049 -11810161.67946  22135371.384    22135370.850
 -22700232.34249 -17688493.65547  20325372.495    20325373.849
 02  1  5  2 30  0.0000000  0  7G20G 1G25G 3G27G13G22
 -18597667.30349 -14491687.90646  21820638.686    21820639.721
 -24510262.77949 -19098901.57447  20433871.700    20433872.620
  -6719309.57448  -5235833.25044  23802919.102    23802922.475
    -89160.64948                  24309299.570
    -80138.25748    -62444.68844  24488068.410    24488071.566
 -15236009.31349 -11872211.61946  22120217.623    22120216.797
 -22667676.17849 -17663125.27347  20331568.034    20331569.452
 02  1  5  2 30 30.0000000  0  7G20G 1G25G 3G27G13G22
 -18516506.96549 -14428446.17246  21836082.883    21836083.833
 -24538528.73749 -19120927.03447  20428493.154    20428494.131
  -6637933.71748  -5172423.13145  23818404.905    23818405.385
   -178210.50348                  24292353.838
   -160171.45048   -124808.21544  24472839.409    24472840.947
 -15315421.07849 -11934090.94846  22105107.067    22105106.286
 -22634480.71049 -17637258.73047  20337884.898    20337886.210
 02  1  5  2 31  0.0000000  0  7G20G 1G25G 3G27G13G22
 -18434938.29749 -14364886.23546  21851604.992    21851606.468
 -24566434.09649 -19142671.50747  20423183.224    20423184.169
  -6556500.81748  -5108968.81245  23833902.201    23833904.254
   -267172.45148                  24275424.787
   -240125.35048   -187109.95644  24457624.391    24457627.572
 -15394638.27649 -11995818.67146  22090032.072    22090031.685
 -22600673.15549 -17610915.23447  20344318.170    20344319.566
 02  1  5  2 31 30.0000000  0  7G20G 1G25G 3G27G13G22
 -18352982.55349 -14301024.70346  21867200.401    21867201.195
 -24593996.02649 -19164148.37147  20417938.220    20417939.108
  -6475030.33748  -5045485.53144  23849403.899    23849411.146
   -356062.11048                  24258509.348
   -320018.34948   -249364.26044  24442420.919    24442422.780
 -15473677.33949 -12057407.58946  22074991.150    22074990.996
 -22566273.59149 -17584110.43547  20350864.346    20350865.764
 02  1  5  2 32  0.0000000  0  7G20G 1G25G 3G27G13G22
 -18270635.80849 -14236858.48446  21882870.873    21882871.837
 -24621206.34649 -19185351.25247  20412760.223    20412761.238
  -6393516.06648  -4981968.12044  23864916.968    23864919.066
   -444869.37648   -346650.42744  24241609.997    24241616.488
   -399843.33348   -311565.57444  24427231.319    24427234.441
 -15552529.51449 -12118850.87146  22059986.679    22059986.075
 -22531277.06549 -17556840.47047  20357524.267    20357525.436
 02  1  5  2 32 30.0000000  0  7G20G13G 1G25G 3G27G22
 -18187880.22549 -14172373.69946  21898618.715    21898620.422
 -15631172.52649 -12180131.17446  22045020.744    22045020.808
 -24648043.02249 -19206262.98247  20407653.300    20407654.409
  -6311938.26248  -4918401.27645  23880441.291    23880444.866
   -533570.58848                  24224730.479
   -479579.50248   -373697.67844  24412057.658    24412059.257
 -22495664.69549 -17529090.62747  20364300.887    20364302.401
 02  1  5  2 33  0.0000000  0  7G 1G20G25G 3G27G13G22
 -24674530.39949 -19226902.53747  20402612.768    20402613.822
 -18104744.27949 -14107592.52746  21914439.503    21914440.241
  -6230322.95248  -4854805.18445  23895971.158    23895975.862
   -622188.63948   -484821.51544  24207867.510    24207872.007
   -559252.58348   -435780.63844  24396896.706    24396898.327
 -15709630.37949 -12241267.19746  22030091.055    22030090.453
 -22459464.01049 -17500882.35347  20371189.599    20371191.120
 02  1  5  2 33 30.0000000  0  7G20G 1G25G 3G27G13G22
 -18021219.46549 -14042508.33446  21930333.239    21930334.281
 -24700655.92449 -19247260.13147  20397641.188    20397642.246
  -6148659.84548  -4791171.86945  23911512.207    23911516.007
   -710709.21548                  24191022.327
   -638851.08848   -497805.46244  24381749.477    24381748.808
 -15787890.18449 -12302248.90046  22015199.161    22015198.541
 -22422665.50249 -17472208.24447  20378192.210    20378193.693
 02  1  5  2 34  0.0000000  0  7G20G 1G25G 3G27G13G22
 -17937314.74949 -13977128.12546  21946300.521    21946301.753
 -24726424.49449 -19267339.57947  20392737.557    20392738.652
  -6066955.47148  -4727506.32245  23927060.394    23927064.425
   -799135.83248                  24174195.978
   -718381.14548   -559777.00144  24366615.842    24366616.068
 -15865956.47149 -12363079.81146  22000343.082    22000342.632
 -22385277.47549 -17443074.77047  20385307.074    20385308.553
 02  1  5  2 34 30.0000000  0  7G20G 1G25G 3G27G13G22
 -17853020.79049 -13911444.59946  21962340.900    21962342.096
 -24751822.39749 -19287130.20047  20387904.826    20387905.854
  -5985198.52048  -4663799.90345  23942617.653    23942623.585
   -887453.05048   -691521.37344  24157389.619    24157393.105
   -797830.25548   -621685.39744  24351496.289    24351496.910
 -15943814.84349 -12423748.70646  21985527.419    21985526.963
 -22347289.12849 -17413473.51847  20392536.008    20392537.632
 02  1  5  2 35  0.0000000  0  7G20G13G 1G25G 3G27G22
 -17768339.91449 -13845459.58246  21978455.458    21978456.427
 -16021463.30049 -12484254.03346  21970751.366    21970750.808
 -24776847.69849 -19306630.47647  20383142.728    20383143.652
  -5903388.94548  -4600052.46545  23958186.615    23958191.216
   -975657.35948                  24140605.053
   -877197.89248   -683530.38644  24336393.999    24336396.399
 -22308702.05249 -17383405.72547  20399878.573    20399880.298
 02  1  5  2 35 30.0000000  0  7G20G13G 1G25G 3G27G22
 -17683280.22749 -13779179.40046  21994641.393    21994642.475
 -16098905.45049 -12544598.60846  21956014.522    21956014.226
 -24801504.63649 -19325843.71847  20378450.732    20378451.806
  -5821532.48648  -4536268.45545  23973763.461    23973766.429
  -1063750.85748   -828896.50144  24123841.643    24123847.896
   -956489.21648   -745315.87544  24321304.981    24321305.322
 -22269523.41449 -17352876.97247  20407333.994    20407335.756
 02  1  5  2 36  0.0000000  0  7G20G13G 1G25G 3G27G22
 -17597838.63249 -13712601.61946  22010900.846    22010901.932
 -16176133.40149 -12604776.27746  21941319.015    21941318.229
 -24825785.95049 -19344764.27147  20373830.312    20373831.289
  -5739624.22048  -4472444.09045  23989349.290    23989354.762
  -1151724.64648   -897447.52844  24107100.211    24107108.403
  -1035698.05948   -807037.10144  24306232.127    24306233.241
 -22229749.31449 -17321884.22347  20414902.945    20414904.542
 02  1  5  2 36 30.0000000  0  7G20G 1G25G 3G27G13G22
 -17512016.11449 -13645727.01246  22027231.986    22027233.554
 -24849688.30849 -19363389.52847  20369281.859    20369282.822
  -5657662.81848  -4408578.36745  24004947.632    24004951.958
  -1239573.68348                  24090383.810
  -1114822.33548   -868692.45844  24291175.615    24291177.040
 -16253143.49149 -12664784.18246  21926664.010    21926664.013
 -22189379.68249 -17290427.42447  20422585.008    20422586.753
 02  1  5  2 37  0.0000000  0  7G20G13G 1G25G 3G27G22
 -17425808.07849 -13578552.00546  22043636.921    22043638.178
 -16329926.57149 -12724615.19846  21912053.278    21912052.792
 -24873203.05849 -19381712.74947  20364807.291    20364808.188
  -5575641.25748  -4344665.75445  24020555.609    24020559.783
  -1327287.79648  -1034249.87244  24073690.984    24073697.998
  -1193854.53548   -930276.04744  24276135.788    24276135.165
 -22148409.19649 -17258502.42847  20430381.231    20430382.911
 02  1  5  2 37 30.0000000  0  8G20G13G 1G25G 3G27G 2G22
 -17339235.32349 -13511092.80446  22060111.525    22060112.119
 -16406498.55949 -12784281.72846  21897481.507    21897481.350
 -24896346.73549 -19399746.82847  20360402.971    20360404.009
  -5493578.07048  -4280720.67745  24036171.118    24036175.895
  -1414881.90648  -1102504.90344  24057023.609    24057030.107
  -1272812.35148   -991801.66444  24261111.102    24261112.609
         -.42257                  24991390.354
 -22106857.48549 -17226124.53147  20438288.311    20438290.052
 02  1  5  2 38  0.0000000  0  7G20G13G 1G25G 3G27G22
 -17252304.09749 -13443354.27246  22076653.808    22076655.135
 -16482861.33949 -12843785.23646  21882950.408    21882950.242
 -24919121.56249 -19417493.49147  20356069.062    20356069.996
  -5411477.22748  -4216746.29045  24051795.962    24051798.063
  -1502356.61848  -1170666.87844  24040377.611    24040384.063
  -1351699.22648  -1053272.03444  24246098.785    24246099.091
 -22064730.29449 -17193298.20847  20446304.841    20446306.581
 02  1  5  2 38 30.0000000  0  7G20G 1G25G 3G27G13G22
 -17164997.79749 -13375323.47446  22093267.978    22093269.536
 -24941506.63249 -19434936.44647  20351809.226    20351810.292
  -5329319.85548  -4152727.85745  24067429.301    24067433.686
  -1589689.15548  -1238718.06244  24023757.834    24023764.568
  -1430495.32848  -1114671.66544  24231104.785    24231108.171
 -16558993.57249 -12903109.09446  21868463.266    21868462.893
 -22022010.04149 -17160009.75947  20454434.549    20454436.247
 02  1  5  2 39  0.0000000  0  7G20G13G 1G25G 3G27G22
 -17077320.73349 -13307003.78046  22109952.231    22109953.939
 -16634894.58949 -12962252.77546  21854019.207    21854019.157
 -24963501.93249 -19452075.68447  20347623.638    20347624.617
  -5247107.94348  -4088666.93345  24083074.292    24083077.963
  -1676877.90148  -1306657.22344  24007167.490    24007175.929
  -1509202.01448  -1176001.62144  24216126.387    24216130.622
 -21978700.02149 -17126261.75347  20462676.107    20462677.883
 02  1  5  2 39 30.0000000  0  7G20G13G 1G25G 3G27G22
 -16989292.12649 -13238410.13946  22126703.359    22126705.248
 -16710579.01149 -13021227.69246  21839617.584    21839617.113
 -24985122.60449 -19468923.00347  20343509.459    20343510.543
  -5164858.44348  -4024576.71845  24098725.891    24098729.119
  -1763936.32948  -1374494.80844  23990599.872    23990609.056
  -1587835.60548  -1237274.62444  24201164.441    24201167.311
 -21934818.62949 -17092068.52347  20471026.576    20471028.572
 02  1  5  2 40  0.0000000  0  8G20G13G 1G25G 3G27G 2G22
 -16900924.10749 -13169552.02946  22143519.356    22143521.421
 -16786054.12849 -13080039.50346  21825254.614    21825254.455
 -25006376.46249 -19485484.49147  20339465.163    20339466.261
  -5082581.05748  -3960464.80845  24114382.998    24114388.451
  -1850870.25748  -1442235.42444  23974056.768    23974061.805
  -1666404.92748  -1298497.55244  24186212.261    24186213.401
        -1.19857                  24896913.791
 -21890377.08649 -17057438.81147  20479483.555    20479485.684
 02  1  5  2 40 30.0000000  0  8G20G13G 1G25G 3G27G 2G22
 -16812211.59249 -13100425.48446  22160400.881    22160401.986
 -16861310.24549 -13138680.67446  21810934.423    21810933.889
 -25027254.48649 -19501753.12647  20335492.239    20335493.349
  -5000268.75548  -3896325.66445  24130046.461    24130051.832
  -1937669.17548  -1509870.83444  23957539.412    23957550.086
  -1744901.88248  -1359664.06544  24171275.007    24171276.618
    -99067.62748                  24878062.196
 -21845369.66549 -17022368.16047  20488048.225    20488050.206
 02  1  5  2 41  0.0000000  0  8G20G13G 1G25G 3G27G 2G22
 -16723146.10049 -13031023.89746  22177349.558    22177351.512
 -16936334.15149 -13197140.89646  21796657.836    21796657.897
 -25047743.80149 -19517718.87347  20331593.259    20331594.328
  -4917910.31548  -3832150.56645  24145719.604    24145723.634
  -2024318.44848  -1577389.66144  23941050.095    23941056.685
  -1823314.89248  -1420765.18244  24156353.463    24156355.146
   -198043.88047                  24859227.284
 -21799786.87949 -16986849.17347  20496722.248    20496724.292
 02  1  5  2 41 30.0000000  0  8G20G13G 1G25G 3G27G 2G22
 -16633742.90849 -12961359.15646  22194362.645    22194364.031
 -17011136.29349 -13255428.31746  21782423.018    21782422.671
 -25067855.55749 -19533390.42647  20327766.117    20327767.209
  -4835518.47348  -3767949.46945  24161398.007    24161403.354
  -2110827.38048  -1644799.19744  23924588.038    23924595.138
  -1901656.27448  -1481810.49544  24141445.880    24141448.538
   -296940.79147                  24840407.733
 -21753643.44049 -16950893.30947  20505503.024    20505505.353
 02  1  5  2 42  0.0000000  0  8G20G13G 1G25G 3G27G 2G22
 -16543999.75249 -12891429.51646  22211440.204    22211441.926
 -17085709.69749 -13313537.50146  21768232.757    21768232.124
 -25087583.28849 -19548762.73347  20324012.166    20324013.339
  -4753089.49448  -3703719.42545  24177084.085    24177092.276
  -2197187.80848  -1712093.04044  23908154.047    23908161.721
  -1979920.79248  -1542795.89044  24126553.103    24126554.222
   -395751.68348                  24821605.074
 -21706936.24349 -16914498.15647  20514391.186    20514393.236
 02  1  5  2 42 30.0000000  0  8G20G13G 1G25G 3G27G 2G22
 -16453906.82649 -12821227.32746  22228584.366    22228585.122
 -17160039.83949 -13371457.12746  21754088.349    21754087.923
 -25106912.71549 -19563824.67147  20320334.133    20320335.209
  -4670610.60748  -3639450.53245  24192779.590    24192786.332
  -2283384.07948  -1779258.99344  23891751.442    23891759.882
  -2058095.32648  -1603711.15044  24111675.841    24111678.485
   -494461.78147                  24802820.069
 -21659654.59549 -16877655.38147  20523388.624    20523390.820
 02  1  5  2 43  0.0000000  0  8G20G13G 1G25G 3G27G 2G22
 -16363463.92249 -12750752.42545  22245795.064    22245796.707
 -17234121.60749 -13429183.21546  21739990.487    21739990.367
 -25125839.70649 -19578573.02547  20316732.464    20316733.647
  -4588079.24148  -3575140.70644  24208485.107    24208490.984
  -2369409.91648                  23875381.210
  -2136176.76148  -1664553.89844  24096818.022    24096819.228
   -593066.78148                  24784057.492
 -21611797.69249 -16840364.35547  20532495.726    20532497.893
 02  1  5  2 43 30.0000000  0  8G20G13G 1G25G 3G27G 2G22
 -16272686.21249 -12680016.64945  22263069.323    22263071.650
 -17307965.54549 -13486723.97646  21725938.608    21725938.505
 -25144375.35949 -19593016.43647  20313205.210    20313206.492
  -4505508.20548  -3510799.97445  24224198.128    24224204.605
  -2455274.48448                  23859042.329
  -2214177.18148  -1725333.49244  24081975.256    24081976.985
   -691577.11147                  24765310.345
 -21563379.93749 -16802636.30147  20541709.506    20541711.568
 02  1  5  2 44  0.0000000  0  8G20G13G 1G25G 3G27G 2G22
 -16181574.65149 -12609020.73146  22280407.763    22280409.218
 -17381567.61849 -13544076.27846  21711933.051    21711932.353
 -25162516.18349 -19607152.19347  20309753.199    20309754.411
  -4422895.88048  -3446427.08745  24239919.035    24239925.277
  -2540972.73148  -1979977.45944  23842734.382    23842739.753
  -2292094.32948  -1786048.20545  24067148.283    24067151.106
   -789989.02947                  24746583.651
 -21514401.32749 -16764471.21747  20551030.127    20551032.168
 02  1  5  2 44 30.0000000  0  8G20G13G 1G25G 3G27G 2G22
 -16090136.24549 -12537770.12445  22297807.971    22297809.136
 -17454929.95349 -13601241.76846  21697972.349    21697972.117
 -25180265.03249 -19620982.51447  20306375.609    20306377.093
  -4340246.81548  -3382025.56245  24255646.357    24255650.519
  -2626505.58648  -2046626.44944  23826457.825    23826462.351
  -2369932.06448  -1846701.03644  24052336.263    24052339.517
   -888304.84848                  24727875.444
 -21464868.24049 -16725874.07247  20560455.753    20560457.944
 02  1  5  2 45  0.0000000  0  8G20G13G 1G25G 3G27G 2G22
 -15998377.62149 -12466269.99645  22315269.306    22315270.413
 -17528054.20849 -13658221.73946  21684057.348    21684057.125
 -25197624.39149 -19634509.33847  20303072.226    20303073.588
  -4257565.43548  -3317598.90045  24271381.794    24271384.718
  -2711873.77748  -2113147.11344  23810213.012    23810220.281
  -2447694.04148  -1907294.81245  24037539.254    24037540.995
   -986526.69547                  24709182.916
 -21414786.58749 -16686849.47947  20569986.307    20569988.360
 02  1  5  2 45 30.0000000  0  8G20G13G 1G25G 3G27G 2G22
 -15906294.14749 -12394516.75345  22332791.865    22332794.279
 -17600931.01649 -13715008.89446  21670189.305    21670188.829
 -25214585.41049 -19647725.76447  20299844.606    20299846.036
  -4174844.49548  -3253141.36845  24287122.280    24287128.072
  -2797066.25148  -2179530.79844  23794001.597    23794006.077
  -2525372.52148  -1967823.55545  24022757.389    24022757.931
  -1084645.15148                  24690513.122
 -21364150.93649 -16647393.19847  20579621.686    20579623.823
 02  1  5  2 46  0.0000000  0  8G20G13G 1G25G 3G27G 2G22
 -15813880.78549 -12322506.44845  22350377.698    22350379.371
 -17673550.22649 -13771595.32646  21656370.041    21656369.591
 -25231138.74649 -19660624.51547  20296694.683    20296696.202
  -4092076.30048  -3188647.06045  24302872.296    24302879.423
  -2882072.14848  -2245769.17444  23777825.456    23777830.905
  -2602959.24448  -2028280.78445  24007993.034    24007995.404
  -1182650.42247                  24671862.638
 -21312955.33449 -16607500.59547  20589364.097    20589366.146
 02  1  5  2 46 30.0000000  0  8G20G13G 1G25G 3G27G 2G22
 -15721139.96648 -12250240.98145  22368025.492    22368028.046
 -17745909.89849 -13827979.52446  21642600.641    21642600.337
 -25247282.77649 -19673204.33147  20293622.591    20293624.008
  -4009261.30848  -3124116.26645  24318633.231    24318639.112
  -2966888.17248  -2311859.50344  23761685.750    23761690.093
  -2680453.63048  -2088666.07245  23993246.733    23993249.164
  -1280540.70647                  24653234.422
 -21261201.84949 -16567173.27847  20599212.667    20599214.510
 02  1  5  2 47  0.0000000  0  8G20G13G 1G25G 3G27G 2G22
 -15628093.13448 -12177737.07345  22385732.301    22385733.856
 -17818026.44649 -13884174.27446  21628877.328    21628877.100
 -25263034.74949 -19685478.63947  20290625.274    20290626.839
  -3926418.24348  -3059563.59745  24334397.188    24334403.505
  -3051529.48748  -2377813.68644  23745579.301    23745583.676
  -2757874.14248  -2148993.81944  23978513.728    23978516.767
  -1378332.99948                  24634625.657
 -21208911.22249 -16526427.41047  20609163.369    20609165.432
 02  1  5  2 47 30.0000000  0  8G20G13G 1G25G 3G27G 2G22
 -15534752.27748 -12105004.03645  22403494.435    22403497.390
 -17889906.96349 -13940185.10346  21615199.299    21615198.818
 -25278402.28249 -19697453.39447  20287700.909    20287702.375
  -3843556.66848  -2994996.56045  24350165.464    24350170.639
  -3136002.24348  -2443636.52844  23729504.126    23729510.607
  -2835229.43748  -2209270.71545  23963794.924    23963797.237
  -1476034.56248                  24616032.811
 -21156094.74649 -16485271.79047  20619213.489    20619215.839
 02  1  5  2 48  0.0000000  0  8G20G13G 1G25G 3G27G 2G22
 -15441102.79448 -12032030.53945  22421315.263    22421316.630
 -17961531.62949 -13995996.57346  21601569.036    21601568.913
 -25293366.53549 -19709113.90847  20284853.408    20284854.789
  -3760659.36748  -2930401.63345  24365941.000    24365946.906
  -3220285.60148  -2509311.80244  23713465.957    23713471.253
  -2912501.61748  -2269482.86645  23949088.847    23949092.003
  -1573625.95748                  24597462.935
 -21102736.98449 -16443694.39247  20629367.232    20629369.629
 02  1  5  2 48 30.0000000  0  8G20G13G 1G25G 3G27G 2G22
 -15347132.03648 -11958806.67645  22439197.623    22439199.854
 -18032883.11049 -14051595.16946  21587991.939    21587991.616
 -25307910.49849 -19720446.92047  20282085.882    20282087.468
  -3677711.03948  -2865766.98945  24381725.418    24381731.664
  -3304361.06948  -2574825.05444  23697467.222    23697469.944
  -2989674.88248  -2329617.93645  23934404.547    23934405.814
  -1671089.82648                  24578915.812
 -21048824.72049 -16401684.91647  20639626.788    20639628.946
 02  1  5  2 49  0.0000000  0  8G20G13G 1G25G 3G27G 2G22
 -15252868.47048 -11885354.65745  22457135.390    22457137.667
 -18103984.74849 -14106999.08546  21574461.109    21574461.104
 -25322058.67749 -19731471.53047  20279393.705    20279395.104
  -3594738.05748  -2801113.13945  24397514.606    24397521.285
  -3388250.93848  -2640193.68645  23681502.537    23681507.336
  -3066774.51048  -2389695.62245  23919732.778    23919734.219
  -1768450.04848                  24560388.612
 -20994385.55649 -16359264.86847  20649986.133    20649988.462
 02  1  5  2 49 30.0000000  0  8G20G13G 1G25G 3G27G 2G22
 -15158302.52248 -11811667.02545  22475131.024    22475132.522
 -18174822.08049 -14162197.05046  21560981.625    21560981.488
 -25335797.36349 -19742177.05947  20276779.340    20276780.797
  -3511727.92948  -2736430.32945  24413312.297    24413318.198
  -3471939.48448  -2705405.47645  23665577.410    23665582.780
  -3143787.85248  -2449706.09744  23905076.582    23905078.780
  -1865692.59248                  24541884.169
 -20939409.60049 -16316426.54147  20660447.857    20660450.092
 02  1  5  2 50  0.0000000  0  8G13G20G 1G25G 3G27G 2G22
 -18245388.45749 -14217183.87746  21547553.400    21547553.321
 -15063432.17848 -11737742.16645  22493184.425    22493186.742
 -25349120.26349 -19752558.59147  20274244.121    20274245.587
  -3428676.15448  -2671715.06945  24429115.148    24429125.573
  -3555418.73848  -2770454.17345  23649691.889    23649697.166
  -3220709.61048  -2509645.14145  23890441.151    23890442.142
  -1962810.81148                  24523402.719
 -20883893.99749 -16273167.71747  20671012.040    20671014.334
 02  1  5  2 50 30.0000000  0  8G13G20G 1G25G 3G27G 2G22
 -18315684.60249 -14271960.13646  21534176.330    21534176.301
 -14968263.35648 -11663584.75545  22511293.903    22511296.972
 -25362029.24649 -19762617.59147  20271787.602    20271789.053
  -3345586.10948  -2606970.03344  24444928.050    24444935.627
  -3638688.48648  -2835339.62944  23633846.764    23633851.575
  -3297542.71448  -2569515.16644  23875818.187    23875819.889
  -2059805.93248                  24504945.618
 -20827844.20749 -16229492.63947  20681678.173    20681680.480
 02  1  5  2 51  0.0000000  0  8G13G20G 1G25G 3G27G 2G22
 -18385701.86849 -14326519.08646  21520853.116    21520852.764
 -14872792.19848 -11589191.76345  22529461.611    22529463.813
 -25374516.31149 -19772347.82347  20269411.420    20269412.951
  -3262451.55048  -2542190.28644  24460748.440    24460755.143
  -3721738.79748  -2900054.12745  23618041.767    23618049.642
  -3374280.23248  -2629310.74045  23861217.494    23861219.539
  -2156669.58548                  24486512.998
 -20771255.69249 -16185397.78247  20692446.335    20692448.652
 02  1  5  2 51 30.0000000  0  7G13G20G 1G25G27G 2G22
 -18455454.39249 -14380871.75146  21507578.975    21507578.717
 -14777037.82248 -11514578.07845  22547683.160    22547685.623
 -25386596.24149 -19781760.80747  20267112.805    20267114.347
  -3179289.26148  -2477388.92544  24476573.470    24476583.646
  -3450938.06448  -2689044.16345  23846628.099    23846631.258
  -2253416.15048                  24468102.200
 -20714146.88449 -16140897.50347  20703314.168    20703316.424
 02  1  5  2 52  0.0000000  0  7G13G20G 1G25G27G 2G22
 -18524928.42449 -14435007.40246  21494358.371    21494358.483
 -14680991.67248 -11439737.04045  22565960.611    22565963.758
 -25398256.31849 -19790846.63147  20264894.006    20264895.544
  -3096087.70848  -2412556.98844  24492406.793    24492415.729
  -3527504.24848  -2748706.17444  23832059.036    23832061.126
  -2350032.38948                  24449717.426
 -20656508.58849 -16095984.63347  20714282.498    20714284.835
 02  1  5  2 52 30.0000000  0  7G13G20G 1G25G27G 2G22
 -18594129.94749 -14488930.70946  21481190.489    21481189.879
 -14584664.45848 -11364677.00045  22584291.429    22584293.121
 -25409503.16049 -19799610.45547  20262753.841    20262755.262
  -3012855.09148  -2347700.85445  24508246.172    24508252.739
  -3603986.50948  -2808302.82545  23817505.099    23817506.882
  -2446524.61148                  24431355.542
 -20598351.07149 -16050667.17947  20725349.551    20725352.160
 02  1  5  2 53  0.0000000  0  7G13G20G 1G25G27G 2G22
 -18663059.14349 -14542641.81446  21468073.715    21468073.409
 -14488061.39048 -11289401.99145  22602673.573    22602676.659
 -25420337.63449 -19808052.95547  20260691.939    20260693.339
  -2929594.12848  -2282822.61344  24524090.090    24524095.854
  -3680386.94448  -2867835.68444  23802965.864    23802967.779
  -2542893.32348                  24413016.270
 -20539678.85949 -16004948.66647  20736514.403    20736516.895
 02  1  5  2 53 30.0000000  0  7G13G20G 1G25G27G 2G22
 -18731726.03649 -14596148.52046  21455006.421    21455006.615
 -14391197.57248 -11213923.81545  22621107.209    22621109.368
 -25430770.76549 -19816182.72247  20258706.619    20258708.137
  -2846317.64248  -2217932.27744  24539937.277    24539947.950
  -3756717.31048  -2927313.99044  23788441.731    23788444.009
  -2639149.00748                  24394700.800
 -20480506.46449 -15958840.39847  20747774.854    20747777.254
 02  1  5  2 54  0.0000000  0  7G13G20G 1G25G27G 2G22
 -18800112.18449 -14649436.47046  21441993.253    21441993.226
 -14294059.50248 -11138231.92345  22639591.613    22639593.680
 -25440785.00049 -19823986.07947  20256800.972    20256802.503
  -2763009.03648  -2153016.95844  24555790.678    24555799.861
  -3832961.05248  -2986724.77345  23773931.944    23773934.820
  -2735273.50248                  24376408.077
 -20420820.05949 -15912331.60347  20759132.641    20759135.241
 02  1  5  2 54 30.0000000  0  7G13G20G 1G25G27G 2G22
 -18868217.88649 -14702505.89446  21429032.900    21429033.057
 -14196652.62648 -11062330.59445  22658127.810    22658129.191
 -25450381.40949 -19831463.85647  20254975.081    20254976.511
  -2679671.05048  -2088078.70844  24571650.426    24571655.805
  -3909120.11848  -3046069.55245  23759440.189    23759443.252
  -2831267.38848                  24358141.833
 -20360624.09949 -15865425.75647  20770587.739    20770590.277
 02  1  5  2 55  0.0000000  0  7G13G20G 1G25G27G 2G22
 -18936024.79749 -14755342.49046  21416129.966    21416129.778
 -14098963.44748 -10986209.28845  22676717.580    22676718.646
 -25459542.45649 -19838602.38747  20253231.765    20253233.243
  -2596287.95048  -2023105.32444  24587516.882    24587526.314
  -3985177.94348  -3105335.45744  23744966.178    23744969.963
  -2927113.06748                  24339902.062
 -20299904.84949 -15818112.14247  20782142.349    20782145.063
 02  1  5  2 55 30.0000000  0  7G13G20G 1G25G27G 2G22
 -19003560.22849 -14807967.54846  21403278.447    21403278.433
 -14001024.28548 -10909893.17745  22695354.822    22695357.861
 -25468296.39149 -19845423.68147  20251565.969    20251567.362
  -2512889.62648  -1958120.07744  24603387.754    24603397.434
  -4061163.56648  -3164545.13545  23730506.865    23730507.333
  -3022838.02748                  24321687.355
 -20238694.07049 -15770415.52247  20793790.317    20793792.912
 02  1  5  2 56  0.0000000  0  8G13G 1G20G25G31G27G 2G22
 -19070824.10149 -14860381.00346  21390478.523    21390478.579
 -25476643.92249 -19851928.30747  20249977.578    20249979.071
 -13902840.17148 -10833386.19245  22714038.927    22714039.369
  -2429478.04148  -1893124.52044  24619261.407    24619269.847
         -.52358                  25086676.561
  -4137078.66448  -3223699.84845  23716060.968    23716063.226
  -3118442.33648                  24303493.128
 -20176996.00749 -15722339.19647  20805531.105    20805534.072
 02  1  5  2 56 30.0000000  0  8G13G 1G20G25G31G27G 2G22
 -19137797.76749 -14912568.32246  21377733.844    21377734.050
 -25484567.47349 -19858102.55647  20248469.695    20248471.112
 -13804397.32448 -10756677.61645  22732771.525    22732774.722
  -2346037.08248  -1828106.03844  24635139.441    24635150.859
   -104505.23648                  25066788.722
  -4212906.49848  -3282786.51545  23701631.090    23701631.476
  -3213907.98648                  24285327.836
 -20114796.74849 -15673872.32747  20817367.024    20817369.768
 02  1  5  2 57  0.0000000  0  8G13G 1G20G25G31G27G 2G22
 -19204479.13849 -14964527.88246  21365044.625    21365044.952
 -25492065.67549 -19863945.36247  20247042.978    20247044.470
 -13705698.61648 -10679769.65945  22751554.033    22751556.106
  -2262566.87148  -1763064.72644  24651023.699    24651033.875
   -209108.22148   -162941.37944  25046884.503    25046895.673
  -4288646.66048  -3341804.89244  23687217.893    23687219.473
  -3309233.36648                  24267187.612
 -20052098.53549 -15625016.66347  20829298.326    20829301.001
 02  1  5  2 57 30.0000000  0  8G13G 1G20G25G31G27G 2G22
 -19270856.58349 -15016250.61646  21352413.615    21352413.783
 -25499127.78749 -19869448.36547  20245699.019    20245700.415
 -13606737.83748 -10602657.51044  22770384.743    22770388.366
  -2179058.10648                  24666916.086
   -313796.98748   -244516.97244  25026962.469    25026970.908
  -4364289.53148  -3400747.47145  23672824.529    23672827.334
  -3404407.35548                  24249076.053
 -19988894.29349 -15575766.68947  20841325.666    20841328.524
 02  1  5  2 58  0.0000000  0  8G13G 1G20G25G31G27G 2G22
 -19336931.28449 -15067737.44046  21339840.024    21339840.116
 -25505756.05249 -19874613.30547  20244437.645    20244439.214
 -13507521.18748 -10525345.96844  22789265.504    22789267.069
  -2095515.05048  -1632895.47744  24682813.007    24682821.694
   -418572.24848   -326159.98944  25007024.349    25007033.037
  -4439838.16448  -3459616.60945  23658447.404    23658450.457
  -3499431.53348                  24230994.471
 -19925189.98249 -15526127.05547  20853448.308    20853451.207
 02  1  5  2 58 30.0000000  0  8G13G 1G20G25G31G27G 2G22
 -19402706.63749 -15118991.00446  21327323.702    21327323.837
 -25511954.62949 -19879443.42247  20243258.060    20243259.632
 -13408056.69948 -10447841.29344  22808193.403    22808196.588
  -2011942.68048  -1567774.58844  24698717.187    24698726.868
   -523436.37548                  24987068.794
  -4515297.56748  -3518416.21245  23644088.929    23644091.963
  -3594309.66047                  24212938.564
 -19860993.22049 -15476103.69147  20865664.714    20865667.628
 02  1  5  2 59  0.0000000  0  7G13G20G 1G25G31G27G22
 -19468177.40449 -15170007.23246  21314864.974    21314865.067
 -13308344.50048 -10370143.58344  22827167.901    22827171.030
 -25517719.45349 -19883935.54447  20242161.151    20242162.801
  -1928338.50448  -1502628.97644  24714627.471    24714637.896
   -628383.74848   -489649.28444  24967098.292    24967109.462
  -4590664.37748  -3577143.64745  23629746.676    23629750.230
 -19796303.46949 -15425696.18247  20877974.858    20877977.921
 02  1  5  2 59 30.0000000  0  7G13G20G 1G25G31G27G22
 -19533331.65849 -15220776.83046  21302466.131    21302465.895
 -13208377.64148 -10292247.44744  22846191.144    22846193.689
 -25523039.58249 -19888081.15247  20241148.763    20241150.496
  -1844692.98748  -1437451.06544  24730544.727    24730555.648
   -733401.48948   -571481.24644  24947114.147    24947120.825
  -4665928.55848  -3635791.13345  23615424.289    23615427.396
 -19731113.54849 -15374898.92747  20890380.208    20890383.100
 02  1  5  3  0  0.0000000  0  7G13G20G 1G25G31G27G22
 -19598181.49249 -15271309.21346  21290126.152    21290126.125
 -13108173.04048 -10214166.07344  22865258.569    22865261.528
 -25527927.59349 -19891890.04647  20240218.665    20240220.486
  -1761020.44648  -1372252.16944  24746466.718    24746476.399
   -838500.59648                  24927114.897
  -4741103.64248  -3694369.16145  23601119.302    23601121.385
 -19665439.72949 -15323724.61447  20902877.315    20902880.367
 02  1  5  3  0 30.0000000  0  7G13G 1G20G25G31G27G22
 -19662725.69349 -15321603.43746  21277844.045    21277844.052
 -25532383.64849 -19895362.35047  20239370.648    20239372.509
 -13007734.96148 -10135902.76944  22884372.453    22884375.707
  -1677322.30648  -1307033.28544  24762395.331    24762401.349
   -943679.69548                  24907099.261
  -4816190.60648  -3752878.55245  23586830.792    23586832.697
 -19599285.62049 -15272176.05647  20915466.176    20915468.979
 02  1  5  3  1  0.0000000  0  7G13G20G 1G25G31G27G22
 -19726971.11349 -15371664.85846  21265617.770    21265617.882
 -12907075.09948 -10057466.62444  22903526.617    22903530.962
 -25536415.74549 -19898504.29747  20238603.310    20238605.134
  -1593607.47948  -1241801.40644  24778325.343    24778335.768
  -1048944.57348   -817358.76844  24887068.553    24887073.645
  -4891198.15648  -3811326.03445  23572557.530    23572560.698
 -19532662.87849 -15220262.33047  20928144.295    20928147.119
 02  1  5  3  1 30.0000000  0  7G13G 1G20G25G31G27G22
 -19790922.66249 -15421497.28546  21253448.530    21253448.838
 -25540029.46049 -19901320.23647  20237915.837    20237917.614
 -12806203.30048  -9978865.37544  22922722.410    22922724.686
  -1509883.55948                  24794257.621
  -1154299.15648   -899453.18644  24867019.309    24867028.493
  -4966132.93148  -3869716.83045  23558298.092    23558300.130
 -19465580.61949 -15167990.54247  20940909.639    20940912.713
 02  1  5  3  2  0.0000000  0  8G13G 1G20G25G31G27G 2G22
 -19854570.15549 -15471092.78446  21241337.383    21241337.715
 -25543215.43249 -19903802.86747  20237309.548    20237311.366
 -12705114.55148  -9900095.04844  22941958.847    22941962.858
  -1426142.44948  -1111310.13344  24810194.235    24810199.515
  -1259732.69248                  24846956.849
  -5040986.50048  -3928044.35945  23544053.387    23544056.264
        -1.18757                  24087361.873
 -19398033.37149 -15115356.42547  20953763.718    20953766.812
 02  1  5  3  2 30.0000000  0  8G13G 1G20G25G31G27G 2G22
 -19917897.00949 -15520438.43846  21229286.094    21229286.295
 -25545958.34349 -19905940.26347  20236787.563    20236789.461
 -12603797.32148  -9821146.72444  22961239.000    22961240.331
  -1342370.05848  -1046033.33944  24826136.394    24826143.580
  -1365227.72648                  24826880.947
  -5115744.10348  -3986297.07745  23529828.180    23529829.763
    -93673.82747                  24069535.950
 -19330009.40149 -15062350.84247  20966708.364    20966711.470
 02  1  5  3  3  0.0000000  0  8G13G 1G20G25G31G27G 2G22
 -19980916.06849 -15569544.24747  21217294.133    21217294.336
 -25548272.39249 -19907743.48047  20236347.322    20236349.206
 -12502269.60748  -9742034.35244  22980559.844    22980563.021
  -1258581.92448                  24842079.874
  -1470796.60948                  24806791.463
  -5190420.60648  -4044486.61945  23515617.270    23515619.333
   -187196.50248                  24051739.584
 -19261526.13649 -15008987.37347  20979739.892    20979743.074
 02  1  5  3  3 30.0000000  0  8G13G22G 1G20G25G31G27G 2
 -20043614.00049 -15618399.82647  21205363.353    21205363.593
 -19192574.76549 -14955259.14547  20992861.307    20992864.183
 -25550145.10649 -19909202.80447  20235991.067    20235993.050
 -12400523.07048  -9662751.50544  22999920.883    22999922.777
  -1174766.69848   -915434.24044  24858030.367    24858038.558
  -1576425.04148                  24786692.163
  -5265004.36148  -4102603.87945  23501424.896    23501426.998
   -280404.66748                  24033981.896
 02  1  5  3  4  0.0000000  0  8G13G22G 1G20G25G31G27G 2
 -20105988.25549 -15667003.19147  21193494.011    21193494.266
 -19123157.42649 -14901167.82346  21006071.116    21006074.249
 -25551574.87049 -19910316.97247  20235719.205    20235721.050
 -12298560.07548  -9583299.94744  23019324.970    23019328.524
  -1090924.08848   -850102.80344  24873985.981    24873993.251
  -1682109.56548  -1310733.67844  24766579.853    24766584.061
  -5339494.46348  -4160648.19045  23487250.486    23487252.102
   -373599.57048                  24016239.933
 02  1  5  3  4 30.0000000  0  8G13G22G 1G20G25G31G27G 2
 -20168035.15149 -15715351.46747  21181686.984    21181687.247
 -19053275.19149 -14846714.24846  21019369.084    21019372.225
 -25552559.25549 -19911084.09247  20235531.910    20235534.058
 -12196382.11248  -9503680.91044  23038768.323    23038768.580
  -1007053.07948   -784749.15244  24889945.785    24889951.901
  -1787845.81648  -1393125.45544  24746459.856    24746464.067
  -5413889.41948  -4218618.32745  23473092.172    23473095.156
   -466625.92848                  23998536.977
 02  1  5  3  5  0.0000000  0  8G13G22G 1G20G25G31G27G 2
 -20229748.85349 -15763440.10847  21169943.329    21169943.658
 -18982926.78549 -14791897.42146  21032756.238    21032759.386
 -25553093.38749 -19911500.37147  20235430.111    20235432.095
 -12093988.58748  -9423893.88744  23058253.497    23058257.617
   -923150.02648   -719370.76044  24905912.192    24905923.113
  -1893626.80048                  24726329.349
  -5488184.89148  -4276510.96545  23458955.579    23458957.226
   -559478.54948   -435956.79944  23980868.086    23980875.718
 02  1  5  3  5 30.0000000  0  8G13G22G 1G20G25G31G27G 2
 -20291139.52549 -15811277.05247  21158261.362    21158261.655
 -18912126.96449 -14736728.84046  21046229.281    21046232.207
 -25553188.41749 -19911574.48847  20235412.135    20235414.416
 -11991394.65048  -9343950.72044  23077776.594    23077781.662
   -839227.45848   -653976.95344  24921883.073    24921892.753
  -1999462.17148                  24706190.280
  -5562392.72448  -4334335.30545  23444833.883    23444836.168
   -652168.15148   -508182.47344  23963229.589    23963235.488
 02  1  5  3  6  0.0000000  0  8G13G22G 1G20G25G31G27G 2
 -20352207.13349 -15858862.25047  21146640.374    21146640.477
 -18840880.48849 -14681212.21546  21059786.902    21059790.045
 -25552845.41549 -19911307.28847  20235477.594    20235479.944
 -11888605.17148  -9263855.17444  23097336.768    23097343.499
   -755287.64648   -588569.80744  24937856.805    24937863.535
  -2105350.89648  -1640531.76944  24686039.697    24686051.363
  -5636514.83548  -4392092.83445  23430728.183    23430730.609
   -744695.40548   -580281.62744  23945622.387    23945626.795
 02  1  5  3  6 30.0000000  0  8G13G22G 1G20G25G31G27G 2
 -20412950.45649 -15906194.76147  21135080.995    21135081.399
 -18769191.02549 -14625350.41246  21073428.853    21073432.123
 -25552064.42649 -19910698.79247  20235626.132    20235628.436
 -11785624.21948  -9183610.44044  23116934.002    23116937.196
   -671331.99248                  24953832.757
  -2211290.95048  -1723082.29444  24665880.703    24665888.569
  -5710551.88248  -4449784.08345  23416640.268    23416642.101
   -837059.78548   -652253.92744  23928045.661    23928049.522
 02  1  5  3  7  0.0000000  0  8G13G22G 1G20G25G31G27G 2
 -20473339.94749 -15953251.55747  21123589.499    21123589.849
 -18697033.38849 -14569123.78746  21087160.618    21087163.778
 -25550817.08249 -19909726.90547  20235863.403    20235865.570
 -11682427.11048                  23136570.733
   -587333.37248                  24969817.563
  -2317251.76648  -1805648.93644  24645716.671    24645721.230
  -5784476.03548  -4507387.35945  23402572.606    23402574.602
   -929232.03348   -724076.48044  23910506.222    23910510.349
 02  1  5  3  7 30.0000000  0  8G13G22G 1G20G25G31G27G 2
 -20533377.39649 -16000034.03747  21112164.806    21112165.100
 -18624414.29749 -14512537.59346  21100979.266    21100982.478
 -25549106.08749 -19908393.74047  20236189.083    20236191.478
 -11579020.92748  -9022621.17744  23156248.446    23156250.563
   -503295.68548                  24985809.972
  -2423234.23048  -1888232.36544  24625548.971    24625553.785
  -5858290.89148  -4564905.46645  23388526.359    23388528.447
  -1021214.67448   -795751.25244  23893002.631    23893008.546
 02  1  5  3  8  0.0000000  0  8G13G22G 1G20G25G31G27G 2
 -20593078.01749 -16046554.05347  21100804.130    21100804.479
 -18551353.71049 -14455607.37046  21114881.910    21114885.111
 -25546947.91749 -19906712.12447  20236599.806    20236601.936
 -11475426.03648                  23175962.445
   -419236.68248                  25001805.886
  -2529252.77248  -1970843.90844  24605374.334    24605380.399
  -5932013.55948  -4622351.74645  23374497.151    23374499.393
  -1113023.58748   -867290.72244  23875531.925    23875534.905
 02  1  5  3  8 30.0000000  0  8G13G22G 1G20G25G31G27G 2
 -20652448.74649 -16092817.00847  21089506.282    21089506.905
 -18477863.02449 -14398342.01046  21128867.143    21128870.537
 -25544350.37049 -19904688.13247  20237094.176    20237096.501
 -11371654.06048  -8861036.93044  23195709.531    23195711.181
   -335165.18148                  25017805.344
  -2635313.29248  -2053488.10744  24585190.346    24585200.523
  -6005652.48248  -4679732.75645  23360484.037    23360486.723
  -1204665.80948   -938700.29244  23858092.670    23858102.350
 02  1  5  3  9  0.0000000  0  8G13G22G 1G20G25G31G27G 2
 -20711499.70649 -16138830.79347  21078269.061    21078269.384
 -18403957.29049 -14340753.23546  21142930.806    21142934.187
 -25541325.25249 -19902330.96847  20237669.759    20237672.049
 -11267720.47048  -8780049.85444  23215488.129    23215488.319
   -251093.99848                  25033802.973
  -2741425.53948  -2136172.63244  24564998.292    24565007.724
  -6079219.83948  -4737058.02645  23346484.772    23346487.594
  -1296152.50448  -1009988.65344  23840684.028    23840690.319
 02  1  5  3  9 30.0000000  0  8G13G22G 1G20G25G31G27G 2
 -20770227.28149 -16184592.59147  21067093.882    21067094.169
 -18329637.52549 -14282841.83746  21157073.634    21157076.923
 -25537869.91749 -19899638.57247  20238327.451    20238329.870
 -11163626.61348  -8698937.89944  23235296.275    23235298.234
   -167021.49148                  25049802.068
  -2847584.68548  -2218893.75144  24544794.925    24544805.598
  -6152713.60348  -4794325.93845  23332499.430    23332501.975
  -1387480.36148  -1081153.24244  23823304.206    23823310.584
 02  1  5  3 10  0.0000000  0  8G13G22G 1G20G25G31G27G 2
 -20828601.30549 -16230078.89647  21055985.585    21055985.991
 -18254878.30349 -14224588.01446  21171300.146    21171303.408
 -25533955.46049 -19896588.42547  20239072.613    20239074.950
 -11059347.36848  -8617681.53444  23255141.022    23255144.232
    -82919.96648                  25065806.671
  -2953759.62048  -2301627.22944  24524591.386    24524600.073
  -6226105.40848  -4851514.38845  23318533.100    23318535.225
  -1478619.85548                  23805961.264
 02  1  5  3 10 30.0000000  0  8G13G22G 1G20G25G31G27G 2
 -20886638.99349 -16275303.11847  21044941.305    21044941.758
 -18179701.59449 -14166008.87446  21185605.780    21185609.248
 -25529600.04749 -19893194.67647  20239901.645    20239903.919
 -10954905.07048  -8536298.05544  23275015.163    23275019.845
      1190.84248                  25081812.227
  -3059966.74248  -2384385.86144  24504380.673    24504391.595
  -6299414.24348  -4908638.20545  23304583.711    23304586.401
  -1569588.73848  -1223055.96444  23788650.579    23788656.253
 02  1  5  3 11  0.0000000  0  8G13G22G 1G20G25G31G27G 2
 -20944325.28249 -16320253.52447  21033964.046    21033964.569
 -18104096.97649 -14107096.30146  21199992.919    21199996.149
 -25524789.76549 -19889446.48447  20240816.908    20240819.259
 -10850289.69248  -8454779.78644  23294922.394    23294926.499
     85323.53048                  25097823.084
  -3166189.93848  -2467157.09244  24484166.887    24484172.632
  -6372626.92848  -4965687.10145  23290651.008    23290654.090
  -1660372.51548  -1293796.62444  23771374.713    23771380.059
 02  1  5  3 11 30.0000000  0  8G13G22G 1G20G25G31G27G 2
 -21001645.42249 -16364918.61247  21023056.633    21023057.012
 -18028054.56149 -14047842.58646  21214463.044    21214466.654
 -25519511.40249 -19885333.55747  20241821.262    20241823.820
 -10745491.46348  -8373118.93444  23314865.000    23314865.565
    169490.90748                  25113839.857
  -3272413.62448  -2549928.76144  24463953.703    24463963.383
  -6445730.59149  -5022651.04045  23276740.671    23276743.888
  -1750957.04448  -1364381.94644  23754137.992    23754145.044
 02  1  5  3 12  0.0000000  0  8G13G22G 1G20G25G31G27G 2
 -21058594.22049 -16409294.34547  21012220.041    21012220.496
 -17951573.78949 -13988247.29646  21229017.351    21229020.731
 -25513760.83749 -19880852.68047  20242915.767    20242918.161
 -10640510.44548  -8291315.75744  23334842.676    23334845.586
    253695.81248                  25129863.682
  -3378631.47348  -2632695.91944  24443740.901    24443748.709
  -6518721.67949  -5079527.27745  23262851.636    23262852.760
  -1841337.69848  -1434808.53744  23736938.090    23736945.331
 02  1  5  3 12 30.0000000  0  8G13G22G 1G20G25G31G27G 2
 -21115199.87049 -16453402.68947  21001447.672    21001448.067
 -17874687.68049 -13928336.16446  21243647.968    21243651.530
 -25507567.45849 -19876026.75247  20244094.559    20244096.867
 -10535379.72848  -8209395.86144  23354847.986    23354849.700
    337907.78648                  25145889.133
  -3484870.92248  -2715480.01244  24423524.149    24423534.078
  -6591630.13848  -5136339.11945  23248975.844    23248978.916
  -1931543.28848  -1505098.64544  23719773.073    23719776.260
 02  1  5  3 13  0.0000000  0  8G22G 1G20G25G31G27G 2G13
 -17797392.28249 -13868106.09846  21258357.232    21258360.638
 -25500923.85749 -19870850.00647  20245358.793    20245361.373
 -10430095.74348  -8127356.59144  23374883.191    23374885.578
    422132.98448                  25161917.235
  -3591122.29948  -2798273.39544  24403305.773    24403312.465
  -6664449.11949  -5193081.23145  23235119.607    23235122.387
  -2021565.72148  -1575246.02344  23702642.397    23702645.783
 -21171453.72149 -16497236.90447  20990743.428    20990743.740
 02  1  5  3 13 30.0000000  0  8G22G 1G20G25G31G27G 2G13
 -17719685.43249 -13807555.43246  21273144.456    21273147.971
 -25493824.23449 -19865317.92247  20246709.857    20246712.139
 -10324656.75148                  23394947.567
    506376.13248                  25177948.892
  -3697377.49548  -2881069.73044  24383085.600    24383096.025
  -6737173.42549  -5249749.57645  23221281.179    23221283.737
  -2111398.85148  -1645245.91844  23685547.148    23685552.927
 -21227348.76549 -16540791.53247  20980107.257    20980107.669
 02  1  5  3 14  0.0000000  0  8G22G 1G20G25G31G27G 2G13
 -17641579.38649 -13746693.70346  21288007.772    21288011.501
 -25486277.61549 -19859437.52347  20248145.926    20248148.351
 -10219075.11748                  23415039.755
    590627.40848                  25193982.073
  -3803642.80348  -2963873.89544  24362864.649    24362871.501
  -6809812.49748  -5306351.51145  23207457.276    23207460.928
  -2201050.69848  -1715104.49144  23668487.936    23668492.320
 -21282892.58149 -16584072.47647  20969537.116    20969537.578
 02  1  5  3 14 30.0000000  0  8G22G 1G20G25G31G27G 2G13
 -17563059.96849 -13685509.86646  21302949.457    21302953.078
 -25478266.56349 -19853195.23847  20249670.569    20249672.940
 -10113337.09248                  23435159.986
    674903.18248                  25210019.376
  -3909898.40348  -3046670.49744  24342644.387    24342649.548
  -6882349.10049  -5362873.60045  23193655.156    23193657.434
  -2290503.05648  -1784807.67444  23651465.083    23651468.713
 -21338066.29449 -16627065.02847  20959037.909    20959038.444
 02  1  5  3 15  0.0000000  0  8G22G 1G20G25G31G27G 2G13
 -17484127.90949 -13624004.48846  21317970.076    21317973.629
 -25469788.07549 -19846588.71747  20251284.033    20251286.496
 -10007443.70748  -7798018.04344  23455312.179    23455312.995
    759205.46748                  25226062.223
  -4016139.40348  -3129455.67744  24322427.729    24322434.405
  -6954780.92249  -5419314.02345  23179872.127    23179874.279
  -2379752.62648  -1854352.79444  23634482.020    23634485.083
 -21392865.80349 -16669765.99747  20948610.046    20948610.578
 02  1  5  3 15 30.0000000  0  8G22G 1G20G25G31G27G 2G13
 -17404792.84349 -13562185.07846  21333067.068    21333070.380
 -25460848.20349 -19839622.67647  20252985.281    20252987.747
  -9901404.64148                  23475489.920
    843527.64148                  25242108.402
  -4122369.69748  -3212232.43844  24302212.449    24302218.838
  -7027114.48748  -5475677.87545  23166105.832    23166110.376
  -2468804.63748  -1923743.97445  23617535.490    23617541.401
 -21447295.85749 -16712179.08147  20938252.268    20938252.680
 02  1  5  3 16  0.0000000  0  8G22G 1G20G25G31G27G 2G13
 -17325057.91349 -13500054.08046  21348240.124    21348243.709
 -25451446.88349 -19832297.06547  20254774.461    20254776.947
  -9795223.69848                  23495695.778
    927868.72848                  25258158.271
  -4228586.71748  -3294998.77644  24282000.002    24282006.287
  -7099350.07549  -5531965.38545  23152361.782    23152364.807
  -2557658.31548  -1992980.60944  23600627.075    23600630.425
 -21501355.18749 -16754303.29147  20927965.152    20927965.737
 02  1  5  3 16 30.0000000  0  8G22G 1G20G25G31G27G 2G13
 -17244932.08249 -13437618.49246  21363487.605    21363491.454
 -25441589.62149 -19824616.17447  20256650.304    20256652.888
  -9688909.86748                  23515927.085
   1012221.75448                  25274210.668
  -4334793.64148  -3377757.23544  24261789.306    24261792.916
  -7171493.66848  -5588181.20345  23138632.321    23138635.403
  -2646318.40548  -2062066.38845  23583755.697    23583760.439
 -21555048.01349 -16796141.91547  20917747.777    20917748.190
 02  1  5  3 17  0.0000000  0  8G22G 1G20G25G31G27G 2G13
 -17164434.83749 -13374893.48546  21378805.788    21378809.118
 -25431292.40949 -19816592.46047  20258609.930    20258612.360
  -9582482.90648  -7466880.46244  23536179.223    23536183.640
   1096569.90048                  25290261.732
  -4441004.06848  -3460518.43844  24241578.662    24241586.500
  -7243561.76648  -5644338.19945  23124918.013    23124921.816
  -2734800.22348  -2131013.22244  23566918.141    23566921.514
 -21608388.99049 -16837706.36847  20907597.248    20907597.886
 02  1  5  3 17 30.0000000  0  8G22G 1G20G25G31G27G 2G13
 -17083550.16949 -13311866.59446  21394197.904    21394201.234
 -25420535.94449 -19808210.89347  20260657.054    20260659.538
  -9475926.94048                  23556456.323
   1180931.74448                  25306314.973
  -4547196.33048  -3543265.44344  24221370.262    24221375.362
  -7315535.19549  -5700421.42645  23111223.418    23111226.486
  -2823083.81848  -2199805.62844  23550118.831    23550124.125
 -21661357.18449 -16878980.34547  20897518.058    20897518.558
 02  1  5  3 18  0.0000000  0  8G22G 1G20G25G31G27G 2G13
 -17002261.63349 -13248524.99346  21409666.427    21409670.483
 -25409300.30149 -19799455.95147  20262795.028    20262797.453
  -9369226.07648  -7300706.68844  23576761.115    23576764.867
   1265326.35048                  25322376.338
  -4653347.87848  -3625980.77144  24201169.865    24201177.366
  -7387394.62648  -5756415.83145  23097547.262    23097550.526
  -2911148.57848  -2268427.49744  23533360.144    23533365.175
 -21713931.59049 -16919947.48047  20887513.456    20887514.011
 02  1  5  3 18 30.0000000  0  8G22G 1G20G25G31G27G 2G13
 -16920581.77449 -13184878.47046  21425209.939    21425213.813
 -25397594.74949 -19790334.83947  20265022.401    20265024.828
  -9262393.11048                  23597091.187
   1349743.71748                  25338440.266
  -4759465.60648  -3708669.71144  24180976.127    24180983.777
  -7459149.48749  -5812328.72845  23083893.541    23083896.648
  -2999003.19148  -2336885.63244  23516641.896    23516647.685
 -21766119.97649 -16960613.81547  20877582.428    20877582.982
 02  1  5  3 19  0.0000000  0  8G22G 1G20G25G31G27G 2G13
 -16838521.36649 -13120935.41446  21440825.713    21440829.497
 -25385426.67349 -19780853.31247  20267338.204    20267340.729
  -9155438.92348  -7134119.69844  23617444.164    23617447.791
   1434175.50048                  25354507.158
  -4865554.34348  -3791336.06944  24160788.218    24160795.722
  -7530807.35149  -5868166.06445  23070258.676    23070260.278
  -3086653.88948  -2405184.84544  23499962.273    23499968.149
 -21817928.04249 -17000983.79947  20867723.573    20867724.341
 02  1  5  3 19 30.0000000  0  8G22G 1G20G25G31G27G 2G13
 -16756083.95549 -13056698.59046  21456512.830    21456516.758
 -25372796.28349 -19771011.54847  20269741.828    20269744.190
  -9048367.17348  -7050687.33044  23637819.138    23637826.933
   1518620.79848                  25370577.248
  -4971611.75348  -3873978.05344  24140606.236    24140612.076
  -7602368.78248  -5923928.26145  23056638.750    23056641.785
  -3174100.19448  -2473324.80544  23483321.850    23483328.125
 -21869354.82749 -17041056.68247  20857937.336    20857938.138
 02  1  5  3 20  0.0000000  0  8G22G 1G20G25G31G27G 2G13
 -16673279.09749 -12992175.43946  21472270.168    21472273.383
 -25359709.52749 -19760814.17647  20272232.133    20272234.541
  -8941187.89248  -6967171.22344  23658215.817    23658221.042
   1603072.63848                  25386648.162
  -5077641.62148  -3956598.51944  24120429.111    24120437.302
  -7673840.37949  -5979620.44145  23043039.668    23043041.707
  -3261347.81848  -2541309.98044  23466719.873    23466722.468
 -21920405.25649 -17080836.30747  20848223.009    20848223.747
 02  1  5  3 20 30.0000000  0  8G22G 1G20G25G31G27G 2G13
 -16590105.14949 -12927364.69546  21488097.564    21488101.485
 -25346161.57249 -19750257.42947  20274810.407    20274812.934
  -8833899.65648  -6883570.16744  23678630.977    23678636.427
   1687534.74748                  25402720.923
  -5183636.77448  -4039191.99844  24100258.432    24100265.131
  -7745217.46349  -6035238.98846  23029457.702    23029459.985
  -3348391.13948  -2609135.89945  23450155.734    23450160.194
 -21971072.95949 -17120317.70047  20838581.511    20838582.047
 02  1  5  3 21  0.0000000  0  8G22G 1G20G25G31G27G 2G13
 -16506569.19949 -12862271.86946  21503994.408    21503998.199
 -25332156.17449 -19739344.23047  20277475.575    20277478.336
  -8726509.73348  -6799889.92944  23699068.155    23699071.672
   1772002.69448                  25418794.348
  -5289598.22448  -4121759.24044  24080094.791    24080101.374
  -7816504.06148  -6090786.99845  23015890.663    23015894.569
  -3435232.94848  -2676804.84345  23433630.034    23433633.750
 -22021360.24749 -17159502.66847  20829012.251    20829013.122
 02  1  5  3 21 30.0000000  0  8G22G 1G20G25G31G27G 2G13
 -16422675.46649 -12796900.26146  21519958.800    21519962.487
 -25317694.23749 -19728075.28447  20280227.675    20280230.377
  -8619022.51648  -6716133.86844  23719521.104    23719524.737
   1856474.84848   1446556.37944  25434869.454    25434873.547
  -5395524.27348  -4204298.93544  24059938.631    24059943.538
  -7887701.42149  -6146265.48645  23002343.519    23002346.626
  -3521873.41248  -2744316.85245  23417143.575    23417147.044
 -22071266.50349 -17198390.72747  20819515.090    20819515.801
 02  1  5  3 22  0.0000000  0  8G22G 1G20G25G31G27G 2G13
 -16338406.58749 -12731236.33846  21535994.667    21535998.964
 -25302755.11749 -19716434.50447  20283070.629    20283073.210
  -8511420.87248  -6632288.59344  23739997.965    23740003.982
   1940971.11748   1512400.46345  25450948.935    25450952.477
  -5501391.56148  -4286792.82644  24039791.504    24039799.695
  -7958789.01349  -6201658.45145  22988816.337    22988818.477
  -3608291.02848  -2811655.24045  23400697.900    23400702.795
 -22120769.47049 -17236964.53547  20810095.133    20810095.970
 02  1  5  3 22 30.0000000  0  7G22G 1G20G25G27G 2G13
 -16253761.75749 -12665279.46746  21552102.157    21552105.955
 -25287334.83349 -19704418.79847  20286005.059    20286007.585
  -8403704.35248                  23760495.408
   2025494.79848   1578258.35244  25467033.724    25467036.862
  -8029763.01649  -6256962.90446  22975308.949    22975312.238
  -3694480.94348  -2878816.18145  23384297.901    23384301.272
 -22169863.92149 -17275220.02047  20800752.847    20800753.728
 02  1  5  3 23  0.0000000  0  7G22G 1G20G25G27G 2G13
 -16168763.78149 -12599047.43246  21568276.923    21568281.220
 -25271452.81049 -19692043.30247  20289027.328    20289029.843
  -8295896.02548  -6464347.55544  23781011.296    23781018.549
   2110025.41548                  25483119.834
  -8100643.16249  -6312194.21846  22961822.062    22961825.113
  -3780462.11448  -2945814.48445  23367934.655    23367941.173
 -22218567.92349 -17313171.26447  20791484.878    20791485.797
 02  1  5  3 23 30.0000000  0  7G22G 1G20G25G27G 2G13
 -16083422.69549 -12532548.03446  21584517.116    21584521.131
 -25255115.87649 -19679313.32747  20292136.228    20292138.758
  -8188005.96448  -6380277.56344  23801541.915    23801547.159
   2194555.55448                  25499205.330
  -8171436.42949  -6367357.83846  22948350.384    22948352.737
  -3866240.65548  -3012654.85945  23351612.659    23351616.049
 -22266886.71149 -17350822.33547  20782290.291    20782291.072
 02  1  5  3 24  0.0000000  0  7G22G 1G20G25G27G 2G13
 -15997698.69149 -12465750.26946  21600829.903    21600834.099
 -25238280.96449 -19666195.32347  20295339.716    20295342.550
  -8079994.75348  -6296113.18744  23822095.615    23822104.054
   2279127.62248                  25515299.415
  -8242099.89849  -6422420.31446  22934903.119    22934906.171
  -3951772.36948  -3079302.91845  23335335.767    23335340.739
 -22314775.88049 -17388138.64547  20773177.037    20773178.114
 02  1  5  3 24 30.0000000  0  7G22G 1G20G25G27G 2G13
 -15911623.33249 -12398678.72046  21617209.370    21617213.484
 -25220976.46149 -19652711.39747  20298632.610    20298635.442
  -7971893.98848  -6211879.03044  23842667.028    23842671.387
   2363712.90048                  25531396.034
  -8312661.80749  -6477403.65946  22921476.414    22921479.476
  -4037084.99848  -3145780.25445  23319101.632    23319105.229
 -22362262.05449 -17425140.93347  20764141.028    20764141.989
 02  1  5  3 25  0.0000000  0  6G22G 1G20G27G 2G13
 -15825214.58249 -12331347.39046  21633652.497    21633656.867
 -25203217.06849 -19638873.01947  20302012.524    20302015.271
  -7863721.82048  -6127589.25644  23863251.337    23863254.543
  -8383137.31849  -6532319.66146  22908064.639    22908066.873
  -4122192.63048  -3212097.85845  23302905.581    23302910.643
 -22409358.58349 -17461839.60047  20755179.055    20755179.759
 02  1  5  3 25 30.0000000  0  7G22G 1G20G 8G27G 2G13
 -15738463.79649 -12263749.54446  21650161.180    21650165.333
 -25184990.86349 -19624670.89247  20305481.054    20305483.744
  -7755469.98548  -6043237.36144  23883851.848    23883858.300
          .20858                  25112977.259
  -8453514.66849  -6587159.19146  22894672.420    22894675.313
  -4207082.56048  -3278245.83545  23286752.332    23286756.502
 -22456052.08849 -17498224.22847  20746293.596    20746294.233
 02  1  5  3 26  0.0000000  0  8G22G 1G20G31G 8G27G 2G13
 -15651362.17449 -12195878.31446  21666735.806    21666740.232
 -25166285.98449 -19610095.76747  20309040.522    20309043.362
  -7647129.96348  -5958816.73744  23904467.793    23904472.410
         -.56658          .64254  23879043.875    23879053.059
    -93061.37848                  25095268.170
  -8523782.08949  -6641913.06346  22881301.607    22881304.294
  -4291742.10948  -3344214.31545  23270641.788    23270645.080
 -22502329.53149 -17534284.65047  20737487.265    20737487.918
 02  1  5  3 26 30.0000000  0  8G22G 1G20G31G 8G27G 2G13
 -15563929.14649 -12127748.84846  21683374.080    21683378.582
 -25147118.56049 -19595160.21747  20312687.818    20312690.670
  -7538721.05448  -5874342.50644  23925097.452    23925103.415
   -105285.89848    -82039.97544  23859010.090    23859016.638
   -186106.94748                  25077562.799
  -8593955.77049  -6696593.89446  22867947.508    22867950.674
  -4376186.61048  -3410015.22245  23254572.698    23254576.767
 -22548205.14749 -17570031.95847  20728757.774    20728758.421
 02  1  5  3 27  0.0000000  0  8G22G 1G20G31G 8G27G 2G13
 -15476158.98649 -12059356.67746  21700076.172    21700080.760
 -25127479.88549 -19579857.45447  20316425.153    20316428.141
  -7430237.95148  -5789810.43944  23945741.855    23945745.456
   -210491.48548   -164018.46144  23838989.564    23838997.417
   -279127.68148                  25059861.340
  -8664027.18249  -6751195.03346  22854613.355    22854616.153
  -4460406.32648  -3475640.98745  23238545.920    23238550.082
 -22593668.70149 -17605458.18147  20720106.284    20720106.934
 02  1  5  3 27 30.0000000  0  7G22G 1G20G31G27G 2G13
 -15388052.56949 -11990702.48646  21716842.350    21716846.577
 -25107367.68549 -19564185.71247  20320252.379    20320255.380
  -7321681.82248  -5705221.47444  23966398.911    23966404.454
   -315612.07948   -245930.73844  23818985.964    23818993.397
  -8733993.93349  -6805714.61446  22841299.384    22841302.123
  -4544398.13848  -3541089.16145  23222563.156    23222567.091
 -22638716.54649 -17640560.46947  20711534.045    20711534.731
 02  1  5  3 28  0.0000000  0  7G22G 1G20G31G27G 2G13
 -15299606.86749 -11921783.91546  21733673.301    21733677.428
 -25086775.68949 -19548140.10447  20324170.882    20324173.938
  -7213049.55848  -5620573.17244  23987071.609    23987078.820
   -420638.88948   -327769.95744  23799000.180    23799007.084
  -8803849.80549  -6860147.80246  22828005.404    22828008.841
  -4628155.05848  -3606354.34745  23206624.737    23206628.789
 -22683340.82449 -17675332.70747  20703042.233    20703043.022
 02  1  5  3 28 30.0000000  0  7G22G 1G20G31G27G 2G13
 -15210841.76549 -11852616.45646  21750564.509    21750569.101
 -25065720.78149 -19531733.78447  20328177.550    20328180.685
  -7104361.49048  -5535881.45045  24007754.230    24007757.401
   -525585.81448   -409546.94844  23779030.644    23779037.061
  -8873611.93449  -6914507.94846  22814730.915    22814733.733
  -4711693.11748  -3671448.99545  23190727.554    23190731.161
 -22727556.98549 -17709786.93347  20694628.213    20694629.002
 02  1  5  3 29  0.0000000  0  7G22G 1G20G31G27G 2G13
 -15121760.65449 -11783202.75646  21767516.291    21767520.886
 -25044203.27049 -19514966.99247  20332272.312    20332275.376
  -6995621.01048  -5451148.71644  24028447.424    24028453.014
   -630450.31048                  23759074.340
  -8943280.40949  -6968795.12446  22801474.153    22801476.419
  -4795011.69148  -3736372.61645  23174872.973    23174877.225
 -22771363.62349 -17743922.05347  20686292.126    20686292.962
 02  1  5  3 29 30.0000000  0  8G22G 1G20G31G 8G27G 2G13
 -15032348.91049 -11713531.41446  21784531.124    21784535.624
 -25022205.63849 -19497826.08647  20336458.465    20336461.492
  -6886813.84548  -5366364.15444  24049152.491    24049159.312
   -735211.76448   -572892.19845  23739139.607    23739147.511
         -.25558                  24971428.723
  -9012837.55149  -7022995.54846  22788236.789    22788239.834
  -4878092.22048  -3801110.76145  23159062.977    23159068.260
 -22814741.51049 -17777723.07747  20678037.356    20678038.400
 02  1  5  3 30  0.0000000  0  8G 1G20G31G 8G27G 2G13G22
 -24999719.49449 -19480304.51947  20340737.454    20340740.514
  -6777935.01348  -5281523.70144  24069871.938    24069878.775
   -839858.85548   -654435.52545  23719225.866    23719233.739
    -92851.34148                  24953760.540
  -9082275.15449  -7077102.82846  22775023.963    22775026.841
  -4960925.62048  -3865656.34745  23143300.494    23143305.385
 -22857680.75449 -17811182.30247  20669866.403    20669867.436
 -14942601.52649 -11643598.52746  21801609.210    21801614.657
 02  1  5  3 30 30.0000000  0  8G 1G20G31G 8G27G 2G13G22
 -24976763.51349 -19462416.84447  20345105.728    20345108.909
  -6669006.43648  -5196644.51744  24090600.090    24090604.981
   -944407.44548   -735902.09245  23699331.555    23699341.235
   -185678.68948                  24936095.054
  -9151611.78049  -7131131.42146  22761829.529    22761832.662
  -5043529.94048  -3930023.44445  23127581.529    23127585.798
 -22900198.44849 -17844313.04847  20661775.953    20661777.157
 -14852540.19149 -11573421.00246  21818748.010    21818752.832
 02  1  5  3 31  0.0000000  0  8G 1G20G31G 8G27G 2G13G22
 -24953339.17949 -19444164.22147  20349563.199    20349566.408
  -6560032.63848  -5111730.09744  24111337.900    24111342.082
  -1048856.07848   -817290.81445  23679455.947    23679464.386
   -278483.65448                  24918435.197
  -9220848.78349  -7185082.38646  22748653.456    22748657.311
  -5125905.60748  -3994212.36845  23111906.068    23111911.385
 -22942294.50749 -17877115.24647  20653765.505    20653766.407
 -14762169.22749 -11503002.20846  21835944.746    21835949.766
 02  1  5  3 31 30.0000000  0  8G 1G20G31G 8G27G 2G13G22
 -24929439.78949 -19425541.43047  20354111.162    20354114.387
  -6451010.18648  -5026777.75944  24132083.655    24132087.234
  -1153195.05048   -898594.03945  23659600.710    23659609.646
   -371259.26448                  24900782.067
  -9289979.36249  -7238950.44046  22735499.592    22735502.477
  -5208044.90748  -4058217.11845  23096275.675    23096281.331
 -22983961.13649 -17909582.82647  20645836.585    20645837.655
 -14671485.04149 -11432339.35146  21853201.378    21853206.241
 02  1  5  3 32  0.0000000  0  8G 1G20G31G 8G27G 2G13G22
 -24905065.24349 -19406548.37747  20358749.491    20358752.709
  -6341942.18548  -4941789.91544  24152839.254    24152843.875
  -1257421.44948   -979809.52445  23639767.170    23639775.361
   -464005.49448                  24883131.500
  -9359003.38349  -7292735.45246  22722364.494    22722367.300
  -5289946.90348  -4122036.94545  23080689.854    23080693.732
 -23025196.14749 -17941714.07947  20637989.561    20637990.796
 -14580490.44149 -11361434.60146  21870517.380    21870522.577
 02  1  5  3 32 30.0000000  0  8G 1G20G31G 8G27G 2G13G22
 -24880218.21249 -19387187.15847  20363478.009    20363481.215
  -6232834.46348  -4856771.12444  24173601.801    24173609.117
  -1361534.94948  -1060937.06545  23619955.218    23619962.986
   -556724.63148                  24865488.258
  -9427923.32049  -7346439.35946  22709248.638    22709252.485
  -5371613.39848  -4185673.27445  23065150.448    23065154.936
 -23066000.54349 -17973509.78347  20630224.699    20630225.860
 -14489191.16049 -11290292.45446  21887891.026    21887895.870
 02  1  5  3 33  0.0000000  0  8G 1G20G31G 8G27G 2G13G22
 -24854896.44049 -19367456.00947  20368296.675    20368299.894
  -6123687.73948  -4771721.90844  24194371.729    24194377.867
  -1465530.13548  -1141972.37045  23600165.720    23600172.805
   -649414.31948                  24847850.653
  -9496736.95549  -7400060.42446  22696154.307    22696157.937
  -5453041.25448  -4249123.64445  23049653.856    23049659.506
 -23106370.60449 -18004967.04147  20622542.609    20622543.695
 -14397587.95949 -11218913.48846  21905322.814    21905327.858
 02  1  5  3 33 30.0000000  0  8G 1G20G31G 8G27G 2G13G22
 -24829090.76349 -19347347.79347  20373207.493    20373210.734
  -6014496.11848  -4686637.74544  24215149.822    24215153.227
  -1569394.86948  -1222906.01345  23580401.400    23580409.020
   -742065.36548                  24830219.122
  -9565434.85749  -7453591.33046  22683081.860    22683084.944
  -5534220.39348  -4312380.19445  23034207.202    23034210.934
 -23146295.47649 -18036077.40447  20614945.688    20614946.829
 -14305674.56649 -11147292.80846  21922813.128    21922819.129
 02  1  5  3 34  0.0000000  0  8G 1G20G31G 8G27G 2G13G22
 -24802803.37849 -19326864.22947  20378209.864    20378213.131
  -5905264.69748  -4601522.56844  24235936.593    24235941.616
  -1673128.09948  -1303737.19445  23560661.553    23560668.748
   -834679.33148                  24812596.423
  -9634018.90349  -7507033.51146  22670030.393    22670033.588
  -5615151.99248  -4375443.85845  23018805.758    23018811.111
 -23185775.64449 -18066841.24547  20607432.857    20607433.851
 -14213455.87749 -11075434.24146  21940362.088    21940367.506
 02  1  5  3 34 30.0000000  0  8G 1G20G31G 8G27G 2G13G22
 -24776037.68749 -19306007.95847  20383303.294    20383306.517
  -5796000.00448  -4516381.47544  24256729.029    24256733.918
  -1776730.18348  -1384466.17545  23540946.083    23540955.516
   -927259.44948                  24794978.527
  -9702492.30749  -7560389.45946  22657000.599    22657004.506
  -5695838.51248  -4438316.53545  23003452.471    23003455.713
 -23224813.17149 -18097260.16747  20600004.131    20600005.183
 -14120938.23849 -11003342.71546  21957967.782    21957973.209
 02  1  5  3 35  0.0000000  0  8G 1G20G31G 8G27G 2G13G22
 -24748812.33049 -19284793.50747  20388484.326    20388487.584
  -5686723.64348  -4431231.22444  24277523.508    24277529.589
  -1880216.75648  -1465105.13445  23521253.733    23521260.278
  -1019824.30948                  24777363.802
  -9770873.40949  -7613673.49446  22643988.185    22643991.875
  -5776297.59648  -4501011.98545  22988140.877    22988146.329
 -23263424.68449 -18127347.13247  20592656.609    20592657.430
 -14028143.46549 -10931035.25746  21975626.133    21975631.420
 02  1  5  3 35 30.0000000  0  8G 1G20G31G 8G27G 2G13G22
 -24721130.11449 -19263223.06047  20393752.467    20393755.700
  -5577441.74048  -4346076.77344  24298320.074    24298329.258
  -1983587.44548  -1545653.76645  23501582.939    23501592.371
  -1112376.43548                  24759752.359
  -9839164.99849  -7666887.77346  22630992.189    22630995.554
  -5856531.32748  -4563531.82945  22972873.798    22972878.374
 -23301611.52649 -18157103.17747  20585390.090    20585391.246
 -13935076.99449 -10858516.07846  21993336.028    21993340.922
 02  1  5  3 36  0.0000000  0  8G 1G20G31G 8G27G 2G13G22
 -24692974.36849 -19241283.62547  20399110.163    20399113.394
  -5468140.35948  -4260907.07044  24319118.727    24319121.444
  -2086822.35948  -1626096.56145  23481938.290    23481945.726
  -1204898.67548                  24742145.633
  -9907350.07049  -7720019.06046  22618017.816    22618021.101
  -5936521.84648  -4625862.14345  22957651.164    22957655.721
 -23339355.18249 -18186513.88247  20578207.863    20578208.960
 -13841724.96049 -10785774.38046  22011100.586    22011105.979
 02  1  5  3 36 30.0000000  0  8G 1G20G31G 8G27G 2G13G22
 -24664333.13449 -19218965.87947  20404560.216    20404563.520
  -5358810.41048  -4175715.13844  24339924.617    24339933.801
  -2189906.34348  -1706421.74545  23462321.669    23462330.109
  -1297379.08248                  24724547.446
  -9975416.42049  -7773057.83946  22605065.582    22605068.605
  -6016256.37948  -4687992.99145  22942478.673    22942482.814
 -23376642.42249 -18215568.93547  20571112.489    20571113.306
 -13748078.33849 -10712803.14146  22028921.063    22028926.957
 02  1  5  3 37  0.0000000  0  8G 1G20G31G 8G27G 2G13G22
 -24635214.31149 -19196275.98347  20410101.456    20410104.821
  -5249462.87348  -4090509.47344  24360731.943    24360739.737
  -2292844.26548  -1786633.07645  23442733.230    23442742.166
  -1389824.90548                  24706956.206
 -10043371.55449  -7826009.93546  22592133.629    22592137.304
  -6095741.84848  -4749929.74145  22927352.899    22927357.541
 -23413479.06149 -18244272.87247  20564102.867    20564103.734
 -13654147.81049 -10639610.67346  22046795.927    22046800.558
 02  1  5  3 37 30.0000000  0  8G 1G20G31G 8G27G 2G13G22
 -24605615.43749 -19173212.02647  20415734.224    20415737.640
  -5140098.08348  -4005290.43344  24381544.210    24381547.452
  -2395630.44248  -1866726.17145  23423173.963    23423180.610
  -1482233.29948                  24689371.068
 -10111212.73549  -7878873.24746  22579223.899    22579227.673
  -6174974.57248  -4811669.56445  22912275.457    22912280.206
 -23449861.05249 -18272622.53847  20557179.066    20557180.092
 -13559933.46249 -10566197.04546  22064724.095    22064729.845
 02  1  5  3 38  0.0000000  0  8G 1G20G31G 8G27G 2G13G22
 -24575543.62149 -19149779.54247  20421456.974    20421460.222
  -5030726.14048                  24402356.423
  -2498268.86148  -1946704.12445  23403642.445    23403650.636
  -1574611.08748                  24671792.141
 -10178946.74949  -7931653.05646  22566334.758    22566337.825
  -6253960.67248  -4873217.21145  22897244.845    22897249.900
 -23485793.95549 -18300622.26547  20550341.528    20550342.666
 -13465445.20249 -10492569.99846  22082704.781    22082710.351
 02  1  5  3 38 30.0000000  0  8G 1G20G31G 8G27G 2G13G22
 -24544999.70149 -19125979.18247  20427269.067    20427272.459
  -4921350.69048  -3834838.34644  24423170.969    24423176.366
  -2600756.90648  -2026564.87345  23384139.561    23384146.451
  -1666958.92048                  24654219.359
 -10246573.83349  -7984349.54046  22553465.650    22553468.806
  -6332700.07748  -4934572.61245  22882261.073    22882265.938
 -23521276.68549 -18328271.20947  20543589.588    20543590.542
 -13370686.58349 -10418732.26546  22100737.130    22100742.147
 02  1  5  3 39  0.0000000  0  8G 1G20G31G 8G27G 2G13G22
 -24513987.62049 -19101814.02847  20433170.326    20433173.812
  -4811978.72748                  24443983.390
  -2703095.26748  -2106308.99945  23364664.288    23364672.976
  -1759280.03848                  24636651.422
 -10314097.65349  -8036965.55346  22540616.453    22540618.918
  -6411195.84849  -4995738.16446  22867324.464    22867329.602
 -23556311.37249 -18355571.02747  20536922.694    20536923.736
 -13275664.31849 -10344689.10046  22118819.116    22118825.193
 02  1  5  3 39 30.0000000  0  8G 1G20G31G 8G27G 2G13G22
 -24482491.22949 -19077271.48047  20439164.156    20439167.665
  -4702596.90348                  24464798.259
  -2805264.53048  -2185921.38245  23345223.130    23345230.798
  -1851558.00748                  24619090.889
 -10381501.66949  -8089488.21146  22527789.875    22527792.908
  -6489430.85049  -5056700.54845  22852436.610    22852441.674
 -23590880.28949 -18382507.90347  20530344.441    20530345.600
 -13180365.04849 -10270430.09946  22136954.233    22136959.529
 02  1  5  3 40  0.0000000  0  8G 1G20G31G 8G27G 2G13G22
 -24450510.10549 -19052351.21247  20445250.302    20445253.628
  -4593207.55748                  24485614.582
  -2907261.20648  -2265399.28545  23325812.901    23325821.837
  -1943792.08848                  24601539.768
 -10448785.14249  -8141916.93046  22514986.190    22514989.375
  -6567403.67049  -5117458.61346  22837599.012    22837604.065
 -23624981.63849 -18409080.44247  20523855.079    20523856.324
 -13084790.88949 -10195956.89246  22155141.053    22155146.621
 02  1  5  3 40 30.0000000  0  8G 1G20G31G 8G27G 2G13G22
 -24418046.53649 -19027055.02047  20451427.995    20451431.414
  -4483815.94648  -3493903.29744  24506431.324    24506436.926
  -3009084.15648  -2344741.82745  23306437.144    23306445.583
  -2035984.06648                  24583996.569
 -10515949.99349  -8194253.23246  22502205.449    22502208.939
  -6645115.53349  -5178013.34546  22822810.858    22822815.703
 -23658615.52449 -18435288.72247  20517454.775    20517456.095
 -12988947.04849 -10121273.55446  22173379.911    22173385.870
 02  1  5  3 41  0.0000000  0  8G 1G20G31G 8G27G 2G13G22
 -24385105.48049 -19001386.76147  20457696.186    20457699.640
  -4374429.70648                  24527247.341
  -3110734.90948  -2423950.21845  23287093.629    23287101.468
  -2128138.52348                  24566459.794
 -10583000.56849  -8246500.49446  22489446.325    22489449.486
  -6722570.30949  -5238367.73846  22808072.007    22808075.965
 -23691785.51249 -18461135.52747  20511142.905    20511144.365
 -12892840.81749 -10046385.75546  22191668.576    22191674.019
 02  1  5  3 41 30.0000000  0  8G 1G20G31G 8G27G 2G13G22
 -24351688.70549 -18975347.82147  20464055.442    20464058.995
  -4265053.27548                  24548060.872
  -3212211.92548  -2503023.23945  23267783.080    23267790.475
  -2220256.58748  -1730071.97244  24548931.306    24548936.422
 -10649938.26949  -8298659.79746  22476707.699    22476711.121
  -6799768.67849  -5298522.35046  22793381.073    22793385.914
 -23724491.61549 -18486620.86247  20504919.115    20504920.607
 -12796476.83949  -9971297.11246  22210006.301    22210012.307
 02  1  5  3 42  0.0000000  0  8G 1G20G31G 8G27G 2G13G22
 -24317787.84049 -18948931.66247  20470506.628    20470510.065
  -4155681.09848                  24568873.869
  -3313503.54848  -2581951.82045  23248507.895    23248515.317
  -2312329.46448                  24531409.076
 -10716754.27049  -8350724.26646  22463993.818    22463997.327
  -6876701.47549  -5358470.02346  22778741.538    22778746.609
 -23756724.01549 -18511737.08147  20498785.661    20498786.903
 -12699849.21849  -9896003.03846  22228393.425    22228400.042
 02  1  5  3 42 30.0000000  0  8G 1G20G31G 8G27G 2G13G22
 -24283419.19749 -18922151.00047  20477046.737    20477050.267
  -4046332.15048                  24589683.114
  -3414622.75948  -2660746.03845  23229265.790    23229273.023
  -2404372.89748                  24513895.023
 -10783464.20949  -8402706.10746  22451299.440    22451302.675
  -6953383.93849  -5418222.63146  22764149.192    22764154.068
 -23788496.75449 -18536495.12947  20492739.655    20492740.917
 -12602977.00249  -9820518.36346  22246828.145    22246834.055
 02  1  5  3 43  0.0000000  0  8G 1G20G31G 8G27G 2G13G22
 -24248580.78749 -18895004.29447  20483676.494    20483680.105
  -3937007.07148                  24610487.133
  -3515564.05248  -2739401.66045  23210057.643    23210064.389
  -2496384.28248  -1945236.78544  24496385.425    24496389.047
 -10850065.56049  -8454603.32546  22438625.314    22438628.577
  -7029812.85049  -5477777.66946  22749605.749    22749610.044
 -23819805.73749 -18560891.79847  20486781.769    20486782.993
 -12505860.33549  -9744843.20346  22265309.441    22265315.260
 02  1  5  3 43 30.0000000  0  8G 1G20G31G 8G27G 2G13G22
 -24213286.46449 -18867502.32747  20490392.899    20490396.518
  -3827722.52848                  24631283.569
  -3616337.95248  -2817926.84245  23190880.422    23190888.613
  -2588377.05748                  24478879.350
 -10916571.74749  -8506426.40646  22425969.927    22425973.107
  -7106001.05249  -5537145.14846  22735107.199    22735112.126
 -23850663.62749 -18584936.96847  20480909.885    20480911.149
 -12408515.89749  -9668990.59346  22283833.441    22283839.807
 02  1  5  3 44  0.0000000  0  8G 1G20G31G 8G27G 2G13G22
 -24177518.30249 -18839631.13447  20497199.176    20497202.906
  -3718462.93348  -2897526.38844  24652074.727    24652083.415
  -3716922.61948  -2896304.57245  23171740.686    23171748.586
  -2680332.68348  -2088573.42044  24461382.057    24461386.017
 -10982964.15649  -8558160.82846  22413336.088    22413339.189
  -7181929.44049  -5596310.17046  22720658.381    22720663.543
 -23881050.60849 -18608615.19947  20475127.460    20475128.848
 -12310928.14449  -9592948.35646  22302403.534    22302409.675
 02  1  5  3 44 30.0000000  0  8G 1G20G31G 8G27G 2G13G22
 -24141276.17749 -18811390.61447  20504095.768    20504099.585
  -3609231.31648  -2812411.13644  24672861.564    24672868.369
  -3817314.80748  -2974532.34245  23152636.408    23152644.096
  -2772250.57048  -2160197.89944  24443889.631    24443895.512
 -11049242.18949  -8609806.13346  22400723.782    22400726.952
  -7257596.98649  -5655271.93346  22706259.485    22706264.401
 -23910964.84449 -18631925.06047  20469434.748    20469435.901
 -12213099.45249  -9516718.38946  22321019.912    22321026.681
 02  1  5  3 45  0.0000000  0  8G 1G20G31G 8G27G 2G13G22
 -24104544.87949 -18782768.92147  20511085.536    20511089.513
  -3500014.73048  -2727307.66444  24693644.598    24693651.084
  -3917496.00348  -3052595.68845  23133572.551    23133581.983
  -2864114.69648  -2231780.49344  24426409.851    24426412.509
 -11115389.93849  -8661349.92746  22388136.202    22388139.504
  -7332987.15949  -5714017.56746  22691913.392    22691918.366
 -23940389.51249 -18654853.43947  20463835.500    20463836.812
 -12115017.16249  -9440290.82246  22339684.886    22339691.273
 02  1  5  3 45 30.0000000  0  8G 1G20G31G 8G27G 2G13G22
 -24067338.25049 -18753776.84047  20518165.997    20518170.020
  -3390829.88148  -2642228.87744  24714422.190    24714431.126
  -4017476.53048  -3130502.71245  23114547.237    23114554.555
  -2955938.52948                  24408934.354
 -11181420.56749  -8712802.46046  22375571.068    22375574.492
  -7408112.78449  -5772557.06046  22677617.264    22677622.075
 -23969336.55349 -18677409.64047  20458327.163    20458328.421
 -12016697.59749  -9363678.35246  22358394.268    22358400.500
 02  1  5  3 46  0.0000000  0  8G 1G20G31G 8G27G 2G13G22
 -24029658.69849 -18724416.24747  20525336.337    20525340.361
  -3281681.51448                  24735192.854
  -4117255.04448  -3208252.30145  23095559.426    23095567.617
  -3047723.74748  -2374852.84044  24391470.440    24391475.134
 -11247335.78449  -8764165.04946  22363027.924    22363031.017
  -7482975.12149  -5830891.38546  22663371.883    22663377.024
 -23997806.61849 -18699594.17247  20452909.795    20452911.221
 -11918145.59848  -9286884.77846  22377148.196    22377154.124
 02  1  5  3 46 30.0000000  0  8G 1G20G31G 8G27G 2G13G22
 -23991509.39649 -18694689.62247  20532595.863    20532599.816
  -3172575.37348  -2472161.09844  24755955.132    24755958.812
  -4216831.34148  -3285844.31645  23076611.037    23076619.476
  -3139472.70848  -2446345.71744  24374010.435    24374014.686
 -11313138.22849  -8815439.77246  22350506.288    22350509.695
  -7557576.35449  -5889022.25146  22649175.461    22649181.357
 -24025801.26749 -18721408.24447  20447582.744    20447584.122
 -11819366.62048  -9209914.33746  22395945.231    22395951.703
 02  1  5  3 47  0.0000000  0  8G 1G20G31G 8G27G 2G13G22
 -23952885.11349 -18664592.88147  20539945.765    20539949.847
  -3063508.71548  -2387174.40744  24776710.308    24776718.996
  -4316196.59448  -3363271.88445  23057703.153    23057712.089
  -3231179.63448  -2517805.79744  24356558.710    24356564.924
 -11378821.85949  -8866621.91246  22338006.906    22338010.087
  -7631910.00449  -5946944.60146  22635030.592    22635036.013
 -24053313.08349 -18742846.09047  20442347.305    20442348.854
 -11720357.86248  -9132764.86046  22414786.041    22414792.979
 02  1  5  3 47 30.0000000  0  8G 1G20G31G 8G27G 2G13G22
 -23913781.15349 -18634122.35847  20547386.771    20547391.007
  -2954479.25248                  24797458.299
  -4415342.48348  -3440528.51545  23038835.656    23038844.095
  -3322839.01848  -2589228.86444  24339118.205    24339121.303
 -11444381.37649  -8917707.34146  22325530.919    22325534.612
  -7705970.46449  -6004654.07646  22620937.386    22620943.238
 -24080335.66649 -18763902.71147  20437204.863    20437206.348
 -11621116.84148  -9055434.39646  22433671.563    22433678.470
 02  1  5  3 48  0.0000000  0  8G 1G20G31G 8G27G 2G13G22
 -23874194.69549 -18603275.86347  20554920.444    20554924.542
  -2845486.80448  -2217287.93744  24818198.922    24818207.610
  -4514262.71548  -3517609.28945  23020011.964    23020021.397
  -3414447.45548  -2660612.24144  24321684.702    24321689.491
 -11509813.04549  -8968693.14646  22313080.691    22313084.277
  -7779753.66249  -6062147.49146  22606896.270    22606902.419
 -24106864.69249 -18784574.74247  20432156.592    20432158.129
 -11521643.27748  -8977922.74546  22452600.288    22452607.525
 02  1  5  3 48 30.0000000  0  8G 1G20G31G 8G27G 2G13G22
 -23834135.95249 -18572061.36747  20562543.518    20562547.611
  -2736543.92548  -2132397.75044  24838930.231    24838937.851
  -4612963.81448  -3594519.30345  23001229.421    23001238.356
  -3506014.23548  -2731963.10644  24304261.116    24304264.449
 -11575126.17149  -9019586.57246  22300651.689    22300655.280
  -7853268.52749  -6119431.80646  22592907.689    22592912.685
 -24132908.18549 -18804868.43647  20427200.978    20427202.515
 -11421949.34348  -8900239.35546  22471571.725    22471578.238
 02  1  5  3 49  0.0000000  0  8G 1G20G31G 8G27G 2G13G22
 -23793611.94649 -18540484.32647  20570255.015    20570259.110
  -2627660.10648  -2047553.59744  24859650.906    24859658.250
  -4711449.28548  -3671261.26245  22982488.996    22982495.192
  -3597545.65548  -2803286.46044  24286842.721    24286849.297
 -11640327.26149  -9070392.69646  22288244.122    22288247.952
  -7926520.95749  -6176511.65346  22578967.286    22578973.252
 -24158471.55849 -18824788.00447  20422336.585    20422338.058
 -11322044.74748  -8822391.83046  22490582.832    22490591.519
 02  1  5  3 49 30.0000000  0  8G 1G20G31G 8G27G 2G13G22
 -23752613.15249 -18508537.30847  20578056.557    20578060.987
  -2518828.12848  -1962749.85644  24880360.393    24880369.328
  -4809705.84648  -3747824.84145  22963790.443    22963801.612
  -3689031.54648  -2874574.24844  24269433.818    24269438.398
 -11705405.86849  -9121103.38846  22275860.689    22275864.035
  -7999500.40449  -6233378.76646  22565080.554    22565086.185
 -24183543.47049 -18844324.61547  20417565.596    20417566.943
 -11221922.09848  -8744374.41445  22509635.940    22509642.908
 02  1  5  3 50  0.0000000  0  8G 1G20G31G 8G27G 2G13G22
 -23711136.78249 -18476218.16047  20585949.425    20585953.722
  -2410047.74948                  24901061.084
  -4907727.13148  -3824205.04445  22945138.616    22945147.304
  -3780468.28748  -2945823.79444  24252033.634    24252039.164
 -11770358.36049  -9171715.78546  22263500.649    22263504.673
  -8072202.74849  -6290029.96046  22551245.712    22551250.939
 -24208119.51349 -18863474.84247  20412889.040    20412890.475
 -11121580.69948  -8666186.52145  22528730.243    22528737.311
 02  1  5  3 50 30.0000000  0  8G 1G20G31G 8G27G 2G13G22
 -23669182.89949 -18443526.93247  20593933.287    20593937.329
  -2301321.33348  -1793264.00344  24921751.928    24921754.196
  -5005509.52548  -3900399.10745  22926530.377    22926539.561
  -3871855.03148  -3017034.31144  24234643.581    24234648.067
 -11835184.05449  -9222229.38246  22251164.420    22251168.649
  -8144626.93549  -6346464.41346  22537463.349    22537468.920
 -24232197.94049 -18882237.31147  20408306.945    20408308.384
 -11021022.97548  -8587830.07446  22547866.500    22547873.465
 02  1  5  3 51  0.0000000  0  8G 1G20G31G 8G27G 2G13G22
 -23626762.06549 -18410471.85547  20602005.711    20602010.210
  -2192661.39448                  24942429.326
  -5103059.77448  -3976412.21045  22907967.723    22907975.914
  -3963201.50548  -3088213.47444  24217261.874    24217269.177
 -11899892.51549  -9272651.62946  22238851.251    22238855.227
  -8216782.42549  -6402689.49646  22523733.279    22523738.529
 -24255786.79149 -18900618.29647  20403818.176    20403819.669
 -10920261.59848  -8509314.94245  22567040.246    22567046.856
 02  1  5  3 51 30.0000000  0  8G 1G20G31G 8G27G 2G13G22
 -23583877.87049 -18377055.71347  20610166.337    20610170.910
  -2084074.32548                  24963092.471
  -5200377.93348  -4052244.51245  22889448.404    22889458.084
  -4054510.67448  -3159363.61544  24199885.823    24199890.980
 -11964486.66749  -9322984.79246  22226559.225    22226563.040
  -8288671.60149  -6458707.08246  22510052.578    22510057.758
 -24278888.46249 -18918619.65947  20399422.078    20399423.581
 -10819302.43748  -8430645.68345  22586253.240    22586259.871
 02  1  5  3 52  0.0000000  0  8G 1G20G31G 8G27G 2G13G22
 -23540526.22349 -18343275.32547  20618415.983    20618420.391
  -1975558.39248  -1539423.98144  24983743.827    24983752.018
  -5297456.19348  -4127889.82645  22870974.922    22870983.610
  -4145777.48748  -3230480.68244  24182518.558    24182525.092
 -12028961.50349  -9373224.98446  22214289.930    22214293.509
  -8360289.11449  -6514512.97546  22496424.686    22496430.166
 -24301496.90449 -18936236.68547  20395119.903    20395121.493
 -10718143.54048  -8351820.79045  22605502.232    22605511.416
 02  1  5  3 52 30.0000000  0  8G 1G20G31G 8G27G 2G13G22
 -23496705.96749 -18309129.78947  20626755.089    20626759.479
  -1867114.34348                  25004379.167
  -5394289.58348  -4203344.33545  22852548.098    22852556.785
  -4236999.96548  -3301563.27844  24165159.545    24165164.777
 -12093314.78549  -9423370.46546  22202044.238    22202047.558
  -8431632.66049  -6570105.39846  22482848.409    22482853.527
 -24323609.42749 -18953467.27947  20390911.939    20390913.471
 -10616785.85248  -8272841.00945  22624791.281    22624798.262
 02  1  5  3 53  0.0000000  0  8G 1G20G31G 8G27G 2G13G22
 -23452427.75349 -18274627.39547  20635180.634    20635185.263
  -1758755.25248  -1370487.43344  25025000.502    25025010.183
  -5490885.38648  -4278613.72145  22834166.324    22834174.254
  -4328187.78948  -3372618.86244  24147806.754    24147811.988
 -12157556.22749  -9473428.78346  22189819.118    22189823.488
  -8502711.69849  -6625491.70946  22469322.573    22469328.096
 -24345234.70649 -18970318.20847  20386796.808    20386798.420
 -10515242.07048  -8193716.20945  22644113.596    22644121.116
 02  1  5  3 53 30.0000000  0  8G 1G20G31G 8G27G 2G13G22
 -23407683.99849 -18239762.25147  20643695.102    20643699.725
  -1650475.54148                  25045605.010
  -5587232.08848  -4353688.99145  22815832.697    22815840.471
  -4419332.40448  -3443640.76444  24130463.728    24130466.654
 -12221677.19049  -9523393.21846  22177617.395    22177621.617
  -8573517.28749  -6680664.94946  22455848.573    22455854.385
 -24366363.39949 -18986782.18447  20382776.128    20382777.916
 -10413506.65448  -8114442.09045  22663474.193    22663480.644
 02  1  5  3 54  0.0000000  0  8G 1G20G31G 8G27G 2G13G22
 -23362452.83149 -18204517.30047  20652302.574    20652307.018
  -1542255.65948                  25066199.132
  -5683304.08548  -4428550.22045  22797550.753    22797559.192
  -4510411.00048  -3514611.26144  24113131.393    24113137.676
 -12285655.08649  -9573246.17046  22165443.031    22165447.151
  -8644026.58449  -6735607.31046  22442431.505    22442436.750
 -24386971.47749 -19002840.48347  20378854.702    20378856.680
 -10311559.84648  -8035003.23945  22682873.528    22682881.407
 02  1  5  3 54 30.0000000  0  8G 1G20G31G 8G27G 2G13G22
 -23316741.45749 -18168898.16647  20661001.497    20661005.856
  -1434104.92348                  25086779.821
  -5779104.74648  -4503200.03345  22779319.805    22779328.989
  -4601429.98448  -3585535.30444  24095811.449    24095815.761
 -12349495.99949  -9622992.37646  22153294.352    22153298.488
  -8714245.54549  -6790323.43946  22429068.973    22429074.333
 -24407064.37649 -19018497.34747  20375031.174    20375033.119
 -10209410.88848  -7955406.89945  22702312.550    22702320.741
 02  1  5  3 55  0.0000000  0  8G 1G20G31G 8G27G 2G13G22
 -23270561.88649 -18132914.20247  20669789.062    20669793.517
  -1326037.40448                  25107343.936
  -5874642.33748  -4577644.84445  22761140.464    22761148.347
  -4692400.26648  -3656421.40644  24078500.350    24078504.669
 -12413210.80249  -9672640.31646  22141169.697    22141174.107
  -8784184.75749  -6844821.57546  22415760.279    22415765.602
 -24426652.27649 -19033760.70347  20371303.985    20371305.873
 -10107073.77248  -7875663.91045  22721786.423    22721793.273
 02  1  5  3 55 30.0000000  0  8G 1G20G31G 8G27G 2G13G22
 -23223915.60649 -18096566.56847  20678665.523    20678670.107
  -1218056.89848                  25127892.273
  -5969914.59148  -4651882.92445  22743010.408    22743018.599
  -4783322.48948  -3727270.07144  24061198.403    24061201.618
 -12476799.98449  -9722190.36146  22129069.686    22129073.082
  -8853844.48649  -6899101.94046  22402504.128    22402509.464
 -24445735.22749 -19048630.59747  20367672.619    20367674.555
 -10004551.97048  -7795777.03245  22741295.903    22741305.335
 02  1  5  3 56  0.0000000  0  7G 1G31G 8G27G 2G13G22
 -23176794.12849 -18059848.64647  20687632.706    20687637.124
  -6064909.05448  -4725904.54145  22724933.460    22724940.925
  -4874187.02948  -3798073.76845  24043906.784    24043915.471
 -12540253.91949  -9771635.01946  22116994.839    22116998.296
  -8923215.12049  -6953157.03546  22389303.815    22389308.818
 -24464302.61549 -19063098.75047  20364139.097    20364141.023
  -9901839.05048  -7715741.22445  22760842.380    22760850.070
 02  1  5  3 56 30.0000000  0  7G 1G31G 8G27G 2G13G22
 -23129191.68949 -18022755.94147  20696691.305    20696695.815
  -6159616.03148  -4799702.16045  22706911.045    22706918.953
  -4964987.18648  -3868827.31545  24026629.440    24026636.325
 -12603565.90349  -9820969.08946  22104946.330    22104950.417
  -8992289.43549  -7006981.22446  22376159.139    22376165.300
 -24482347.01649 -19077159.37947  20360705.659    20360707.595
  -9798931.06548  -7635553.43345  22780424.490    22780431.814
 02  1  5  3 57  0.0000000  0  7G 1G31G 8G27G 2G13G22
 -23081142.10149 -17985314.81747  20705834.939    20705839.413
  -6254065.54048  -4873299.16546  22688937.956    22688946.395
  -5055755.24348  -3939555.85145  24009356.594    24009362.475
 -12666768.55449  -9870217.94846  22092919.712    22092923.459
  -9061100.07249  -7060599.95446  22363065.260    22363070.641
 -24499899.82149 -19090836.94747  20357365.401    20357367.205
  -9695863.80648  -7555241.52145  22800037.999    22800045.660
 02  1  5  3 57 30.0000000  0  8G 1G 3G31G 8G27G 2G13G22
 -23032646.81549 -17947526.39347  20715063.152    20715067.778
        -1.01359         -.74956  22092075.123    22092080.732
  -6348255.12748  -4946693.63645  22671013.974    22671021.465
  -5146492.06848  -4010260.06144  23992090.059    23992099.243
 -12729862.12349  -9919381.81446  22080913.510    22080917.040
  -9129647.17649  -7114013.32646  22350020.932    22350026.472
 -24516961.10549 -19104131.50147  20354118.761    20354120.850
  -9592640.55648  -7474808.05645  22819680.619    22819688.431
 02  1  5  3 58  0.0000000  0  8G 1G 3G31G 8G27G 2G13G22
 -22983688.92649 -17909377.50047  20724379.637    20724384.360
    -29701.14149    -23143.65446  22086422.549    22086428.256
  -6442164.08248  -5019869.44145  22653144.213    22653153.397
  -5237179.40448  -4080925.68945  23974833.072    23974838.897
 -12792828.67049  -9968446.69746  22068932.147    22068935.764
  -9197912.70049  -7167207.29246  22337030.875    22337036.458
 -24533512.24949 -19117028.54347  20350969.311    20350971.201
  -9489246.18448  -7394241.29345  22839356.735    22839362.487
 02  1  5  3 58 30.0000000  0  8G 1G 3G31G 8G27G 2G13G22
 -22934277.75549 -17870875.40847  20733782.587    20733787.217
    -58860.15949    -45864.92646  22080874.214    22080880.465
  -6535797.41148  -5092830.47445  22635326.687    22635334.563
  -5327825.49648  -4151559.18745  23957583.307    23957589.853
 -12855676.08649 -10017418.75246  22056971.876    22056975.418
  -9265904.48849  -7220187.95046  22324091.750    22324098.130
 -24549560.28949 -19129533.56047  20347915.395    20347917.541
  -9385691.81548  -7313549.80845  22859062.078    22859069.687
 02  1  5  3 59  0.0000000  0  8G 1G 3G31G 8G27G 2G13G22
 -22884411.53549 -17832018.72247  20743271.863    20743276.470
    -87474.23549    -68161.55946  22075429.527    22075435.850
  -6629149.88448  -5165572.65645  22617561.706    22617568.692
  -5418427.42148  -4222158.19144  23940342.863    23940347.384
 -12918401.57649 -10066295.79746  22045035.286    22045039.334
  -9333619.41849  -7272952.86546  22311206.912    22311212.865
 -24565102.22449 -19141644.21747  20344957.694    20344959.917
  -9281977.58448  -7232733.79545  22878798.314    22878806.753
 02  1  5  3 59 30.0000000  0  8G 1G 3G31G 8G27G 2G13G22
 -22834072.45349 -17792793.57147  20752851.078    20752855.744
   -115523.47049    -90018.06946  22070092.259    22070099.174
  -6722199.58848  -5238078.92046  22599855.380    22599862.639
  -5508966.27548  -4292708.05744  23923113.648    23923120.350
 -12980985.93349 -10115062.86946  22033126.705    22033130.383
  -9401038.43349  -7325487.21646  22298376.711    22298382.667
 -24580117.45649 -19153344.45547  20342100.422    20342102.503
  -9178087.49948  -7151780.72245  22898568.673    22898576.177
 02  1  5  4  0  0.0000000  0  8G 1G 3G31G 8G27G 2G13G22
 -22783227.04349 -17753173.87447  20762526.780    20762531.514
   -142972.46049   -111406.86746  22064868.748    22064875.360
  -6814909.24748  -5310320.22046  22582212.925    22582221.364
  -5599407.39748  -4363181.81445  23905904.018    23905910.782
 -13043394.75249 -10163693.16446  22021251.618    22021254.789
  -9468126.81949  -7377763.91746  22285610.674    22285616.208
 -24594571.70549 -19164607.56447  20339349.985    20339352.039
  -9073989.83548  -7070665.94245  22918377.573    22918385.060
 02  1  5  4  0 30.0000000  0  8G 1G 3G31G 8G27G 2G13G22
 -22731923.07449 -17713196.86747  20772289.640    20772294.620
   -169867.12649   -132363.73646  22059750.648    22059757.167
  -6907322.74848  -5382330.77046  22564627.342    22564636.277
  -5689797.67548  -4433615.91945  23888702.058    23888712.731
 -13105674.52849 -10212222.89346  22009398.907    22009402.658
  -9534931.20849  -7429819.31946  22272898.067    22272904.054
 -24608510.29749 -19175468.86747  20336697.703    20336699.633
  -8969734.32648  -6989428.14445  22938217.540    22938226.476
 02  1  5  4  1  0.0000000  0  8G 1G 3G31G 8G27G 2G13G22
 -22680158.70149 -17672861.10447  20782139.794    20782144.884
   -196203.43649   -152885.53146  22054738.792    22054745.710
  -6999434.08048  -5454105.83546  22547098.856    22547107.544
  -5780133.76748  -4504007.75744  23871512.769    23871520.206
 -13167821.96949 -10260649.50546  21997572.317    21997576.728
  -9601448.28049  -7481650.83746  22260240.239    22260245.981
 -24621929.66149 -19185925.57647  20334144.359    20334146.168
  -8865320.53548  -6908067.00045  22958085.868    22958093.616
 02  1  5  4  1 30.0000000  0  8G 1G 3G31G 8G27G 2G13G22
 -22627940.85749 -17632171.99047  20792076.982    20792081.924
   -221986.38249   -172976.12946  22049832.491    22049838.895
  -7091246.04648  -5525647.62946  22529627.964    22529637.644
  -5870421.48348  -4574361.90645  23854331.219    23854338.486
 -13229842.66149 -10308977.35546  21985771.513    21985775.034
  -9667683.73349  -7533262.90846  22247636.088    22247642.414
 -24634834.98149 -19195981.73147  20331688.687    20331690.622
  -8760757.22848  -6826589.37245  22977985.228    22977992.738
 02  1  5  4  2  0.0000000  0  8G 1G 3G31G 8G27G 2G13G22
 -22575277.18449 -17591135.46847  20802098.462    20802103.671
   -247221.39349   -192639.77346  22045030.620    22045037.672
  -7182762.64248  -5596959.27946  22512213.482    22512220.995
  -5960667.30948  -4644683.40844  23837158.357    23837165.426
 -13291743.05049 -10357211.47646  21973991.984    21973995.416
  -9733643.81249  -7584660.39746  22235084.934    22235089.943
 -24647232.12149 -19205641.90447  20329329.544    20329331.345
  -8656053.73248  -6745002.49345  22997908.500    22997918.925
 02  1  5  4  2 30.0000000  0  8G 1G 3G31G 8G27G 2G13G22
 -22522157.94649 -17549743.95747  20812206.868    20812211.968
   -271896.54649   -211867.16446  22040335.022    22040341.657
  -7273970.01948  -5668029.98746  22494856.470    22494864.661
  -6050859.89648  -4714963.43944  23819996.000    23820000.188
 -13353512.01949 -10405343.18746  21962237.082    21962241.216
  -9799317.20849  -7635834.49446  22222587.038    22222593.237
 -24659109.43649 -19214897.02447  20327069.430    20327071.237
  -8551201.90048  -6663300.02245  23017862.617    23017870.058
 02  1  5  4  3  0.0000000  0  8G 1G 3G31G 8G27G 2G13G22
 -22468591.16449 -17508003.71547  20822400.124    20822405.453
   -296017.98649   -230663.10446  22035744.982    22035752.250
  -7364872.18348  -5738862.84146  22477558.675    22477566.866
  -6141006.27948  -4785207.43144  23802839.517    23802848.701
 -13415156.28349 -10453377.71546  21950506.421    21950510.566
  -9864710.71549  -7686790.48246  22210143.642    22210149.102
 -24670473.27449 -19223752.03347  20324906.931    20324908.919
  -8446211.48848  -6581489.56745  23037840.761    23037848.299
 02  1  5  4  3 30.0000000  0  8G 1G 3G31G 8G27G 2G13G22
 -22414561.75349 -17465902.98747  20832681.669    20832687.082
   -319568.61149   -249014.25446  22031263.377    22031270.096
  -7455449.88848  -5809442.89346  22460322.559    22460331.247
  -6231089.96648  -4855402.58544  23785699.292    23785704.676
 -13476659.13749 -10501302.05846  21938803.265    21938807.109
  -9929807.81149  -7737515.51446  22197755.505    22197761.515
 -24681306.28649 -19232193.41347  20322845.573    20322847.597
  -8341068.77948  -6499560.47845  23057849.639    23057858.575
 02  1  5  4  4  0.0000000  0  8G 1G 3G31G 8G27G 2G13G22
 -22360070.67349 -17423442.50947  20843051.135    20843056.288
   -342547.34249   -266919.77846  22026890.864    22026896.980
  -7545700.08948  -5879767.74246  22443148.068    22443156.756
  -6321110.77548  -4925548.74345  23768567.880    23768576.320
 -13538020.21849 -10549115.92446  21927127.056    21927131.053
  -9994608.17449  -7788009.31646  22185424.945    22185430.735
 -24691607.67249 -19240220.53447  20320885.289    20320887.192
  -8235776.55348  -6417514.86045  23077886.546    23077894.737
 02  1  5  4  4 30.0000000  0  8G 1G 3G31G 8G27G 2G13G22
 -22305123.62649 -17380626.73247  20853507.203    20853512.722
   -364957.82249   -284382.51146  22022626.335    22022632.358
  -7635624.71049  -5949838.87746  22426036.367    22426045.055
  -6411072.99748  -4995650.38644  23751449.495    23751454.758
 -13599244.10649 -10596822.89446  21915476.053    21915480.156
 -10059116.14049  -7838275.28646  22173148.832    22173154.850
 -24701381.51649 -19247836.58047  20319025.413    20319027.386
  -8130341.97948  -6335358.35545  23097949.739    23097958.427
 02  1  5  4  5  0.0000000  0  8G 1G 3G31G 8G27G 2G13G22
 -22249716.65749 -17337452.57547  20864051.064    20864056.257
   -386793.97449   -301397.72046  22018470.793    22018477.169
  -7725215.66948  -6019649.99546  22408987.569    22408995.373
  -6500971.29048  -5065701.12945  23734341.692    23734349.334
 -13660325.18649 -10644418.57846  21903852.366    21903856.790
 -10123326.35949  -7888309.23346  22160930.792    22160936.048
 -24710622.20849 -19255037.18147  20317266.910    20317269.073
  -8024762.56348  -6253088.97145  23118041.854    23118050.789
 02  1  5  4  5 30.0000000  0  8G 1G 3G31G 8G27G 2G13G22
 -22193852.69749 -17293922.33947  20874681.548    20874686.950
   -408056.83249   -317966.21246  22014424.540    22014431.270
  -7814471.69749  -6089200.15346  22392003.595    22392010.474
  -6590807.19148  -5135703.24245  23717246.611    23717253.459
 -13721264.71949 -10691903.96946  21892256.568    21892260.579
 -10187240.31149  -7938112.33646  22148767.780    22148773.772
 -24719330.12149 -19261822.63547  20315610.099    20315611.977
  -7919042.63348  -6170710.10745  23138158.892    23138168.324
 02  1  5  4  6  0.0000000  0  8G 1G 3G31G 8G27G 2G13G22
 -22137533.91049 -17250037.68247  20885398.682    20885404.159
   -428746.49849   -334088.06246  22010487.697    22010494.125
  -7903390.98149  -6158487.88946  22375081.973    22375089.715
  -6680581.32348  -5205657.23045  23700163.755    23700170.360
 -13782063.55049 -10739279.72246  21880687.289    21880691.287
 -10250859.03849  -7987685.38046  22136662.123    22136667.241
 -24727506.18449 -19268193.65647  20314054.195    20314056.199
  -7813186.00048  -6088224.74545  23158304.061    23158313.245
 02  1  5  4  6 30.0000000  0  8G 1G 3G31G 8G27G 2G13G22
 -22080759.42549 -17205797.93247  20896202.932    20896208.165
   -448859.94849   -349760.92646  22006660.144    22006666.254
  -7991968.30149  -6227509.12246  22358226.096    22358234.535
  -6770291.62948  -5275561.48845  23683092.302    23683098.273
 -13842719.19149 -10786543.90146  21869144.080    21869148.478
 -10314180.06349  -8037026.45746  22124612.292    22124617.777
 -24735147.51649 -19274148.00547  20312599.615    20312601.790
  -7707193.15648  -6005633.22845  23178472.988    23178482.420
 02  1  5  4  7  0.0000000  0  8G 1G 3G31G 8G27G 2G13G22
 -22023534.10149 -17161206.88547  20907092.789    20907098.123
   -468400.21449   -364987.15746  22002941.987    22002948.722
  -8080204.45349  -6296264.51446  22341436.243    22341443.572
  -6859941.29448  -5345418.50145  23666033.587    23666041.125
 -13903235.08549 -10833699.20146  21857627.864    21857632.785
 -10377206.93049  -8086138.31546  22112618.300    22112624.463
 -24742257.34349 -19279688.19447  20311247.180    20311249.405
  -7601070.36548  -5922940.47445  23198668.808    23198679.233
 02  1  5  4  7 30.0000000  0  8G 1G 3G31G 8G27G 2G13G22
 -21965857.33049 -17116264.06147  20918067.813    20918073.677
   -487364.89449   -379764.89046  21999332.712    21999340.011
  -8168095.02849  -6364750.59846  22324710.009    22324717.767
  -6949528.75448  -5415227.04345  23648984.518    23648993.205
 -13963609.23649 -10880744.05346  21846139.840    21846144.132
 -10439937.68349  -8135019.44346  22100682.133    22100687.490
 -24748833.03149 -19284812.17147  20309995.640    20309997.814
  -7494818.56948  -5840147.17645  23218887.725    23218896.164
 02  1  5  4  8  0.0000000  0  8G 1G 3G31G 8G27G 2G13G22
 -21907734.05449 -17070973.30547  20929128.679    20929134.076
   -505756.85949   -394096.35246  21995832.900    21995839.849
  -8255640.62349  -6432967.85646  22308050.654    22308059.094
  -7039057.05448  -5484989.46645  23631948.683    23631957.618
 -14023844.88949 -10927680.98946  21834677.164    21834681.573
 -10502375.73949  -8183672.47546  22088799.395    22088805.725
 -24754877.74149 -19289522.39247  20308845.441    20308847.696
  -7388443.98748  -5757258.21645  23239130.359    23239139.046
 02  1  5  4  8 30.0000000  0  8G 1G 3G31G 8G27G 2G13G22
 -21849159.30749 -17025330.73847  20940275.528    20940280.657
   -523569.25849   -407976.20646  21992443.071    21992449.941
  -8342832.08649  -6500909.15546  22291459.653    22291466.711
  -7128519.75748  -5554700.79345  23614924.416    23614931.769
 -14083935.36549 -10974504.79346  21823242.630    21823246.883
 -10564514.61049  -8232092.38946  22076975.542    22076980.780
 -24760384.76149 -19293813.63847  20307797.934    20307800.272
  -7281943.12448  -5674270.84445  23259397.026    23259405.466
 02  1  5  4  9  0.0000000  0  8G 1G 3G31G 8G27G 2G13G22
 -21790144.32549 -16979345.14147  20951504.953    20951510.829
   -540811.36549   -421411.67246  21989162.064    21989168.678
  -8429676.56949  -6568580.09546  22274932.709    22274940.475
  -7217926.64448  -5624368.60545  23597911.402    23597918.846
 -14143890.14249 -11021222.85246  21811833.660    21811837.937
 -10626364.11949  -8280286.82346  22065205.409    22065211.257
 -24765363.39749 -19297693.14447  20306850.478    20306852.765
  -7175328.31848                  23279685.583
 02  1  5  4  9 30.0000000  0  8G 1G 3G31G 8G27G 2G13G22
 -21730694.70849 -16933020.87847  20962818.684    20962824.068
   -557486.72949   -434405.52146  21985988.961    21985995.694
  -8516175.55749  -6635981.79046  22258472.359    22258480.550
  -7307281.69048  -5693996.02245  23580907.938    23580911.737
 -14203713.40449 -11067838.42546  21800449.654    21800454.166
 -10687928.31549  -8328258.93246  22053490.942    22053496.246
 -24769817.32749 -19301163.79047  20306002.840    20306005.303
  -7068606.48448  -5508035.16245  23299994.308    23300003.244
 02  1  5  4 10  0.0000000  0  8G 1G 3G31G 8G27G 2G13G22
 -21670799.84649 -16886349.67447  20974216.479    20974221.795
   -573582.95449   -446948.11246  21982926.233    21982933.049
  -8602314.27049  -6703102.75846  22242081.356    22242088.345
  -7396572.68348  -5763573.50245  23563915.639    23563924.326
 -14263392.85549 -11114341.92846  21789093.080    21789097.438
 -10749195.25349  -8375999.40846  22041831.707    22041837.408
 -24773734.25849 -19304215.99347  20305257.534    20305259.894
  -6961768.31648  -5424784.96245  23320324.270    23320334.943
 02  1  5  4 10 30.0000000  0  8G 1G 3G31G 8G27G 2G13G22
 -21610449.16649 -16839323.28747  20985700.469    20985706.052
   -589087.45149   -459029.60446  21979975.834    21979982.553
  -8688077.86749  -6769931.43446  22225759.646    22225768.582
  -7485787.61948  -5833091.72345  23546938.622    23546946.286
 -14322916.14849 -11160723.75346  21777766.276    21777770.421
 -10810152.97849  -8423498.95646  22030232.120    22030237.178
 -24777101.55649 -19306839.91347  20304616.679    20304618.993
  -6854804.44248  -5341436.81645  23340680.183    23340690.112
 02  1  5  4 11  0.0000000  0  8G 1G 3G31G 8G27G 2G13G22
 -21549650.89349 -16791948.11647  20997269.996    20997275.863
   -604006.43149   -470654.85046  21977137.230    21977143.826
  -8773470.77449  -6836471.26446  22209511.286    22209518.256
  -7574933.33048  -5902555.98845  23529975.413    23529981.663
 -14382290.05649 -11206989.16946  21766467.952    21766471.998
 -10870808.33749  -8470762.89146  22018689.676    22018695.426
 -24779926.14849 -19309040.94047  20304079.307    20304081.642
  -6747724.58548  -5257998.30845  23361055.875    23361067.541
 02  1  5  4 11 30.0000000  0  8G 1G 3G31G 8G27G 2G13G22
 -21488411.60449 -16744229.29447  21008923.956    21008929.533
   -618344.79449   -481827.64546  21974408.410    21974414.821
  -8858495.26749  -6902724.03846  22193330.975    22193338.429
  -7664014.67048  -5971970.08345  23513023.651    23513031.347
 -14441519.42049 -11253141.95046  21755196.939    21755201.155
 -10931166.61649  -8517795.33246  22007203.892    22007209.075
 -24782212.69949 -19310822.71747  20303644.438    20303646.726
  -6640536.49848  -5174475.43445  23381454.453    23381463.388
 02  1  5  4 12  0.0000000  0  8G 1G 3G31G 8G27G 2G13G22
 -21426716.81049 -16696155.52747  21020664.132    21020669.589
   -632086.07849   -492535.19446  21971793.790    21971800.271
  -8943132.61949  -6968675.13446  22177224.860    22177233.051
  -7753015.30048  -6041321.27345  23496088.008    23496094.498
 -14500587.71149 -11299169.22146  21743956.366    21743960.490
 -10991211.44849  -8564583.53246  21995777.775    21995783.183
 -24783944.68849 -19312172.36747  20303314.711    20303317.083
  -6533226.53748                  23401874.119
 02  1  5  4 12 30.0000000  0  8G 1G 3G31G 8G27G 2G13G22
 -21364572.19149 -16647731.24947  21032489.419    21032495.461
   -645234.37449   -502780.65646  21969292.019    21969298.601
  -9027384.35949  -7034325.78046  22161192.893    22161200.076
  -7841939.48848  -6110612.88245  23479164.640    23479174.817
 -14559499.10449 -11345074.23646  21732746.065    21732750.292
 -11050947.27449  -8611130.94846  21984410.414    21984415.863
 -24785126.21549 -19313093.09347  20303089.563    20303091.996
  -6425801.92148  -5007150.44745  23422317.360    23422327.289
 02  1  5  4 13  0.0000000  0  8G 1G 3G31G 8G27G 2G13G22
 -21301993.75849 -16598968.93747  21044398.333    21044403.831
   -657803.48649   -512574.80346  21966900.338    21966906.527
  -9111261.81049  -7099684.77946  22145230.583    22145239.270
  -7930801.30848  -6179855.90345  23462256.178    23462263.391
 -14618267.65049 -11390867.93546  21721563.114    21721567.187
 -11110388.43749  -8657448.75646  21973098.943    21973104.621
 -24785771.05349 -19313595.61647  20302966.937    20302969.470
  -6318279.30348  -4923366.88245  23442778.124    23442789.294
 02  1  5  4 13 30.0000000  0  8G 1G 3G31G 8G27G 2G13G22
 -21238996.23149 -16549880.04547  21056385.975    21056391.862
   -669806.21649   -521927.59846  21964616.156    21964622.893
  -9194775.59949  -7164760.40646  22129338.981    22129347.420
  -8019613.90548  -6249060.55945  23445354.854    23445361.553
 -14676906.28449 -11436560.40246  21710404.460    21710408.504
 -11169548.27249  -8703547.35046  21961841.193    21961846.572
 -24785892.17049 -19313690.04547  20302943.940    20302946.528
  -6210674.74048  -4839519.51045  23463255.108    23463265.781
 02  1  5  4 14  0.0000000  0  8G 1G 3G31G 8G27G 2G13G22
 -21175548.23149 -16500440.14347  21068459.801    21068465.820
   -681209.41949   -530813.21746  21962445.932    21962452.372
  -9277890.31749  -7229525.08346  22113522.967    22113530.259
  -8108344.35548  -6318201.19245  23428470.100    23428478.291
 -14735381.93149 -11482125.87446  21699276.643    21699280.612
 -11228393.88149  -8749401.09046  21950643.183    21950649.034
 -24785456.64949 -19313350.73447  20303027.122    20303029.690
  -6102958.04448                  23483752.676
 02  1  5  4 14 30.0000000  0  8G 1G 3G31G 8G27G 2G13G22
 -21111665.59249 -16450661.56447  21080616.629    21080622.350
   -692027.34849   -539242.76646  21960387.448    21960394.335
  -9360617.73649  -7293987.97646  22097779.853    22097788.293
  -8197006.60748  -6387288.67645  23411598.605    23411605.390
 -14793708.48749 -11527575.16846  21688177.950    21688181.956
 -11286939.59049  -8795021.13846  21939502.402    21939508.275
 -24784478.48249 -19312588.58547  20303213.144    20303215.534
  -5995146.04648                  23504268.956
 02  1  5  4 15  0.0000000  0  8G 1G 3G31G 8G27G 2G13G22
 -21047362.65649 -16400555.48747  21092852.977    21092858.881
   -702272.45449   -547225.96846  21958438.004    21958445.091
  -9442967.96649  -7358156.96546  22082109.174    22082116.953
  -8285613.38248  -6456332.90945  23394736.177    23394745.858
 -14851898.42049 -11572917.98747  21677105.103    21677109.032
 -11345198.29349  -8840417.57146  21928416.288    21928421.517
 -24782970.48249 -19311413.57747  20303500.442    20303502.927
  -5887254.18248  -4587504.50545  23524800.607    23524810.536
 02  1  5  4 15 30.0000000  0  8G 1G 3G31G 8G27G 2G13G22
 -20982619.60949 -16350106.46447  21105173.264    21105179.425
   -711923.05449   -554745.90146  21956601.456    21956608.655
  -9524916.75149  -7422013.15246  22066515.091    22066522.517
  -8374143.04648  -6525317.04245  23377890.447    23377896.280
 -14909930.18649 -11618137.59546  21666061.737    21666065.617
 -11403148.57149  -8885573.60846  21917388.335    21917394.161
 -24780910.68949 -19309808.60647  20303892.501    20303894.824
  -5779263.51248  -4503356.28145  23545350.340    23545359.773
 02  1  5  4 16  0.0000000  0  8G 1G 3G31G 8G27G 2G13G22
 -20917430.80349 -16299310.09647  21117578.761    21117584.597
   -720971.57649   -561796.68946  21954880.032    21954886.607
  -9606454.21049  -7485548.83046  22050998.628    22051006.392
  -8462588.26348  -6594235.38045  23361059.744    23361068.183
 -14967796.10949 -11663227.94146  21655049.704    21655054.040
 -11460783.12949  -8930483.65646  21906421.211    21906427.079
 -24778291.97949 -19307768.11747  20304390.908    20304393.396
  -5671169.55348  -4419127.59045  23565921.040    23565931.714
 02  1  5  4 16 30.0000000  0  8G 1G 3G31G 8G27G 2G13G22
 -20851819.69649 -16248184.66347  21130063.744    21130069.978
   -729439.86649   -568395.34546  21953267.839    21953274.180
  -9687599.79049  -7548779.14546  22035557.013    22035565.701
  -8550970.50248  -6663104.67145  23344240.877    23344251.053
 -15025517.65149 -11708205.79246  21644065.880    21644070.064
 -11518124.04149  -8975164.89146  21895509.478    21895515.425
 -24775135.95349 -19305308.94547  20304991.540    20304994.044
  -5562996.53348                  23586504.880
 02  1  5  4 17  0.0000000  0  8G 1G 3G31G 8G27G 2G13G22
 -20785775.95349 -16196722.11247  21142631.852    21142637.751
   -737315.56449   -574532.23746  21951769.883    21951776.317
  -9768338.81549  -7611692.66846  22020193.431    22020201.266
  -8639278.10248  -6731915.74445  23327435.679    23327446.600
 -15083082.68349 -11753061.68046  21633111.912    21633115.822
 -11575159.65649  -9019608.22546  21884656.179    21884661.637
 -24771430.44649 -19302421.59847  20305696.857    20305699.322
  -5454735.22448                  23607107.393
 02  1  5  4 17 30.0000000  0  8G 1G 3G31G 8G27G 2G13G22
 -20719299.70749 -16144922.54447  21155281.719    21155287.969
   -744597.20849   -580206.23146  21950383.945    21950390.034
  -9848667.40449  -7674286.38646  22004906.963    22004914.816
  -8727508.94648  -6800667.03145  23310646.509    23310652.883
 -15140489.22449 -11797794.06646  21622187.633    21622191.742
 -11631888.37249  -9063812.42946  21873860.759    21873866.331
 -24767173.77149 -19299104.77347  20306506.870    20306509.127
  -5346386.56648                  23627725.720
 02  1  5  4 18  0.0000000  0  8G 1G 3G31G 8G27G 2G13G22
 -20652386.74649 -16092782.68047  21168015.060    21168020.906
   -751279.05149   -585412.85746  21949112.824    21949118.914
  -9928576.97149  -7736553.58946  21989701.389    21989708.660
  -8815657.07148  -6869353.88945  23293874.218    23293880.446
 -15197731.33249 -11842398.32146  21611294.526    21611298.966
 -11688304.58949  -9107773.12246  21863125.333    21863130.699
 -24762360.25749 -19295354.04547  20307422.889    20307425.260
  -5237947.34648  -4081553.32645  23648361.514    23648373.180
 02  1  5  4 18 30.0000000  0  8G 1G 3G31G 8G27G 2G13G22
 -20585055.30949 -16040316.73347  21180828.018    21180833.485
   -757377.47349   -590164.87446  21947951.951    21947958.537
 -10008081.22949  -7798504.95946  21974571.656    21974579.847
  -8903738.93148  -6937989.13045  23277110.820    23277120.749
 -15254825.18249 -11886887.06347  21600430.228    21600434.582
 -11744425.15449  -9151503.43646  21852445.936    21852451.511
 -24757006.46849 -19291182.32547  20308441.661    20308444.162
  -5129436.68748  -3996999.94645  23669009.587    23669021.253
 02  1  5  4 19  0.0000000  0  8G 1G 3G31G 8G27G 2G13G22
 -20517310.10049 -15987528.37147  21193719.139    21193725.187
   -762895.45549   -594464.60446  21946902.050    21946908.266
 -10087180.74749  -7860140.94546  21959519.601    21959527.792
  -8991757.40248  -7006574.94545  23260362.442    23260368.643
 -15311773.29149 -11931262.22547  21589593.475    21589597.730
 -11800253.08649  -9195005.73746  21841822.409    21841827.947
 -24751115.25349 -19286591.82747  20309562.782    20309565.267
  -5020860.01648  -3912395.10745  23689672.079    23689683.497
 02  1  5  4 19 30.0000000  0  8G 1G 3G31G 8G27G 2G13G22
 -20449139.44649 -15934408.50147  21206692.307    21206697.830
   -767819.61549   -598301.62346  21945965.000    21945971.231
 -10165859.45949  -7921449.04546  21944547.585    21944554.868
  -9079698.74148  -7075100.66845  23243628.440    23243633.803
 -15368561.97549 -11975513.15047  21578786.812    21578791.033
 -11855774.88649  -9238269.49746  21831256.502    21831262.453
 -24744673.01149 -19281571.95947  20310788.675    20310791.139
  -4912206.43748  -3827730.41145  23710348.293    23710357.477
 02  1  5  4 20  0.0000000  0  8G 1G 3G31G 8G27G 2G13G22
 -20380536.03149 -15880951.40847  21219746.834    21219752.967
   -772140.79649   -601668.79146  21945142.785    21945149.247
 -10244106.00549  -7982420.38346  21929657.423    21929665.230
  -9167553.70048  -7143559.06645  23226909.004    23226915.481
 -15425182.00549 -12019632.65847  21568012.438    21568016.906
 -11910981.67649  -9281287.80546  21820751.249    21820757.155
 -24737670.43749 -19276115.47047  20312121.145    20312123.690
  -4803469.44248  -3743000.60245  23731040.796    23731051.966
 02  1  5  4 20 30.0000000  0  8G 1G 3G31G 8G27G 2G13G22
 -20311497.82049 -15827155.52047  21232884.452    21232890.761
   -775855.59149   -604563.45346  21944435.863    21944442.544
 -10321914.01749  -8043050.00146  21914851.370    21914859.046
  -9255318.48548  -7211947.22645  23210209.175    23210215.130
 -15481629.29749 -12063617.55547  21557270.983    21557275.478
 -11965869.92849  -9324057.90446  21810306.313    21810312.218
 -24730104.09349 -19270219.67747  20313560.990    20313563.677
  -4694647.82848  -3658204.92444  23751748.645    23751758.821
 02  1  5  4 21  0.0000000  0  8G 1G 3G31G 8G27G 2G13G22
 -20242045.84849 -15773037.22847  21246101.151    21246107.038
   -778982.87749   -607000.32646  21943840.709    21943847.259
 -10399299.98949  -8103350.76646  21900125.837    21900132.818
  -9343011.82848  -7280279.71245  23193520.473    23193527.467
 -15537922.67349 -12107482.51947  21546558.700    21546562.999
 -12020459.13849  -9366594.98246  21799918.592    21799923.859
 -24721993.30849 -19263899.64847  20315104.315    20315106.933
  -4585763.32048                  23772469.456
 02  1  5  4 21 30.0000000  0  8G 1G 3G31G 8G27G 2G13G22
 -20172175.52449 -15718592.95347  21259396.893    21259403.446
   -781516.60749   -608974.68946  21943358.427    21943364.704
 -10476255.06149  -8163315.75246  21885481.200    21885488.795
  -9430627.36148  -7348551.54745  23176848.275    23176855.898
 -15594055.32449 -12151222.24647  21535876.644    21535881.173
 -12074743.16449  -9408894.26346  21789588.602    21789594.132
 -24713331.64349 -19257150.36647  20316752.835    20316755.456
  -4476811.96448                  23793202.311
 02  1  5  4 22  0.0000000  0  8G 1G 3G31G 8G27G 2G13G22
 -20101882.48549 -15663819.29447  21272772.977    21272779.626
   -783450.65949   -610481.78046  21942990.327    21942996.789
 -10552770.63149  -8222938.26846  21870921.076    21870928.165
  -9518158.57248  -7416757.72745  23160192.357    23160201.292
 -15650020.79949 -12194831.70647  21525227.057    21525231.448
 -12128716.13749  -9450951.15846  21779318.059    21779323.353
 -24704113.22449 -19249967.25347  20318507.241    20318509.816
  -4367790.13548  -3403511.70844  23813948.732    23813960.150
 02  1  5  4 22 30.0000000  0  8G 1G 3G31G 8G27G 2G13G22
 -20031169.31149 -15608718.24747  21286229.827    21286235.796
   -784785.97149   -611522.32446  21942736.359    21942742.702
 -10628844.68049  -8282216.74446  21856444.605    21856452.035
  -9605606.19048  -7484898.76445  23143550.907    23143558.505
 -15705819.41349 -12238311.14347  21514609.231    21514613.433
 -12182378.74549  -9492766.20846  21769106.691    21769112.071
 -24694339.00049 -19242351.03447  20320367.283    20320369.854
  -4258701.01148                  23834707.802
 02  1  5  4 23  0.0000000  0  8G 1G 3G31G 8G27G 2G13G22
 -19960046.43749 -15553297.95547  21299763.215    21299770.286
   -785531.27249   -612103.12546  21942594.791    21942601.060
 -10704483.51049  -8341156.07246  21842050.617    21842057.901
  -9692978.41748  -7552981.06045  23126924.480    23126931.476
 -15761459.27149 -12281666.87947  21504021.076    21504025.286
 -12235739.89149  -9534346.34246  21758951.918    21758957.850
 -24684017.24049 -19234308.16247  20322331.459    20322333.980
  -4149555.64148                  23855478.120
 02  1  5  4 23 30.0000000  0  8G 1G 3G31G 8G27G 2G13G22
 -19888504.19149 -15497550.87847  21313378.541    21313384.762
   -785675.54849   -612215.59446  21942567.149    21942573.919
 -10779673.57449  -8399745.70946  21827742.988    21827750.606
  -9780263.91648  -7620995.75045  23110314.989    23110321.681
 -15816928.93949 -12324889.99947  21493465.091    21493469.734
 -12288788.46349  -9575682.91246  21748857.470    21748862.814
 -24673136.99649 -19225830.11247  20324402.005    20324404.681
  -4040345.14148                  23876259.886
 02  1  5  4 24  0.0000000  0  8G 1G 3G31G 8G27G 2G13G22
 -19816545.99349 -15441479.68446  21327071.319    21327077.840
   -785220.45149   -611861.02746  21942653.401    21942659.898
 -10854413.78249  -8457984.80246  21813519.935    21813527.639
  -9867463.59448  -7688943.59945  23093721.947    23093727.921
 -15872229.35349 -12367981.24847  21482942.053    21482946.297
 -12341526.13949  -9616777.21646  21738821.881    21738827.254
 -24661699.75049 -19216918.03147  20326578.532    20326581.126
  -3931073.52948                  23897054.298
 02  1  5  4 24 30.0000000  0  7G 1G31G 8G27G 2G13G22
 -19744178.60649 -15385089.64946  21340842.599    21340848.736
 -10928706.48549  -8515875.17546  21799382.820    21799390.267
  -9954582.21048  -7756828.26045  23077143.775    23077150.305
 -15927365.16949 -12410944.23247  21472450.353    21472454.436
 -12393958.19049  -9657633.37246  21728844.312    21728849.828
 -24649710.64549 -19207575.93247  20328860.092    20328862.706
  -3821748.04448                  23917858.084
 02  1  5  4 25  0.0000000  0  7G 1G31G 8G27G 2G13G22
 -19671403.94349 -15328382.26146  21354690.901    21354697.724
 -11002549.25949  -8573414.94946  21785330.899    21785338.186
 -10041619.56748  -7824649.61545  23060580.775    23060587.449
 -15982335.99549 -12453778.66247  21461989.811    21461993.751
 -12446084.85249  -9698251.56246  21718924.789    21718930.092
 -24637170.03649 -19197804.09147  20331246.438    20331249.272
  -3712371.16548                  23938672.685
 02  1  5  4 25 30.0000000  0  7G 1G31G 8G27G 2G13G22
 -19598246.62149 -15271376.70046  21368613.089    21368619.397
 -11075962.66149  -8630620.12546  21771359.964    21771368.155
 -10128598.40448  -7892425.37645  23044028.966    23044036.890
 -16037164.23849 -12496501.99147  21451556.329    21451560.391
 -12497929.23449  -9738649.79146  21709059.109    21709065.003
 -24624101.05049 -19187620.52347  20333733.480    20333736.296
  -3602968.01048                  23959491.212
 02  1  5  4 26  0.0000000  0  7G 1G31G 8G27G 2G13G22
 -19524681.34049 -15214053.24046  21382611.420    21382618.127
 -11148916.86849  -8687467.48046  21757478.462    21757485.289
 -10215491.02348  -7960133.94245  23027494.571    23027499.621
 -16091822.39849 -12539092.78347  21441155.148    21441159.342
 -12549464.39449  -9778807.06346  21699251.817    21699257.689
 -24610476.38049 -19177003.95647  20336326.166    20336328.926
  -3493513.91448                  23980320.196
 02  1  5  4 26 30.0000000  0  7G 1G31G 8G27G 2G13G22
 -19450700.68049 -15156406.11046  21396689.732    21396696.213
 -11221400.20549  -8743947.90446  21743684.188    21743692.627
 -10302288.03148  -8027767.97745  23010977.507    23010983.489
 -16146300.78449 -12581543.49547  21430788.088    21430792.349
 -12600681.32249  -9818716.35446  21689506.338    21689512.254
 -24596287.16249 -19165947.48447  20339026.328    20339029.028
  -3384001.92148                  24001159.491
 02  1  5  4 27  0.0000000  0  7G 1G31G 8G27G 2G13G22
 -19376312.89149 -15098441.73246  21410845.215    21410851.846
 -11293416.43349  -8800064.33846  21729980.293    21729988.484
 -10388995.29948  -8095332.11745  22994477.077    22994484.300
 -16200605.04449 -12623858.52047  21420454.396    21420458.766
 -12651586.54749  -9858382.75746  21679819.160    21679825.083
 -24581540.10049 -19154456.33647  20341832.657    20341835.436
  -3274440.60148                  24022008.820
 02  1  5  4 27 30.0000000  0  7G 1G31G 8G27G 2G13G22
 -19301533.30649 -15040172.06146  21425075.743    21425082.869
 -11364976.86649  -8855825.60946  21716362.968    21716369.913
 -10475626.04648  -8162836.61545  22977992.152    22977999.658
 -16254748.19349 -12666048.00447  21410151.413    21410155.704
 -12702193.76449  -9897816.95246  21670188.865    21670194.308
 -24566248.92449 -19142541.19947  20344742.416    20344745.350
  -3164845.80948                  24042864.166
 02  1  5  4 28  0.0000000  0  7G 1G31G 8G27G 2G13G22
 -19226330.72249 -14981572.78946  21439386.413    21439393.549
 -11436046.15749  -8911204.16346  21702838.643    21702846.256
 -10562147.00548  -8230255.54545  22961527.709    22961534.734
 -16308696.83649 -12708085.91847  21399885.451    21399889.822
 -12752470.37249  -9936993.53346  21660621.446    21660627.574
 -24550380.56149 -19130176.30447  20347761.984    20347764.851
  -3055186.92548                  24063731.480
 02  1  5  4 28 30.0000000  0  7G 1G31G 8G27G 2G13G22
 -19150716.91049 -14922653.07946  21453775.318    21453781.998
 -11506631.64749  -8966205.72846  21689406.508    21689413.948
 -10648567.57248  -8297596.24945  22945082.334    22945089.311
 -16362460.32449 -12749979.55747  21389654.606    21389658.682
 -12802426.28149  -9975920.21546  21651115.389    21651121.327
 -24533945.48749 -19117369.81247  20350889.681    20350892.417
  -2945476.09348                  24084610.133
 02  1  5  4 29  0.0000000  0  7G 1G31G 8G27G 2G13G22
 -19074695.11749 -14863415.45346  21468241.796    21468248.115
 -11576732.14449  -9020829.38546  21676067.003    21676074.118
 -10734888.76348  -8364859.52245  22928655.472    22928663.096
 -16416039.37849 -12791729.48347  21379458.745    21379462.975
 -12852062.97449 -10014598.16146  21641669.940    21641675.373
 -24516945.20649 -19104122.90247  20354125.092    20354127.893
  -2835716.78748  -2209693.53444  24105495.815    24105505.744
 02  1  5  4 29 30.0000000  0  7G 1G31G 8G27G 2G13G22
 -18998287.27049 -14803877.00446  21482782.104    21482788.893
 -11646365.42149  -9075088.96546  21662815.855    21662823.312
 -10821130.22648  -8432060.65845  22912244.470    22912252.271
 -16469453.53849 -12833350.91947  21369294.278    21369298.570
 -12901400.76749 -10053043.19946  21632280.817    21632286.819
 -24499399.89449 -19090451.29947  20357463.652    20357466.522
  -2725931.11348                  24126388.791
 02  1  5  4 30  0.0000000  0  7G 1G31G 8G27G 2G13G22
 -18921493.49549 -14744037.84046  21497395.613    21497402.271
 -11715527.06349  -9128981.04646  21649654.953    21649662.595
 -10907289.57748  -8499197.78445  22895849.489    22895856.702
 -16522700.48349 -12874842.05447  21359161.595    21359166.018
 -12950437.91549 -10091253.97046  21622949.297    21622955.252
 -24481307.94749 -19076353.74847  20360906.117    20360909.191
  -2616119.54248  -2038579.53844  24147284.091    24147295.509
 02  1  5  4 30 30.0000000  0  7G 1G31G 8G27G 2G13G22
 -18844310.62549 -14683895.48246  21512082.913    21512089.877
 -11784209.78249  -9182499.93946  21636585.065    21636592.090
 -10993361.59548  -8566266.88245  22879470.074    22879477.586
 -16575774.73549 -12916198.62147  21349062.072    21349066.495
 -12999169.74149 -10129226.82547  21613676.077    21613681.914
 -24462664.97349 -19061826.82247  20364453.937    20364456.964
  -2506279.41148                  24168187.538
 02  1  5  4 31  0.0000000  0  7G 1G31G 8G27G 2G13G22
 -18766738.85949 -14623450.08646  21526844.448    21526851.338
 -11852409.31149  -9235642.32846  21623606.975    21623614.141
 -11079344.01948  -8633266.15845  22863108.419    22863116.859
 -16628673.89349 -12957418.74947  21338995.691    21339000.314
 -13047594.68549 -10166960.54947  21604461.468    21604467.250
 -24443469.42449 -19046869.31947  20368106.894    20368109.991
  -2396411.04948                  24189094.360
 02  1  5  4 31 30.0000000  0  7G 1G31G 8G27G 2G13G22
 -18688767.60949 -14562693.40846  21541681.799    21541689.243
 -11920111.00549  -9288396.79546  21610723.467    21610730.626
 -11165223.83448  -8700185.50145  22846766.683    22846773.257
 -16681384.76849 -12998492.15747  21328964.990    21328969.207
 -13095700.65349 -10204445.70447  21595306.910    21595312.589
 -24423709.00649 -19031471.65447  20371867.033    20371870.114
  -2286504.02148                  24210008.214
 02  1  5  4 32  0.0000000  0  7G 1G31G 8G27G 2G13G22
 -18610383.22349 -14501614.79446  21556598.263    21556605.232
 -11987297.09749  -9340749.50646  21597938.616    21597945.807
 -11250985.24948  -8767012.57245  22830445.588    22830452.701
 -16733891.33149 -13039406.36347  21318973.289    21318977.884
 -13143472.32549 -10241670.37346  21586216.203    21586222.147
 -24403368.78349 -19015622.19447  20375737.718    20375740.802
  -2176545.21348                  24230934.941
 02  1  5  4 32 30.0000000  0  8G 1G28G31G 8G27G 2G13G22
 -18531628.75449 -14440247.80246  21571584.553    21571591.931
         -.03958                  25139328.102
 -12054006.18449  -9392730.53546  21585244.059    21585250.735
 -11336669.06948  -8833779.17145  22814141.075    22814148.613
 -16786234.22249 -13080193.04247  21309012.791    21309017.390
 -13190951.19849 -10278666.88447  21577181.538    21577187.592
 -24382490.26349 -18999353.27747  20379710.942    20379713.951
  -2066577.78948                  24251859.578
 02  1  5  4 33  0.0000000  0  8G 1G28G31G 8G27G 2G13G22
 -18452505.66249 -14378593.57746  21586641.293    21586648.604
   -100096.00448                  25120280.864
 -12120235.19549  -9444337.49346  21572641.089    21572648.162
 -11422273.99648  -8900484.28745  22797851.240    22797858.381
 -16838412.13949 -13120851.16547  21299083.714    21299088.108
 -13238136.76149 -10315434.83147  21568202.386    21568207.974
 -24361073.24549 -18982664.74547  20383786.488    20383789.562
  -1956603.27148                  24272788.749
 02  1  5  4 33 30.0000000  0  8G 1G28G31G 8G27G 2G13G22
 -18373005.21249 -14316645.31846  21601769.658    21601777.024
   -200100.25848                  25101251.644
 -12185971.23249  -9495560.32146  21560131.998    21560138.728
 -11507789.06048  -8967119.38845  22781577.550    22781584.203
 -16890413.86949 -13161371.99747  21289188.387    21289192.706
 -13285018.70949 -10351966.19247  21559280.898    21559286.553
 -24339107.54149 -18965548.66747  20387966.373    20387969.516
  -1846613.13048                  24293718.935
 02  1  5  4 34  0.0000000  0  8G 1G28G31G 8G27G 2G13G22
 -18293110.96149 -14254390.20346  21616973.686    21616980.862
   -299993.69248                  25082241.429
 -12251193.74749  -9546383.02146  21547720.401    21547727.505
 -11593195.38348  -9033669.76745  22765326.400    22765333.859
 -16942220.59649 -13201740.88947  21279330.223    21279334.378
 -13331579.06749 -10388246.97847  21550420.820    21550426.755
 -24316575.30149 -18947991.13747  20392253.892    20392257.044
  -1736591.03548                  24314655.831
 02  1  5  4 34 30.0000000  0  8G 1G28G31G 8G27G 2G13G22
 -18212823.71249 -14191828.85046  21632251.314    21632258.814
   -399774.20448                  25063254.963
 -12315899.16949  -9596802.80046  21535407.156    21535414.345
 -11678491.42548  -9100134.20545  22749094.218    22749101.153
 -16993830.43649 -13241956.36547  21269508.958    21269513.079
 -13377816.80449 -10424276.36547  21541621.791    21541627.624
 -24293475.64149 -18929991.46047  20396650.001    20396653.117
  -1626538.06148                  24335599.661
 02  1  5  4 35  0.0000000  0  8G 1G28G31G 8G27G 2G13G22
 -18132152.90249 -14128968.62846  21647602.917    21647609.957
   -499448.34848                  25044287.682
 -12380092.52349  -9646823.57446  21523192.212    21523198.836
 -11763684.14848  -9166518.15245  22732882.351    22732889.944
 -17045250.09549 -13282023.65647  21259723.897    21259728.192
 -13423739.66749 -10460060.39947  21532883.145    21532889.372
 -24269816.71849 -18911555.99147  20401152.207    20401155.297
  -1516463.56448                  24356544.608
