     2.11           OBSERVATION DATA    G (GPS)             RINEX VERSION / TYPE
teqc  2019Feb25     Salamtina Y.M.      20230920 03:20:31UTCPGM / RUN BY / DATE
OBSERVATION MODE: Permanent                                 COMMENT
CHUM Chumysh (CHUM)                                         MARKER NAME
25601M001                                                   MARKER NUMBER
4549261325          TRIMBLE NETRS        1.3-2              REC # / TYPE / VERS
237                 TRM29659.00     NONE                    ANT # / TYPE
        0.0900        0.0000        0.0000                  ANTENNA: DELTA H/E/N
  1228950.3077  4508080.0113  4327868.5426                  APPROX POSITION XYZ
  74.75110459  42.99850160  716.3366  LonLatAlt  S/W        COMMENT
ANT ADDED FROM RCV_ANT.txt                                  COMMENT
Linux 2.6.32-573.12.1.x86_64|x86_64|gcc|Linux 64|=+         COMMENT
BIT 2 OF LLI FLAGS DATA COLLECTED UNDER A/S CONDITION       COMMENT
Konovalov S.M.      RS_RAS                                  OBSERVER / AGENCY
     1     1                                                WAVELENGTH FACT L1/2
     7    L1    L2    C1    P1    P2    S1    S2            # / TYPES OF OBSERV
    30.0000                                                 INTERVAL
    18                                                      LEAP SECONDS
TIME: 2023.01.01                                            COMMENT
TOUR: cont                                                  COMMENT
RSET: RAS02                                                 COMMENT
ASET: DS24                                                  COMMENT
OPER: skon (Konovalov S.M.)                                 COMMENT
SOUR: chum202301010000d.dat                                 COMMENT
SUPP: chum202301010000d.eph                                 COMMENT
SUPP: chum202301010000d.ion                                 COMMENT
SUPP: chum202301010000d.mes                                 COMMENT
Forced Modulo Decimation to 30 seconds                      COMMENT
 SNR is mapped to RINEX snr flag value [0-9]                COMMENT
  L1 & L2: min(max(int(snr_dBHz/6), 0), 9)                  COMMENT
  2023     1     1     0     0    0.0000000     GPS         TIME OF FIRST OBS
  2023     1     1    23    59   30.0000000     GPS         TIME OF LAST OBS
                                                            END OF HEADER
 23  1  1  0  0  0.0000000  0 10G24G23G22G27G08G21G18G10G15G32
 -14500797.16047 -12209884.30147  22151332.9924                   22151324.2154
        43.7504         44.5004
 -14703196.22747 -13450868.49546  21100649.9224                   21100639.0944
        46.5004         40.0004
  -3339530.51546  -3245765.50343  23103320.0084                   23103309.0634
        39.0004         21.5004
 -14533109.22647 -11163364.43947  22852684.2504                   22852674.7704
        44.7504         44.5004
 -10674430.29246  -8293899.11546  23299858.2194                   23299850.5554
        40.2504         40.2504
  -4825831.92945  -2855526.98242  24773397.0314                   24773383.9184
        35.7504         16.2504
 -16302346.46147 -12638185.53945  22772764.8054                   22772754.9144
        43.0004         32.2504
 -27239707.91248 -21091038.87449  20564003.5634                   20563994.9024
        52.7504         55.2504
    566731.26745   -194303.16742  25318350.5314                   25318341.0514
        32.7504         16.2504
 -14350129.90448 -17343273.50749  21212266.8834                   21212258.1644
        49.7504         55.2504
 23  1  1  0  0 30.0000000  0 10G24G23G22G27G08G21G18G10G15G32
 -14477475.86847 -12191711.86147  22155770.6564                   22155762.1724
        43.5004         44.5004
 -14658099.23647 -13415727.98346  21109232.2114                   21109221.2664
        47.0004         40.2504
  -3429868.68846  -3316158.82843  23086128.4304                   23086118.3054
        38.2504         22.0004
 -14467953.98247 -11112594.13547  22865082.0864                   22865073.7774
        44.5004         44.2504
 -10665634.77046  -8287045.47346  23301531.9384                   23301524.2734
        41.0004         40.2504
  -4913922.02945  -2924168.58142  24756632.5314                   24756621.6454
        33.2504         15.5004
 -16203044.27947 -12560807.21245  22791661.2584                   22791651.4264
        42.5004         30.5004
 -27252044.98748 -21100652.17849  20561655.8984                   20561646.9454
        52.0004         55.0004
    679430.76045   -106485.39842  25339797.2034                   25339787.2544
        31.0004         15.5004
 -14405607.64548 -17386502.90549  21201710.1414                   21201701.1884
        50.0004         54.7504
 23  1  1  0  1  0.0000000  0 10G24G23G22G27G08G21G18G10G15G32
 -14453517.72847 -12173043.17747  22160329.6804                   22160321.1374
        44.0004         44.5004
 -14612747.26047 -13380388.79746  21117862.0164                   21117851.4804
        46.5004         40.2504
  -3519969.08346  -3386366.94343  23068982.7664                   23068972.1724
        37.7504         22.0004
 -14402388.06247 -11061503.83547  22877558.6414                   22877550.2154
        43.5004         44.0004
 -10656284.63346  -8279759.67246  23303311.9064                   23303303.5394
        41.0004         40.5004
  -5001895.17945  -2992719.08442  24739893.3754                   24739880.7304
        35.5004         17.2504
 -16103472.08447 -12483218.51145  22810609.7664                   22810599.2304
        42.2504         30.2504
 -27264119.34948 -21110060.76849  20559358.2344                   20559349.2234
        51.5004         55.0004
    792109.02845    -18684.17742  25361239.5394                   25361229.8244
        33.0004         15.5004
 -14460682.11248 -17429418.06349  21191229.6174                   21191220.8404
        50.2504         55.0004
 23  1  1  0  1 30.0000000  0 10G24G23G22G27G08G21G18G10G15G32
 -14428925.31147 -12153880.25747  22165009.1804                   22165001.4574
        43.5004         44.2504
 -14567142.30847 -13344852.47746  21126540.4534                   21126529.6844
        45.7504         40.2504
  -3609831.87746  -3456389.87843  23051882.7584                   23051872.0474
        39.0004         22.0004
 -14336416.15547 -11010097.15247  22890113.8984                   22890103.8914
        44.2504         44.0004
 -10646382.27246  -8272043.56646  23305196.1644                   23305188.1484
        41.0004         40.2504
  -5089751.27545  -3061178.39442  24723172.5004                   24723162.8444
        33.0004         16.7504
 -16003633.56646 -12405422.26545  22829607.6954                   22829597.8634
        41.7504         31.2504
 -27275932.76748 -21119266.03249  20557110.2664                   20557101.0204
        52.2504         55.5004
    904762.81045     69098.00542  25382676.3054                   25382666.8834
        32.5004         15.5004
 -14515354.60348 -17472019.99749  21180825.7974                   21180817.1374
        50.2504         54.7504
 23  1  1  0  2  0.0000000  0 10G24G23G22G27G08G21G18G10G15G32
 -14403698.36347 -12134222.89647  22169810.1174                   22169801.5744
        44.0004         44.5004
 -14521283.62547 -13309118.45546  21135266.9224                   21135256.4454
        46.2504         40.5004
  -3699454.92846  -3526226.01643  23034828.4694                   23034817.2304
        38.2504         22.0004
 -14270039.96147 -10958375.45047  22902743.1334                   22902735.2344
        42.7504         43.5004
 -10635927.41746  -8263896.94446  23307185.1954                   23307177.6484
        40.2504         40.2504
  -5177487.94845  -3129544.63942  24706478.4774                   24706467.0634
        35.7504         17.7504
 -15903529.55146 -12327419.16545  22848656.6254                   22848647.1454
        41.7504         30.5004
 -27287483.54848 -21128266.63349  20554912.4064                   20554903.4534
        53.0004         55.2504
   1017391.50845    156860.62542  25404108.6564                   25404099.4104
        31.0004         15.5004
 -14569623.49248 -17514307.42849  21170498.7034                   21170489.6914
        50.5004         55.0004
 23  1  1  0  2 30.0000000  0 10G24G23G22G27G08G21G18G10G15G32
 -14377838.65747 -12114072.46647  22174730.9304                   22174722.6214
        43.2504         44.2504
 -14475172.48547 -13273187.70246  21144041.8524                   21144030.9654
        46.0004         40.7504
  -3788837.69446  -3595874.88943  23017818.6724                   23017808.4304
        38.7504         22.0004
 -14203263.33447 -10906341.74547  22915450.3134                   22915442.5904
        42.5004         43.0004
 -10624921.94946  -8255321.26546  23309279.9304                   23309271.7384
        40.0004         40.0004
  -5265104.25845  -3197817.13042  24689805.1334                   24689793.3674
        33.2504         16.7504
 -15803163.00146 -12249211.47245  22867755.8284                   22867746.3484
        41.5004         30.0004
 -27298772.45848 -21137063.19249  20552764.0704                   20552755.2344
        51.5004         55.0004
   1129992.40545    244601.60842  25425535.8134                   25425526.3914
        31.7504         16.2504
 -14623489.23648 -17556280.73149  21160248.4694                   21160239.5164
        50.7504         54.7504
 23  1  1  0  3  0.0000000  0 10G24G23G22G27G08G21G18G10G15G32
 -14351346.06847 -12093428.88347  22179772.2814                   22179763.7384
        43.0004         44.2504
 -14428808.11047 -13237059.63246  21152864.6644                   21152853.8954
        46.0004         40.2504
  -3877977.95246  -3665334.80143  23000856.6954                   23000845.4574
        39.0004         22.5004
 -14136088.11347 -10853997.41447  22928234.0634                   22928225.6954
        43.7504         43.2504
 -10613366.02846  -8246316.66346  23311477.9304                   23311470.6174
        40.7504         40.0004
  -5352597.43945  -3265993.58542  24673154.9144                   24673144.2624
        34.7504         16.2504
 -15702534.71247 -12170799.85245  22886905.5084                   22886895.0904
        42.0004         31.0004
 -27309798.07448 -21145654.57049  20550665.8444                   20550656.6564
        52.7504         55.0004
   1242565.20544    332320.70542  25446957.7194                   25446948.4734
        29.7504         14.7504
 -14676950.30848 -17597938.69749  21150074.8914                   21150066.4654
        50.7504         54.7504
 23  1  1  0  3 30.0000000  0 10G24G23G22G27G08G21G18G10G15G32
 -14324222.07647 -12072293.30047  22184933.5004                   22184925.1914
        42.5004         44.5004
 -14382191.44247 -13200734.96946  21161734.8524                   21161724.6684
        46.5004         40.5004
  -3966875.52646  -3734605.61843  22983939.9774                   22983928.8554
        39.5004         23.2504
 -14068517.82647 -10801345.24347  22941092.2274                   22941083.2734
        43.2504         43.0004
 -10601261.12246  -8236884.28446  23313781.8444                   23313774.4144
        40.7504         40.0004
  -5439966.11946  -3334073.08742  24656530.9304                   24656518.6374
        36.0004         16.2504
 -15601647.39246 -12092186.35745  22906103.8204                   22906093.3444
        41.7504         31.7504
 -27320560.60448 -21154040.94849  20548617.9144                   20548608.7854
        53.0004         55.2504
   1355107.78645    420016.15342  25468373.5234                   25468365.9774
        32.2504         12.5004
 -14730006.85348 -17639281.44849  21139978.5314                   21139969.6374
        51.0004         55.0004
 23  1  1  0  4  0.0000000  0 10G24G23G22G27G08G21G18G10G15G32
 -14296467.08147 -12050666.03447  22190215.7734                   22190206.8794
        42.5004         44.0004
 -14335322.19647 -13164213.47846  21170654.2894                   21170643.5204
        46.0004         40.5004
  -4055528.19746  -3803685.62043  22967069.1174                   22967058.6994
        38.2504         21.2504
 -14000554.87147 -10748387.11647  22954024.8054                   22954016.6134
        43.0004         42.7504
 -10588607.74046  -8227024.52346  23316189.5314                   23316182.5124
        40.2504         40.0004
  -5527208.40545  -3402054.01942  24639927.7114                   24639916.4734
        35.5004         17.2504
 -15500502.38846 -12013372.07445  22925350.7814                   22925340.4224
        41.5004         31.2504
 -27331059.04848 -21162221.55049  20546620.2894                   20546611.3364
        52.0004         55.0004
   1467618.927 5                  25489783.250
        33.000
 -14782657.90248 -17680308.21949  21129959.8674                   21129950.8554
        51.2504         54.7504
 23  1  1  0  4 30.0000000  0  9G24G23G22G27G08G21G18G10G32
 -14268080.15047 -12028546.35247  22195616.9304                   22195608.8554
        42.5004         44.0004
 -14288198.88147 -13127494.02846  21179621.5234                   21179610.8134
        46.5004         40.7504
  -4143932.89446  -3872572.40143  22950246.6884                   22950235.9184
        38.7504         22.2504
 -13932200.27647 -10695123.79947  22967032.4774                   22967024.4024
        43.5004         42.7504
 -10575405.17246  -8216736.81446  23318703.3284                   23318694.1414
        40.2504         39.7504
  -5614320.44946  -3469933.55842  24623352.5474                   24623340.0784
        36.5004         17.2504
 -15399099.84746 -11934357.12445  22944646.4614                   22944637.2154
        40.0004         30.5004
 -27341291.33448 -21170194.76349  20544673.0784                   20544663.9494
        52.5004         55.5004
 -14834901.08948 -17721017.19149  21120018.0394                   21120009.3204
        50.5004         55.0004
 23  1  1  0  5  0.0000000  0  9G24G23G22G27G08G21G18G10G32
 -14239067.04247 -12005938.73247  22201138.4924                   22201129.8324
        43.0004         44.2504
 -14240826.50547 -13090580.49846  21188636.2274                   21188625.3404
        47.2504         40.5004
  -4232093.52646  -3941268.95043  22933469.2034                   22933459.5474
        38.2504         22.5004
 -13863461.70747 -10641561.30947  22980113.2584                   22980104.7154
        43.2504         42.7504
 -10561658.98546  -8206025.51946  23321317.9144                   23321310.6024
        40.0004         40.5004
  -5701305.01546  -3537713.71042  24606798.9694                   24606787.3204
        36.0004         17.7504
 -15297446.41246 -11855146.68145  22963991.0864                   22963981.1374
        40.7504         30.5004
 -27351261.72748 -21177963.90449  20542775.7974                   20542766.6684
        52.5004         55.0004
 -14886740.79748 -17761411.75249  21110153.2114                   21110144.1414
        51.2504         54.7504
 23  1  1  0  5 30.0000000  0  9G24G23G22G27G08G21G18G10G32
 -14209426.10547 -11982841.89547  22206778.5554                   22206770.3634
        42.2504         44.0004
 -14193202.66547 -13053471.03746  21197698.3914                   21197688.0904
        46.2504         40.5004
  -4320005.96246  -4009772.15443  22916740.3284                   22916730.1454
        38.5004         22.5004
 -13794339.44747 -10587699.80647  22993266.6254                   22993257.5554
        43.7504         42.5004
 -10547367.82546  -8194889.58146  23324037.4534                   23324029.5554
        40.0004         40.2504
  -5788157.85946  -3605391.27042  24590272.5004                   24590259.3284
        37.7504         17.7504
 -15195541.48646 -11775740.25945  22983382.3524                   22983372.7544
        39.5004         30.0004
 -27360967.42448 -21185526.77449  20540928.8204                   20540919.9264
        52.0004         55.0004
 -14938173.85348 -17801489.46049  21100366.2344                   21100357.2234
        51.7504         55.0004
 23  1  1  0  6  0.0000000  0  9G24G23G22G27G08G21G18G10G32
 -14179157.31847 -11959255.82447  22212538.5704                   22212530.3794
        42.7504         44.0004
 -14145326.71947 -13016165.11946  21206809.2734                   21206798.5044
        46.0004         40.2504
  -4407667.54446  -4078079.87743  22900059.1484                   22900049.0824
        38.5004         22.5004
 -13724835.41847 -10533540.83847  23006492.5004                   23006484.1914
        43.0004         42.5004
 -10532531.97246  -8183329.18246  23326860.5004                   23326853.2464
        40.0004         40.0004
  -5874876.35546  -3672964.14143  24573769.4614                   24573757.6374
        37.2504         19.2504
 -15093386.00646 -11696138.61945  23002822.2894                   23002812.3984
        40.5004         30.5004
 -27370406.68948 -21192882.04949  20539132.6334                   20539123.4454
        52.2504         55.0004
 -14989198.92648 -17841249.23849  21090655.9454                   21090647.4024
        51.0004         55.2504
 23  1  1  0  6 30.0000000  0  9G24G23G22G27G08G21G18G10G32
 -14148263.03147 -11935182.34747  22218417.6724                   22218409.0704
        42.5004         44.2504
 -14097200.11447 -12978663.87346  21215967.3524                   21215956.6414
        47.0004         40.5004
  -4495078.99746  -4146192.66343  22883425.6024                   22883415.0084
        39.0004         23.0004
 -13654953.82247 -10479087.66347  23019791.2664                   23019782.8404
        42.7504         42.5004
 -10517153.62146  -8171346.08946  23329787.1804                   23329779.3984
        40.0004         40.5004
  -5961459.78946  -3740431.72443  24557293.9694                   24557281.2074
        38.0004         19.0004
 -14990983.27546 -11616344.29945  23022309.2584                   23022299.0744
        40.0004         30.0004
 -27379580.73448 -21200030.65049  20537386.8674                   20537377.8554
        53.2504         55.5004
 -15039816.79148 -17880691.72049  21081024.2274                   21081014.9804
        51.5004         54.7504
 23  1  1  0  7  0.0000000  0  9G24G23G22G27G08G21G18G10G32
 -14116743.46047 -11910621.63847  22224415.8134                   22224407.0354
        43.0004         44.2504
 -14048822.36847 -12940966.94146  21225173.6884                   21225162.9184
        46.5004         40.5004
  -4582238.12246  -4214108.84543  22866839.6564                   22866829.2974
        39.5004         23.0004
 -13584696.79447 -10424341.93947  23033159.7894                   23033151.7154
        42.5004         42.0004
 -10501232.51146  -8158940.04446  23332817.2424                   23332809.3444
        40.0004         39.7504
  -6047905.35646  -3807791.90343  24540842.2194                   24540830.8634
        37.5004         18.2504
 -14888334.31546 -11536358.11045  23041842.7504                   23041832.3914
        41.0004         30.0004
 -27388488.50848 -21206971.77249  20535691.8914                   20535682.9964
        51.7504         55.2504
 -15090026.21248 -17919815.93349  21071469.3674                   21071460.3554
        51.2504         54.7504
 23  1  1  0  7 30.0000000  0  9G24G23G22G27G08G21G18G10G32
 -14084600.34647 -11885575.04547  22230532.2734                   22230523.8484
        42.5004         44.0004
 -14000194.35347 -12903074.99046  21234426.9844                   21234416.7424
        46.0004         40.5004
  -4669144.19346  -4281827.86344  22850301.1804                   22850291.0554
        38.7504         24.7504
 -13514067.88647 -10369306.44247  23046600.6024                   23046591.9414
        42.5004         42.2504
 -10484771.32646  -8146113.18246  23335949.4844                   23335941.5864
        40.2504         40.0004
  -6134212.48546  -3875044.21843  24524419.8364                   24524407.6604
        38.7504         20.5004
 -14785441.92146 -11456182.23044  23061422.3134                   23061412.5394
        39.5004         29.0004
 -27397130.06548 -21213705.44849  20534047.5004                   20534038.4304
        53.2504         55.0004
 -15139827.46948 -17958622.09249  21061992.5704                   21061983.6764
        51.5004         54.7504
 23  1  1  0  8  0.0000000  0  9G24G23G22G27G08G21G18G10G32
 -14051833.97546 -11860042.80647  22236767.2974                   22236759.1054
        41.7504         44.0004
 -13951315.52647 -12864987.61046  21243728.3054                   21243717.8284
        46.2504         40.2504
  -4755795.41646  -4349348.28044  22833814.0004                   22833802.4104
        40.5004         25.5004
 -13443069.27647 -10313982.86747  23060110.8984                   23060103.0004
        43.2504         42.5004
 -10467770.23246  -8132865.58846  23339184.9614                   23339176.7114
        39.5004         40.0004
  -6220377.85046  -3942186.07343  24508022.7584                   24508010.8754
        38.0004         19.2504
 -14682307.06346 -11375817.43644  23081048.4384                   23081038.4304
        39.5004         29.2504
 -27405504.00348 -21220230.59449  20532453.7974                   20532444.9614
        52.2504         55.0004
 -15189219.32448 -17997109.24549  21052593.6334                   21052584.5634
        52.0004         55.0004
 23  1  1  0  8 30.0000000  0  9G24G23G22G27G08G21G18G10G32
 -14018445.55347 -11834025.85247  22243120.7034                   22243112.6294
        42.0004         44.0004
 -13902186.24247 -12826705.06246  21253077.7034                   21253066.6994
        47.0004         40.5004
  -4842190.44846  -4416669.05344  22817371.6334                   22817361.4494
        40.0004         24.5004
 -13371703.93647 -10258373.53946  23073691.5394                   23073682.9964
        42.0004         41.7504
 -10450229.99746  -8119197.89646  23342522.6174                   23342514.4844
        40.0004         40.2504
  -6306399.98746  -4009216.29943  24491653.4694                   24491641.4104
        38.5004         20.7504
 -14578931.97046 -11295265.40444  23100719.5554                   23100709.6644
        38.5004         29.5004
 -27413610.07348 -21226547.00949  20530911.5004                   20530902.2544
        52.7504         54.7504
 -15238201.51248 -18035277.16749  21043272.7584                   21043263.4534
        51.5004         54.7504
 23  1  1  0  9  0.0000000  0  9G24G23G22G27G08G21G18G10G32
 -13984436.27747 -11807525.11247  22249592.7664                   22249584.1054
        42.5004         44.0004
 -13852806.79947 -12788227.58046  21262474.2664                   21262463.2624
        47.5004         40.5004
  -4928328.19246  -4483789.37744  22800981.4614                   22800970.3404
        40.2504         24.2504
 -13299974.96447 -10202480.84447  23087341.3444                   23087332.2734
        43.0004         42.0004
 -10432152.53246  -8105111.58246  23345962.7344                   23345954.6024
        40.7504         40.0004
  -6392277.21646  -4076133.65043  24475312.0234                   24475299.3204
        39.2504         21.5004
 -14475318.63646 -11214527.77444  23120436.9774                   23120426.5004
        39.5004         29.2504
 -27421447.80948 -21232654.33149  20529419.9534                   20529410.9414
        52.7504         55.0004
 -15286773.66548 -18073125.58449  21034029.7814                   21034020.8284
        51.7504         54.7504
 23  1  1  0  9 30.0000000  0  9G24G23G22G27G08G21G18G10G32
 -13949807.66947 -11780541.78747  22256182.5634                   22256173.8444
        43.5004         44.0004
 -13803177.76147 -12749555.61746  21271917.7424                   21271907.5594
        46.0004         40.5004
  -5014207.91346  -4550708.61444  22784638.0084                   22784627.9414
        40.0004         25.5004
 -13227885.62547 -10146307.33946  23101059.2344                   23101050.6914
        42.2504         41.7504
 -10413538.91246  -8090607.48846  23349504.6954                   23349497.1484
        40.0004         39.7504
  -6478008.13946  -4142936.91543  24458997.7504                   24458985.4574
        39.5004         21.5004
 -14371469.29846 -11133606.19944  23140198.8134                   23140189.2154
        39.2504         28.0004
 -27429017.47448 -21238552.77049  20527979.1254                   20527970.1724
        52.7504         54.7504
 -15334935.72048 -18110654.44749  21024864.7734                   21024855.9384
        51.2504         55.0004
 23  1  1  0 10  0.0000000  0  9G24G23G22G27G08G21G18G10G32
 -13914560.73147 -11753076.62647  22262890.0394                   22262881.2034
        43.0004         44.5004
 -13753299.23047 -12710689.24546  21281409.8834                   21281398.7624
        47.0004         40.2504
  -5099828.16646  -4617425.67244  22768345.8674                   22768334.5704
        40.2504         26.0004
 -13155438.63147 -10089855.17547  23114845.5474                   23114837.0044
        42.7504         42.0004
 -10394390.72346  -8075686.83946  23353148.8284                   23353140.5784
        40.2504         40.0004
  -6563590.43246  -4209624.44143  24442711.9384                   24442699.6454
        38.5004         21.2504
 -14267385.82946 -11052502.24944  23160003.7584                   23159995.4494
        39.0004         28.7504
 -27436318.36748 -21244241.77849  20526590.1564                   20526580.9104
        52.7504         54.7504
 -15382687.22348 -18147863.39649  21015777.8284                   21015769.2274
        51.5004         55.0004
 23  1  1  0 10 30.0000000  0  9G24G23G22G27G08G21G18G10G32
 -13878696.21047 -11725130.24047  22269713.9614                   22269705.8284
        42.5004         44.5004
 -13703170.99547 -12671628.30346  21290948.6174                   21290938.1414
        46.7504         40.2504
  -5185187.27846  -4683939.26644  22752103.0554                   22752091.7584
        41.2504         25.2504
 -13082636.56647 -10033126.29746  23128700.0554                   23128690.8094
        42.5004         41.7504
 -10374708.26146  -8060349.87846  23356893.6644                   23356885.5314
        39.0004         39.5004
  -6649021.84146  -4276194.37943  24426453.9774                   24426442.3284
        39.0004         21.2504
 -14163069.79746 -10971217.03444  23179855.6724                   23179845.8984
        38.7504         28.5004
 -27443349.47148 -21249720.55849  20525252.1094                   20525242.9224
        52.5004         55.0004
 -15430027.29248 -18184751.74949  21006769.5864                   21006760.7504
        51.5004         55.0004
 23  1  1  0 11  0.0000000  0  9G24G23G22G27G08G21G18G10G32
 -13842214.51447 -11696702.95047  22276656.8444                   22276648.1254
        43.2504         44.2504
 -13652792.39147 -12632372.27046  21300535.5474                   21300525.1294
        46.7504         40.0004
  -5270283.26146  -4750247.80044  22735909.1334                   22735898.1884
        40.5004         26.0004
 -13009481.53646  -9976122.39446  23142619.5784                   23142612.2664
        41.0004         41.0004
 -10354491.84046  -8044596.82346  23360740.7974                   23360732.8984
        39.5004         39.5004
  -6734299.37446  -4342644.40943  24410227.0314                   24410214.6804
        38.5004         20.7504
 -14058522.23746 -10889751.42744  23199751.2974                   23199739.8834
        39.5004         29.5004
 -27450109.46848 -21254988.09049  20523965.8914                   20523956.8204
        53.0004         54.7504
 -15476954.74748 -18221318.58149  20997839.5474                   20997830.2424
        52.7504         54.7504
 23  1  1  0 11 30.0000000  0  9G24G23G22G27G08G21G18G10G32
 -13805119.25347 -11667797.53947  22283716.7814                   22283707.2424
        43.7504         44.2504
 -13602166.00647 -12592923.14646  21310169.1724                   21310158.9304
        46.5004         40.2504
  -5355117.22346  -4816352.18144  22719765.5944                   22719755.1174
        40.7504         25.2504
 -12935978.80947  -9918847.57046  23156608.1174                   23156598.9304
        42.5004         41.5004
 -10333745.54046  -8028430.89346  23364689.4064                   23364680.5704
        39.0004         40.0004
  -6819423.89446  -4408975.19643  24394028.5554                   24394015.8524
        38.2504         21.2504
 -13953747.57846 -10808108.84744  23219688.6954                   23219678.6294
        40.5004         28.5004
 -27456600.40248 -21260045.96249  20522730.6644                   20522721.4774
        52.0004         55.0004
 -15523471.57948 -18257565.45549  20988987.3834                   20988978.3134
        51.5004         55.0004
 23  1  1  0 12  0.0000000  0  9G24G23G22G27G08G21G18G10G32
 -13767410.54847 -11638414.14147  22290891.1024                   22290882.9694
        42.5004         44.2504
 -13551290.96347 -12553280.27046  21319850.6024                   21319839.8324
        47.0004         40.0004
  -5439687.13846  -4882250.80644  22703672.6414                   22703661.6374
        40.2504         26.2504
 -12862130.36047  -9861303.32346  23170659.8444                   23170651.7114
        43.0004         40.7504
 -10312469.39646  -8011852.11246  23368737.2344                   23368729.3364
        39.0004         40.2504
  -6904392.19146  -4475184.27043  24377859.6254                   24377846.9804
        38.7504         21.5004
 -13848746.71546 -10726290.00244  23239669.8834                   23239659.4654
        40.5004         28.0004
 -27462820.70648 -21264892.96049  20521546.8914                   20521537.5274
        53.2504         54.7504
 -15569576.39648 -18293491.26549  20980213.9844                   20980204.7384
        52.0004         54.7504
 23  1  1  0 12 30.0000000  0  9G24G23G22G27G08G21G18G10G32
 -13729089.11947 -11608553.28747  22298183.9454                   22298175.3444
        43.0004         44.5004
 -13500166.92147 -12513443.35746  21329579.3674                   21329568.3634
        46.2504         40.2504
  -5523990.91946  -4947942.05344  22687630.4774                   22687619.2384
        40.7504         26.5004
 -12787938.48847  -9803491.49346  23184778.7344                   23184770.3674
        42.5004         41.0004
 -10290664.18946  -7994861.06346  23372886.8984                   23372879.1174
        39.2504         39.7504
  -6989201.97746  -4541269.82243  24361719.2504                   24361708.4224
        37.7504         20.7504
 -13743520.93046 -10644295.89544  23259694.2274                   23259683.3984
        40.0004         28.2504
 -27468769.26048 -21269528.19049  20520414.8914                   20520405.6454
        51.7504         55.0004
 -15615268.22748 -18329095.27949  20971519.1644                   20971510.1524
        51.7504         55.0004
 23  1  1  0 13  0.0000000  0  9G24G23G22G27G08G21G18G10G32
 -13690156.89747 -11578216.48947  22305592.8834                   22305584.2234
        43.5004         44.5004
 -13448794.66247 -12473413.03746  21339355.0394                   21339344.2704
        46.5004         39.7504
  -5608028.12546  -5013425.59044  22671638.0164                   22671627.4804
        40.5004         26.5004
 -12713406.82247  -9745414.89446  23198961.5314                   23198953.5744
        42.0004         40.7504
 -10268331.68046  -7977459.12446  23377136.2274                   23377128.4454
        39.2504         39.7504
  -7073852.08846  -4607230.93243  24345612.9454                   24345600.0084
        39.2504         21.2504
 -13638072.83646 -10562128.56844  23279760.6954                   23279749.2814
        41.5004         29.2504
 -27474446.20448 -21273951.78749  20519334.6174                   20519325.4304
        52.7504         54.7504
 -15660547.37148 -18364377.71549  20962902.8834                   20962893.6374
        52.0004         55.0004
 23  1  1  0 13 30.0000000  0  9G24G23G22G27G08G21G18G10G32
 -13650614.98947 -11547404.61547  22313116.8834                   22313108.3404
        43.2504         44.0004
 -13397174.25347 -12433189.35346  21349178.1174                   21349167.5234
        46.0004         40.0004
  -5691797.40046  -5078700.32144  22655697.3754                   22655686.3714
        41.5004         26.2504
 -12638538.17446  -9687075.70746  23213207.5704                   23213200.3754
        41.2504         40.0004
 -10245473.42846  -7959647.53246  23381486.1254                   23381478.5204
        39.0004         40.0004
  -7158340.17146  -4673065.81143  24329534.1414                   24329522.4344
        38.5004         21.0004
 -13532404.31447 -10479789.46645  23299868.8284                   23299857.9414
        42.0004         30.0004
 -27479850.75948 -21278163.12149  20518306.0394                   20518296.9694
        52.7504         55.0004
 -15705413.34148 -18399338.19749  20954365.1334                   20954356.2384
        51.5004         55.0004
 23  1  1  0 14  0.0000000  0  9G24G23G22G27G08G21G18G10G32
 -13610464.19647 -11516118.26547  22320757.5944                   22320749.1684
        43.5004         44.0004
 -13345305.23647 -12392771.95846  21359048.2974                   21359037.7624
        46.7504         40.2504
  -5775296.94946  -5143764.89944  22639807.6804                   22639797.6134
        40.5004         25.5004
 -12563334.81747  -9628475.70446  23227519.8754                   23227511.0984
        42.5004         40.0004
 -10222089.91946  -7941426.64346  23385936.2504                   23385928.4104
        39.0004         40.0004
  -7242663.84946  -4738772.55343  24313487.7584                   24313475.9924
        39.7504         21.5004
 -13426516.64446 -10397279.63444  23320018.0314                   23320007.3204
        41.5004         29.0004
 -27484981.86348 -21282161.38949  20517329.8984                   20517320.7704
        52.5004         55.0004
 -15749865.21048 -18433975.99949  20945906.1174                   20945897.2814
        52.0004         54.7504
 23  1  1  0 14 30.0000000  0  9G24G23G22G27G08G21G18G10G32
 -13569707.12047 -11484359.52047  22328512.7814                   22328504.9414
        43.2504         44.5004
 -13293189.15447 -12352162.02746  21368965.9304                   21368955.2774
        47.0004         39.7504
  -5858526.86746  -5208619.36744  22623969.8444                   22623959.7774
        41.0004         27.0004
 -12487801.14446  -9569618.29446  23241892.7424                   23241884.6094
        40.5004         39.5004
 -10198183.64646  -7922798.40246  23390486.0394                   23390477.7894
        39.2504         40.0004
  -7326822.27846  -4804350.54143  24297473.2814                   24297460.8714
        39.7504         22.0004
 -13320413.17546 -10314601.61044  23340208.7974                   23340198.3204
        41.5004         28.5004
 -27489840.34648 -21285947.21949  20516405.3674                   20516395.9454
        52.5004         55.0004
 -15793904.00748 -18468291.93849  20937525.5164                   20937516.7384
        52.2504         54.7504
 23  1  1  0 15  0.0000000  0  9G24G23G22G27G08G21G18G10G32
 -13528344.62147 -11452128.98447  22336384.9304                   22336375.9184
        43.7504         44.5004
 -13240825.54047 -12311359.22346  21378930.1174                   21378919.5824
        47.2504         40.0004
  -5941485.42546  -5273262.40044  22608183.2814                   22608172.6884
        40.2504         27.2504
 -12411939.43546  -9510505.30046  23256328.4694                   23256320.4534
        41.0004         39.2504
 -10173756.04846  -7903763.94346  23395134.5314                   23395126.2234
        41.5004         40.0004
  -7410812.98046  -4869797.85443  24281490.7974                   24281478.9144
        39.0004         21.0004
 -13214095.33446 -10231756.53244  23360439.7504                   23360429.7424
        40.0004         29.0004
 -27494425.23948 -21289519.85949  20515532.7114                   20515523.6994
        52.5004         55.5004
 -15837528.74948 -18502285.23849  20929224.1174                   20929215.2814
        51.2504         54.7504
 23  1  1  0 15 30.0000000  0  9G24G23G22G27G08G21G18G10G32
 -13486378.23647 -11419427.91547  22344370.3364                   22344361.6764
        42.5004         44.0004
 -13188214.84947 -12270363.88646  21388941.4614                   21388930.9844
        46.2504         39.7504
  -6024171.89046  -5337693.38044  22592448.0944                   22592438.2034
        41.0004         27.5004
 -12335753.00146  -9451139.24346  23270827.3834                   23270818.6644
        41.5004         39.0004
 -10148808.27246  -7884324.14046  23399881.0784                   23399873.6484
        39.2504         40.0004
  -7494634.08946  -4935113.00243  24265539.9144                   24265527.7384
        40.0004         21.7504
 -13107565.23746 -10148746.12244  23380713.3444                   23380701.8714
        41.0004         28.5004
 -27498736.40748 -21292879.20949  20514712.3134                   20514702.8914
        52.7504         54.7504
 -15880739.48448 -18535955.92749  20921001.4454                   20920992.4924
        51.5004         55.0004
 23  1  1  0 16  0.0000000  0  9G24G23G22G27G08G21G18G10G32
 -13443809.27447 -11386257.29447  22352470.8594                   22352462.3164
        43.0004         44.0004
 -13135357.03647 -12229175.98946  21399000.2814                   21398989.2774
        46.5004         40.0004
  -6106584.63746  -5401911.09744  22576765.6024                   22576755.1844
        41.5004         27.0004
 -12259244.55246  -9391522.29246  23285385.0394                   23285377.1414
        39.2504         39.0004
 -10123341.45346  -7864479.89046  23404728.0864                   23404719.9534
        41.5004         39.7504
  -7578283.41746  -5000294.28543  24249622.2504                   24249609.4304
        40.5004         21.7504
 -13000824.67846 -10065571.67844  23401025.0634                   23401014.0004
        41.0004         28.5004
 -27502772.53548 -21296024.23649  20513944.3444                   20513935.1564
        52.2504         54.7504
 -15923535.67648 -18569303.59449  20912857.8054                   20912848.7934
        52.0004         54.7504
 23  1  1  0 16 30.0000000  0  9G24G23G22G27G08G21G18G10G32
 -13400638.54747 -11352617.76347  22360685.9694                   22360677.4264
        42.5004         44.0004
 -13082251.74847 -12187795.25246  21409105.8834                   21409095.2894
        46.0004         40.0004
  -6188722.14547  -5465914.33844  22561135.8134                   22561125.1024
        42.0004         27.0004
 -12182416.53646  -9331656.31146  23300006.0234                   23299997.2464
        41.0004         39.2504
 -10097356.59946  -7844231.97646  23409672.0394                   23409664.4924
        41.0004         40.2504
  -7661758.62846  -5065339.89243  24233736.9454                   24233724.6524
        40.2504         21.7504
 -12893875.07746  -9982234.33244  23421375.2734                   23421365.9104
        39.5004         28.7504
 -27506532.99248 -21298954.46349  20513228.4304                   20513219.1844
        52.0004         54.7504
 -15965916.46248 -18602327.57549  20904792.8204                   20904783.6914
        52.0004         55.0004
 23  1  1  0 17  0.0000000  0  9G24G23G22G27G08G21G18G10G32
 -13356868.55647 -11318511.28647  22369015.1644                   22369006.5634
        42.5004         44.0004
 -13028900.15347 -12146222.59246  21419258.5314                   21419247.7034
        46.0004         40.0004
  -6270584.35246  -5529703.02744  22545557.4304                   22545547.0704
        41.7504         26.5004
 -12105272.97246  -9271544.44646  23314685.1884                   23314676.9964
        39.7504         39.0004
 -10070856.34546  -7823582.44746  23414715.4144                   23414707.3404
        40.5004         39.5004
  -7745059.02846  -5130249.27143  24217886.1094                   24217873.2304
        40.7504         22.5004
 -12786719.47846  -9898736.49244  23441768.4064                   23441757.1684
        40.0004         27.7504
 -27510018.17848 -21301670.20149  20512565.4384                   20512556.1914
        52.7504         55.0004
 -16007882.63448 -18635028.46849  20896806.7814                   20896798.1804
        51.0004         55.0004
 23  1  1  0 17 30.0000000  0  9G24G23G22G27G08G21G18G10G32
 -13312499.92546 -11283938.31147  22377457.7034                   22377449.7464
        41.5004         43.7504
 -12975301.53947 -12104457.43946  21429457.4144                   21429447.0554
        46.0004         39.5004
  -6352168.98746  -5593275.47244  22530033.2814                   22530022.1024
        41.2504         27.0004
 -12027815.92046  -9211188.31746  23329425.2114                   23329417.0784
        40.5004         38.7504
 -10043841.28346  -7802531.78146  23419856.0704                   23419847.9964
        39.5004         39.5004
  -7828181.53446  -5195020.06743  24202067.4844                   24202055.9534
        40.0004         21.7504
 -12679358.91146  -9815078.93744  23462196.9614                   23462186.7194
        39.0004         27.2504
 -27513226.80948 -21304170.42949  20511954.7344                   20511945.7234
        53.0004         54.7504
 -16049433.16448 -18667405.50549  20888899.9924                   20888891.0394
        52.5004         54.7504
 23  1  1  0 18  0.0000000  0  9G24G23G22G27G08G21G18G10G32
 -13267535.32147 -11248900.97347  22386014.8674                   22386005.9144
        42.5004         43.7504
 -12921457.31147 -12062500.91046  21439704.2664                   21439693.4964
        46.0004         39.7504
  -6433476.27546  -5656631.77644  22514560.1334                   22514550.0664
        41.7504         27.2504
 -11950049.67146  -9150591.23246  23344223.5004                   23344215.0744
        39.5004         38.5004
 -10016313.93946  -7781081.92846  23425093.5554                   23425086.1844
        39.7504         39.2504
  -7911125.02046  -5259651.35243  24186284.6094                   24186271.6724
        40.2504         22.2504
 -12571796.64746  -9731264.19044  23482664.9774                   23482655.7894
        38.2504         28.2504
 -27516159.45948 -21306455.61549  20511396.6804                   20511387.5514
        53.2504         55.0004
 -16090568.75748 -18699459.20649  20881072.1804                   20881063.6954
        51.2504         55.0004
 23  1  1  0 18 30.0000000  0  9G24G23G22G27G08G21G18G10G32
 -13221976.11347 -11213400.25947  22394684.9224                   22394675.7934
        42.2504         43.7504
 -12867367.36547 -12020352.90446  21449996.9844                   21449986.4494
        46.5004         39.7504
  -6514504.82947  -5719770.91144  22499141.3594                   22499131.0594
        42.5004         27.2504
 -11871976.86146  -9089755.28946  23359079.5634                   23359072.1334
        39.7504         38.0004
  -9988275.67846  -7759233.96746  23430429.9534                   23430422.3484
        39.7504         40.0004
  -7993887.57746  -5324141.65043  24170535.3284                   24170522.8594
        40.7504         22.0004
 -12464034.38046  -9647293.61344  23503172.3914                   23503161.6214
        39.0004         28.0004
 -27518815.17348 -21308525.00549  20510891.2344                   20510882.2814
        53.0004         55.0004
 -16131289.07048 -18731189.30749  20873323.1484                   20873314.5474
        51.5004         54.7504
 23  1  1  0 19  0.0000000  0  9G24G23G22G27G08G21G18G10G32
 -13175823.54146 -11177437.22547  22403466.0314                   22403458.8364
        40.5004         43.5004
 -12813031.65647 -11978013.40946  21460336.5864                   21460326.0514
        45.7504         39.5004
  -6595253.12547  -5782691.61344  22483774.5234                   22483764.4574
        42.2504         27.5004
 -11793600.36346  -9028682.69946  23373995.3364                   23373986.5004
        40.5004         38.0004
  -9959727.40646  -7736988.59546  23435862.4614                   23435854.4454
        39.7504         40.0004
  -8076466.80946  -5388489.10843  24154820.6414                   24154808.5234
        39.2504         23.5004
 -12356073.94546  -9563168.60344  23523716.6564                   23523706.2974
        37.7504         29.2504
 -27521193.25748 -21310378.05749  20510438.5554                   20510429.5434
        52.0004         54.7504
 -16171593.68748 -18762595.49549  20865653.5704                   20865644.8524
        52.0004         55.2504
 23  1  1  0 19 30.0000000  0  9G24G23G22G27G08G21G18G10G32
 -13129078.54546 -11141012.57447  22412362.0864                   22412353.8954
        40.7504         43.5004
 -12758449.75847 -11935482.07546  21470723.7504                   21470712.6294
        47.0004         39.0004
  -6675719.84847  -5845392.95244  22468462.6724                   22468452.1374
        42.5004         28.0004
 -11714922.54646  -8967375.32346  23388966.6414                   23388958.7424
        39.2504         38.2504
  -9930670.75546  -7714347.07846  23441392.0554                   23441383.9804
        41.0004         39.5004
  -8158860.68846  -5452692.11043  24139142.3134                   24139129.2584
        40.2504         22.5004
 -12247916.60546  -9478890.19544  23544298.0704                   23544287.8284
        37.5004         26.7504
 -27523292.91348 -21312014.15149  20510039.2974                   20510030.2274
        53.0004         54.7504
 -16211481.73148 -18793677.06649  20858063.1254                   20858054.6414
        51.0004         54.7504
 23  1  1  0 20  0.0000000  0  9G24G23G22G27G08G21G18G10G32
 -13081744.62946 -11104128.99547  22421369.0944                   22421360.9614
        41.2504         43.2504
 -12703623.61247 -11892760.40246  21481156.8054                   21481145.6254
        46.7504         39.5004
  -6755905.44947  -5907875.23344  22453204.0474                   22453193.4534
        42.5004         28.2504
 -11635948.19346  -8905836.87546  23403994.9144                   23403986.5474
        39.2504         38.0004
  -9901109.06546  -7691312.01846  23447018.2194                   23447009.2664
        39.7504         39.7504
  -8241068.38146  -5516750.04343  24123498.1724                   24123486.2304
        39.7504         22.0004
 -12139566.26946  -9394461.35844  23564916.1884                   23564906.4734
        38.5004         27.0004
 -27525115.08348 -21313434.02949  20509692.6804                   20509683.4924
        52.7504         54.7504
 -16250954.85248 -18824435.33449  20850551.7734                   20850543.0554
        51.0004         55.0004
 23  1  1  0 20 30.0000000  0  9G24G23G22G27G08G21G18G10G32
 -13033821.45646 -11066786.26547  22430488.8364                   22430480.0594
        41.5004         43.2504
 -12648551.58047 -11849847.14146  21491636.3444                   21491625.9264
        46.7504         39.5004
  -6835807.08847  -5970136.21144  22437998.8834                   22437988.4064
        43.0004         27.7504
 -11556678.52846  -8844068.31146  23419080.2114                   23419070.9654
        39.7504         38.7504
  -9871041.57446  -7667882.83446  23452739.2584                   23452730.6564
        40.7504         39.7504
  -8323086.27046  -5580660.11843  24107890.5004                   24107878.6764
        40.2504         22.5004
 -12031023.11346  -9309882.30044  23585570.6484                   23585561.3444
        37.0004         26.0004
 -27526657.41748 -21314635.84549  20509399.1334                   20509390.0634
        53.5004         54.7504
 -16290010.99348 -18854868.67749  20843119.5634                   20843110.9024
        51.0004         54.7504
 23  1  1  0 21  0.0000000  0  9G24G23G22G27G08G21G18G10G32
 -12985311.58846 -11028986.36047  22439719.1174                   22439711.3954
        41.2504         43.0004
 -12593234.68847 -11806743.08746  21502162.3834                   21502152.5514
        46.0004         39.0004
  -6915424.50547  -6032175.74844  22422848.7974                   22422838.1454
        42.5004         27.5004
 -11477117.40146  -8782072.63846  23434219.8834                   23434211.7504
        39.0004         39.0004
  -9840471.56346  -7644062.06246  23458555.9844                   23458547.9104
        40.0004         39.5004
  -8404913.25246  -5644421.38943  24092319.8524                   24092307.4414
        40.0004         22.7504
 -11922289.93946  -9225155.15644  23606262.9304                   23606252.6884
        38.2504         27.0004
 -27527920.15448 -21315619.80249  20509158.9304                   20509149.8014
        52.7504         54.7504
 -16328650.83648 -18884977.64249  20835766.4064                   20835757.1604
        51.5004         55.0004
 23  1  1  0 21 30.0000000  0  9G24G23G22G27G08G21G18G10G32
 -12936216.25046 -10990730.27247  22449062.6484                   22449054.3404
        41.2504         43.0004
 -12537672.68947 -11763448.02946  21512735.8364                   21512725.4774
        46.0004         39.2504
  -6994756.27647  -6093992.68844  22407751.9454                   22407742.0554
        42.7504         28.2504
 -11397267.46746  -8719851.92246  23449414.2504                   23449406.5274
        39.2504         38.0004
  -9809399.56046  -7619850.14046  23464468.7894                   23464461.0664
        39.5004         39.7504
  -8486547.54146  -5708032.51143  24076785.0784                   24076772.9614
        39.5004         21.7504
 -11813368.44446  -9140281.28644  23626988.7034                   23626979.3984
        37.0004         26.5004
 -27528902.39648 -21316385.18549  20508971.8524                   20508963.0164
        52.5004         54.7504
 -16366873.84648 -18914761.79949  20828493.0554                   20828483.9844
        51.7504         55.0004
 23  1  1  0 22  0.0000000  0  9G24G23G22G27G08G21G18G10G32
 -12886538.24246 -10952020.13147  22458515.4844                   22458507.3524
        40.0004         43.0004
 -12481866.88047 -11719962.98546  21523355.3834                   21523344.7894
        45.2504         39.0004
  -7073802.23347  -6155586.93844  22392710.5084                   22392699.4454
        42.7504         28.0004
 -11317132.81446  -8657409.33746  23464664.5314                   23464655.6374
        40.2504         38.5004
  -9777828.61146  -7595249.41346  23470476.6484                   23470468.9264
        39.5004         39.7504
  -8567987.40246  -5771492.14643  24061287.4774                   24061275.1844
        39.7504         22.2504
 -11704261.63046  -9055262.99644  23647751.6484                   23647742.0514
        38.0004         26.5004
 -27529604.96548 -21316932.63649  20508838.1254                   20508829.4064
        53.5004         55.0004
 -16404680.96448 -18944221.87149  20821298.7194                   20821289.9414
        51.7504         55.0004
 23  1  1  0 22 30.0000000  0  9G24G23G22G27G08G21G18G10G32
 -12836278.56046 -10912856.75747  22468079.8594                   22468071.3164
        40.0004         42.5004
 -12425816.72847 -11676287.56146  21534020.8914                   21534010.5904
        46.2504         39.2504
  -7152560.81647  -6216957.24144  22377722.8984                   22377712.4224
        42.5004         28.2504
 -11236715.81846  -8594746.75446  23479966.8834                   23479958.2814
        40.5004         38.0004
  -9745759.70146  -7570260.66846  23476579.3984                   23476571.3834
        40.0004         39.2504
  -8649230.08246  -5834798.14843  24045827.5314                   24045815.9414
        39.7504         22.5004
 -11594970.85246  -8970101.38444  23668549.8284                   23668539.0594
        38.7504         26.2504
 -27530026.30948 -21317260.96149  20508758.1724                   20508749.2194
        53.0004         54.7504
 -16442071.33048 -18973357.21249  20814183.3984                   20814174.5044
        51.5004         54.7504
 23  1  1  0 23  0.0000000  0  9G24G23G22G27G08G21G18G10G32
 -12785438.67146 -10873241.24947  22477754.4144                   22477746.2814
        40.5004         42.7504
 -12369522.14747 -11632421.67746  21544733.9224                   21544723.0354
        46.0004         39.0004
  -7231030.65747  -6278102.55044  22362790.2194                   22362779.8014
        42.2504         28.0004
 -11156019.19846  -8531866.30946  23495322.6414                   23495314.2154
        39.2504         38.2504
  -9713194.27946  -7544885.04246  23482776.2344                   23482768.2194
        39.5004         39.0004
  -8730273.66446  -5897948.95943  24030405.3984                   24030393.3404
        40.5004         22.2504
 -11485497.95146  -8884797.81644  23689380.9924                   23689371.2774
        38.5004         25.5004
 -27530165.75248 -21317369.61149  20508731.5474                   20508722.4184
        52.0004         55.0004
 -16479044.57948 -19002167.53149  20807147.7814                   20807138.7114
        51.5004         55.0004
 23  1  1  0 23 30.0000000  0  9G24G23G22G27G08G21G18G10G32
 -12734021.68346 -10833176.06147  22487538.7814                   22487530.1804
        40.0004         42.7504
 -12312984.72447 -11588366.55446  21555492.7114                   21555481.8244
        46.0004         39.0004
  -7309212.18447  -6339023.20944  22347913.2034                   22347902.9614
        42.5004         28.2504
 -11075047.48146  -8468771.45446  23510732.2894                   23510722.8094
        39.7504         38.0004
  -9680135.05846  -7519124.61446  23489067.2974                   23489059.0474
        40.7504         39.2504
  -8811117.56446  -5960944.20343  24015021.6724                   24015009.3204
        40.7504         23.0004
 -11375846.26946  -8799354.99844  23710247.1644                   23710237.2734
        38.2504         25.2504
 -27530023.82048 -21317259.01949  20508758.4064                   20508749.3364
        53.7504         55.0004
 -16515601.96648 -19030653.79449  20800191.0314                   20800182.1954
        52.0004         54.7504
 23  1  1  0 24  0.0000000  0  9G24G23G22G27G08G21G18G10G32
 -12682028.33046 -10792661.76247  22497431.3674                   22497424.8754
        39.0004         42.2504
 -12256203.47547 -11544121.44546  21566297.9614                   21566287.3674
        46.0004         38.7504
  -7387103.21347  -6399717.49644  22333090.9694                   22333080.6094
        43.0004         28.5004
 -10993802.56046  -8405463.74946  23526191.1484                   23526182.9574
        38.5004         38.0004
  -9646583.09046  -7492980.23246  23495452.0704                   23495443.7624
        40.2504         39.2504
  -8891758.55246  -6023781.34844  23999676.1884                   23999663.3674
        41.2504         24.0004
 -11266016.79646  -8713773.59944  23731147.1644                   23731137.0984
        39.0004         25.0004
 -27529599.41848 -21316928.31949  20508839.0004                   20508829.9304
        52.5004         54.7504
 -16551742.32148 -19058815.09949  20793313.5944                   20793304.7584
        50.7504         55.0004
 23  1  1  0 24 30.0000000  0  9G24G23G22G27G08G21G18G10G32
 -12629460.84246 -10751700.10147  22507437.3674                   22507427.6524
        41.2504         42.5004
 -12199179.16547 -11499686.92346  21577149.1804                   21577138.6454
        45.7504         38.7504
  -7464703.29447  -6460185.08144  22318323.8914                   22318313.8244
        42.0004         28.0004
 -10912287.96046  -8341945.88946  23541704.0314                   23541695.2544
        39.7504         38.0004
  -9612540.72446  -7466453.71546  23501930.5164                   23501922.0314
        39.7504         39.2504
  -8972194.80746  -6086458.93244  23984369.1724                   23984357.4654
        39.5004         24.2504
 -11156012.01246  -8628055.58544  23752078.3284                   23752069.9024
        37.5004         25.5004
 -27528892.30348 -21316377.32849  20508973.7274                   20508964.7734
        53.7504         54.7504
 -16587466.02848 -19086651.74949  20786515.6724                   20786506.7774
        51.7504         55.0004
 23  1  1  0 25  0.0000000  0  9G24G23G22G27G08G21G18G10G32
 -12576321.11646 -10710292.50647  22517547.6804                   22517539.6644
        39.5004         42.5004
 -12141911.98847 -11455063.16346  21588047.2344                   21588036.1724
        46.0004         38.7504
  -7542011.55947  -6520425.25544  22303612.8204                   22303602.3444
        43.0004         28.7504
 -10830506.78346  -8278220.31446  23557265.1484                   23557257.3674
        38.2504         37.5004
  -9578009.55146  -7439546.32646  23508501.2734                   23508493.1414
        40.5004         39.2504
  -9052424.70046  -6148975.73044  23969101.9844                   23969089.9264
        40.0004         24.2504
 -11045834.09346  -8542202.67644  23773046.2114                   23773036.2034
        37.7504         25.5004
 -27527901.74849 -21315605.46549  20509162.2034                   20509153.2504
        54.7504         55.0004
 -16622773.07748 -19114163.71949  20779796.9694                   20779787.9574
        52.2504         54.7504
 23  1  1  0 25 30.0000000  0  9G24G23G22G27G08G21G18G10G32
 -12522610.23146 -10668439.87247  22527769.5944                   22527761.0514
        40.2504         42.0004
 -12084401.39047 -11410249.71546  21598990.6254                   21598980.1484
        46.0004         38.5004
  -7619026.00947  -6580436.51644  22288957.4774                   22288947.7624
        43.2504         29.5004
 -10748461.41846  -8214288.88846  23572878.7894                   23572870.0704
        39.0004         37.2504
  -9542990.52346  -7412258.78546  23515164.2424                   23515156.5784
        40.5004         39.0004
  -9132445.80846  -6211329.82944  23953875.6174                   23953862.7384
        41.7504         24.2504
 -10935484.25046  -8456215.82244  23794045.4064                   23794035.3984
        39.0004         25.2504
 -27526626.68848 -21314611.91549  20509404.8054                   20509395.7934
        53.0004         55.2504
 -16657662.70748 -19141350.43549  20773157.7504                   20773148.7974
        51.7504         55.0004
 23  1  1  0 26  0.0000000  0  9G24G23G22G27G08G21G18G10G32
 -12468330.42446 -10626143.92947  22538096.8054                   22538089.8444
        38.2504         42.0004
 -12026647.91447 -11365247.01246  21609980.8204                   21609970.5204
        45.5004         38.5004
  -7695746.41247  -6640218.63144  22274356.9924                   22274347.4534
        43.7504         29.0004
 -10666155.25446  -8150154.22246  23588539.8984                   23588532.2344
        37.7504         37.0004
  -9507486.09346  -7384593.00946  23521921.5784                   23521913.3874
        41.5004         39.2504
  -9212256.23746  -6273519.76744  23938686.7344                   23938674.9104
        41.2504         25.2504
 -10824965.03246  -8370096.98244  23815076.8754                   23815066.1054
        39.2504         24.5004
 -27525066.70448 -21313396.34949  20509701.6484                   20509692.5784
        52.5004         55.0004
 -16692135.18248 -19168212.10049  20766597.9384                   20766588.8094
        52.0004         55.0004
 23  1  1  0 26 30.0000000  0  9G24G23G22G27G08G21G18G10G32
 -12413484.04646 -10583406.49647  22548535.6024                   22548526.5904
        41.0004         42.2504
 -11968652.35747 -11320055.68346  21621016.7734                   21621006.1804
        45.5004         38.7504
  -7772172.04747  -6699771.05344  22259814.9144                   22259804.2034
        44.0004         29.7504
 -10583591.91146  -8085819.17646  23604252.5474                   23604244.0044
        40.2504         36.7504
  -9471498.79447  -7356550.96646  23528769.9614                   23528761.4774
        42.5004         39.2504
  -9291854.09746  -6335544.06344  23923540.5164                   23923528.1644
        41.7504         24.5004
 -10714278.92746  -8283848.10244  23836138.9384                   23836129.4574
        37.5004         24.0004
 -27523222.19048 -21311959.06249  20510052.8364                   20510043.8244
        53.0004         54.7504
 -16726191.00748 -19194749.09949  20760116.8834                   20760108.3404
        52.0004         54.7504
 23  1  1  0 27  0.0000000  0  9G24G23G22G27G08G21G18G10G32
 -12358073.94046 -10540229.75747  22559079.3834                   22559070.7814
        40.2504         42.0004
 -11910415.65547 -11274676.46246  21632099.0004                   21632088.6994
        45.5004         38.5004
  -7848302.65847  -6759093.59545  22245326.9844                   22245316.6844
        44.2504         30.0004
 -10500775.29946  -8021286.74146  23620011.1254                   23620003.3444
        37.7504         36.5004
  -9435030.86246  -7328134.40146  23535709.6484                   23535701.5164
        41.2504         39.5004
  -9371238.43746  -6397401.97844  23908434.1484                   23908422.0314
        41.5004         25.2504
 -10603428.90446  -8197471.43443  23857231.9614                   23857223.5354
        36.2504         22.5004
 -27521093.13648 -21310300.05949  20510457.7584                   20510448.9804
        53.0004         55.0004
 -16759831.03048 -19220962.09249  20753715.7114                   20753706.7584
        52.0004         54.7504
 23  1  1  0 27 30.0000000  0 10G24G23G22G27G08G21G18G10G31G32
 -12302099.42946 -10496613.27346  22569730.6334                   22569722.5004
        39.7504         41.7504
 -11851935.52447 -11229107.53146  21643227.8524                   21643216.9654
        46.2504         38.5004
  -7924135.02847  -6818183.73545  22230897.3834                   22230886.5554
        44.5004         30.5004
 -10417705.94146  -7956557.42146  23635819.7504                   23635810.6804
        38.2504         36.7504
  -9398081.98946  -7299343.09646  23542740.8284                   23542732.1094
        41.5004         39.0004
  -9450405.33646  -6459090.46144  23893369.9384                   23893357.0004
        41.5004         26.2504
 -10492414.41646  -8110966.64743  23878357.5004                   23878348.9574
        36.2504         22.5004
 -27518676.55249 -21308417.01049  20510917.5784                   20510908.7424
        54.5004         55.0004
    430275.40655    369265.65155  25311646.1024                   25311635.8014
        35.7504         30.5004
 -16793052.71848 -19246849.11849  20747394.0314                   20747384.9614
        52.0004         55.0004
 23  1  1  0 28  0.0000000  0 10G24G23G22G27G08G21G18G10G31G32
 -12245564.81746 -10452560.32746  22580489.2114                   22580480.9024
        39.0004         41.7504
 -11793214.52247 -11183350.90746  21654401.7274                   21654390.8984
        45.5004         38.0004
  -7999670.50047  -6877042.53145  22216523.1414                   22216512.6054
        43.7504         31.0004
 -10334389.36446  -7891635.40446  23651673.5474                   23651665.5904
        37.7504         36.5004
  -9360656.24946  -7270180.20846  23549862.2114                   23549854.5474
        41.7504         39.2504
  -9529354.52546  -6520609.30244  23878345.5164                   23878333.6914
        41.2504         25.7504
 -10381240.00746  -8024337.28143  23899514.4384                   23899504.7814
        37.0004         22.7504
 -27515974.21049 -21306311.29249  20511431.7734                   20511423.0554
        54.5004         54.7504
    312422.92755    277432.61854  25289219.5474                   25289209.6564
        33.5004         28.0004
 -16825858.38348 -19272411.97249  20741151.1254                   20741142.1134
        51.7504         54.7504
 23  1  1  0 28 30.0000000  0 10G24G23G22G27G08G21G18G10G31G32
 -12188473.76446 -10408073.79946  22591354.0164                   22591344.9454
        40.2504         41.7504
 -11734254.52147 -11137408.06846  21665620.9454                   21665610.6454
        45.5004         38.0004
  -8074909.90247  -6935670.62745  22202205.4924                   22202194.7814
        44.5004         30.7504
 -10250830.17946  -7826524.37245  23667574.0554                   23667565.9224
        37.0004         35.0004
  -9322757.00647  -7240648.33546  23557074.0394                   23557066.1994
        42.0004         39.2504
  -9608086.09747  -6581958.57744  23863363.2504                   23863351.1334
        42.0004         25.0004
 -10269909.32146  -7937586.13343  23920699.7504                   23920689.9184
        37.5004         22.7504
 -27512987.20148 -21303983.75749  20512000.4384                   20511991.4264
        53.7504         55.0004
    194475.90945    185525.61745  25266774.3754                   25266766.3014
        30.7504         32.2504
 -16858249.77648 -19297652.00149  20734987.0164                   20734978.1804
        52.0004         55.0004
 23  1  1  0 29  0.0000000  0 10G24G23G22G27G08G21G18G10G31G32
 -12130823.37646 -10363151.38646  22602323.6724                   22602315.2464
        39.0004         41.5004
 -11675050.84947 -11091275.34846  21676887.8364                   21676876.6564
        45.5004         38.5004
  -8149847.35647  -6994063.43245  22187945.6414                   22187934.6374
        44.5004         30.7504
 -10167026.71746  -7761222.97445  23683522.7194                   23683513.8834
        38.7504         35.5004
  -9284381.91347  -7210745.68346  23564376.0394                   23564368.6094
        42.2504         38.5004
  -9686592.99046  -6643132.75544  23848423.9224                   23848412.0394
        41.2504         26.0004
 -10158419.65146  -7850711.06843  23941914.8594                   23941906.2584
        37.0004         22.0004
 -27509710.34648 -21301430.36549  20512623.8914                   20512615.2304
        53.0004         55.0004
     76441.90645     93551.20045  25244312.9224                   25244305.4344
        32.0004         31.5004
 -16890222.00948 -19322565.42649  20728903.1954                   20728894.3594
        51.5004         54.7504
 23  1  1  0 29 30.0000000  0 10G24G23G22G27G08G21G18G10G31G32
 -12072617.78846 -10317796.39646  22613400.0004                   22613391.5164
        40.0004         41.5004
 -11615605.91447 -11044954.63646  21688199.5864                   21688189.4024
        46.0004         38.5004
  -8224484.00747  -7052221.84745  22173742.5554                   22173732.4304
        43.7504         30.5004
 -10082984.16446  -7695735.32245  23699514.2034                   23699506.3054
        37.0004         34.2504
  -9245534.90447  -7180475.32046  23571769.4064                   23571761.1564
        43.0004         38.7504
  -9764874.67546  -6704131.47344  23833527.4304                   23833515.0204
        40.7504         24.5004
 -10046775.22246  -7763715.38343  23963161.9064                   23963151.3714
        37.7504         22.5004
 -27506144.83648 -21298652.04749  20513302.4064                   20513293.2774
        53.0004         54.7504
    -41678.62356      1509.19755  25221839.2114                   25221826.0984
        37.0004         31.2504
 -16921777.31948 -19347153.96449  20722898.3444                   20722889.4494
        52.2504         54.7504
 23  1  1  0 30  0.0000000  0 10G24G23G22G27G08G21G18G10G31G32
 -12013859.99846 -10272011.09646  22624580.0864                   22624572.6564
        39.2504         41.5004
 -11555920.80847 -10998446.76346  21699557.2504                   21699546.3054
        46.0004         38.2504
  -8298820.12147  -7110146.06945  22159596.9534                   22159586.4184
        44.2504         31.5004
  -9998706.64346  -7630064.50245  23715552.2034                   23715543.7194
        37.5004         34.7504
  -9206218.59547  -7149839.24146  23579250.8444                   23579242.6524
        42.5004         39.0004
  -9842930.58046  -6764954.23344  23818673.2424                   23818661.8284
        40.7504         25.0004
  -9934978.98946  -7676601.49443  23984434.2344                   23984425.3404
        37.5004         22.2504
 -27502291.61348 -21295649.54549  20514035.5554                   20514026.7194
        53.5004         55.0004
   -159884.07145    -90598.99645  25199343.8134                   25199334.6844
        34.0004         32.5004
 -16952916.64648 -19371418.37349  20716972.8134                   20716963.5664
        52.0004         55.0004
 23  1  1  0 30 30.0000000  0 10G24G23G22G27G08G21G18G10G31G32
 -11954551.55746 -10225796.74647  22635867.2894                   22635858.3364
        39.0004         42.0004
 -11495995.31747 -10951751.59046  21710960.6884                   21710949.6254
        45.5004         38.0004
  -8372854.30347  -7167835.03845  22145508.9304                   22145498.3364
        45.0004         31.7504
  -9914196.73746  -7564212.66645  23731633.7114                   23731625.9884
        37.2504         34.2504
  -9166434.47247  -7118838.64446  23586821.7584                   23586813.0984
        42.5004         38.7504
  -9920759.17046  -6825599.86544  23803863.4534                   23803851.5704
        41.5004         26.0004
  -9823032.67246  -7589370.57743  24005736.7194                   24005728.1174
        36.0004         22.5004
 -27498149.49348 -21292421.91449  20514823.7274                   20514815.0664
        53.7504         55.0004
   -278171.62245   -182771.10445  25176836.3364                   25176824.3364
        34.5004         31.0004
 -16983639.66548 -19395358.38149  20711126.1644                   20711117.5044
        52.2504         55.0004
 23  1  1  0 31  0.0000000  0 10G24G23G22G27G08G21G18G10G31G32
 -11894693.83446 -10179154.34746  22647256.8754                   22647248.3324
        38.7504         41.0004
 -11435828.98447 -10904868.75946  21722409.9694                   21722399.1414
        46.0004         38.5004
  -8446585.04647  -7225287.53745  22131478.6804                   22131467.8524
        45.0004         31.5004
  -9829456.84946  -7498181.59045  23747759.5394                   23747750.7624
        37.2504         34.5004
  -9126184.25047  -7087474.86946  23594480.5084                   23594472.2584
        42.5004         38.5004
  -9998356.71946  -6886065.48744  23789096.5004                   23789084.7344
        41.0004         25.2504
  -9710937.66646  -7502023.83943  24027068.3754                   24027059.5984
        37.2504         23.0004
 -27493717.00848 -21288968.03149  20515667.3594                   20515658.4064
        53.5004         54.7504
   -396537.66846   -275004.47544  25154312.6804                   25154297.9264
        36.7504         28.0004
 -17013945.77048 -19418973.51549  20705359.2584                   20705350.6564
        53.2504         54.7504
 23  1  1  0 31 30.0000000  0 11G24G23G22G27G08G21G18G10G31G01G32
 -11834288.23246 -10132085.04646  22658752.8754                   22658743.8634
        39.7504         41.2504
 -11375421.30847 -10857797.85746  21733905.4144                   21733894.4104
        46.2504         38.7504
  -8520010.71947  -7282502.33645  22117505.7974                   22117495.4964
        44.5004         30.5004
  -9744489.39946  -7431973.19445  23763928.7734                   23763920.1724
        37.5004         34.0004
  -9085469.22047  -7055748.88746  23602228.3284                   23602220.8404
        42.7504         38.2504
 -10075720.60946  -6946349.05044  23774375.0784                   23774363.1954
        41.0004         26.0004
  -9598695.34846  -7414562.30843  24048429.0394                   24048418.0354
        38.5004         23.0004
 -27488993.10648 -21285287.07149  20516566.0864                   20516557.4264
        53.0004         55.0004
                                  25131773.3204                   25131761.4964
        37.7504         30.7504
                                  25361754.633
        33.000
 -17043834.33248 -19442263.29449  20699671.7194                   20699662.8834
        52.0004         54.7504
 23  1  1  0 32  0.0000000  0 11G24G23G22G27G08G21G18G10G31G01G32
 -11773342.39646 -10084594.78046  22670348.9614                   22670342.0004
        38.7504         41.0004
 -11314778.03047 -10810543.36646  21745444.8754                   21745434.2234
        46.0004         37.7504
  -8593135.94247  -7339483.00645  22103590.7344                   22103579.8484
        45.2504         32.0004
  -9659302.99146  -7365594.20045  23780138.7034                   23780130.7464
        37.5004         34.0004
  -9044296.92747  -7023666.61246  23610063.4144                   23610055.5744
        42.2504         38.2504
 -10152854.58446  -7006453.44144  23759696.7194                   23759685.6564
        40.5004         25.2504
  -9486313.32946  -7326991.95243  24069814.2114                   24069803.6764
        39.2504         22.5004
 -27483982.98048 -21281383.08749  20517519.5234                   20517510.5704
        53.0004         55.0004
   -633500.53655   -442493.39355  25109214.4384                   25109208.1214
        33.0004         30.5004
    383751.74944    392981.02152  25340265.7504                   25340259.0824
        29.0004         16.7504
 -17073311.00348 -19465232.12449  20694062.6884                   20694053.5594
        52.7504         54.7504
 23  1  1  0 32 30.0000000  0 11G24G23G22G27G08G21G18G10G31G01G32
 -11711852.57546 -10036680.65346  22682051.9844                   22682043.1484
        39.7504         41.0004
 -11253893.52547 -10763100.90546  21757031.3134                   21757020.6024
        46.0004         38.0004
  -8665954.02847  -7396224.36445  22089733.6254                   22089723.1484
        44.5004         31.0004
  -9573895.00446  -7299042.53445  23796391.5164                   23796382.5634
        37.2504         33.2504
  -9002663.28747  -6991224.84946  23617986.3914                   23617978.2584
        42.5004         38.0004
 -10229750.46846  -7066372.30244  23745064.3984                   23745052.2234
        41.5004         25.2504
  -9373787.97946  -7239309.85443  24091226.7344                   24091216.5514
        38.2504         22.5004
 -27478679.91348 -21277250.82649  20518528.7734                   20518519.9964
        53.2504         55.0004
   -752089.60345   -534900.47945  25086651.4774                   25086639.1844
        34.5004         32.0004
                                  25318792.9304                   25318785.9104
        29.2504         15.5004
 -17102370.03648 -19487875.52449  20688532.5084                   20688523.3794
        52.0004         54.7504
 23  1  1  0 33  0.0000000  0 11G24G23G22G27G08G21G18G10G31G01G32
 -11649822.78446  -9988345.74046  22693855.1414                   22693846.1884
        39.2504         41.0004
 -11192769.87547 -10715472.10446  21768662.2344                   21768652.1094
        45.7504         38.0004
  -8738465.82047  -7452727.03745  22075935.0234                   22075924.3714
        45.0004         31.0004
  -9488270.23246  -7232321.96445  23812685.6174                   23812676.6644
        37.5004         34.0004
  -8960572.36847  -6958426.75646  23625995.6024                   23625987.6454
        42.7504         38.0004
 -10306408.70046  -7126106.00044  23730476.0634                   23730465.0004
        41.2504         26.2504
  -9261123.16246  -7151519.10244  24112666.7114                   24112656.3524
        38.5004         25.0004
 -27473085.28648 -21272891.37949  20519593.6334                   20519584.5634
        53.0004         54.7504
   -870747.49445   -627361.14945  25064071.0784                   25064060.1334
        35.7504         31.5004
    158130.89245    217172.55642  25297332.9064                   25297325.5944
        31.0004         14.7504
 -17131013.42548 -19510195.03649  20683081.8524                   20683072.8984
        51.5004         55.0004
 23  1  1  0 33 30.0000000  0 11G24G23G22G27G08G21G18G10G31G01G32
 -11587254.07146  -9939590.89546  22705761.0864                   22705752.6604
        38.7504         41.0004
 -11131406.27147 -10667656.30646  21780339.8134                   21780329.2774
        45.5004         37.7504
  -8810669.88947  -7508989.92845  22062195.1724                   22062184.2854
        44.5004         30.7504
  -9402430.91146  -7165434.19145  23829019.8204                   23829011.7464
        36.7504         34.2504
  -8918025.12547  -6925273.07346  23634092.3204                   23634084.2464
        42.5004         37.5004
 -10382825.92346  -7185651.87444  23715934.8204                   23715923.8754
        41.2504         25.5004
  -9148319.99746  -7063620.54143  24134131.3674                   24134121.4184
        38.7504         23.0004
 -27467197.53848 -21268303.53049  20520713.8134                   20520704.9774
        52.2504         54.7504
   -989470.21746   -719872.35445  25041479.6024                   25041468.0704
        37.0004         32.2504
                                  25275886.2894                   25275880.2074
        30.7504         15.5004
 -17159240.30148 -19532189.98949  20677710.7734                   20677701.7624
        52.5004         55.0004
 23  1  1  0 34  0.0000000  0 11G24G23G22G27G08G21G18G10G31G01G32
 -11524151.02746  -9890419.70446  22717769.6954                   22717761.2704
        39.0004         40.7504
 -11069805.30447 -10619655.55346  21792062.2974                   21792051.5864
        45.0004         37.7504
  -8882567.97447  -7565014.38845  22048513.5634                   22048502.9104
        45.2504         31.5004
  -9316382.37346  -7098383.40445  23845394.9844                   23845385.8554
        37.0004         34.0004
  -8875026.80047  -6891767.92846  23642274.4844                   23642266.3524
        43.0004         37.5004
 -10459002.17846  -7245010.02044  23701438.0004                   23701426.8204
        41.2504         25.5004
  -9035382.88846  -6975617.62643  24155622.7344                   24155613.1374
        37.5004         22.7504
 -27461018.85348 -21263488.97249  20521889.4534                   20521880.5004
        52.5004         54.7504
  -1108257.67446   -812434.04545  25018874.7034                   25018863.1724
        36.5004         31.5004
    -67191.27145     41596.77942  25254454.9534                   25254447.8754
        31.0004         16.7504
 -17187053.10448 -19553862.29649  20672417.8914                   20672408.9384
        51.5004         54.7504
 23  1  1  0 34 30.0000000  0 11G24G23G22G27G08G21G18G10G31G01G32
 -11460513.20146  -9840831.77846  22729879.6564                   22729871.0554
        39.2504         41.0004
 -11007964.53647 -10571467.95146  21803829.5554                   21803819.0204
        45.0004         37.5004
  -8954156.10247  -7620797.32745  22034889.9384                   22034879.9884
        44.2504         30.7504
  -9230125.14346  -7031169.97145  23861808.7274                   23861800.5354
        37.5004         34.0004
  -8831575.92447  -6857910.12546  23650545.2114                   23650535.2624
        43.7504         38.0004
 -10534933.49546  -7304177.27044  23686990.6414                   23686978.4064
        41.2504         27.5004
  -8922311.41446  -6887510.00344  24177140.5474                   24177129.9534
        39.2504         24.7504
 -27454545.72948 -21258444.99149  20523121.3914                   20523112.3204
        53.5004         54.7504
  -1227104.79445   -905042.25145  24996255.7424                   24996246.9064
        33.0004         30.7504
                                  25233038.953
        28.000
 -17214449.40648 -19575210.05549  20667204.4384                   20667195.6604
        52.5004         54.7504
 23  1  1  0 35  0.0000000  0 11G24G23G22G27G08G21G18G10G31G01G32
 -11396345.69246  -9790831.11946  22742089.2034                   22742081.5984
        38.7504         40.2504
 -10945887.17047 -10523095.99546  21815643.1334                   21815632.5984
        45.5004         37.5004
  -9025436.33647  -7676340.35445  22021326.4924                   22021315.8404
        45.2504         31.2504
  -9143665.21446  -6963798.64645  23878261.4694                   23878253.2194
        37.2504         33.5004
  -8787678.10447  -6823704.05446  23658896.8524                   23658889.0124
        43.7504         37.2504
 -10610620.16847  -7363153.90444  23672587.3754                   23672575.6684
        42.0004         26.5004
  -8809110.51146  -6799301.53843  24198681.0394                   24198670.6804
        38.2504         22.7504
 -27447780.24348 -21253173.18749  20524408.6094                   20524400.0084
        52.7504         54.7504
  -1346011.82145   -997697.09045  24973631.1094                   24973620.3404
        35.7504         31.5004
   -292196.88355    -37993.31552  25211636.0084                   25211629.0474
        31.2504         17.2504
 -17241432.29548 -19596235.67449  20662069.8524                   20662060.9574
        52.0004         55.0004
 23  1  1  0 35 30.0000000  0 10G24G23G22G27G08G21G18G10G31G32
 -11331646.80046  -9740416.39146  22754400.7814                   22754393.0594
        38.0004         40.5004
 -10883569.55847 -10474536.81846  21827501.5634                   21827490.7344
        45.0004         37.0004
  -9096404.09247  -7731639.88245  22007821.3674                   22007811.1254
        44.5004         31.0004
  -9057001.96046  -6896268.83345  23894753.4224                   23894744.2344
        37.2504         33.5004
  -8743331.33747  -6789148.16846  23667335.4694                   23667327.8634
        42.5004         37.0004
 -10686056.65346  -7421935.57144  23658232.1484                   23658220.0904
        41.5004         26.0004
  -8695778.56846  -6710990.93444  24220247.6804                   24220237.7894
        38.5004         24.0004
 -27440718.56148 -21247670.58549  20525752.5864                   20525743.6334
        51.2504         54.7504
  -1464972.06645  -1090393.41645  24950991.0634                   24950982.5784
        32.5004         31.2504
 -17267998.13648 -19616936.32749  20657014.7664                   20657005.5784
        51.5004         54.7504
 23  1  1  0 36  0.0000000  0 11G24G23G22G27G08G21G18G10G31G01G32
 -11266422.71846  -9689592.42746  22766814.4384                   22766805.3674
        39.7504         40.2504
 -10821015.79547 -10425793.62446  21839404.9924                   21839394.5744
        44.5004         37.0004
  -9167062.29647  -7786698.20945  21994376.3134                   21994365.0164
        44.2504         31.7504
  -8970142.17246  -6828585.89845  23911281.1094                   23911274.2664
        36.0004         33.7504
  -8698541.76347  -6754247.22746  23675859.0164                   23675849.8874
        42.5004         37.0004
 -10761245.01046  -7480523.90444  23643925.2504                   23643912.8984
        41.5004         27.2504
  -8582321.40046  -6622582.81344  24241837.9534                   24241827.9454
        39.0004         24.0004
 -27433363.52548 -21241939.39149  20527152.1334                   20527143.2384
        52.2504         55.0004
  -1583986.43745  -1183131.93145  24928345.8364                   24928335.1844
        34.2504         32.0004
                                  25168884.9534                   25168877.5824
        30.5004         17.2504
 -17294150.88948 -19637315.09249  20652037.9844                   20652028.6804
        52.0004         55.0004
 23  1  1  0 36 30.0000000  0 11G24G23G22G27G08G21G18G10G31G01G32
 -11200674.11146  -9638359.75245  22779323.9144                   22779316.9534
        36.5004         33.0004
 -10758224.52747 -10376865.37846  21851352.9304                   21851343.2154
        44.5004         36.7504
  -9237409.25247  -7841513.99645  21980988.4384                   21980978.1374
        44.5004         30.7504
  -8883087.53546  -6760751.16445  23927847.8444                   23927838.6564
        37.7504         33.0004
  -8653309.90046  -6719001.62046  23684465.7424                   23684457.6094
        41.5004         36.5004
 -10836181.19547  -7538915.70944  23629664.6484                   23629652.8244
        42.0004         26.5004
  -8468739.74746  -6534077.60443  24263450.9924                   24263442.0394
        38.2504         22.5004
 -27425713.60948 -21235978.42249  20528607.8524                   20528599.1914
        51.7504         55.0004
  -1703050.83546  -1275909.36745  24905689.6334                   24905678.2194
        36.5004         32.0004
                                  25147531.8674                   25147526.6644
        30.5004         17.7504
 -17319889.29448 -19657370.98049  20647140.0004                   20647130.8714
        52.0004         54.7504
 23  1  1  0 37  0.0000000  0 11G24G23G22G27G08G21G18G10G31G01G32
 -11134403.62346  -9586720.41844  22791937.1414                   22791927.4264
        39.0004         28.7504
 -10695196.42447 -10327752.58746  21863347.5004                   21863337.3754
        44.7504         36.7504
  -9307444.41247  -7896086.83745  21967661.8594                   21967651.3244
        44.0004         32.0004
  -8795841.47446  -6692767.21845  23944449.0704                   23944441.2304
        36.0004         33.0004
  -8607638.88146  -6683413.83146  23693156.9924                   23693148.5664
        41.7504         36.2504
 -10910863.72047  -7597109.89944  23615453.2194                   23615440.5164
        42.2504         27.5004
  -8355035.99746  -6445477.33144  24285089.7274                   24285079.0164
        39.5004         24.5004
 -27417768.31248 -21229787.28349  20530119.9844                   20530110.9734
        53.0004         54.7504
  -1822162.92445  -1368723.99345  24883021.6024                   24883011.7114
        34.0004         31.5004
                                  25126197.9844                   25126190.2624
        31.5004         17.7504
 -17345213.93748 -19677104.46149  20642321.0474                   20642311.8014
        52.5004         54.7504
 23  1  1  0 37 30.0000000  0 11G24G23G22G27G08G21G18G10G31G01G32
 -11067613.40846  -9534676.09244  22804645.4224                   22804637.4654
        38.0004         28.2504
 -10631931.55147 -10278455.28346  21875386.5944                   21875376.2934
        45.0004         36.7504
  -9377166.78747  -7950415.93345  21954394.2194                   21954383.6254
        44.5004         31.0004
  -8708407.03645  -6624636.49845  23961087.3984                   23961080.3794
        35.5004         32.5004
  -8561530.07647  -6647484.90946  23701931.1724                   23701923.2734
        42.0004         36.7504
 -10985290.61546  -7655104.89344  23601290.0864                   23601278.1454
        41.7504         27.0004
  -8241212.21846  -6356783.51443  24306747.9454                   24306738.4064
        39.0004         23.2504
 -27409526.88448 -21223365.40149  20531688.2974                   20531679.2854
        51.7504         54.7504
  -1941320.02145  -1461573.71845  24860347.4774                   24860336.5904
        35.5004         32.5004
                                  25104880.8754                   25104874.7934
        31.2504         17.2504
 -17370124.88548 -19696515.57349  20637580.6174                   20637571.1954
        51.5004         54.7504
 23  1  1  0 38  0.0000000  0 11G24G23G22G27G08G21G18G10G31G01G32
 -11000308.07146  -9482230.39644  22817454.3204                   22817444.6054
        38.7504         28.5004
 -10568432.47047 -10228975.49346  21887469.6174                   21887459.3754
        44.2504         36.7504
  -9446577.80147  -8004502.42745  21941185.2974                   21941175.2894
        45.0004         31.2504
  -8620789.58745  -6556363.18545  23977759.8204                   23977752.3914
        35.5004         32.5004
  -8514988.23246  -6611218.55646  23710787.8914                   23710780.4024
        41.5004         36.2504
 -11059462.40546  -7712901.09244  23587175.1254                   23587163.8874
        40.5004         27.5004
  -8127272.79446  -6267999.55044  24328431.1094                   24328421.1604
        38.5004         25.0004
 -27400991.33948 -21216714.33149  20533312.5234                   20533303.5124
        52.2504         54.7504
  -2060521.57445  -1554458.06345  24837664.9924                   24837653.4024
        35.7504         33.0004
   -965139.17355   -452384.09652  25083583.2664                   25083575.8364
        32.5004         15.5004
 -17394624.69648 -19715606.33649  20632918.4064                   20632908.9844
        51.7504         54.7504
 23  1  1  0 38 30.0000000  0 11G24G23G22G27G08G21G18G10G31G01G32
 -10932482.25146  -9429379.09244  22830359.7734                   22830351.6994
        38.5004         28.7504
 -10504691.81347 -10179307.45846  21899599.4774                   21899589.0004
        45.0004         36.7504
  -9515669.21347  -8058339.88345  21928038.0944                   21928027.5004
        44.5004         31.7504
  -8532984.66946  -6487943.76545  23994471.2504                   23994461.4184
        37.0004         33.2504
  -8468007.99946  -6574610.61645  23719728.4534                   23719719.7344
        41.7504         35.5004
 -11133369.44446  -7770490.98744  23573112.0474                   23573099.5204
        41.2504         26.7504
  -8013212.27946  -6179121.26744  24350135.0314                   24350125.8444
        38.5004         25.2504
 -27392153.40248 -21209827.63549  20534994.0864                   20534985.3094
        52.5004         54.7504
  -2179757.19345  -1647368.93145  24814973.6414                   24814963.5164
        35.0004         32.5004
                                  25062304.0554                   25062297.0354
        29.7504         16.2504
 -17418705.99948 -19734370.97649  20628335.9064                   20628326.6604
        52.7504         54.7504
 23  1  1  0 39  0.0000000  0 11G24G23G22G27G08G21G18G10G31G01G32
 -10864148.11846  -9376131.71044  22843363.7344                   22843355.7194
        38.2504         28.0004
 -10440719.60447 -10129459.00046  21911773.5474                   21911762.5434
        45.0004         37.2504
  -9584450.07847  -8111935.33945  21914949.2194                   21914939.0354
        44.7504         32.5004
  -8445005.11345  -6419388.30245  24011211.0704                   24011204.1094
        34.5004         33.0004
  -8420601.41647  -6537670.41045  23728749.8754                   23728740.6294
        42.2504         35.5004
 -11207018.96146  -7827880.22844  23559095.8594                   23559085.1484
        40.5004         26.7504
  -7899042.52946  -6090157.83343  24371860.7894                   24371852.1294
        38.2504         22.7504
 -27383022.19748 -21202712.41449  20536731.8444                   20536722.8324
        51.0004         55.0004
  -2299033.92045  -1740311.86145  24792276.9614                   24792266.0164
        35.5004         31.7504
  -2764109.22355  -1833317.79652  25041043.1724                   25041033.5164
        30.7504         16.2504
 -17442378.83248 -19752817.33649  20623831.1884                   20623821.9414
        51.5004         55.0004
 23  1  1  0 39 30.0000000  0 11G24G23G22G27G08G21G18G10G31G01G32
 -10795300.33946  -9322484.08444  22856465.9304                   22856456.4494
        39.0004         28.2504
 -10376508.48547 -10079424.37746  21923992.1724                   21923981.4614
        44.2504         36.2504
  -9652912.12247  -8165282.38045  21901921.4774                   21901910.8834
        44.7504         32.2504
  -8356846.34145  -6350693.17345  24027987.5164                   24027979.1484
        35.5004         31.7504
  -8372763.07846  -6500393.78545  23737852.9924                   23737843.5704
        41.7504         35.2504
 -11280402.02046  -7885061.82444  23545131.9534                   23545120.2464
        40.7504         26.5004
  -7784758.12146  -6001105.08243  24393609.7034                   24393599.5204
        39.0004         23.7504
 -27373589.80248 -21195362.50849  20538526.8914                   20538517.7624
        51.0004         54.7504
  -2418341.47046  -1833278.78545  24769574.3204                   24769562.7894
        37.0004         33.0004
                                  25019801.7274                   25019794.5904
        31.0004         16.7504
 -17465635.84948 -19770939.68749  20619405.5554                   20619396.4844
        51.5004         55.0004
 23  1  1  0 40  0.0000000  0 11G24G23G22G27G08G21G18G10G31G01G32
 -10725946.34746  -9268442.01244  22869663.8754                   22869654.3364
        38.5004         28.0004
 -10312063.62147 -10029207.63546  21936255.2194                   21936245.0354
        44.5004         36.2504
  -9721059.37047  -8218384.11145  21888953.7034                   21888943.0514
        45.0004         32.7504
  -8268516.61145  -6281864.78945  24044795.1484                   24044788.8914
        33.5004         33.0004
  -8324500.53846  -6462786.62745  23747036.1564                   23747028.7854
        41.2504         35.5004
 -11353521.22546  -7942037.83244  23531217.3834                   23531205.9104
        41.0004         26.7504
  -7670366.12546  -5911968.47044  24415376.0394                   24415368.0824
        37.2504         24.7504
 -27363860.46148 -21187781.20249  20540378.0864                   20540369.0744
        52.5004         54.7504
  -2537681.97946  -1926271.37245  24746863.1334                   24746852.8324
        36.5004         32.2504
                                  24998578.3984                   24998573.7274
        29.2504         14.7504
 -17488482.29748 -19788742.09949  20615058.0084                   20615048.4104
        52.5004         54.7504
 23  1  1  0 40 30.0000000  0 11G24G23G22G27G08G21G18G10G31G01G32
 -10656086.34946  -9214005.64344  22882957.0084                   22882948.2304
        38.0004         26.7504
 -10247383.26647  -9978807.38246  21948563.8594                   21948553.3834
        44.5004         36.7504
  -9788889.30847  -8271238.58445  21876046.0704                   21876035.4774
        45.2504         33.0004
  -8180016.89246  -6212904.02245  24061638.6564                   24061629.8204
        36.7504         32.0004
  -8275814.17246  -6424849.23045  23756300.9694                   23756294.4184
        41.2504         35.5004
 -11426372.17746  -7998804.79344  23517355.2114                   23517343.1524
        41.5004         27.7504
  -7555866.61146  -5822748.12044  24437166.9694                   24437155.9654
        38.7504         24.5004
 -27353831.82748 -21179966.68149  20542286.5704                   20542277.3244
        52.0004         54.7504
  -2657050.45446  -2019285.77945  24724149.2114                   24724137.7384
        37.2504         32.7504
                                  24977379.2734                   24977372.1374
        30.5004         16.7504
 -17510916.39448 -19806223.21849  20610788.7194                   20610779.4734
        52.0004         54.7504
 23  1  1  0 41  0.0000000  0 10G24G23G22G27G08G21G18G10G31G32
 -10585723.56346  -9159177.51144  22896346.0704                   22896338.0554
        37.5004         27.5004
 -10182468.43147  -9928224.41646  21960916.4534                   21960906.3874
        45.5004         36.2504
  -9856402.06647  -8323845.92045  21863198.4304                   21863188.3054
        45.5004         33.7504
  -8091351.00045  -6143813.69945  24078509.7974                   24078501.5474
        34.7504         31.2504
  -8226706.43546  -6386583.48645  23765646.5084                   23765638.5514
        41.2504         35.7504
 -11498954.68246  -8055362.59244  23503542.0084                   23503530.4774
        40.7504         27.2504
  -7441262.50846  -5733446.24244  24458974.1414                   24458964.7194
        37.5004         24.0004
 -27343504.09348 -21171919.10149  20544251.9064                   20544243.0124
        52.0004         55.0004
  -2776445.12045  -2112320.61145  24701428.5234                   24701418.1054
        35.5004         33.5004
 -17532939.29048 -19823383.90649  20606598.0084                   20606588.7624
        51.5004         55.0004
 23  1  1  0 41 30.0000000  0 11G24G23G22G27G08G21G18G10G31G01G32
 -10514862.70046  -9103961.26544  22909831.3444                   22909822.0394
        39.2504         26.7504
 -10117321.70847  -9877460.77346  21973313.4694                   21973303.5204
        44.5004         36.0004
  -9923599.36947  -8376207.42945  21850411.4844                   21850400.9494
        45.0004         33.7504
  -8002524.47945  -6074598.27345  24095413.5784                   24095406.0904
        35.5004         32.0004
  -8177182.50946  -6347993.41845  23775070.7664                   23775061.6374
        40.2504         34.7504
 -11571268.03447  -8111710.65644  23489782.9064                   23489770.0864
        43.0004         27.5004
  -7326558.34746  -5644066.37743  24480802.3134                   24480792.4224
        39.0004         22.5004
 -27332878.79848 -21163639.65949  20546273.9534                   20546265.1174
        50.7504         54.7504
  -2895865.75346  -2205375.65945  24678703.8444                   24678692.7234
        36.5004         32.7504
   -845555.07755  -2134945.58452  24935041.9774                   24935035.1914
        31.0004         17.2504
 -17554553.58948 -19840226.21049  20602484.8914                   20602475.5864
        51.5004         54.7504
 23  1  1  0 42  0.0000000  0 10G24G23G22G27G08G21G18G10G31G32
 -10443497.81946  -9048352.23444  22923409.8754                   22923402.4454
        38.0004         28.2504
 -10051934.99647  -9826510.11146  21985756.2664                   21985746.0234
        44.5004         36.0004
  -9990471.93147  -8428315.90845  21837686.1414                   21837675.3714
        46.0004         33.2504
  -7913532.05745  -6005253.50845  24112348.1024                   24112339.4414
        35.5004         30.7504
  -8127236.24846  -6309074.24745  23784574.7814                   23784565.8284
        40.0004         34.0004
 -11643302.58747  -8167841.49044  23476074.5784                   23476062.5204
        42.0004         27.7504
  -7211747.79346  -5554603.66943  24502648.9304                   24502640.0944
        37.2504         22.7504
 -27321947.37048 -21155121.66449  20548354.0474                   20548345.0944
        51.0004         54.7504
  -3015300.66846  -2298441.83745  24655975.9844                   24655965.1564
        36.7504         33.5004
 -17575751.22948 -19856743.84749  20598451.2114                   20598442.0234
        51.5004         54.7504
 23  1  1  0 42 30.0000000  0 11G24G23G22G27G08G21G18G10G31G01G32
 -10371641.84846  -8992360.62244  22937083.9384                   22937075.9224
        38.5004         26.5004
  -9986319.03147  -9775380.82546  21998243.0784                   21998232.3094
        45.2504         36.2504
 -10057029.87947  -8480179.22445  21825020.2194                   21825009.9184
        46.2504         34.0004
  -7824387.24045  -5935790.02445  24129310.9614                   24129303.4144
        34.7504         31.0004
  -8076880.42746  -6269835.96745  23794157.3984                   23794149.1484
        39.7504         35.0004
 -11715066.46047  -8223761.38744  23462418.5004                   23462406.3244
        42.0004         27.5004
  -7096843.64846  -5465067.98543  24524515.8754                   24524505.7504
        39.0004         23.5004
 -27310719.82248 -21146372.92749  20550490.4304                   20550481.7704
        51.0004         54.7504
  -3134757.74546  -2391525.32045  24633243.6644                   24633233.7154
        36.2504         34.0004
  -1067575.98055  -2282031.50452  24892792.3284                   24892784.5474
        32.0004         17.7504
 -17596543.07148 -19872945.27349  20594494.6094                   20594485.5984
        51.5004         54.7504
 23  1  1  0 43  0.0000000  0 11G24G23G22G27G08G21G18G10G31G01G32
 -10299290.43346  -8935982.87344  22950853.1884                   22950844.3524
        38.2504         26.5004
  -9920467.23547  -9724067.75646  22010774.1174                   22010763.6414
        45.0004         36.0004
 -10123265.60247  -8531791.47245  21812416.6414                   21812405.2854
        46.5004         34.5004
  -7735086.36246  -5866204.93945  24146305.6414                   24146297.7424
        36.5004         31.5004
  -8026110.71546  -6230275.18745  23803819.3284                   23803811.8984
        40.5004         35.0004
 -11786550.84346  -8279463.50244  23448815.4384                   23448802.7934
        41.5004         28.0004
  -6981841.11146  -5375455.61743  24546399.3284                   24546389.6724
        37.5004         22.7504
 -27299188.40048 -21137387.40949  20552685.0784                   20552676.1254
        51.7504         54.7504
  -3254227.62646  -2484618.70545  24610509.0554                   24610498.9304
        37.0004         34.2504
  -1178408.20955  -2368394.30352  24871701.0634                   24871693.6334
        31.2504         16.2504
 -17616922.62748 -19888825.43849  20590616.3444                   20590607.4494
        51.7504         54.7504
 23  1  1  0 43 30.0000000  0 11G24G23G22G27G08G21G18G10G31G01G32
 -10226447.69146  -8879222.31844  22964712.5944                   22964705.2814
        37.5004         26.5004
  -9854381.69847  -9672572.56245  22023349.7034                   22023339.2274
        46.0004         35.7504
 -10189180.15447  -8583153.43545  21799872.9224                   21799862.3874
        45.7504         33.5004
  -7645634.32146  -5796502.07945  24163327.6414                   24163318.9224
        37.0004         30.5004
  -7974931.46446  -6190395.29645  23813557.5314                   23813550.1024
        39.2504         34.0004
 -11857756.21447  -8334948.19444  23435264.5554                   23435253.4344
        42.0004         28.2504
  -6866744.01946  -5285769.62743  24568300.9774                   24568291.4964
        37.5004         22.7504
 -27287354.53748 -21128166.22149  20554936.9534                   20554927.9414
        50.7504         55.0004
  -3373708.82346  -2577720.93645  24587774.1094                   24587762.4614
        38.2504         35.0004
  -1289117.08755  -2454660.96552  24850634.7734                   24850626.9924
        32.7504         17.2504
 -17636892.03548 -19904386.01549  20586816.3984                   20586807.2704
        51.7504         55.0004
 23  1  1  0 44  0.0000000  0 11G24G23G22G27G08G21G18G10G31G01G32
 -10153117.52046  -8822081.91944  22978669.3134                   22978659.5394
        38.5004         26.5004
  -9788063.93847  -9620896.40346  22035969.2974                   22035958.9384
        46.0004         36.2504
 -10254774.30147  -8634265.73345  21787391.3284                   21787380.2074
        46.5004         33.5004
  -7556035.48846  -5726684.79745  24180377.8054                   24180369.4964
        37.7504         31.7504
  -7923346.02246  -6150198.88945  23823373.4694                   23823365.1024
        38.7504         33.5004
 -11928681.30947  -8390214.49144  23421769.0784                   23421756.8444
        42.2504         28.5004
  -6751556.04946  -5196012.75743  24590221.1564                   24590211.3834
        37.5004         22.0004
 -27275219.23848 -21118710.14249  20557245.9924                   20557237.4494
        51.7504         55.0004
  -3493199.99046  -2670830.97645  24565035.3364                   24565024.3914
        38.2504         34.5004
  -1399701.18045  -2540830.39942  24829590.9694                   24829583.9494
        32.5004         17.2504
 -17656452.94448 -19919628.27649  20583093.8284                   20583084.9344
        51.2504         54.7504
 23  1  1  0 44 30.0000000  0 11G24G23G22G27G08G21G18G10G31G01G32
 -10079300.34946  -8764562.05244  22992714.2424                   22992706.2854
        36.7504         25.7504
  -9721512.18747  -9569037.92446  22048633.7894                   22048623.4884
        45.7504         36.2504
 -10320045.31847  -8685126.25045  21774970.1174                   21774959.4654
        46.2504         34.0004
  -7466290.99446  -5656754.03145  24197454.3594                   24197447.3404
        36.2504         31.7504
  -7871354.98646  -6109686.39345  23833268.0394                   23833258.4414
        39.7504         33.5004
 -11999322.21946  -8445259.37544  23408325.8834                   23408314.2934
        41.2504         28.2504
  -6636277.02846  -5106185.00543  24612157.6094                   24612148.4224
        36.5004         22.0004
 -27262779.58248 -21109016.90049  20559613.1804                   20559604.5204
        51.5004         55.0004
  -3612696.68746  -2763945.27345  24542297.2344                   24542284.6484
        39.5004         35.2504
  -1510156.05855  -2626899.15452  24808572.3594                   24808564.8134
        31.7504         16.2504
 -17675603.68048 -19934550.91649  20579449.8984                   20579440.5944
        51.5004         55.0004
 23  1  1  0 45  0.0000000  0 11G24G23G22G27G08G21G18G10G31G01G32
 -10005000.44746  -8706666.04244  23006854.5704                   23006845.7344
        38.5004         26.7504
  -9654728.71947  -9516998.89045  22061342.7114                   22061331.8834
        46.0004         35.5004
 -10384994.72947  -8735736.15145  21762610.9384                   21762600.1094
        46.7504         34.7504
  -7376405.74945  -5586713.57845  24214560.3444                   24214551.3324
        35.7504         31.5004
  -7818962.37946  -6068860.99245  23843236.9304                   23843229.8524
        38.7504         34.2504
 -12069678.64947  -8500082.56444  23394937.2974                   23394925.6484
        42.5004         28.5004
  -6520911.36246  -5016289.69643  24634112.6724                   24634101.3164
        39.0004         22.5004
 -27250037.27048 -21099087.82749  20562038.4534                   20562028.9144
        51.0004         54.7504
  -3732197.68346  -2857062.95845  24519556.0554                   24519544.1134
        39.0004         34.7504
  -1620480.93845  -2712866.60242  24787577.5474                   24787570.5864
        32.2504         16.7504
 -17694346.63148 -19949155.81149  20575883.1414                   20575874.2464
        51.5004         55.0004
 23  1  1  0 45 30.0000000  0 11G24G23G22G27G08G21G18G10G31G01G32
  -9930219.65746  -8648395.29044  23021084.2584                   23021075.4224
        37.5004         26.0004
  -9587712.89547  -9464778.78046  22074095.0004                   22074084.6414
        45.7504         36.0004
 -10449620.80347  -8786094.12445  21750313.0004                   21750302.2304
        46.2504         34.2504
  -7286382.02645  -5516565.23245  24231689.6884                   24231683.1954
        35.7504         31.7504
  -7766169.96346  -6027724.09545  23853281.5004                   23853276.8874
        36.5004         33.2504
 -12139747.87047  -8554681.94644  23381604.5554                   23381592.3204
        43.0004         28.0004
  -6405460.06546  -4926327.66443  24656079.9844                   24656071.5594
        36.7504         22.5004
 -27236990.74648 -21088921.71549  20564520.6564                   20564511.7034
        51.5004         55.0004
  -3851699.18746  -2950181.01545  24496813.9694                   24496803.6094
        37.0004         34.5004
  -1730672.39245  -2798730.06243  24766609.8674                   24766602.3794
        34.0004         18.2504
 -17712681.26048 -19963442.52349  20572393.8134                   20572385.1524
        52.5004         54.7504
 23  1  1  0 46  0.0000000  0 11G24G23G22G27G08G21G18G10G31G01G32
  -9854960.33846  -8589751.69244  23035406.0004                   23035397.5164
        37.2504         27.0004
  -9520465.00647  -9412377.85845  22086892.0474                   22086881.3954
        46.2504         35.5004
 -10513923.48047  -8836200.08145  21738076.6094                   21738065.5474
        46.5004         34.5004
  -7196222.91546  -5446311.40545  24248848.7344                   24248839.3714
        37.5004         31.7504
  -7712980.27546  -5986277.63745  23863405.0234                   23863397.0664
        37.7504         33.0004
 -12209528.16046  -8609056.18744  23368324.8674                   23368313.5124
        41.5004         27.7504
  -6289925.39946  -4836300.66443  24678066.1564                   24678057.0864
        37.5004         22.5004
 -27223639.28248 -21078517.98349  20567061.6724                   20567052.7774
        51.7504         54.7504
  -3971198.75546  -3043297.56445  24474074.7424                   24474064.0904
        38.5004         35.0004
  -1840727.67645  -2884487.48743  24745664.9304                   24745658.1454
        31.5004         19.2504
 -17730607.99348 -19977411.40049  20568982.7424                   20568973.7304
        52.7504         55.0004
 23  1  1  0 46 30.0000000  0 11G24G23G22G27G08G21G18G10G31G01G32
  -9779225.52146  -8530737.53144  23049819.3054                   23049809.3554
        38.0004         26.2504
  -9452985.70147  -9359796.59245  22099733.2274                   22099722.6334
        46.2504         35.5004
 -10577902.20347  -8886053.61645  21725902.0554                   21725890.8164
        46.5004         34.2504
  -7105932.04046  -5375954.86145  24266028.6954                   24266020.7974
        36.2504         32.2504
  -7659396.20446  -5944523.80945  23873602.5084                   23873593.3794
        38.5004         33.5004
 -12279017.72147  -8663203.90544  23355102.4144                   23355090.0634
        42.7504         28.5004
  -6174309.95846  -4746210.73943  24700068.1644                   24700057.9224
        38.2504         21.0004
 -27209983.16448 -21067876.84949  20569660.1024                   20569651.3244
        52.7504         55.0004
  -4090693.64546  -3136410.47745  24451335.8834                   24451324.8204
        38.7504         35.2504
  -1950644.66845  -2970137.06442  24724750.8444                   24724742.2424
        34.5004         17.2504
 -17748127.67348 -19991063.09049  20565648.9924                   20565639.5704
        52.5004         54.7504
 23  1  1  0 47  0.0000000  0 11G24G23G22G27G08G21G18G10G31G01G32
  -9703017.78646  -8471354.90344  23064320.1174                   23064311.0474
        37.5004         25.0004
  -9385275.36847  -9307035.31245  22112617.9614                   22112607.0164
        46.2504         35.5004
 -10641556.04947  -8935653.99345  21713788.9844                   21713777.8054
        46.2504         34.2504
  -7015512.25445  -5305497.93845  24283233.7894                   24283228.2934
        35.7504         32.0004
  -7605420.14646  -5902464.53945  23883872.6334                   23883864.8524
        37.0004         33.0004
 -12348214.72646  -8717123.65644  23341934.3594                   23341922.4184
        41.7504         28.5004
  -6058615.84445  -4656059.51043  24722081.8754                   24722073.6844
        35.2504         22.5004
 -27196021.80748 -21056997.88449  20572317.3134                   20572308.2424
        52.0004         55.0004
  -4210180.34646  -3229517.00445  24428598.5084                   24428587.3874
        37.0004         35.0004
  -2060420.76945  -3055676.95243  24703859.2194                   24703852.2584
        33.0004         18.2504
 -17765240.75148 -20004397.95349  20562392.2734                   20562382.8524
        53.0004         54.7504
 23  1  1  0 47 30.0000000  0 11G24G23G22G27G08G21G18G10G31G01G32
  -9626338.66746  -8411604.92244  23078911.4144                   23078902.9884
        37.0004         25.5004
  -9317333.28547  -9254093.45245  22125546.6334                   22125536.5084
        45.7504         35.5004
 -10704884.13847  -8985000.53645  21701737.7814                   21701726.8364
        45.2504         35.2504
  -6924965.97546  -5234942.40145  24300466.8594                   24300457.7304
        37.7504         32.0004
  -7551053.66646  -5860101.09245  23894218.0474                   23894210.9694
        36.0004         32.0004
 -12417117.04047  -8770813.76144  23328821.9064                   23328810.1414
        42.0004         28.2504
  -5942844.30046  -4565847.97143  24744113.9924                   24744104.0434
        37.7504         22.0004
 -27181753.64048 -21045879.83249  20575032.2344                   20575023.5164
        50.2504         54.7504
  -4329656.23746  -3322615.09545  24405862.1484                   24405851.8484
        38.2504         35.2504
  -2170052.30745  -3141104.06043  24682998.7034                   24682990.1024
        34.5004         18.2504
 -17781946.62948 -20017415.51049  20559212.5084                   20559204.1414
        51.0004         55.0004
 23  1  1  0 48  0.0000000  0 11G24G23G22G27G08G21G18G10G31G01G32
  -9549192.28746  -8351490.86144  23093592.5394                   23093582.9414
        38.2504         24.7504
  -9249161.25747  -9200972.41545  22138519.4844                   22138508.8324
        46.5004         35.2504
 -10767887.38347  -9034093.95345  21689748.8674                   21689737.5704
        45.7504         34.5004
  -6834297.51046  -5164291.66645  24317719.1024                   24317711.0274
        36.7504         32.2504
  -7496301.01146  -5817436.72745  23904638.8594                   23904630.1414
        37.7504         32.5004
 -12485723.14747  -8824273.06344  23315767.2664                   23315754.7974
        43.0004         28.5004
  -5826998.96746  -4475578.92343  24766159.0234                   24766149.4844
        37.5004         21.5004
 -27167179.88148 -21034523.66549  20577805.5314                   20577796.3444
        52.2504         55.0004
  -4449119.62646  -3415703.44845  24383129.7114                   24383118.7664
        37.5004         34.5004
  -2279538.05645  -3226417.74243  24662164.4384                   24662156.1294
        34.0004         18.5004
 -17798247.36448 -20030117.37449  20556110.5474                   20556102.6484
        53.0004         55.0004
 23  1  1  0 48 30.0000000  0 11G24G23G22G27G08G21G18G10G31G01G32
  -9471579.97046  -8291013.78144  23108360.6954                   23108352.2704
        37.2504         25.5004
  -9180758.41647  -9147671.51445  22151536.1884                   22151525.5944
        46.0004         35.5004
 -10830563.77347  -9082932.69445  21677821.7424                   21677810.9144
        46.0004         35.2504
  -6743509.06746  -5093547.43645  24334995.8524                   24334988.8914
        37.0004         33.0004
  -7441163.27146  -5774472.26045  23915131.4144                   23915121.9924
        38.7504         33.0004
 -12554029.82547  -8877499.04944  23302768.1484                   23302756.9104
        42.0004         28.0004
  -5711080.80646  -4385253.09343  24788217.1564                   24788207.3834
        36.0004         21.0004
 -27152298.83348 -21022928.04449  20580637.1644                   20580628.3284
        51.2504         54.7504
  -4568566.32346  -3508778.81945  24360399.1564                   24360389.2074
        36.5004         34.7504
  -2388874.39245  -3311614.88043  24641357.3524                   24641350.0984
        34.0004         19.0004
 -17814142.20848 -20042502.95749  20553086.8674                   20553077.7974
        53.0004         55.0004
 23  1  1  0 49  0.0000000  0 11G24G23G22G27G08G21G18G10G31G01G32
  -9393505.22446  -8230176.28944  23123217.7114                   23123208.9344
        37.5004         25.2504
  -9112125.86947  -9094191.63945  22164596.1254                   22164585.8244
        45.5004         35.2504
 -10892913.90947  -9131517.20645  21665956.6484                   21665946.1134
        45.0004         35.0004
  -6652604.31246  -5022712.55545  24352294.9064                   24352286.1294
        36.7504         31.7504
  -7385643.93246  -5731210.42345  23925695.6254                   23925686.7894
        37.0004         31.2504
 -12622036.53347  -8930491.27944  23289827.3364                   23289815.2194
        42.7504         28.5004
  -5595092.80946  -4294872.92543  24810287.7734                   24810279.4654
        36.0004         22.0004
 -27137110.76948 -21011093.18749  20583527.4064                   20583518.5704
        51.5004         55.0004
  -4687994.37946  -3601839.62545  24337672.4454                   24337662.3794
        37.0004         34.5004
  -2498059.29745  -3396694.06243  24620580.7344                   24620573.1884
        34.0004         19.7504
 -17829632.44348 -20054573.26449  20550138.9844                   20550130.3834
        52.5004         55.0004
 23  1  1  0 49 30.0000000  0 11G24G23G22G27G08G21G18G10G31G01G32
  -9314969.93946  -8168979.98244  23138163.7344                   23138154.1374
        38.5004         26.0004
  -9043263.25947  -9040532.48045  22177700.6254                   22177689.9144
        46.5004         35.2504
 -10954936.55747  -9179846.52145  21654154.2584                   21654143.8404
        45.7504         34.7504
  -6561585.79246  -4951789.06245  24369616.1024                   24369607.0314
        38.5004         33.0004
  -7329744.62645  -5687652.55745  23936331.3754                   23936324.5904
        35.5004         31.7504
 -12689740.49347  -8983247.63144  23276944.0554                   23276931.5274
        42.7504         28.5004
  -5479036.55445  -4204439.46543  24832372.5554                   24832363.6604
        34.7504         22.0004
 -27121614.27948 -20999018.00849  20586476.3594                   20586467.6994
        51.5004         54.7504
  -4807400.14746  -3694883.08945  24314951.5474                   24314939.7814
        36.7504         34.7504
  -2607089.56245  -3481652.69243  24599833.0164                   24599825.7624
        34.5004         19.7504
 -17844717.90148 -20066328.15149  20547268.2274                   20547259.3324
        52.0004         54.7504
 23  1  1  0 50  0.0000000  0 11G24G23G22G27G08G21G18G10G31G01G32
  -9235977.50246  -8107427.44444  23153193.9924                   23153185.7424
        37.7504         25.5004
  -8974171.73247  -8986694.93745  22190848.6174                   22190837.9064
        46.2504         35.2504
 -11016631.92847  -9227920.82345  21642414.0474                   21642402.7504
        45.7504         35.0004
  -6470457.33545  -4880779.88445  24386954.4774                   24386948.1604
        34.5004         32.2504
  -7273469.05146  -5643801.49445  23947042.0634                   23947034.0474
        37.5004         32.0004
 -12757140.82747  -9035767.37844  23264117.9304                   23264106.2814
        42.5004         29.0004
  -5362914.94946  -4113955.09043  24854471.2114                   24854461.7304
        37.0004         22.0004
 -27105809.98648 -20986702.96849  20589483.8984                   20589474.5354
        52.5004         54.7504
  -4926781.70346  -3787907.70945  24292232.3284                   24292223.0824
        36.7504         34.7504
  -2715963.20346  -3566489.39443  24579116.8364                   24579106.7114
        36.7504         19.5004
 -17859399.85548 -20077768.62849  20544474.1174                   20544465.4574
        51.5004         55.0004
 23  1  1  0 50 30.0000000  0 11G24G23G22G27G08G21G18G10G31G01G32
  -9156530.28246  -8045520.50744  23168313.6724                   23168304.2504
        39.5004         25.2504
  -8904851.18747  -8932678.95745  22204039.5004                   22204029.4924
        45.7504         35.5004
 -11077999.23547  -9275739.48845  21630736.3054                   21630725.4184
        45.2504         34.7504
  -6379221.65846  -4809687.18045  24404318.5474                   24404309.4774
        37.7504         33.0004
  -7216819.34946  -5599658.86945  23957822.3444                   23957813.4494
        36.5004         31.5004
 -12824234.81347  -9088048.40544  23251350.0164                   23251338.5434
        42.0004         29.0004
  -5246729.72846  -4023421.21643  24876580.5004                   24876570.9614
        37.2504         21.5004
 -27089696.77748 -20974147.22549  20592549.9614                   20592540.8324
        52.2504         55.0004
  -5046135.57946  -3880910.68345  24269521.6174                   24269510.1454
        38.0004         34.5004
  -2824677.20145  -3651201.58943  24558426.9304                   24558419.3834
        34.7504         19.7504
 -17873678.47648 -20088894.81849  20541756.9924                   20541747.9224
        52.7504         55.0004
 23  1  1  0 51  0.0000000  0 11G24G23G22G27G08G21G18G10G31G01G32
  -9076630.18446  -7983260.73244  23183517.6024                   23183508.4734
        38.5004         25.0004
  -8835301.34247  -8878484.29945  22217274.7034                   22217264.1684
        45.7504         35.7504
 -11139037.42147  -9323301.70245  21619121.0944                   21619110.4414
        46.5004         35.0004
  -6287881.26145  -4738512.85645  24421699.0704                   24421691.0554
        35.5004         31.5004
  -7159797.26045  -5555226.08345  23968673.0864                   23968663.7814
        35.2504         30.5004
 -12891020.22047  -9140088.99344  23238641.2114                   23238629.7384
        42.2504         29.2504
  -5130482.47245  -3932839.00743  24898701.4844                   24898691.8284
        35.7504         22.0004
 -27073273.61448 -20961349.96149  20595675.1564                   20595666.6134
        52.5004         55.0004
  -5165458.66146  -3973889.73445  24246815.1484                   24246803.6174
        38.0004         34.2504
  -2933228.30845  -3735786.84543  24537770.7034                   24537762.8634
        35.5004         19.5004
 -17887553.64448 -20099706.63349  20539117.0784                   20539108.2424
        52.7504         54.7504
 23  1  1  0 51 30.0000000  0 11G24G23G22G27G08G21G18G10G31G01G32
  -8996280.98946  -7920650.95744  23198807.8204                   23198798.2234
        39.2504         26.2504
  -8765523.59147  -8824112.04645  22230553.4384                   22230542.0234
        46.7504         34.7504
 -11199747.07747  -9370607.90745  21607568.2344                   21607557.9924
        46.5004         34.5004
  -6196440.23746  -4667260.10945  24439098.9694                   24439092.1844
        37.0004         32.2504
  -7102406.64945  -5510506.15045  23979594.0004                   23979585.6914
        35.0004         31.2504
 -12957495.89047  -9191888.21344  23225992.1254                   23225980.0084
        43.2504         28.5004
  -5014176.46746  -3842211.01643  24920834.3984                   24920824.8014
        36.2504         21.5004
 -27056541.17648 -20948311.69649  20598859.2814                   20598850.0944
        51.7504         55.0004
  -5284748.73246  -4066843.03445  24224114.2584                   24224102.9024
        37.5004         34.5004
  -3041614.85445  -3820243.94643  24517144.6254                   24517137.4884
        35.2504         18.2504
 -17901026.92648 -20110205.28649  20536552.9304                   20536543.9774
        53.0004         54.7504
 23  1  1  0 52  0.0000000  0 11G24G23G22G27G08G21G18G10G31G01G32
  -8915484.93946  -7857693.01344  23214182.4304                   23214174.0634
        39.0004         25.2504
  -8695517.87947  -8769562.14845  22243874.4694                   22243863.6994
        45.0004         35.2504
 -11260127.31547  -9417657.43646  21596078.5004                   21596067.2624
        46.2504         36.0004
  -6104901.28645  -4595931.03645  24456518.7194                   24456510.5274
        35.0004         32.0004
  -7044649.45246  -5465500.54545  23990585.1724                   23990576.8054
        36.0004         31.5004
 -13023659.57947  -9243444.33744  23213401.3364                   23213389.1604
        43.5004         29.7504
  -4897813.47745  -3751538.57543  24942976.7814                   24942967.2424
        35.7504         22.0004
 -27039498.52648 -20935031.70649  20602102.4534                   20602093.4414
        52.5004         55.0004
  -5404002.62746  -4159768.18345  24201421.2344                   24201410.5234
        36.0004         34.7504
  -3149833.77846  -3904570.36343  24496553.0234                   24496543.9534
        36.0004         19.0004
 -17914098.51348 -20120390.93749  20534065.4614                   20534056.6844
        53.0004         54.7504
 23  1  1  0 52 30.0000000  0 11G24G23G22G27G08G21G18G10G31G01G32
  -8834244.36646  -7794388.68644  23229642.2504                   23229633.3554
        39.0004         25.2504
  -8625284.14947  -8714834.58645  22257239.3754                   22257229.3674
        45.5004         34.5004
 -11320177.22247  -9464449.55445  21584651.2584                   21584640.3714
        46.2504         35.5004
  -6013267.13045  -4524527.83945  24473956.6564                   24473948.8754
        35.7504         32.2504
  -6986528.42145  -5420211.47544  24001643.5784                   24001636.2664
        33.0004         29.7504
 -13089509.51647  -9294755.97445  23200870.1414                   23200858.1414
        43.2504         30.2504
  -4781395.23445  -3660823.10243  24965129.4694                   24965120.8674
        35.0004         21.5004
 -27022144.78048 -20921509.30449  20605404.7194                   20605396.0594
        51.7504         54.7504
  -5523217.18346  -4252662.63845  24178735.4384                   24178724.1414
        37.2504         34.7504
  -3257882.03646  -3988763.82443  24475990.5704                   24475983.3754
        36.0004         19.5004
 -17926768.56648 -20130263.69949  20531654.2814                   20531645.6214
        53.2504         55.0004
 23  1  1  0 53  0.0000000  0 11G24G23G22G27G08G21G18G10G31G01G32
  -8752562.07946  -7730740.14144  23245186.4844                   23245176.5354
        39.5004         25.0004
  -8554822.91147  -8659929.74645  22270647.9304                   22270637.6294
        45.0004         34.5004
 -11379896.82047  -9510984.29845  21573286.9694                   21573276.4344
        46.5004         35.0004
  -5921541.00845  -4453052.95545  24491410.0864                   24491403.3014
        34.7504         31.2504
  -6928046.22445  -5374640.94945  24012773.0084                   24012764.6994
        34.7504         30.2504
 -13155043.47247  -9345821.38945  23188400.3524                   23188387.8834
        44.5004         30.5004
  -4664924.19046  -3570066.51343  24987296.1254                   24987285.1214
        37.0004         22.0004
 -27004479.91248 -20907744.46749  20608766.0474                   20608756.9184
        52.2504         55.0004
  -5642389.78246  -4345524.38245  24156057.2034                   24156046.6684
        37.5004         35.5004
  -3365757.01246  -4072822.24543  24455464.8204                   24455455.3404
        38.0004         20.2504
 -17939037.77148 -20139824.10649  20529320.1094                   20529310.8054
        53.2504         55.0004
 23  1  1  0 53 30.0000000  0 11G24G23G22G27G08G21G18G10G31G01G32
  -8670441.63946  -7666750.22444  23260812.6024                   23260803.8834
        38.2504         25.0004
  -8484135.37647  -8604848.56245  22284099.1334                   22284088.7734
        45.2504         35.2504
 -11439286.51247  -9557261.96345  21561985.5784                   21561974.6334
        46.7504         35.5004
  -5829726.84446  -4381509.44045  24508883.0634                   24508874.8714
        36.7504         31.5004
  -6869206.13445  -5328791.53145  24023970.5394                   24023962.1134
        35.2504         30.5004
 -13220260.52247  -9396639.88045  23175989.1094                   23175977.4614
        43.2504         31.0004
  -4548403.22544  -3479270.89143  25009464.5864                   25009457.8594
        29.7504         21.5004
 -26986504.01348 -20893737.27949  20612186.8984                   20612178.0634
        52.0004         54.7504
  -5761517.94746  -4438351.54345  24133387.4224                   24133376.8874
        37.5004         34.5004
  -3473456.89446  -4156744.27543  24434968.4384                   24434960.3634
        36.7504         19.2504
 -17950907.60548 -20149073.32049  20527060.9224                   20527051.9104
        53.5004         54.7504
 23  1  1  0 54  0.0000000  0 11G24G23G22G27G08G21G18G10G31G01G32
  -8587884.73246  -7602420.15644  23276523.9614                   23276513.4844
        39.7504         26.0004
  -8413220.78047  -8549590.45445  22297594.1174                   22297583.1724
        45.2504         35.0004
 -11498344.69047  -9603281.31745  21550746.9534                   21550736.0084
        46.5004         35.5004
  -5737826.61046  -4309898.87345  24526371.3134                   24526363.4734
        36.5004         31.7504
  -6810009.98745  -5282664.68545  24035234.5474                   24035227.0004
        33.0004         30.7504
 -13285157.74947  -9447209.12845  23163639.6094                   23163627.3754
        44.0004         31.0004
  -4431833.59746  -3388437.62643  25031650.9304                   25031640.6884
        36.2504         22.0004
 -26968215.55848 -20879486.53749  20615666.9144                   20615658.2544
        53.0004         55.0004
  -5880598.02846  -4531141.19745  24110728.7194                   24110717.1884
        39.2504         34.7504
  -3580977.92346  -4240526.86543  24414509.2274                   24414498.8094
        38.5004         19.7504
 -17962377.55048 -20158010.93049  20524878.2974                   20524869.7544
        53.5004         55.2504
 23  1  1  0 54 30.0000000  0 11G24G23G22G27G08G21G18G10G31G01G32
  -8504894.29646  -7537752.29744  23292314.9534                   23292306.6454
        37.7504         26.5004
  -8342079.80247  -8494155.94945  22311130.9534                   22311121.2384
        44.7504         34.5004
 -11557071.08847  -9649042.12646  21539571.6884                   21539560.9774
        46.5004         36.0004
  -5645843.69045  -4238223.87845  24543873.5554                   24543866.5944
        34.7504         30.5004
  -6750460.03245  -5236262.16945  24046566.3524                   24046559.2154
        33.7504         30.5004
 -13349733.65347  -9497528.01845  23151351.7894                   23151339.5554
        44.7504         31.0004
  -4315217.75445  -3297568.10543  25053841.9224                   25053832.3244
        35.7504         20.2504
 -26949614.44748 -20864992.16149  20619206.8834                   20619198.1054
        52.0004         55.0004
  -5999627.30946  -4623891.26445  24088077.1174                   24088066.4654
        38.0004         35.0004
  -3688317.65546  -4324168.24243  24394082.0864                   24394073.6604
        38.2504         20.2504
 -17973448.52848 -20166637.66049  20522771.5164                   20522762.6214
        53.0004         54.7504
 23  1  1  0 55  0.0000000  0 11G24G23G22G27G08G21G18G10G31G01G32
  -8421473.56146  -7472749.15344  23308190.3204                   23308180.9574
        38.7504         25.0004
  -8270713.23747  -8438545.64745  22324712.4454                   22324702.0274
        45.0004         34.7504
 -11615465.98447  -9694544.62646  21528459.4694                   21528449.1684
        46.2504         36.2504
  -5553781.62846  -4166487.20645  24561394.3594                   24561385.6994
        36.5004         30.5004
  -6690560.13445  -5189586.93045  24057965.8444                   24057957.5944
        34.0004         31.0004
 -13413986.89147  -9547595.45445  23139124.0234                   23139112.7274
        44.2504         31.7504
  -4198558.07545  -3206664.49443  25076039.3134                   25076033.0554
        33.2504         21.7504
 -26930700.80348 -20850254.25349  20622805.9924                   20622796.6884
        51.7504         55.0004
  -6118603.37746  -4716599.93945  24065436.6724                   24065426.1954
        37.5004         35.7504
  -3795473.78446  -4407666.51743  24373691.1254                   24373682.2304
        37.7504         20.7504
 -17984121.52348 -20174954.26049  20520740.6484                   20520731.5784
        53.7504         55.2504
 23  1  1  0 55 30.0000000  0 11G24G23G22G27G08G21G18G10G31G01G32
  -8337624.41146  -7407412.16644  23324145.5554                   23324136.5434
        37.2504         24.7504
  -8199120.60947  -8382759.21345  22338335.8134                   22338325.5124
        45.0004         35.0004
 -11673528.19647  -9739787.89646  21517410.9454                   21517399.8834
        47.0004         36.2504
  -5461642.54645  -4094690.52745  24578928.2974                   24578919.4024
        35.5004         30.0004
  -6630311.78745  -5142640.17645  24069430.3364                   24069422.5554
        34.0004         30.2504
 -13477914.57847  -9597409.24245  23126960.0784                   23126947.3164
        45.0004         32.0004
  -4081856.20745  -3115728.19243  25098247.9454                   25098240.2234
        35.7504         20.5004
 -26911473.06248 -20835271.60749  20626464.8674                   20626455.9144
        52.0004         54.7504
  -6237522.55046  -4809264.16646  24042809.0314                   24042796.8554
        39.2504         36.0004
  -3902442.80846  -4491018.98843  24353336.0084                   24353327.1134
        37.2504         20.2504
 -17994396.35148 -20182960.60749  20518785.4454                   20518776.1414
        53.0004         55.0004
 23  1  1  0 56  0.0000000  0 11G24G23G22G27G08G21G18G10G31G01G32
  -8253349.82446  -7341743.68944  23340182.6414                   23340174.0984
        38.0004         25.2504
  -8127302.59347  -8326797.12545  22352002.6254                   22351991.9144
        45.5004         34.5004
 -11731257.79547  -9784771.98545  21506424.8914                   21506414.2974
        46.0004         35.7504
  -5369429.86246  -4022836.49544  24596474.3754                   24596465.9494
        36.2504         29.5004
  -6569718.06145  -5095424.35544  24080960.3134                   24080952.5314
        33.0004         29.5004
 -13541515.05047  -9646968.05345  23114856.3594                   23114844.4184
        43.5004         31.2504
  -3965114.60446  -3024760.69743  25120468.0234                   25120455.3204
        39.0004         21.5004
 -26891931.08148 -20820044.08849  20630183.6644                   20630174.7704
        51.5004         54.7504
  -6356382.24646  -4901882.09845  24020189.4694                   24020177.8794
        38.5004         35.2504
  -4009222.23746  -4574223.75043  24333017.9064                   24333007.9574
        39.0004         20.5004
 -18004273.92448 -20190657.41449  20516905.8134                   20516896.5084
        53.2504         54.7504
 23  1  1  0 56 30.0000000  0 11G24G23G22G27G08G21G18G10G31G01G32
  -8168653.25046  -7275746.35544  23356300.0164                   23356291.2974
        39.0004         25.2504
  -8055260.11447  -8270660.14445  22365711.8284                   22365700.5314
        45.5004         34.2504
 -11788654.84047  -9829496.93246  21495502.8914                   21495491.9454
        46.5004         36.0004
  -5277147.13245  -3950927.89144  24614035.0314                   24614027.8364
        34.7504         29.0004
  -6508782.84845  -5047942.37545  24092556.0164                   24092548.7624
        33.5004         30.0004
 -13604787.00847  -9696270.86245  23102816.8284                   23102804.8284
        44.5004         31.0004
                                  25142684.3754                   25142677.8244
        28.0004         20.0004
 -26872075.17348 -20804571.94349  20633961.8134                   20633952.9774
        51.5004         55.0004
  -6475180.07946  -4994451.85646  23997582.2664                   23997572.0234
        38.0004         37.0004
  -4115809.92946  -4657279.10443  24312732.6564                   24312724.5234
        37.2504         20.5004
 -18013755.45548 -20198045.61749  20515101.1724                   20515092.2774
        53.2504         55.0004
 23  1  1  0 57  0.0000000  0 11G24G23G22G27G08G21G18G10G31G01G32
  -8083536.96946  -7209421.99044  23372496.5234                   23372488.5084
        38.0004         26.2504
  -7982993.19447  -8214348.27045  22379463.7894                   22379453.4884
        44.7504         35.0004
 -11845718.69147  -9873962.26246  21484644.1564                   21484633.0354
        46.7504         36.5004
  -5184797.32045  -3878967.02644  24631609.0554                   24631601.3324
        35.5004         28.7504
  -6447507.63445  -5000195.48645  24104218.1414                   24104209.1884
        34.5004         30.5004
 -13667728.19647  -9745315.94845  23090839.6644                   23090826.7274
        44.2504         31.5004
 -14759461.74156 -11435940.51653  25164917.3364                   25164908.5004
        37.2504         22.2504
 -26851904.54148 -20788854.56849  20637800.1024                   20637791.6174
        50.2504         55.0004
  -6593912.66346  -5086970.75946  23974988.1414                   23974977.9574
        37.0004         37.0004
  -4222202.80146  -4740182.67443  24292486.7584                   24292478.5084
        38.5004         19.7504
 -18022841.21448 -20205125.42349  20513372.6414                   20513363.5704
        52.2504         54.7504
 23  1  1  0 57 30.0000000  0 11G24G23G22G27G08G21G18G10G31G01G32
  -7998003.45346  -7142772.51144  23388774.5554                   23388765.1914
        39.0004         24.5004
  -7910501.83947  -8157861.53445  22393258.2274                   22393248.1604
        45.5004         34.2504
 -11902448.64947  -9918167.40746  21473848.2814                   21473837.6884
        47.0004         36.7504
  -5092382.81246  -3806955.69044  24649196.4614                   24649185.8674
        36.5004         28.2504
  -6385894.78845  -4952185.54045  24115941.2274                   24115933.6214
        34.7504         31.0004
 -13730336.74347  -9794101.83045  23078924.6414                   23078912.6994
        42.5004         31.5004
 -14642614.07255 -11358819.42953  25187150.1564                   25187141.3794
        34.0004         20.5004
 -26831418.22648 -20772891.20749  20641698.7814                   20641690.1804
        49.5004         55.0004
  -6712576.86746  -5179436.32946  23952408.7504                   23952396.8674
        39.7504         38.2504
  -4328397.69146  -4822931.92643  24272279.0784                   24272270.4774
        37.7504         20.7504
 -18031531.45948 -20211897.04349  20511718.8054                   20511709.9694
        51.7504         55.0004
 23  1  1  0 58  0.0000000  0 11G24G23G22G27G08G21G18G10G31G01G32
  -7912055.63946  -7075800.19243  23405128.7814                   23405119.7114
        37.0004         22.5004
  -7837786.62447  -8101200.32745  22407095.9774                   22407084.7384
        46.0004         34.2504
 -11958844.50147  -9962112.21346  21463117.1174                   21463105.8794
        47.0004         36.2504
  -4999906.83745  -3734896.53144  24666792.4774                   24666785.1054
        34.2504         28.0004
  -6323947.95545  -4903915.29145  24127730.4774                   24127721.2894
        33.5004         30.2504
 -13792610.85147  -9842627.11545  23067075.3204                   23067063.0274
        44.7504         31.5004
 -14525735.49656 -11267745.34953  25209397.8754                   25209384.6454
        40.5004         21.5004
 -26810616.13948 -20756681.79249  20645657.4304                   20645648.4774
        51.7504         55.2504
  -6831169.87846  -5271846.44246  23929841.4454                   23929828.9774
        40.2504         38.0004
  -4434392.10346  -4905524.98643  24252107.2194                   24252101.0204
        37.7504         21.0004
 -18039827.09548 -20218361.17249  20510140.1024                   20510131.2664
        52.7504         54.7504
 23  1  1  0 58 30.0000000  0 10G24G23G22G27G08G21G10G31G01G32
  -7825696.02946  -7008507.00443  23421562.4304                   23421553.5354
        37.7504         23.2504
  -7764847.58947  -8044364.73345  22420975.1334                   22420964.8324
        44.5004         34.2504
 -12014905.70647 -10005796.26646  21452448.9064                   21452438.0204
        46.7504         36.7504
  -4907372.40345  -3662791.74344  24684400.9614                   24684392.4774
        34.5004         27.0004
  -6261669.33945  -4855386.53445  24139581.4224                   24139573.1134
        32.7504         30.0004
 -13854548.08947  -9890889.90145  23055288.8984                   23055276.5474
        44.7504         31.7504
 -26789497.48448 -20740225.70349  20649675.9064                   20649667.4804
        52.0004         55.2504
  -6949688.30846  -5364198.48246  23907285.7814                   23907276.3014
        38.0004         38.5004
  -4540182.97446  -4987959.38843  24231977.3914                   24231969.4344
        37.2504         21.7504
 -18047728.42248 -20224518.03649  20508636.3134                   20508627.7704
        53.0004         54.7504
 23  1  1  0 59  0.0000000  0 11G24G23G22G27G08G21G18G10G31G01G32
  -7738928.49746  -6940895.95243  23438074.1724                   23438065.2774
        38.2504         22.5004
  -7691686.40247  -7987356.03545  22434898.1174                   22434886.5864
        45.2504         34.2504
 -12070633.23547 -10049220.30046  21441843.8754                   21441832.8134
        47.2504         36.5004
  -4814783.51145  -3590644.55444  24702020.7034                   24702012.2774
        34.7504         28.5004
  -6199062.44145  -4806601.95845  24151496.0164                   24151487.3554
        34.2504         30.7504
 -13916148.67547  -9938890.34445  23043565.5004                   23043553.6764
        43.5004         31.0004
                                  25253897.2344                   25253882.5984
        39.5004         22.2504
 -26768062.90248 -20723523.43049  20653754.5864                   20653745.7504
        51.5004         55.0004
  -7068130.42246  -5456491.01446  23884748.7974                   23884737.3834
        40.5004         39.0004
  -4645768.60246  -5070233.96543  24211885.9064                   24211877.4224
        37.5004         21.0004
 -18055237.27048 -20230369.07749  20507207.5944                   20507198.7584
        52.2504         55.0004
 23  1  1  0 59 30.0000000  0 11G24G23G22G27G08G21G18G10G31G01G32
  -7651756.63346  -6872969.82744  23454661.8674                   23454653.3244
        37.5004         25.0004
  -7618304.01147  -7930174.97345  22448861.4614                   22448850.9844
        44.7504         33.5004
 -12126027.25947 -10092384.46646  21431302.8204                   21431291.9924
        47.0004         36.5004
  -4722143.82945  -3518457.80644  24719648.7274                   24719640.7114
        33.5004         27.5004
  -6136131.33545  -4757564.76945  24163471.8364                   24163462.1214
        33.7504         31.0004
 -13977410.69347  -9986626.99345  23031909.2974                   23031896.1844
        45.0004         31.7504
 -14174932.81855 -11038361.85253  25276145.4384                   25276139.4144
        31.7504         19.7504
 -26746312.87148 -20706575.36049  20657893.4694                   20657884.6914
        50.7504         55.0004
  -7186494.27246  -5548722.59746  23862223.8134                   23862213.4534
        39.5004         39.5004
  -4751147.12046  -5152347.07043  24191832.7114                   24191824.0514
        37.5004         21.7504
 -18062355.06148 -20235915.41149  20505853.2114                   20505844.7854
        52.2504         54.7504
 23  1  1  1  0  0.0000000  0 11G24G23G22G27G08G21G18G10G31G01G32
  -7564179.91246  -6804728.22144  23471327.3594                   23471319.2854
        36.7504         26.0004
  -7544697.59947  -7872819.33845  22462868.1024                   22462858.4454
        45.5004         34.2504
 -12181083.69647 -10135285.57046  21420826.1174                   21420815.0554
        46.7504         36.5004
  -4629453.22445  -3446231.38244  24737286.0704                   24737278.6994
        33.2504         25.7504
  -6072874.76445  -4708273.95945  24175505.4224                   24175499.6914
        32.0004         30.5004
 -14038329.10547 -10034095.89345  23020315.6724                   23020304.3754
        43.7504         31.0004
 -14057951.65445 -10947207.91043  25298406.6024                   25298399.5824
        30.0004         18.5004
 -26724243.37348 -20689378.34949  20662093.2114                   20662084.7854
        49.2504         55.0004
  -7304773.42646  -5640888.12146  23839716.2894                   23839705.6954
        41.0004         39.2504
  -4856312.23846  -5234293.94543  24171820.1724                   24171811.8634
        37.0004         22.0004
 -18069079.14548 -20241154.94749  20504573.5084                   20504564.6134
        51.0004         55.0004
 23  1  1  1  0 30.0000000  0 11G24G23G22G27G08G21G18G10G31G01G32
  -7476202.82246  -6736174.65543  23488068.4774                   23488060.4024
        37.2504         23.5004
  -7470869.23747  -7815290.76245  22476919.2504                   22476906.8984
        45.0004         33.7504
 -12235805.07347 -10177925.59846  21410412.8284                   21410402.1174
        46.5004         37.0004
  -4536716.34945  -3373968.85744  24754936.0554                   24754926.5744
        34.7504         27.2504
  -6009297.66845  -4658733.40745  24187605.3674                   24187597.8794
        33.0004         30.7504
 -14098903.87947 -10081296.98945  23008789.2664                   23008776.6804
        44.0004         32.0004
 -13940950.27745 -10856038.11043  25320672.6564                   25320665.2274
        33.0004         19.0004
 -26701855.87848 -20671933.55449  20666353.2274                   20666344.8014
        50.7504         55.2504
  -7422966.50846  -5732986.62046  23817224.9774                   23817213.9144
        40.0004         40.0004
  -4961263.12146  -5316073.84445  24151848.3444                   24151839.8594
        36.7504         32.0004
 -18075411.91948 -20246089.56849  20503368.5864                   20503360.1024
        53.0004         55.0004
 23  1  1  1  1  0.0000000  0 11G24G23G22G27G08G21G18G10G31G01G32
  -7387829.07046  -6667311.99544  23504886.0944                   23504877.7274
        36.7504         25.7504
  -7396820.12247  -7757590.17245  22491008.4304                   22490997.8364
        45.2504         34.0004
 -12290191.59647 -10220304.69846  21400063.5234                   21400052.6954
        47.5004         36.7504
  -4443937.05245  -3301673.32844  24772589.6414                   24772582.7974
        32.5004         26.0004
  -5945403.87045  -4608946.04245  24199765.3054                   24199756.5864
        34.2504         31.2504
 -14159133.82647 -10128229.43945  22997328.3754                   22997315.2624
        44.7504         31.5004
 -13823931.43745 -10780952.83653  25342939.1414                   25342933.8794
        31.5004         19.2504
 -26679150.80348 -20654241.29349  20670674.2504                   20670665.4144
        49.5004         55.0004
  -7541071.27646  -5825016.30046  23794750.2734                   23794739.2704
        41.0004         40.5004
  -5065997.58346  -5397685.14845  24131919.1024                   24131909.9734
        37.2504         32.5004
 -18081354.94848 -20250720.49149  20502237.6804                   20502228.4924
        51.0004         55.0004
 23  1  1  1  1 30.0000000  0 11G24G23G22G27G08G21G18G10G31G01G32
  -7299059.82546  -6598141.19143  23521778.0474                   23521769.9144
        38.2504         22.7504
  -7322549.22047  -7699716.76145  22505141.6804                   22505131.3794
        45.0004         34.0004
 -12344241.41947 -10262421.44146  21389778.0704                   21389767.5354
        46.5004         36.7504
  -4351116.86845  -3229345.93244  24790252.1334                   24790244.1764
        33.0004         25.0004
  -5881194.81745  -4558913.03445  24211982.2584                   24211975.2384
        32.2504         31.5004
 -14219015.78047 -10174890.69645  22985931.4924                   22985920.5474
        43.7504         31.7504
 -13706895.90846 -10689756.31343  25365216.0004                   25365204.5274
        36.0004         18.2504
 -26656126.29648 -20636300.11549  20675055.7814                   20675046.8874
        50.5004         55.0004
  -7659083.71346  -5916974.01746  23772293.9064                   23772282.1994
        41.2504         40.2504
  -5170511.47745  -5479124.55145  24112028.8284                   24112021.5164
        35.0004         32.0004
 -18086907.48048 -20255047.13549  20501180.9924                   20501172.1564
        51.7504         55.0004
 23  1  1  1  2  0.0000000  0 11G24G23G22G27G08G21G18G10G31G01G32
  -7209898.65146  -6528664.95744  23538745.4144                   23538736.6954
        38.0004         25.0004
  -7248057.41747  -7641671.21945  22519316.8444                   22519307.1294
        43.7504         34.0004
 -12397954.78947 -10304275.99446  21379556.7584                   21379545.8714
        47.2504         36.5004
  -4258259.39545  -3156989.42644  24807923.2114                   24807914.7854
        32.5004         26.0004
  -5816673.08545  -4508636.38845  24224259.6884                   24224253.1954
        31.5004         31.0004
 -14278548.62947 -10221279.92445  22974604.3444                   22974591.6994
        44.2504         32.5004
                                  25387483.5394                   25387478.2774
        29.7504         19.0004
 -26632782.33348 -20618110.01849  20679497.9144                   20679489.0784
        50.5004         55.0004
  -7777001.12846  -6008857.70946  23749854.0944                   23749843.6174
        40.7504         40.2504
  -5274802.52846  -5560390.32845  24092184.5704                   24092176.1454
        37.0004         33.0004
 -18092070.66548 -20259070.38749  20500198.5084                   20500189.5554
        52.5004         55.0004
 23  1  1  1  2 30.0000000  0 11G24G23G22G27G08G21G18G10G31G01G32
  -7120348.87046  -6458885.89244  23555785.6954                   23555777.3284
        37.7504         24.0004
  -7173345.86747  -7583454.44445  22533534.4304                   22533524.0704
        44.7504         34.0004
 -12451332.30747 -10345868.85846  21369399.4144                   21369388.5274
        47.0004         36.2504
  -4165368.16345  -3084606.70644  24825599.5084                   24825592.3714
        33.0004         25.5004
  -5751842.61345  -4458119.16945  24236598.6954                   24236589.8594
        33.5004         31.7504
 -14337731.23147 -10267396.24845  22963341.6884                   22963329.1024
        44.0004         33.0004
                                  25409765.570
        38.000
 -26609119.34248 -20599671.32949  20684000.8834                   20683991.9304
        50.0004         54.7504
  -7894821.30747  -6100665.62546  23727434.5634                   23727422.9734
        42.5004         40.5004
  -5378868.68046  -5641480.82145  24072380.3754                   24072373.4144
        36.2504         32.5004
 -18096846.00948 -20262791.43449  20499289.8364                   20499280.8244
        52.0004         55.0004
 23  1  1  1  3  0.0000000  0 11G24G23G22G27G08G21G18G10G31G01G32
  -7030413.53246  -6388806.40244  23572899.8364                   23572891.3524
        38.0004         24.0004
  -7098414.96347  -7525066.74345  22547792.9534                   22547783.1804
        44.5004         34.5004
 -12504373.62347 -10387199.75746  21359306.0084                   21359295.1804
        47.2504         36.7504
  -4072446.37445  -3012200.07344  24843280.6804                   24843273.5434
        31.7504         24.5004
  -5686706.29645  -4407363.60745  24248993.2424                   24248985.1094
        33.5004         30.5004
 -14396562.40147 -10313238.71245  22952145.9924                   22952133.9344
        44.5004         32.5004
                                  25432040.617
        33.750
 -26585137.01348 -20580983.80149  20688564.3524                   20688555.4574
        49.7504         55.0004
  -8012541.41846  -6192395.58446  23705032.6644                   23705021.7774
        41.2504         40.5004
  -5482707.14246  -5722393.89345  24052622.2814                   24052612.8594
        37.2504         31.7504
 -18101234.26948 -20266210.85649  20498454.4844                   20498446.0004
        51.2504         55.0004
 23  1  1  1  3 30.0000000  0 10G24G23G22G27G08G21G10G31G01G32
  -6940093.93046  -6318427.54444  23590087.3444                   23590079.6214
        37.7504         24.5004
  -7023263.67747  -7466507.33545  22562094.1254                   22562084.0004
        44.7504         33.5004
 -12557077.04647 -10428267.34346  21349276.6724                   21349266.0784
        47.0004         36.7504
 -10281175.47755  -7850170.84154  24860971.2734                   24860963.0234
        33.5004         26.0004
  -5621265.16845  -4356370.56445  24261446.1174                   24261438.3954
        32.2504         31.0004
 -14455038.02647 -10358804.14145  22941019.4534                   22941007.3954
        45.0004         33.0004
 -26560833.36548 -20562045.90449  20693189.2344                   20693180.4574
        49.5004         54.7504
  -8130156.85846  -6284043.97646  23682649.9224                   23682640.2664
        41.2504         40.5004
  -5586313.63645  -5803126.21745  24032904.7114                   24032896.8134
        35.5004         30.5004
 -18105234.70248 -20269328.07849  20497693.3754                   20497684.4224
        51.2504         54.7504
 23  1  1  1  4  0.0000000  0 10G24G23G22G27G08G21G10G31G01G32
  -6849394.66446  -6247752.76344  23607346.8674                   23607338.5004
        38.5004         24.5004
  -6947894.26647  -7407777.93045  22576436.6414                   22576426.2234
        45.0004         33.7504
 -12609444.44147 -10469073.08946  21339311.4614                   21339300.5164
        47.2504         36.7504
 -10188200.20745  -7777722.58944  24878663.6024                   24878655.0004
        33.7504         25.7504
  -5555523.90245  -4305143.63345  24273956.6254                   24273948.1994
        32.0004         31.5004
 -14513158.41547 -10404092.74845  22929958.5314                   22929946.8834
        44.0004         33.0004
 -26536209.56048 -20542858.53149  20697875.1174                   20697866.2814
        50.0004         54.7504
  -8247666.80846  -6375610.16446  23660289.2424                   23660278.7074
        40.7504         40.5004
  -5689687.02945  -5883676.94045  24013234.9694                   24013225.9574
        35.7504         31.2504
 -18108849.81848 -20272145.04949  20497005.6644                   20496996.5354
        52.0004         55.0004
 23  1  1  1  4 30.0000000  0 10G24G23G22G27G08G21G10G31G01G32
  -6758317.76546  -6176783.74743  23624677.3524                   23624670.2154
        37.2504         22.7504
  -6872306.17147  -7348878.12645  22590820.0944                   22590809.9694
        44.2504         34.0004
 -12661474.39547 -10509615.90446  21329410.9774                   21329399.9734
        47.7504         37.7504
 -10095202.68845  -7705256.97244  24896358.9304                   24896351.3834
        32.5004         24.5004
  -5489484.68345  -4253684.52245  24286523.6564                   24286515.2304
        32.0004         31.2504
 -14570921.10147 -10449102.62845  22918967.2194                   22918954.9844
        45.0004         33.7504
 -26511264.69248 -20523420.97649  20702621.5704                   20702612.8524
        50.7504         55.0004
  -8365066.89247  -6467090.75046  23637949.0864                   23637938.7854
        42.0004         40.7504
  -5792823.74145  -5964043.17344  23993607.8204                   23993599.2774
        35.0004         29.7504
 -18112079.46248 -20274661.64949  20496391.0234                   20496381.9534
        51.5004         55.0004
 23  1  1  1  5  0.0000000  0 10G24G23G22G27G08G21G10G31G01G32
  -6666865.96846  -6105522.64444  23642080.7114                   23642072.5784
        37.0004         24.2504
  -6796499.88247  -7289808.31645  22605246.1414                   22605236.0744
        45.0004         33.2504
 -12713166.87747 -10549895.74546  21319573.4844                   21319562.9494
        47.0004         36.7504
 -10002185.82645  -7632776.31944  24914061.4844                   24914053.0594
        34.0004         27.2504
  -5423149.95445  -4201995.14745  24299147.1094                   24299138.2734
        33.5004         31.5004
 -14628324.06247 -10493832.21045  22908044.1174                   22908031.9414
        45.5004         33.2504
 -26485998.35348 -20503732.92949  20707429.7584                   20707420.9804
        50.0004         54.7504
  -8482354.24646  -6558483.49446  23615629.6334                   23615619.3324
        41.0004         40.5004
  -5895720.96245  -6044222.84245  23974026.3054                   23974018.6994
        34.0004         30.0004
 -18114924.44748 -20276878.50949  20495849.5394                   20495840.2344
        51.0004         55.0004
 23  1  1  1  5 30.0000000  0 10G24G23G22G27G08G21G10G31G01G32
  -6575042.10446  -6033971.55243  23659554.9534                   23659545.7074
        37.0004         23.0004
  -6720475.61947  -7230568.67345  22619713.9224                   22619702.6844
        45.5004         33.5004
 -12764521.61647 -10589912.40546  21309801.3594                   21309790.7664
        46.5004         37.0004
  -9909152.53745  -7560282.86744  24931762.0784                   24931756.2894
        31.0004         24.7504
  -5356523.34445  -4150078.31945  24311824.2424                   24311816.8134
        31.2504         30.0004
 -14685365.56947 -10538280.14245  22897188.4304                   22897177.0164
        43.7504         33.2504
 -26460409.66548 -20483793.69649  20712299.4064                   20712290.2194
        49.7504         55.0004
  -8599525.81847  -6649786.01046  23593333.4384                   23593322.6094
        42.5004         41.2504
  -5998375.68745  -6124213.51445  23954490.6334                   23954484.8444
        33.5004         30.5004
 -18117385.36848 -20278796.10949  20495381.1564                   20495372.0274
        51.0004         54.7504
 23  1  1  1  6  0.0000000  0 11G24G23G22G27G08G21G10G31G01G12G32
  -6482849.20846  -5962132.92943  23677098.1954                   23677089.8874
        36.7504         22.5004
  -6644234.12947  -7171159.73145  22634221.5944                   22634210.6484
        45.7504         33.7504
 -12815538.57347 -10629665.86046  21300093.4064                   21300082.4614
        47.0004         37.0004
  -9816105.97045  -7487779.00344  24949471.1954                   24949461.6564
        33.5004         26.7504
  -5289606.86345  -4097935.65245  24324558.3834                   24324550.8364
        32.0004         30.7504
 -14742043.93847 -10582445.08445  22886403.0554                   22886391.2304
        45.7504         33.5004
 -26434498.64148 -20463603.29349  20717229.9454                   20717221.3444
        50.7504         55.2504
  -8716578.84546  -6740996.15346  23571057.6094                   23571047.5434
        41.2504         40.5004
  -6100785.30846  -6204013.24345  23935004.3834                   23934995.8984
        36.0004         30.0004
    -81753.51056    -38403.74853  25619397.0944                   25619387.3204
        38.2504         21.5004
 -18119463.22648 -20280415.22449  20494985.5084                   20494976.9064
        52.2504         55.0004
 23  1  1  1  6 30.0000000  0 12G24G23G22G27G08G21G12G10G31G01G25G32
  -6390290.62445  -5890009.36543  23694710.4614                   23694703.2074
        35.0004         22.5004
  -6567776.26247  -7111582.17145  22648770.0704                   22648760.1214
        44.5004         33.2504
 -12866217.97047 -10669156.29446  21290449.1254                   21290438.5904
        46.7504         37.0004
  -9723049.53845  -7415267.52144  24967177.9534                   24967171.6954
        31.0004         25.7504
  -5222404.54145  -4045570.19145  24337349.1724                   24337339.3984
        33.2504         30.5004
 -14798358.19447 -10626326.34145  22875687.6884                   22875675.0434
        45.5004         33.2504
    -25810.89015                  25606065.469
        34.000
 -26408265.33448 -20443161.76449  20722221.8754                   20722213.3914
        49.5004         54.7504
  -8833510.85247  -6832112.02246  23548807.2584                   23548796.8984
        42.2504         41.5004
  -6202947.50745  -6283620.17745  23915564.2274                   23915555.6254
        35.2504         31.0004
    -66202.68555    -30604.66454  25363264.4774                   25363260.8594
        30.0004         27.0004
 -18121159.29048 -20281736.83749  20494663.3284                   20494654.2584
        51.2504         55.0004
 23  1  1  1  7  0.0000000  0 12G24G23G22G27G08G21G12G10G31G01G25G32
  -6297368.79346  -5817602.75343  23712394.2114                   23712385.0824
        37.5004         22.7504
  -6491102.04847  -7051836.05945  22663360.6174                   22663351.1954
        45.0004         33.7504
 -12916559.36047 -10708383.33746  21280869.7814                   21280858.7194
        46.5004         37.0004
  -9629985.68855  -7342750.28054  24984887.9774                   24984878.6724
        33.0004         25.5004
  -5154918.36745  -3992983.60944  24350189.0314                   24350181.2504
        31.7504         29.2504
 -14854305.95647 -10669921.99745  22865040.8054                   22865029.0394
        45.2504         33.2504
    -95625.81745    -57126.20552  25592778.4774                   25592770.1684
        34.5004         16.2504
 -26381709.06248 -20422468.56749  20727275.7344                   20727266.8404
        49.7504         55.0004
  -8950318.51147  -6923130.95646  23526579.7344                   23526568.3794
        42.5004         41.7504
  -6304859.17045  -6363031.82645  23896170.0554                   23896162.0984
        34.0004         30.0004
                                  25347247.969
        39.000
 -18122473.90448 -20282761.20449  20494413.2894                   20494403.8094
        52.0004         55.0004
 23  1  1  1  7 30.0000000  0 11G24G23G22G27G08G21G12G10G31G01G32
  -6204086.47046  -5744915.24543  23730143.7424                   23730136.0204
        36.2504         22.7504
  -6414211.76647  -6991921.60245  22677993.5554                   22677982.6684
        45.7504         32.7504
 -12966562.58447 -10747346.88246  21271354.4694                   21271343.4064
        47.2504         37.2504
  -9536917.42745  -7270229.52244  25002598.7664                   25002591.3954
        32.5004         27.2504
  -5087151.36445  -3940178.16945  24363084.9534                   24363077.1724
        31.5004         31.2504
 -14909885.45347 -10713230.68945  22854464.3284                   22854452.5634
        45.5004         33.2504
   -165191.99345   -111333.41442  25579540.5164                   25579532.6174
        33.2504         17.2504
 -26354828.95748 -20401523.02849  20732390.6024                   20732381.6484
        49.7504         54.7504
  -9066998.42746  -7014050.38846  23504376.1724                   23504365.4614
        41.5004         41.7504
  -6406517.13745  -6442245.85545  23876823.6414                   23876817.3834
        34.5004         31.0004
 -18123407.74548 -20283488.86249  20494235.4304                   20494226.5354
        51.2504         54.7504
 23  1  1  1  8  0.0000000  0 11G24G23G22G27G08G21G12G10G31G01G32
  -6110445.97146  -5671948.59643  23747963.1954                   23747955.5904
        36.0004         22.0004
  -6337105.36847  -6931838.70445  22692666.7344                   22692655.6724
        46.0004         31.0004
 -13016226.92347 -10786046.35446  21261903.2584                   21261892.6644
        46.0004         36.0004
  -9443846.90445  -7197707.10843  25020309.1024                   25020300.9694
        32.7504         22.5004
  -5019105.64345  -3887155.51544  24376032.4694                   24376025.5664
        30.5004         29.0004
 -14965094.15747 -10756250.46445  22843958.7114                   22843946.4184
        44.7504         32.2504
   -234505.74345   -165344.05742  25566349.4304                   25566342.1764
        33.2504         16.7504
 -26327624.60348 -20380324.83049  20737567.5554                   20737558.5434
        49.7504         54.7504
  -9183547.07447  -7104867.50146  23482197.9224                   23482186.5084
        42.0004         40.2504
  -6507918.07846  -6521259.51045  23857530.1804                   23857522.0474
        37.0004         31.0004
 -18123960.99248 -20283919.95049  20494130.0784                   20494120.8914
        52.0004         54.7504
 23  1  1  1  8 30.0000000  0 12G24G23G22G27G08G21G12G10G31G01G25G32
  -6016450.75945  -5598705.63043  23765850.2584                   23765842.5354
        35.7504         21.5004
  -6259783.92147  -6871588.22945  22707378.7894                   22707369.6024
        44.5004         32.2504
 -13065552.51347 -10824481.86646  21252517.3524                   21252506.4654
        46.7504         37.0004
  -9350777.91145  -7125185.73144  25038019.5784                   25038011.2704
        31.0004         26.2504
  -4950784.78345  -3833918.55445  24389033.0314                   24389027.1254
        30.5004         30.2504
 -15019931.10147 -10798980.56145  22833523.4224                   22833511.3634
        44.7504         33.5004
   -303564.71546   -219156.33442  25553210.3364                   25553200.1524
        36.7504         16.2504
 -26300095.82948 -20358873.84849  20742806.3054                   20742797.0594
        50.0004         55.0004
  -9299962.13746  -7195580.55347  23460044.2114                   23460033.9694
        41.0004         42.0004
  -6609059.82546  -6600071.31645  23838283.4694                   23838274.9264
        36.5004         32.2504
                                  25299250.2034                   25299250.9804
        24.5004         22.0004
 -18124135.20248 -20284055.70849  20494096.9384                   20494087.8094
        53.5004         54.7504
 23  1  1  1  9  0.0000000  0 12G24G23G22G27G08G21G12G10G31G01G25G32
  -5922105.77246  -5525190.05243  23783803.0784                   23783795.3554
        36.0004         22.0004
  -6182249.82847  -6811172.11745  22722134.4304                   22722123.8954
        45.5004         32.7504
 -13114541.59747 -10862655.17446  21243194.9384                   21243183.7584
        47.0004         37.2504
  -9257715.16945  -7052669.38344  25055728.9454                   25055721.5164
        32.5004         27.2504
  -9608453.81255  -7463271.08054  24402086.9384                   24402078.6294
        32.5004         29.5004
 -15074396.80147 -10841421.36445  22823159.3674                   22823147.0164
        45.0004         34.0004
   -372367.68846   -272768.76742  25540116.4304                   25540108.3554
        37.5004         16.2504
 -26272244.68248 -20337171.67049  20748106.1644                   20748097.3284
        50.0004         55.0004
  -9416242.85447  -7286188.87347  23437918.1724                   23437906.4064
        42.2504         43.0004
  -6709941.62146  -6678680.48345  23819085.6724                   23819077.7154
        37.2504         32.2504
     19367.37215                  25283285.211
        33.500
 -18123933.09848 -20283898.22649  20494135.5004                   20494126.1374
        51.7504         55.0004
 23  1  1  1  9 30.0000000  0 12G24G23G22G27G08G21G12G10G31G01G25G32
  -5827408.35846  -5451399.85743  23801823.9614                   23801815.4774
        36.2504         22.7504
  -6104498.13447  -6750586.39045  22736929.3594                   22736919.4104
        45.2504         33.0004
 -13163188.55147 -10900561.88446  21233937.5704                   21233927.2114
        47.0004         37.0004
  -9164656.30445  -6980155.94144  25073437.1724                   25073428.6884
        32.2504         25.0004
  -9539590.13545  -7409611.03945  24415189.7274                   24415183.6454
        31.0004         30.0004
 -15128484.17147 -10883567.37745  22812867.0314                   22812854.7974
        45.0004         34.0004
   -440906.23346   -326175.58542  25527074.3754                   25527065.8324
        36.7504         16.7504
 -26244065.00248 -20315213.48749  20753468.4384                   20753459.6024
        50.2504         54.7504
  -9532380.58046  -7376685.80547  23415816.7894                   23415805.7854
        41.5004         42.7504
  -6810554.92646  -6757080.47045  23799940.6254                   23799931.9654
        37.2504         34.0004
                                  25267327.4844                   25267322.5784
        39.0004         34.0004
 -18123350.05448 -20283443.90149  20494246.6094                   20494237.6564
        52.2504         54.7504
 23  1  1  1 10  0.0000000  0 12G24G23G22G27G08G21G12G10G31G01G25G32
  -5732366.14745  -5377341.02043  23819909.6174                   23819902.2464
        35.2504         22.7504
  -6026533.97747  -6689835.13945  22751766.2974                   22751755.6454
        45.2504         32.5004
 -13211498.01347 -10938205.60846  21224744.9454                   21224733.7074
        46.5004         37.2504
  -9071608.68545  -6907651.34544  25091144.3524                   25091135.6914
        32.7504         25.0004
  -9470461.23745  -7355744.41845  24428345.1484                   24428338.6564
        30.7504         30.2504
 -15182195.83147 -10925420.61945  22802645.3674                   22802633.6024
        45.0004         33.2504
   -509182.26346   -379377.64842  25514081.8984                   25514073.8244
        36.0004         16.7504
 -26215561.46348 -20293002.93149  20758892.6884                   20758883.4414
        50.5004         54.7504
  -9648376.84646  -7467072.49847  23393743.4064                   23393732.8714
        41.5004         43.0004
  -6910901.84246  -6835272.87745  23780843.6094                   23780836.5904
        37.0004         33.5004
                                  25251382.734
        38.250
 -18122391.55448 -20282697.01849  20494428.6884                   20494419.6174
        51.7504         55.0004
 23  1  1  1 10 30.0000000  0 12G24G23G22G27G08G21G12G10G31G01G25G32
  -5636981.49045  -5303015.32243  23838061.6254                   23838052.6134
        35.7504         22.5004
  -5948357.24547  -6628918.23445  22766642.8284                   22766632.1764
        44.7504         32.2504
 -13259469.22547 -10975585.75746  21215616.2734                   21215605.2114
        47.2504         37.5004
  -8978574.80545  -6835157.41644  25108847.5704                   25108839.8484
        32.0004         27.2504
  -9401069.74544  -7301673.13344  24441549.4614                   24441542.8524
        29.0004         29.2504
 -15235529.80747 -10966979.56045  22792496.0864                   22792484.6134
        45.2504         33.7504
   -577191.57945   -432371.87043  25501139.2974                   25501131.5744
        33.7504         19.2504
 -26186732.61548 -20270538.90649  20764378.4774                   20764369.4064
        50.0004         54.7504
  -9764228.04247  -7557346.13547  23371698.5704                   23371686.9804
        42.2504         43.0004
  -7010978.67946  -6913254.85445  23761802.0634                   23761792.5824
        39.0004         33.7504
                                  25235450.6564                   25235446.6884
        34.2504         25.5004
 -18121057.92148 -20281657.81549  20494682.3054                   20494673.4694
        51.5004         55.0004
 23  1  1  1 11  0.0000000  0 11G24G23G22G27G08G21G12G10G31G01G32
  -5541256.16045  -5228424.18943  23856277.2504                   23856268.8244
        35.0004         22.0004
  -5869967.38647  -6567835.24945  22781559.8134                   22781548.8674
        45.2504         31.7504
 -13307101.02947 -11012701.43146  21206551.6094                   21206541.0744
        46.5004         37.7504
  -8885556.75155  -6762675.75454  25126547.2274                   25126539.6214
        30.5004         25.5004
  -9331417.19245  -7247398.42744  24454803.8444                   24454797.2344
        30.7504         29.5004
 -15288483.42647 -11008242.13545  22782419.8984                   22782407.8404
        45.0004         34.0004
   -644930.51445   -485155.57142  25488249.2734                   25488241.1414
        34.0004         17.7504
 -26157577.61348 -20247820.73049  20769926.6564                   20769917.2934
        50.5004         55.2504
  -9879930.11947  -7647503.60247  23349680.7114                   23349669.4144
        42.0004         43.2504
  -7110781.87446  -6991023.55945  23742807.3834                   23742800.5394
        36.5004         33.7504
 -18119348.93948 -20280326.14149  20495007.4224                   20494998.4694
        51.7504         55.0004
 23  1  1  1 11 30.0000000  0 12G24G23G22G27G08G21G12G10G31G01G25G32
  -5445194.08046  -5153570.63143  23874557.6804                   23874548.3754
        36.5004         21.5004
  -5791365.87147  -6506587.33445  22796517.0864                   22796506.9614
        44.2504         32.0004
 -13354394.54047 -11049553.49646  21197552.0634                   21197541.1764
        47.0004         37.5004
  -8792557.97455  -6690209.20254  25144245.4924                   25144236.8324
        32.5004         25.2504
  -9261507.32745  -7192923.22944  24468106.6644                   24468100.6994
        30.5004         29.0004
 -15341055.77247 -11049207.59045  22772414.6954                   22772403.4574
        45.0004         34.0004
   -712396.76946   -537726.62842  25475411.7584                   25475401.9844
        37.0004         16.7504
 -26128096.93248 -20224848.77449  20775536.3364                   20775527.3834
        50.0004         54.7504
  -9995481.57546  -7737543.69847  23327691.5704                   23327680.8014
        41.5004         43.0004
  -7210309.25746  -7068577.36645  23723870.6094                   23723861.4804
        38.2504         35.2504
                                  25203636.3134                   25203632.5204
        29.0004         23.2504
 -18117266.42948 -20278703.40149  20495404.0234                   20495395.0704
        52.2504         54.7504
 23  1  1  1 12  0.0000000  0 12G24G23G22G27G08G21G12G10G31G01G25G32
  -5348795.55345  -5078454.89943  23892901.4384                   23892893.0124
        35.0004         21.2504
  -5712550.51847  -6445172.80545  22811514.6954                   22811504.6884
        43.7504         32.2504
 -13401346.88647 -11086139.73246  21188617.4924                   21188606.5474
        46.7504         38.0004
                                  25161939.7424                   25161930.0274
        33.0004         25.5004
  -9191340.69145  -7138247.98044  24481462.0314                   24481453.4304
        32.2504         29.0004
 -15393242.96747 -11089872.93445  22762484.5554                   22762472.6134
        45.7504         34.0004
   -779584.81946   -590081.00743  25462626.9384                   25462615.8754
        37.5004         18.2504
 -26098287.64448 -20201620.76149  20781208.8914                   20781199.8794
        50.0004         55.0004
 -10110876.29847  -7827461.64447  23305733.1334                   23305722.3054
        42.0004         43.0004
  -7309555.57546  -7145912.15645  23704983.8134                   23704975.5044
        38.2504         35.0004
   -211117.99145   -367620.90544  25187756.7424                   25187750.6604
        33.0004         26.0004
 -18114808.61348 -20276788.21549  20495871.6174                   20495862.5474
        52.0004         54.7504
 23  1  1  1 12 30.0000000  0 12G24G23G22G27G08G21G12G10G31G01G25G32
  -5252066.96145  -5003081.99243  23911307.5704                   23911299.3794
        34.2504         21.5004
  -5633525.42547  -6383594.84845  22826553.8364                   22826542.3054
        45.5004         32.0004
 -13447961.54147 -11122462.82846  21179747.5474                   21179736.3094
        46.7504         37.5004
                                  25179624.4224                   25179618.8094
        30.0004         24.5004
  -9120923.83345  -7083377.70445  24494860.7034                   24494853.0394
        32.2504         30.7504
 -15445046.89847 -11130239.63545  22752626.6414                   22752614.9344
        45.5004         34.2504
   -846495.03846   -642218.73543  25449893.1174                   25449884.1054
        36.0004         18.2504
 -26068152.89248 -20178139.14049  20786943.5164                   20786934.3284
        50.5004         55.0004
 -10226114.73046  -7917257.81847  23283803.3754                   23283792.4884
        41.0004         42.5004
  -7408521.46946  -7223028.45945  23686150.5084                   23686142.7274
        37.0004         34.5004
   -294484.92845   -432582.22344  25171893.5314                   25171885.6334
        33.5004         28.2504
 -18111979.92048 -20274584.03749  20496410.1094                   20496400.6884
        52.7504         55.0004
 23  1  1  1 13  0.0000000  0 12G24G23G22G27G08G21G12G10G31G01G25G32
  -5155009.64245  -4927452.89943  23929776.5084                   23929768.0824
        33.5004         19.7504
  -5554289.38847  -6321852.51245  22841630.8204                   22841620.9304
        44.5004         31.0004
 -13494236.96147 -11158521.57746  21170942.0234                   21170930.7854
        45.7504         37.5004
                                  25197312.3204                   25197301.2584
        33.2504         25.2504
  -9050258.15445  -7028313.52345  24508306.9844                   24508300.3754
        31.5004         31.2504
 -15496464.10247 -11170304.98845  22742842.0864                   22742830.0864
        44.7504         34.7504
   -913123.12046   -694136.71843  25437215.8054                   25437205.7974
        38.5004         18.2504
 -26037690.69348 -20154402.37649  20792740.0474                   20792731.4454
        50.0004         55.0004
 -10341192.42646  -8006928.75047  23261905.1644                   23261893.9264
        41.5004         43.0004
  -7507202.41646  -7299922.69245  23667372.5864                   23667364.1604
        37.5004         34.7504
   -377758.45745   -497470.47844  25156046.3914                   25156039.7814
        33.0004         27.2504
 -18108779.58148 -20272090.25949  20497019.0394                   20497009.7934
        52.2504         55.0004
 23  1  1  1 13 30.0000000  0 12G24G23G22G27G08G21G12G10G31G01G25G32
  -5057628.52145  -4851571.54943  23948308.2894                   23948299.6884
        34.7504         21.7504
  -5474844.97747  -6259947.80645  22856748.9694                   22856739.2544
        44.5004         32.0004
 -13540175.23247 -11194317.62046  21162199.2814                   21162187.8094
        47.0004         37.5004
  -8420806.50655  -6400532.59754  25214988.7034                   25214980.1024
        33.5004         25.5004
  -8979348.27145  -6973059.09245  24521800.8674                   24521794.4344
        32.2504         30.5004
 -15547494.78647 -11210069.15545  22733131.0474                   22733119.2234
        45.5004         34.0004
   -979467.65845   -745833.70242  25424588.9144                   25424580.7814
        35.0004         16.2504
 -26006902.93648 -20130411.92549  20798599.0004                   20798589.9304
        50.0004         55.0004
 -10456108.35946  -8096473.63747  23240037.5554                   23240026.0234
        41.2504         43.0004
  -7605597.69546  -7376594.33345  23648649.3834                   23648640.1374
        39.0004         35.0004
   -460937.19345   -562285.13044  25140216.9534                   25140211.3404
        31.5004         25.5004
 -18105210.49548 -20269309.14949  20497698.0004                   20497688.9304
        52.5004         54.7504
 23  1  1  1 14  0.0000000  0 12G24G23G22G27G08G21G12G10G31G01G25G32
  -4959922.26845  -4775436.81943  23966901.7664                   23966892.4024
        35.5004         19.5004
  -5395188.44147  -6197877.82245  22871907.5944                   22871897.1174
        44.5004         31.5004
 -13585771.90647 -11229847.48746  21153522.6564                   21153511.6524
        47.0004         37.5004
  -8327944.39944  -6328172.47544  25232657.4774                   25232649.3444
        29.7504         24.0004
  -8908192.89745  -6917613.39945  24535341.3524                   24535334.5084
        33.7504         30.5004
 -15598133.12347 -11249527.60745  22723496.1094                   22723483.5824
        46.0004         34.0004
  -1045521.44046   -797304.04442  25412019.2734                   25412010.9654
        36.7504         16.7504
 -25975784.76148 -20106164.00849  20804520.3054                   20804511.4104
        50.5004         55.0004
 -10570855.38447  -8185886.89747  23218201.4694                   23218191.2274
        42.0004         42.7504
  -7703700.18246  -7453037.82445  23629979.1024                   23629971.6724
        37.0004         34.0004
   -544013.97645   -627020.24544  25124408.3914                   25124402.1914
        33.0004         27.5004
 -18101269.33648 -20266238.11349  20498448.0474                   20498438.9774
        53.5004         55.0004
 23  1  1  1 14 30.0000000  0 12G24G23G22G27G08G21G12G10G31G01G25G32
  -4861896.65445  -4699053.25243  23985554.2584                   23985545.7734
        33.2504         20.0004
  -5315323.11447  -6135645.14145  22887105.1024                   22887094.8594
        44.5004         32.0004
 -13631029.93447 -11265113.46646  21144910.3134                   21144899.3094
        46.5004         37.5004
  -8235116.89555  -6265694.84354  25250324.4064                   25250314.2234
        33.7504         26.0004
  -8836797.91145  -6861980.93545  24548929.5004                   24548920.4884
        34.5004         31.5004
 -15648380.47847 -11288681.38945  22713933.0944                   22713921.5634
        45.0004         33.7504
  -1111284.34046   -848547.79943  25399506.8674                   25399497.2114
        39.2504         19.0004
 -25944338.69048 -20081660.57449  20810504.5554                   20810495.6604
        50.2504         54.7504
 -10685433.27347  -8275168.37147  23196397.8984                   23196387.4224
        42.0004         42.7504
  -7801509.74946  -7529253.09945  23611367.9224                   23611359.3794
        38.0004         35.0004
   -626988.19945   -691675.50744  25108620.3364                   25108612.8484
        34.2504         28.2504
 -18096959.73448 -20262879.97449  20499268.1334                   20499259.0044
        52.5004         55.0004
 23  1  1  1 15  0.0000000  0 12G24G23G22G27G08G21G12G10G31G01G25G32
  -4763552.97245  -4622421.83043  24004268.9534                   24004261.0554
        33.5004         20.2504
  -5235248.00447  -6073248.97145  22902342.5864                   22902332.4614
        43.5004         31.0004
 -13675947.77747 -11300114.36646  21136362.4844                   21136351.7154
        47.0004         37.7504
  -8142329.33544  -6193392.87143  25267978.5474                   25267971.4694
        29.7504         22.7504
  -8765165.25645  -6806163.35345  24562559.2114                   24562551.3714
        34.7504         30.5004
 -15698233.71447 -11327528.05845  22704446.4144                   22704435.0594
        45.5004         35.0004
  -1176751.99746   -899561.48443  25387048.9534                   25387037.7734
        37.5004         19.7504
 -25912563.18048 -20056900.44549  20816551.4064                   20816542.4534
        50.5004         55.0004
 -10799837.27547  -8364314.34147  23174627.7424                   23174617.0904
        42.0004         43.0004
  -7899022.15446  -7605236.76545  23592809.9924                   23592803.5594
        37.0004         34.2504
   -709855.26445   -756247.24644  25092849.4304                   25092844.0514
        32.7504         28.0004
 -18092281.14748 -20259234.31949  20500158.4924                   20500149.3634
        53.5004         54.7504
 23  1  1  1 15 30.0000000  0 12G24G23G22G27G08G21G12G10G31G01G25G32
  -4664895.94345  -4545546.22943  24023043.2424                   24023034.8164
        33.7504         19.0004
  -5154965.46947  -6010691.16745  22917619.5004                   22917609.9614
        43.7504         31.0004
 -13720527.32347 -11334851.67046  21127879.5474                   21127868.6024
        47.5004         37.7504
  -8049596.43155  -6153135.16153  25285632.0864                   25285619.0314
        34.5004         22.7504
  -8693299.01645  -6750163.66445  24576233.8524                   24576227.1844
        32.0004         30.7504
 -15747693.42347 -11366068.09645  22695034.8444                   22695022.7274
        46.0004         34.2504
  -1241923.15146   -950344.13143  25374645.5554                   25374636.0164
        36.0004         19.2504
 -25880459.61248 -20031884.69249  20822660.2584                   20822651.5984
        50.5004         55.0004
 -10914066.26547  -8453323.94147  23152891.1094                   23152879.6954
        42.0004         43.0004
  -7996236.37746  -7680988.11945  23574312.5554                   23574304.1884
        38.2504         35.0004
   -792613.75945   -820734.38044  25077101.7734                   25077095.6334
        33.0004         27.2504
 -18087236.27849 -20255303.25249  20501118.4774                   20501109.2304
        54.2504         54.7504
 23  1  1  1 16  0.0000000  0 11G24G23G22G08G21G12G10G31G01G25G32
  -4565923.11545  -4468424.55343  24041876.6884                   24041868.5554
        33.5004         20.2504
  -5074470.49147  -5947967.86945  22932937.9454                   22932927.8794
        44.5004         31.7504
 -13764763.02847 -11369321.03646  21119461.2424                   21119450.6484
        47.0004         38.0004
  -8621196.41046  -6693979.81845  24589957.9144                   24589948.4344
        36.0004         32.0004
 -15796752.25647 -11404295.76245  22685698.8134                   22685687.2234
        46.2504         33.5004
  -1306789.49046  -1000889.20243  25362301.5704                   25362291.7974
        36.5004         18.5004
 -25848022.51148 -20006609.04049  20828832.9144                   20828824.0204
        51.0004         55.0004
 -11028111.86347  -8542190.64647  23131187.9304                   23131177.5124
        42.7504         43.2504
  -8093144.03846  -7756500.57845  23555870.5164                   23555862.9694
        37.5004         34.0004
   -875255.01045   -885130.18144  25061375.2114                   25061368.8364
        32.7504         25.2504
 -18081820.57148 -20251083.21549  20502149.1954                   20502140.0664
        53.5004         54.7504
 23  1  1  1 16 30.0000000  0 12G24G23G22G27G08G21G12G10G31G01G25G32
  -4466645.25145  -4391065.24043  24060769.4304                   24060760.4184
        33.2504         20.0004
  -4993771.58647  -5885085.63845  22948295.2664                   22948284.7304
        45.0004         31.5004
 -13808662.93147 -11403528.74646  21111107.9844                   21111096.3954
        47.0004         38.0004
                                  25320902.938
        33.000
  -8548869.15945  -6637620.96045  24603719.4064                   24603711.7424
        34.5004         31.0004
 -15845417.00147 -11442216.33845  22676438.1564                   22676426.6254
        45.0004         34.5004
  -1371355.89445  -1051200.52542  25350014.1254                   25350005.4064
        35.5004         17.2504
 -25815259.00748 -19981079.06149  20835067.5704                   20835058.7344
        50.5004         55.0004
 -11141978.93247  -8630918.24247  23109520.3204                   23109509.4924
        42.5004         43.5004
  -8189750.28146  -7831778.17545  23537487.9454                   23537479.9884
        38.5004         35.5004
   -957783.75655   -949438.33954  25045670.4304                   25045664.1134
        32.5004         26.7504
 -18076042.79849 -20246581.05049  20503248.5234                   20503239.5124
        54.0004         55.0004
 23  1  1  1 17  0.0000000  0 12G24G23G22G27G08G21G12G10G31G01G25G32
  -4367062.60245  -4313468.34543  24079718.6724                   24079709.7774
        34.2504         19.5004
  -4912866.44647  -5822042.70245  22963689.7344                   22963679.7274
        43.0004         31.0004
 -13852223.97147 -11437472.39246  21102818.3054                   21102807.5354
        47.0004         38.0004
                                  25338526.2664                   25338513.4454
        34.5004         27.0004
  -8476317.08345  -6581086.93345  24617525.4924                   24617517.6524
        34.5004         31.2504
 -15893682.98247 -11479826.17945  22667254.4774                   22667242.1844
        46.2504         35.0004
  -1435616.37346  -1101273.59242  25337786.3984                   25337777.3284
        36.7504         17.2504
 -25782166.42848 -19955292.65449  20841364.8134                   20841355.8594
        50.2504         55.0004
 -11255661.56447  -8719502.10247  23087886.7274                   23087876.7774
        43.2504         43.5004
  -8286049.41946  -7906816.45045  23519161.5234                   23519154.2114
        38.2504         35.5004
  -1040193.92855  -1013653.96054  25029988.8674                   25029982.4924
        32.7504         27.0004
 -18069901.16148 -20241795.35649  20504417.1024                   20504408.2074
        53.7504         54.7504
 23  1  1  1 17 30.0000000  0 12G24G23G22G27G08G21G12G10G31G01G25G32
  -4267176.99345  -4235635.44843  24098725.7194                   24098718.1724
        32.5004         18.2504
  -4831754.73447  -5758838.79745  22979125.7034                   22979115.2854
        43.7504         31.2504
 -13895445.79847 -11471151.72546  21094593.3594                   21094582.6484
        47.5004         38.5004
                                  25356133.7974                   25356126.6024
        29.7504         22.7504
  -8403541.87745  -6524378.98745  24631373.7734                   24631366.0514
        34.5004         31.5004
 -15941547.14747 -11517122.94545  22658145.7664                   22658133.7074
        46.2504         34.5004
  -1499567.24546  -1151105.26443  25325618.2034                   25325608.5474
        37.5004         18.5004
 -25748743.37948 -19929248.73549  20847725.3054                   20847716.2934
        50.2504         54.7504
 -11369155.99447  -8807939.31747  23066290.9224                   23066279.6254
        43.5004         44.2504
  -8382037.62146  -7981612.45445  23500897.1644                   23500887.8594
        39.5004         35.2504
  -1122481.35955  -1077774.06454  25014328.4844                   25014324.1054
        30.5004         27.2504
 -18063395.56548 -20236726.05649  20505655.2114                   20505646.3164
        52.7504         54.7504
 23  1  1  1 18  0.0000000  0 12G24G23G22G27G08G21G12G10G31G01G25G32
  -4166994.99445  -4157571.52743  24117791.4534                   24117781.5634
        35.2504         18.5004
  -4750440.43547  -5695477.06345  22994599.4304                   22994589.0124
        44.0004         31.7504
 -13938331.67547 -11504569.28446  21086431.9774                   21086421.3244
        46.7504         38.2504
                                  25373734.1334                   25373725.7664
        29.5004         22.5004
  -8330550.74845  -6467502.77445  24645262.6804                   24645255.4844
        33.5004         30.7504
 -15989012.63347 -11554109.03445  22649113.0164                   22649101.2504
        45.2504         34.0004
  -1563209.08045  -1200696.21643  25313506.2344                   25313497.9264
        35.7504         19.2504
 -25714993.07948 -19902949.80349  20854147.6954                   20854138.5084
        51.0004         54.7504
 -11482462.57647  -8896230.16747  23044727.9924                   23044717.8094
        42.5004         44.2504
  -8477715.65046  -8056166.75045  23482690.1564                   23482681.7304
        39.5004         35.5004
  -1204646.43445  -1141798.73344  24998693.5164                   24998687.6684
        34.0004         27.0004
 -18056530.55049 -20231376.69249  20506961.3984                   20506952.5634
        54.2504         55.0004
 23  1  1  1 18 30.0000000  0 12G24G23G22G27G08G21G12G10G31G01G25G32
  -4066509.72545  -4079271.36043  24136912.0634                   24136903.2274
        33.5004         19.7504
  -4668914.48047  -5631950.38345  23010112.3984                   23010102.3914
        43.7504         31.0004
 -13980871.93047 -11537717.51746  21078336.6334                   21078326.4494
        46.7504         38.5004
                                  25391329.5234                   25391318.4614
        35.2504         22.5004
  -8257336.15446  -6410452.47545  24659196.2344                   24659188.4534
        36.2504         31.7504
 -16036067.64647 -11590775.26745  22640159.4774                   22640147.0084
        46.5004         34.0004
  -1626529.20546  -1250036.54342  25301457.7974                   25301448.3754
        37.2504         17.2504
 -25680905.70148 -19876388.22649  20860633.9384                   20860625.1024
        50.5004         55.0004
 -11595568.54947  -8984364.67747  23023205.5084                   23023194.1524
        42.5004         44.5004
  -8573070.94146  -8130469.57046  23464544.9224                   23464536.0274
        40.0004         36.0004
  -1286676.22055  -1205718.01254  24983083.6024                   24983077.7544
        31.0004         25.7504
 -18049297.32048 -20225740.41449  20508337.8984                   20508329.1804
        53.7504         54.7504
 23  1  1  1 19  0.0000000  0 12G24G23G22G27G08G21G12G10G31G01G25G32
  -3965733.66745  -4000744.56643  24156089.4774                   24156081.5784
        33.5004         20.5004
  -4587186.85847  -5568266.54545  23025664.8594                   23025654.7344
        44.0004         31.0004
 -14023076.20247 -11570603.95046  21070306.0314                   21070295.3204
        47.7504         39.0004
                                  25408902.4144                   25408895.3954
        29.5004         23.7504
  -8183911.51746  -6353238.46045  24673170.9144                   24673160.9064
        36.0004         32.0004
 -16082719.99147 -11627127.76145  22631281.4924                   22631269.2584
        46.2504         34.7504
  -1689534.18146  -1299131.25942  25289468.4064                   25289458.5164
        36.0004         16.7504
 -25646490.45248 -19849571.16049  20867183.3134                   20867174.2424
        51.2504         55.0004
 -11708480.55347  -9072348.06147  23001718.4454                   23001707.8524
        42.2504         44.5004
  -8668110.17446  -8204526.12646  23446458.0704                   23446450.7584
        38.2504         36.0004
                                  24967496.3594                   24967492.5664
        31.5004         27.5004
 -18041706.30248 -20219825.33049  20509782.4384                   20509773.7774
        53.7504         54.7504
 23  1  1  1 19 30.0000000  0 12G24G23G22G27G08G21G12G10G31G01G25G32
  -3864670.22345  -3921993.90043  24175320.6564                   24175313.8134
        32.0004         19.7504
  -4505258.57947  -5504426.38945  23041256.1564                   23041245.5634
        44.5004         30.7504
 -14064945.04147 -11603229.00546  21062338.9304                   21062328.1604
        47.7504         38.7504
    481124.28645  -5683617.06244  25426470.4144                   25426461.5784
        31.5004         25.5004
  -8110279.59145  -6295862.96245  24687178.7974                   24687172.2464
        34.7504         31.0004
 -16128968.68447 -11663165.70245  22622480.3594                   22622468.4184
        45.7504         35.0004
  -1752221.48345  -1347978.47743  25277537.7894                   25277528.8364
        34.7504         18.5004
 -25611747.69248 -19822498.88849  20873794.4304                   20873786.0044
        50.2504         54.7504
 -11821196.03847  -9160178.29147  22980269.7504                   22980258.7464
        42.5004         44.5004
  -8762830.95246  -8278334.48946  23428433.9144                   23428425.8404
        40.0004         36.0004
                                  24951938.0784                   24951933.1134
        31.2504         26.0004
 -18033758.93748 -20213632.57649  20511294.8204                   20511285.8674
        53.0004         55.0004
 23  1  1  1 20  0.0000000  0 12G24G23G22G27G08G21G12G10G31G01G25G32
  -3763311.10945  -3843012.76643  24194608.2424                   24194601.1054
        31.7504         20.0004
  -4423119.13947  -5440421.66145  23056886.0474                   23056876.3914
        43.5004         31.0004
 -14106467.51947 -11635584.17146  21054437.3594                   21054426.3554
        47.5004         39.0004
                                  25444027.023
        34.500
  -8036432.44245  -6238319.76445  24701233.5864                   24701224.8094
        35.5004         31.7504
 -16174801.49447 -11698879.57545  22613759.3674                   22613746.6054
        45.7504         34.5004
  -1814576.58845  -1396566.82242  25265671.6094                   25265662.7734
        35.0004         17.2504
 -25576665.75148 -19795162.32649  20880470.5164                   20880461.7384
        50.5004         54.7504
 -11933700.89347  -9247844.40547  22958860.5394                   22958850.2974
        42.7504         44.7504
  -8857219.21446  -8351883.78546  23410472.9144                   23410464.1954
        38.5004         36.0004
                                  24936405.469
        31.750
 -18025444.98048 -20207154.16449  20512876.8364                   20512868.0004
        52.5004         55.2504
 23  1  1  1 20 30.0000000  0 12G24G23G22G27G08G21G12G10G31G01G25G32
  -3661670.25145  -3763812.11443  24213950.6954                   24213942.2114
        33.5004         19.5004
  -4340780.02947  -5376261.35645  23072555.1334                   23072544.4224
        43.5004         30.5004
 -14147654.40148 -11667677.83546  21046599.5084                   21046589.0904
        48.0004         38.5004
                                  25461566.047
        30.000
  -7962383.82245  -6180619.60945  24715321.6954                   24715315.9064
        33.7504         30.5004
 -16220227.65347 -11734276.58645  22605114.6724                   22605102.5554
        46.2504         34.0004
  -1876608.35845  -1444903.30942  25253867.6024                   25253858.5904
        34.5004         17.7504
 -25541255.65548 -19767570.05449  20887208.8204                   20887199.6914
        50.5004         54.7504
 -12046002.76147  -9335352.34947  22937490.5474                   22937479.0744
        42.7504         44.5004
  -8951283.21046  -8425180.38945  23392572.9614                   23392565.0044
        39.0004         35.7504
                                  24920900.5474                   24920894.6414
        33.5004         28.5004
 -18016776.37748 -20200399.40649  20514526.6414                   20514517.3954
        52.5004         55.0004
 23  1  1  1 21  0.0000000  0 12G24G23G22G27G08G21G12G10G31G01G25G32
  -3559747.66445  -3684391.90343  24233345.9454                   24233337.2854
        33.0004         19.2504
  -4258238.78047  -5311943.56645  23088262.3134                   23088251.7194
        43.5004         30.7504
 -14188503.22347 -11699508.08046  21038825.9304                   21038815.6884
        47.7504         39.0004
                                  25479091.9224                   25479082.7344
        33.0004         25.5004
  -7888134.17946  -6122762.71945  24729454.6484                   24729445.8714
        36.2504         31.0004
 -16265242.86047 -11769353.38145  22596549.0234                   22596536.6724
        46.5004         34.5004
  -1938310.75945  -1492983.03842  25242126.4304                   25242117.7114
        35.5004         16.2504
 -25505514.06948 -19739719.48549  20894010.2344                   20894001.2234
        50.5004         54.7504
 -12158095.92847  -9422697.66347  22916159.8204                   22916148.6994
        43.0004         44.7504
  -9045017.05146  -8498219.72445  23374736.1334                   23374727.4734
        38.2504         35.5004
                                  24905421.2664                   24905415.4184
        32.5004         26.0004
 -18007751.12048 -20193366.73749  20516244.0704                   20516235.0004
        53.0004         54.7504
 23  1  1  1 21 30.0000000  0 11G24G23G22G08G21G12G10G31G01G25G32
  -3457545.39445  -3604753.82842  24252794.5084                   24252786.4344
        32.2504         17.7504
  -4175495.47947  -5247468.30345  23104007.3364                   23103997.3284
        43.2504         31.0004
 -14229013.49347 -11731074.52046  21031117.4224                   21031106.7114
        47.0004         39.5004
  -7813685.93545  -6064751.11045  24743619.4144                   24743612.2774
        35.5004         31.7504
 -16309845.04047 -11804108.32545  22588060.9144                   22588048.9734
        45.2504         34.5004
  -1999680.24646  -1540803.38042  25230448.1174                   25230439.0474
        36.2504         17.7504
 -25469439.88148 -19711609.73149  20900874.7344                   20900865.9574
        51.2504         54.7504
 -12269976.71247  -9509877.48447  22894869.6804                   22894858.3834
        42.7504         44.7504
  -9138417.34146  -8570999.16845  23356961.4454                   23356953.6644
        38.0004         35.5004
  -1775987.14855  -1574619.16354  24889972.1484                   24889965.7734
        32.2504         28.5004
 -17998369.54548 -20186056.42249  20518029.1954                   20518020.0664
        53.5004         55.0004
 23  1  1  1 22  0.0000000  0 12G24G23G22G27G08G21G12G10G31G01G25G32
  -3355066.59245  -3524900.23043  24272294.5084                   24272286.8444
        32.5004         19.2504
  -4092550.55047  -5182835.93444  23119791.9454                   23119780.7074
        43.0004         29.7504
 -14269184.93247 -11762376.93346  21023473.0234                   21023462.1954
        47.5004         39.5004
                                  25514099.9454                   25514091.4614
        32.0004         26.5004
  -7739041.05845  -6006586.31845  24757823.1334                   24757816.8754
        33.2504         32.0004
 -16354032.46347 -11838540.08945  22579652.5234                   22579640.6994
        45.2504         34.2504
  -2060713.50745  -1588361.76043  25218831.5704                   25218825.7234
        33.0004         18.2504
 -25433033.15948 -19683240.87649  20907802.7274                   20907794.0664
        50.5004         54.7504
 -12381642.08947  -9596889.45847  22873620.3674                   22873609.2464
        43.2504         45.0004
  -9231481.17846  -8643516.43645  23339252.3834                   23339244.7774
        38.0004         35.0004
  -1857027.51545  -1637767.50344  24874550.7664                   24874543.9804
        31.7504         26.5004
 -17988632.61248 -20178469.20249  20519882.0554                   20519872.7504
        53.2504         55.0004
 23  1  1  1 22 30.0000000  0 12G24G23G22G27G08G21G12G10G31G01G25G32
  -3252313.60945  -3444833.03643  24291849.6884                   24291841.2034
        33.5004         20.2504
  -4009404.18647  -5118046.61444  23135613.5314                   23135603.4654
        43.2504         29.2504
 -14309017.27847 -11793415.12146  21015893.5554                   21015882.4924
        47.5004         39.7504
                                  25531581.9774                   25531574.0784
        24.5004         22.5004
  -7664203.42945  -5948271.32045  24772066.0234                   24772058.1844
        35.0004         33.0004
 -16397803.27847 -11872647.20745  22571323.1564                   22571311.0984
        45.5004         34.5004
  -2121407.43445  -1635655.72542  25207283.8134                   25207275.6804
        33.5004         17.7504
 -25396293.32548 -19654612.44949  20914794.5784                   20914785.3914
        52.0004         55.0004
 -12493088.40647  -9683730.73147  22852412.4844                   22852401.8914
        42.7504         44.7504
  -9324205.31846  -8715769.01145  23321608.1254                   23321599.7584
        38.0004         35.0004
  -1937912.57145  -1700794.84144  24859157.9694                   24859152.2384
        32.7504         28.5004
 -17978540.80149 -20170605.45349  20521802.4064                   20521793.4534
        54.0004         54.7504
 23  1  1  1 23  0.0000000  0 12G24G23G22G27G08G21G12G10G31G01G25G32
  -3149294.48645  -3364558.39843  24311452.8204                   24311444.2194
        32.5004         18.5004
  -3926062.03747  -5053104.70944  23151473.3984                   23151463.3324
        42.7504         29.2504
 -14348515.68947 -11824193.09646  21008376.6254                   21008366.0314
        47.5004         39.7504
    649789.39655  -5332596.41953  25549047.6564                   25549039.8164
        33.5004         23.0004
  -7589180.06745  -5889811.58945  24786342.8754                   24786334.6844
        34.7504         31.2504
 -16441161.50047 -11906432.84145  22563071.8364                   22563060.4804
        45.7504         34.5004
  -2181764.00656  -1682686.75352  25195799.8914                   25195790.0594
        36.2504         15.5004
 -25359224.99548 -19625728.05449  20921848.3444                   20921839.3914
        51.0004         54.7504
 -12604317.64247  -9770402.85447  22831246.1724                   22831235.7544
        42.7504         44.7504
  -9416591.86946  -8787758.53545  23304027.9224                   23304019.2034
        39.0004         35.5004
  -2018644.12455  -1763702.59854  24843796.2504                   24843789.4654
        32.7504         28.5004
 -17968100.16848 -20162469.88849  20523789.2504                   20523780.0044
        52.5004         55.0004
 23  1  1  1 23 30.0000000  0 12G24G23G22G27G08G21G12G10G31G01G25G32
  -3045999.49045  -3284068.84543  24331110.1414                   24331100.6024
        34.7504         20.2504
  -3842512.10147  -4988000.92945  23167372.3524                   23167362.1094
        43.0004         30.2504
 -14387668.02047 -11854701.39046  21000926.6254                   21000915.7974
        47.7504         40.0004
                                  25566498.5164                   25566490.2664
        32.2504         22.5004
  -7513961.99645  -5831200.13045  24800656.2894                   24800648.7424
        35.5004         31.7504
 -16484092.90147 -11939885.88945  22554902.6254                   22554890.8594
        46.0004         35.0004
  -2241768.05045  -1729443.25042  25184380.3444                   25184371.9184
        34.2504         16.2504
 -25321815.45848 -19596577.78349  20928967.0314                   20928958.1374
        52.0004         54.7504
 -12715314.50647  -9856893.91147  22810124.5864                   22810113.4654
        43.2504         45.0004
  -9508625.61846  -8859473.13045  23286512.9224                   23286505.7274
        38.0004         35.0004
  -2099206.37144  -1826478.37044  24828464.2734                   24828458.1914
        29.7504         26.0004
 -17957299.14648 -20154053.51049  20525844.7584                   20525835.6884
        53.5004         54.7504
 23  1  1  1 24  0.0000000  0 12G24G23G22G27G08G21G12G10G31G01G25G32
  -2942447.99145  -3203379.39743  24350815.4614                   24350806.2154
        35.0004         19.5004
  -3758771.44747  -4922748.51144  23183307.0944                   23183296.9104
        42.7504         29.7504
 -14426490.92548 -11884952.99246  20993539.2894                   20993528.1094
        48.0004         40.0004
    833101.04154  -5189755.63053  25583928.3674                   25583922.4614
        27.2504         22.7504
  -7438568.50845  -5772451.98845  24815002.5944                   24814994.7544
        35.0004         32.5004
 -16526612.65447 -11973018.17145  22546811.7734                   22546799.5394
        46.5004         34.5004
  -2301432.83245  -1775935.13742  25173025.3754                   25173017.7704
        31.7504         16.7504
 -25284080.91748 -19567174.25149  20936147.6094                   20936138.6564
        52.5004         54.7504
 -12826092.34347  -9943214.28147  22789044.3674                   22789033.2464
        43.2504         45.0004
  -9600319.96246  -8930923.27445  23269065.7504                   23269057.0314
        38.7504         35.7504
  -2179612.49745  -1889132.51644  24813164.1334                   24813157.8164
        32.2504         28.0004
 -17946155.07848 -20145369.82749  20527965.5634                   20527956.3754
        53.0004         54.7504
 23  1  1  1 24 30.0000000  0 12G24G23G22G27G08G21G12G10G31G01G25G32
  -2838630.14445  -3122482.38143  24370571.5164                   24370561.2154
        33.5004         19.5004
  -3674827.82847  -4857337.93545  23199281.6334                   23199271.4494
        42.5004         30.0004
 -14464971.63147 -11914937.95246  20986215.9924                   20986205.2814
        47.0004         40.0004
    924622.94355  -5118439.20654  25601346.3204                   25601337.9534
        32.2504         25.2504
  -7362989.20945  -5713559.02045  24829383.9144                   24829377.6564
        33.5004         32.5004
 -16568706.17647 -12005818.32645  22538800.8524                   22538789.6134
        44.7504         34.2504
  -2360743.11446  -1822150.90942  25161740.5864                   25161730.6954
        37.5004         17.2504
 -25246008.58248 -19537507.51049  20943392.6724                   20943383.6024
        52.0004         54.7504
 -12936635.18647 -10029351.55647  22768008.4694                   22767997.5824
        42.7504         45.5004
  -9691659.42546  -9002096.88846  23251682.9064                   23251675.6524
        38.2504         36.0004
  -2259846.39145  -1951652.38344  24797895.4774                   24797890.0394
        31.5004         26.7504
 -17934656.29548 -20136409.74049  20530153.6094                   20530144.1884
        53.2504         55.0004
 23  1  1  1 25  0.0000000  0 12G24G23G22G27G08G21G12G10G31G01G25G32
  -2734552.10545  -3041382.66743  24390376.3984                   24390368.6174
        34.2504         21.0004
  -3590685.28647  -4791772.39144  23215293.3594                   23215283.9384
        42.5004         29.2504
 -14503113.62648 -11944658.98046  20978958.0634                   20978947.3524
        48.2504         40.5004
   1016048.94655  -5047198.12354  25618742.4384                   25618735.7704
        30.5004         25.7504
  -7287231.34545  -5654526.97045  24843799.9224                   24843794.3674
        34.0004         32.2504
 -16610375.94047 -12038288.25545  22530871.1884                   22530859.8324
        45.2504         34.7504
  -2419699.41145  -1868090.84243  25150520.8834                   25150512.2234
        35.2504         18.5004
 -25207601.51448 -19507579.94149  20950701.2974                   20950692.1684
        50.5004         55.0004
 -13046943.51447 -10115306.08247  22747017.7814                   22747006.8364
        44.0004         45.5004
  -9782644.54646  -9072994.38046  23234370.1954                   23234361.5944
        39.0004         36.7504
  -2339908.30255  -2014038.20054  24782659.2584                   24782655.2304
        32.2504         28.7504
 -17922807.03148 -20127176.53649  20532408.4614                   20532398.9224
        52.5004         55.0004
 23  1  1  1 25 30.0000000  0 12G24G23G22G27G08G21G12G10G31G01G25G32
  -2630213.92945  -2960080.19943  24410230.7114                   24410222.4024
        35.2504         18.5004
  -3506341.46347  -4726049.97344  23231343.6254                   23231333.4414
        42.7504         29.0004
 -14540914.08148 -11974113.87146  20971764.9064                   20971753.7274
        49.0004         40.5004
                                  25636123.4614                   25636114.8594
        32.7504         22.7504
  -7211294.67646  -5595355.58145  24858253.3594                   24858244.3484
        36.2504         31.7504
 -16651617.51247 -12070424.55345  22523023.8054                   22523012.0984
        46.0004         35.2504
  -2478295.49445  -1913750.06842  25139370.6484                   25139361.6954
        34.7504         17.7504
 -25168856.35448 -19477388.92049  20958074.1804                   20958065.1094
        51.2504         54.7504
 -13157011.38547 -10201073.25247  22726072.4304                   22726061.5434
        43.7504         46.0004
  -9873269.53746  -9143611.25146  23217124.5084                   23217116.4344
        38.7504         37.0004
  -2419792.00155  -2076285.14754  24767459.6254                   24767452.6054
        33.0004         29.0004
 -17910605.38448 -20117668.75949  20534730.4064                   20534720.9264
        52.7504         55.0004
 23  1  1  1 26  0.0000000  0 12G24G23G22G27G08G21G12G10G31G01G25G32
  -2525631.34745  -2878587.22743  24430132.5634                   24430123.6684
        34.7504         20.2504
  -3421809.71946  -4660181.12844  23247428.6644                   23247418.8914
        41.2504         29.0004
 -14578385.98648 -12003312.75046  20964634.1954                   20964623.1334
        48.2504         40.5004
   1198606.50855  -4904945.42453  25653483.8524                   25653474.7814
        30.2504         22.7504
  -7135195.03445  -5536057.13345  24872733.6884                   24872725.2034
        35.2504         32.2504
 -16692442.44547 -12102236.18945  22515255.0554                   22515243.2894
        46.2504         35.0004
  -2536541.68245  -1959136.65442  25128285.4304                   25128276.5354
        34.5004         15.5004
 -25129786.09448 -19446944.57849  20965509.0944                   20965499.7894
        51.5004         54.7504
 -13266848.57747 -10286660.65347  22705170.9534                   22705160.0084
        43.7504         46.0004
  -9963544.34946  -9213955.25946  23199946.4774                   23199937.4654
        40.7504         38.0004
  -2499507.08055  -2138400.72654  24752290.1174                   24752283.5084
        31.7504         28.0004
 -17898065.14748 -20107897.14649  20537116.5634                   20537107.3164
        52.5004         55.2504
 23  1  1  1 26 30.0000000  0 12G24G23G22G27G08G21G12G10G31G01G25G32
  -2420793.80945  -2796895.74043  24450083.1564                   24450074.0864
        34.7504         18.5004
  -3337077.35047  -4594155.95044  23263553.2424                   23263543.4694
        42.0004         29.0004
 -14615516.02148 -12032245.23246  20957568.6954                   20957557.5164
        48.5004         40.5004
   1289733.53555  -4833937.35853  25670822.4304                   25670816.4654
        30.2504         22.7504
  -7058921.19445  -5476622.99145  24887246.8524                   24887240.5944
        33.5004         32.5004
 -16732835.89447 -12133711.59045  22507568.1414                   22507556.5514
        46.0004         34.7504
  -2594421.73855  -2004237.89352  25117271.7974                   25117262.5514
        33.5004         16.2504
 -25090376.96448 -19416236.17949  20973008.3444                   20972999.2734
        50.7504         55.0004
 -13376438.73447 -10372055.57547  22684316.6564                   22684305.4184
        44.2504         46.0004
 -10053452.78646  -9284013.77346  23182836.3204                   23182828.7734
        39.5004         37.7504
  -2579036.69455  -2200371.70554  24737155.5004                   24737149.1844
        32.0004         27.5004
 -17885173.94348 -20097852.05049  20539569.6484                   20539560.3444
        52.5004         54.7504
 23  1  1  1 27  0.0000000  0 12G24G23G22G27G08G21G12G10G31G01G25G32
  -2315708.79345  -2715011.31643  24470079.3754                   24470069.9534
        34.0004         19.0004
  -3252149.37947  -4527978.37644  23279715.0634                   23279705.1134
        42.7504         29.7504
 -14652309.13748 -12060915.18346  20950567.1804                   20950555.9414
        48.2504         40.7504
   1380755.77855  -4763011.00954  25688142.7734                   25688136.6334
        31.0004         25.0004
  -6982481.57545  -5417059.69645  24901792.8054                   24901785.9614
        35.2504         33.0004
 -16772800.85747 -12164853.12345  22499962.7114                   22499951.6484
        46.0004         35.0004
  -2651937.03646  -2049054.87942  25106327.9924                   25106317.6914
        36.0004         16.2504
 -25050633.30548 -19385267.10049  20980571.4224                   20980562.3524
        51.7504         54.7504
 -13485783.14447 -10457259.00147  22663509.4064                   22663498.2854
        44.5004         46.2504
 -10142996.50846  -9353788.07946  23165798.0394                   23165788.6174
        41.0004         38.5004
  -2658382.40145  -2262199.40344  24722056.6564                   24722051.1024
        31.5004         28.2504
 -17871937.19848 -20087537.70349  20542088.5864                   20542079.4574
        53.2504         55.0004
 23  1  1  1 27 30.0000000  0 12G24G23G22G27G08G21G12G10G31G01G25G32
  -2210376.80845  -2632934.49843  24490123.4454                   24490115.6054
        33.5004         20.5004
  -3167024.46147  -4461647.31944  23295913.9064                   23295903.8984
        42.0004         29.7504
 -14688763.57248 -12089321.22046  20943630.2424                   20943619.1214
        49.2504         41.0004
   1471672.48245  -4692166.72044  25705444.9454                   25705437.1054
        31.2504         24.2504
  -6905877.22446  -5357368.00045  24916371.6954                   24916362.9184
        36.5004         32.0004
 -16812334.05547 -12195658.21145  22492440.5554                   22492428.6134
        47.0004         35.0004
  -2709082.73545  -2093584.00142  25095453.2504                   25095443.4184
        34.5004         16.7504
 -25010553.15748 -19354035.83549  20988198.1564                   20988189.1454
        51.7504         54.7504
 -13594877.06147 -10542267.22047  22642749.6724                   22642738.3754
        44.7504         46.5004
 -10232170.67146  -9423274.44446  23148828.1884                   23148819.8794
        41.0004         39.0004
  -2737538.83445  -2323879.58944  24706994.8984                   24706987.2934
        34.2504         27.7504
 -17858353.94548 -20076953.34649  20544674.0864                   20544664.6644
        52.2504         55.0004
 23  1  1  1 28  0.0000000  0 12G24G23G22G27G08G21G12G10G31G01G25G32
  -2104805.48945  -2550671.16843  24510213.1094                   24510204.0394
        34.2504         20.2504
  -3081707.46847  -4395166.60444  23312148.9614                   23312138.6604
        42.7504         28.7504
 -14724884.25248 -12117467.19046  20936756.5704                   20936745.4494
        48.7504         41.2504
   1562476.89555  -4621410.04354  25722725.1094                   25722717.5634
        32.5004         25.2504
  -6829114.57245  -5297552.95545  24930977.4144                   24930970.6294
        34.0004         32.0004
 -16851438.85747 -12226129.48245  22484998.9534                   22484986.9534
        46.5004         35.5004
  -2765860.74245  -2137826.54942  25084649.1954                   25084638.7774
        35.5004         17.7504
 -24970140.50048 -19322545.46349  20995888.5784                   20995879.6254
        50.5004         55.0004
 -13703721.64147 -10627081.16247  22622037.1884                   22622025.8324
        45.0004         46.7504
 -10320976.74246  -9492473.96246  23131928.6414                   23131920.8014
        40.7504         39.2504
  -2816506.96945  -2385413.07245  24691966.4614                   24691960.9654
        32.5004         30.0004
 -17844429.44548 -20066103.08949  20547322.6884                   20547313.3244
        51.0004         55.0004
 23  1  1  1 28 30.0000000  0 12G24G23G22G27G08G21G12G10G31G01G25G32
  -1998992.22945  -2468219.29543  24530348.3204                   24530339.3094
        33.2504         19.2504
  -2996193.90046  -4328532.70344  23328421.5944                   23328411.8794
        41.5004         29.7504
 -14760665.38648 -12145348.58846  20929947.6564                   20929936.3014
        48.5004         40.7504
                                  25739980.3754                   25739976.6414
        28.0004         22.7504
  -6752192.38545  -5237613.61445  24945615.7894                   24945608.2424
        34.7504         33.0004
 -16890108.21747 -12256261.45445  22477640.4614                   22477628.7544
        46.5004         35.7504
  -2822263.15945  -2181776.47743  25073916.2344                   25073906.8714
        34.5004         18.2504
 -24929389.74248 -19290791.63949  21003643.2584                   21003634.2464
        50.5004         55.0004
 -13812308.48747 -10711694.28047  22601373.0474                   22601362.8054
        44.2504         46.7504
 -10409406.79846  -9561380.48446  23115101.7424                   23115092.6134
        40.5004         39.7504
  -2895278.47145  -2446793.34144  24676976.4614                   24676969.5594
        33.5004         29.0004
 -17830159.52348 -20054983.67049  20550038.5314                   20550029.2854
        52.5004         54.7504
 23  1  1  1 29  0.0000000  0 11G24G23G22G08G21G12G10G31G01G25G32
  -1892944.85145  -2385584.98143  24550529.0084                   24550520.4064
        35.2504         21.2504
  -2910489.22647  -4261749.90444  23344730.9614                   23344721.0124
        42.2504         29.2504
 -14796112.10048 -12172969.39546  20923202.4064                   20923191.4614
        48.5004         41.0004
  -6675118.04445  -5177555.69145  24960281.8204                   24960275.3874
        33.5004         32.0004
 -16928346.12747 -12286057.21546  22470364.2114                   22470352.2114
        45.7504         36.0004
  -2878291.88345  -2225435.14742  25063252.9774                   25063244.3164
        33.2504         16.7504
 -24888305.76048 -19258778.15949  21011461.1254                   21011452.2894
        51.5004         54.7504
 -13920639.55047 -10796108.07447  22580759.0704                   22580747.6564
        44.7504         46.7504
 -10497462.77146  -9629995.51846  23098344.7894                   23098336.4804
        41.0004         39.5004
  -2973854.87045  -2508021.59044  24662023.9534                   24662016.7584
        33.0004         28.0004
 -17815550.02548 -20043599.64149  20552818.5634                   20552809.3754
        52.0004         55.0004
 23  1  1  1 29 30.0000000  0 12G24G23G22G27G08G21G12G10G31G01G25G32
  -1786666.10045  -2302770.40442  24570752.0704                   24570744.5234
        32.0004         17.7504
  -2824593.93446  -4194818.54844  23361076.3834                   23361065.4964
        41.7504         28.0004
 -14831224.66947 -12200329.83446  20916520.3134                   20916509.3094
        46.7504         41.0004
    682705.27355  -4449946.78654  25774433.5864                   25774425.4534
        31.5004         25.5004
  -6597894.58445  -5117381.60745  24974977.3284                   24974970.4264
        35.5004         32.2504
 -16966150.81847 -12315515.41645  22463170.2194                   22463158.0434
        45.0004         35.7504
  -2933944.01445  -2268800.37542  25052662.8134                   25052654.6214
        33.2504         17.2504
 -24846888.26648 -19226504.79949  21019342.3914                   21019334.0234
        51.0004         54.7504
 -14028711.73047 -10880320.14047  22560192.9924                   22560182.2814
        44.5004         46.5004
 -10585141.85346  -9698316.87546  23081659.9224                   23081651.8484
        40.5004         39.5004
                                  24647109.9384                   24647102.2154
        35.2504         30.0004
 -17800601.92948 -20031951.77149  20555662.9144                   20555653.9024
        52.0004         55.0004
 23  1  1  1 30  0.0000000  0 12G24G23G22G27G08G21G12G10G31G01G25G32
  -1680155.47345  -2219775.07743  24591021.0704                   24591012.6454
        33.5004         19.2504
  -2738505.15647  -4127736.42744  23377458.2664                   23377448.0824
        42.2504         28.2504
 -14866000.12048 -12227427.57746  20909902.8364                   20909892.2424
        49.0004         41.2504
    773043.92545  -4379553.04544  25791624.6094                   25791616.5354
        33.5004         27.0004
  -6520521.38945  -5057090.78445  24989701.1174                   24989694.4494
        35.5004         33.0004
 -17003517.75347 -12344632.50745  22456059.6094                   22456047.2584
        47.2504         35.5004
  -2989213.33845  -2311867.33743  25042143.8754                   25042136.8554
        33.5004         18.5004
 -24805133.74648 -19193968.82549  21027287.9454                   21027279.3444
        51.5004         54.7504
 -14136518.56447 -10964325.44847  22539678.5394                   22539667.5354
        44.5004         46.5004
 -10672437.65646  -9766339.56446  23065048.5944                   23065039.5234
        41.0004         39.5004
  -3130405.71645  -2630009.09744  24632232.3834                   24632226.7114
        35.7504         29.2504
 -17785312.66848 -20020038.05349  20558572.5084                   20558563.3794
        51.2504         55.0004
 23  1  1  1 30 30.0000000  0 11G24G23G22G08G21G12G10G31G01G25G32
  -1573414.53945  -2136600.43643  24611332.9454                   24611325.3404
        32.5004         19.7504
  -2652222.56746  -4060503.31244  23393877.3444                   23393867.3364
        41.5004         28.5004
 -14900437.47448 -12254261.86246  20903349.9384                   20903338.5824
        49.0004         41.2504
  -6443000.46145  -4996684.90145  25004452.8754                   25004446.1484
        35.0004         32.7504
 -17040444.78847 -12373406.82045  22449032.4694                   22449020.3524
        46.7504         35.5004
  -3044096.08546  -2354632.96642  25031702.6414                   25031693.1024
        36.5004         17.7504
 -24763041.12648 -19161169.38649  21035298.2584                   21035289.4804
        52.0004         54.7504
 -14244056.02947 -11048120.85247  22519214.5474                   22519203.1914
        44.5004         46.5004
 -10759346.39446  -9834060.67446  23048510.8524                   23048501.5474
        41.0004         39.2504
  -3208369.11545  -2690759.73544  24617395.7424                   24617390.9534
        33.5004         27.5004
 -17769682.27148 -20007858.52149  20561547.0084                   20561537.9384
        52.0004         55.0004
 23  1  1  1 31  0.0000000  0 11G24G23G22G08G21G12G10G31G01G25G32
  -1466451.02945  -2053252.19743  24631687.9774                   24631678.7894
        34.2504         20.7504
  -2565751.39147  -3993123.23644  23410332.3524                   23410322.3444
        42.0004         28.0004
 -14934541.62847 -12280836.52246  20896859.8444                   20896848.7814
        47.2504         41.5004
  -6365339.61046  -4936170.01045  25019232.6174                   25019224.0164
        37.2504         33.2504
 -17076935.31047 -12401840.99646  22442088.4534                   22442076.6884
        45.0004         36.2504
  -3098593.96445  -2397098.86442  25021329.6884                   25021321.6134
        33.7504         17.2504
 -24720614.74048 -19128109.87549  21043371.7814                   21043362.7704
        52.0004         54.7504
 -14351325.75847 -11131707.63147  22498801.9534                   22498790.7734
        44.5004         46.5004
 -10845869.92146  -9901481.59646  23032044.5634                   23032036.8404
        40.7504         39.5004
                                  24602599.2034                   24602594.4144
        33.0004         27.0004
 -17753716.33048 -19995417.52149  20564584.9064                   20564575.9534
        51.2504         55.2504
 23  1  1  1 31 30.0000000  0 11G24G23G22G08G21G12G10G31G01G25G32
  -1359266.03145  -1969731.48043  24652082.7114                   24652076.3364
        33.2504         20.0004
  -2479090.68747  -3925595.45944  23426824.1094                   23426813.5164
        42.2504         29.0004
 -14968311.28248 -12307150.52446  20890433.7584                   20890422.5784
        49.0004         41.2504
  -6287539.82445  -4875546.75445  25034034.2894                   25034029.2664
        32.5004         32.5004
 -17112986.42947 -12429932.78046  22435228.4454                   22435216.3284
        47.5004         36.0004
  -3152702.44546  -2439261.28442  25011036.3444                   25011024.3444
        37.0004         17.2504
 -24677853.00348 -19094789.04749  21051509.4144                   21051500.4024
        51.5004         55.0004
 -14458322.85947 -11215081.98047  22478440.2114                   22478429.7934
        45.0004         46.5004
 -10932003.78746  -9968598.90746  23015654.1334                   23015645.5314
        40.5004         39.5004
  -3363664.75345  -2811768.73745  24587845.3674                   24587839.1094
        34.5004         30.0004
 -17737414.28848 -19982714.62849  20567687.1484                   20567678.3134
        51.2504         55.0004
 23  1  1  1 32  0.0000000  0 11G24G23G22G08G21G12G10G31G01G25G32
  -1251861.67345  -1886039.78543  24672522.9844                   24672515.0864
        34.5004         20.0004
  -2392240.31546  -3857919.90044  23443349.6884                   23443340.4414
        40.7504         28.7504
 -15001745.86948 -12333203.44746  20884071.3834                   20884060.2624
        49.0004         41.0004
  -6209603.70345  -4814817.34045  25048867.3594                   25048859.6954
        35.7504         33.0004
 -17148596.15847 -12457680.62646  22428451.6484                   22428439.8244
        47.0004         36.2504
  -3206418.55846  -2481117.97642  25000812.9304                   25000802.6884
        36.0004         17.2504
 -24634754.82748 -19061206.07049  21059710.3594                   21059701.3484
        51.7504         55.0004
 -14565043.66647 -11298241.03847  22458131.4924                   22458120.9574
        44.2504         46.5004
 -11017744.43746 -10035409.81146  22999338.3204                   22999330.3054
        40.7504         39.5004
  -3440990.08445  -2872022.21945  24573129.7504                   24573124.1374
        34.5004         30.2504
 -17720776.38148 -19969750.01549  20570853.1094                   20570844.1564
        51.5004         55.0004
 23  1  1  1 32 30.0000000  0 11G24G23G22G08G21G12G10G31G01G25G32
  -1144241.23345  -1802179.71843  24693001.5474                   24692994.2344
        33.0004         20.0004
  -2305201.34846  -3790097.40644  23459913.4844                   23459904.1214
        41.5004         29.0004
 -15034845.97948 -12358995.73246  20877773.2114                   20877762.0314
        48.5004         41.2504
  -6131534.43245  -4753984.11345  25063722.2814                   25063715.6724
        34.5004         32.0004
 -17183763.63647 -12485083.86546  22421760.0004                   22421747.5904
        47.5004         36.2504
  -3259739.94945  -2522667.15942  24990666.5084                   24990656.3244
        35.5004         17.7504
 -24591320.60748 -19027361.24349  21067975.6884                   21067966.5594
        50.7504         54.7504
 -14671485.88647 -11381183.00847  22437876.9694                   22437865.9654
        45.5004         46.5004
 -11103089.51746 -10101912.45646  22983097.5234                   22983089.3324
        41.0004         39.7504
  -3518095.60545  -2932104.41844  24558455.1024                   24558450.8984
        33.0004         29.0004
 -17703804.08448 -19956524.84349  20574082.8594                   20574074.3164
        50.5004         55.0004
 23  1  1  1 33  0.0000000  0 11G24G23G22G08G21G12G10G31G01G25G32
  -1036406.80745  -1718152.87843  24713523.4614                   24713514.5664
        35.7504         22.7504
  -2217973.88546  -3722128.01044  23476512.2734                   23476502.6764
        41.0004         29.5004
 -15067611.30347 -12384527.14346  20871537.2504                   20871526.5984
        47.5004         41.5004
  -6053334.44545  -4693049.09445  25078603.1174                   25078596.6844
        34.0004         32.2504
 -17218486.93847 -12512140.99646  22415152.0084                   22415140.0664
        45.5004         36.5004
  -3312663.16645  -2563905.91843  24980594.0084                   24980585.5824
        35.5004         19.2504
 -24547549.59848 -18993253.97249  21076304.8834                   21076295.9304
        51.5004         54.7504
 -14777645.75947 -11463904.96147  22417675.3364                   22417664.6844
        45.0004         46.7504
 -11188035.56946 -10168104.20046  22966933.2974                   22966924.5784
        41.2504         40.5004
  -3594977.35645  -2992012.20544  24543825.9534                   24543820.0474
        33.5004         29.2504
 -17686497.70448 -19943039.34749  20577375.8594                   20577367.3164
        50.2504         55.5004
 23  1  1  1 33 30.0000000  0 11G24G23G22G08G21G12G10G31G01G25G32
   -928362.16145  -1633962.28343  24734081.9614                   24734074.8834
        34.5004         19.5004
  -2130559.23646  -3654012.75444  23493146.7664                   23493136.9344
        41.2504         28.0004
 -15100042.80648 -12409798.44046  20865365.9454                   20865354.8834
        48.0004         41.2504
  -5975007.36046  -4632015.04645  25093508.9694                   25093502.4774
        37.0004         32.5004
 -17252766.03147 -12538851.97346  22408629.4384                   22408616.9104
        46.7504         36.2504
  -3365186.19546  -2604832.94543  24970600.7974                   24970591.0234
        36.0004         18.5004
 -24503442.38148 -18958884.72049  21084698.4844                   21084689.0044
        52.5004         55.0004
 -14883521.05647 -11546405.17847  22397528.0784                   22397517.1334
        46.0004         46.7504
 -11272580.60946 -10233983.45446  22950844.5634                   22950836.7814
        41.2504         40.5004
  -3671632.84445  -3051743.70545  24529243.0864                   24529233.8404
        35.2504         30.7504
 -17668859.06548 -19929294.94849  20580732.5704                   20580723.7934
        52.2504         55.0004
 23  1  1  1 34  0.0000000  0 11G24G23G22G08G21G12G10G31G01G25G32
   -820109.58445  -1549609.67443  24754682.4844                   24754674.3524
        35.2504         22.0004
  -2042957.77846  -3585751.92944  23509816.5314                   23509806.8164
        41.0004         28.0004
 -15132140.66647 -12434809.75446  20859257.6414                   20859246.9884
        47.7504         41.2504
  -5896555.78846  -4570883.93745  25108440.4454                   25108431.3754
        36.7504         31.5004
 -17286598.61247 -12565215.03846  22402190.6484                   22402178.9414
        46.7504         36.5004
  -3417306.09445  -2645445.83842  24960680.6884                   24960673.3754
        33.7504         17.2504
 -24458998.69448 -18924253.28949  21093156.0004                   21093146.9884
        52.0004         54.7504
 -14989108.51547 -11628681.10347  22377435.3984                   22377424.5704
        44.7504         47.0004
 -11356721.48746 -10299547.77346  22934833.0704                   22934824.7624
        41.5004         40.2504
  -3748058.49545  -3111296.12544  24514696.7814                   24514691.4614
        34.5004         29.7504
 -17650888.85048 -19915292.18049  20584152.4774                   20584143.4064
        52.0004         55.0004
 23  1  1  1 34 30.0000000  0 11G24G23G22G08G21G12G10G31G01G25G32
   -711651.81245  -1465097.10543  24775320.4454                   24775313.3674
        32.5004         18.5004
  -1955169.92646  -3517345.89844  23526522.2584                   23526512.8954
        40.2504         28.0004
 -15163904.89148 -12459561.09246  20853213.6174                   20853202.2624
        48.7504         41.0004
  -5817982.66345  -4509658.08645  25123388.6334                   25123382.1414
        33.7504         31.7504
 -17319983.93247 -12591229.57246  22395838.2504                   22395825.9574
        46.5004         36.5004
  -3469020.12745  -2685742.43442  24950839.6724                   24950832.0084
        33.0004         16.7504
 -24414217.91448 -18889359.19649  21101677.0474                   21101668.5634
        50.0004         54.7504
 -15094404.66047 -11710730.02647  22357398.5394                   22357387.5944
        45.7504         47.0004
 -11440455.29546 -10364794.89346  22918898.8834                   22918890.9264
        41.7504         40.5004
  -3824250.91645  -3170666.81544  24500196.2274                   24500191.0234
        34.0004         29.2504
 -17632587.84448 -19901031.65049  20587634.8054                   20587625.9104
        49.7504         55.2504
 23  1  1  1 35  0.0000000  0 11G24G23G22G08G21G12G10G31G01G25G32
   -602991.75945  -1380427.01243  24795999.5394                   24795990.9384
        33.7504         20.5004
  -1867196.54646  -3448795.27344  23543262.7114                   23543253.1134
        40.0004         28.5004
 -15195335.87748 -12484052.76246  20847232.5314                   20847221.7034
        48.5004         41.5004
  -5739290.86145  -4448339.88845  25138362.7584                   25138357.7344
        33.5004         31.5004
 -17352920.90447 -12616894.75146  22389569.8204                   22389558.2304
        46.5004         36.2504
  -3520325.53845  -2725720.67942  24941077.8284                   24941069.4024
        34.5004         17.2504
 -24369100.53548 -18854202.80149  21110262.4694                   21110253.9264
        51.2504         54.7504
 -15199406.51047 -11792549.63247  22337417.1804                   22337406.2934
        46.2504         47.2504
 -11523779.24046 -10429722.64646  22903043.3594                   22903035.4024
        41.5004         41.0004
  -3900206.83745  -3229853.19345  24485743.2424                   24485736.9844
        33.5004         30.0004
 -17613957.18048 -19886514.24649  20591180.1254                   20591171.1724
        52.2504         55.0004
 23  1  1  1 35 30.0000000  0 11G24G23G22G08G21G12G10G31G01G25G32
   -494132.84345  -1295601.85043  24816713.2894                   24816705.3324
        33.7504         20.5004
  -1779038.94346  -3380101.12544  23560040.1024                   23560029.6254
        41.0004         27.5004
 -15226434.30847 -12508285.29446  20841314.1954                   20841303.6024
        46.7504         41.5004
  -5660483.86845  -4386931.83645  25153361.1484                   25153353.3094
        35.0004         30.5004
 -17385409.03747 -12642210.17446  22383387.4844                   22383375.9534
        44.5004         37.0004
  -3571220.83046  -2765379.29442  24931392.9924                   24931383.3364
        36.5004         17.7504
 -24323646.87448 -18818784.38549  21118912.4304                   21118903.1844
        49.7504         55.0004
 -15304112.04147 -11874138.34447  22317492.5004                   22317481.3204
        46.0004         47.5004
 -11606691.43446 -10494329.53146  22887264.8054                   22887257.1994
        41.7504         40.7504
  -3975923.75845  -3288853.33444  24471335.8984                   24471328.6454
        33.5004         29.2504
 -17594998.61348 -19871741.32449  20594787.6024                   20594778.8244
        50.0004         55.0004
 23  1  1  1 36  0.0000000  0 11G24G23G22G08G21G12G10G31G01G25G32
  -8262176.97155  -7348623.35552  24837466.1174                   24837458.1604
        32.5004         17.7504
  -1690696.86646  -3311263.20444  23576850.0864                   23576840.0784
        41.0004         26.7504
 -15257199.88248 -12532258.46446  20835459.7664                   20835449.1724
        48.2504         41.2504
  -5581564.02045  -4325435.81945  25168378.6094                   25168371.4734
        33.2504         31.2504
 -17417446.39047 -12667174.35146  22377291.5004                   22377279.7344
        46.0004         36.5004
  -3621702.07646  -2804715.32742  24921787.6024                   24921776.6564
        37.2504         17.7504
 -24277856.36548 -18783103.48749  21127626.1024                   21127617.0314
        50.5004         54.7504
 -15408517.55547 -11955493.27647  22297624.2894                   22297613.5204
        46.2504         47.7504
 -11689188.03847 -10558612.59146  22871567.4224                   22871558.7624
        42.2504         41.2504
  -4051397.43345  -3347663.92944  24456973.3594                   24456967.5704
        34.5004         29.5004
 -17575712.23348 -19856712.98349  20598458.1644                   20598449.2704
        51.2504         55.0004
 23  1  1  1 36 30.0000000  0 11G24G23G22G08G21G12G10G31G01G25G32
  -8152928.07645  -7263494.29043  24858254.6484                   24858247.5704
        32.0004         18.5004
  -1602172.02446  -3242282.87644  23593695.6884                   23593686.4414
        40.0004         27.5004
 -15287633.69847 -12555973.12746  20829668.3364                   20829657.6254
        47.2504         41.7504
  -5502535.26645  -4263854.98345  25183418.3754                   25183410.1844
        34.7504         31.7504
 -17449033.21647 -12691787.47346  22371280.8054                   22371268.9224
        46.0004         37.0004
  -3671767.62846  -2843727.42143  24912259.8914                   24912249.1804
        36.0004         18.2504
 -24231729.57448 -18747160.55049  21136403.8444                   21136394.5984
        50.7504         54.7504
 -15512620.84647 -12036612.70747  22277814.1564                   22277803.5044
        46.0004         47.5004
 -11771267.38946 -10622570.51146  22855947.0944                   22855939.7814
        41.2504         41.5004
  -4126625.72245  -3406283.33345  24442657.6254                   24442651.5434
        34.5004         31.0004
 -17556100.00948 -19841430.72049  20602190.0394                   20602181.0274
        51.7504         54.7504
 23  1  1  1 37  0.0000000  0 11G24G23G22G08G21G12G10G31G01G25G32
  -8043487.28645  -7178215.87143  24879081.3754                   24879073.8874
        32.7504         19.0004
  -1513463.62746  -3173159.53944  23610576.5234                   23610566.7504
        40.7504         27.0004
 -15317734.95547 -12579428.64046  20823940.2734                   20823929.3284
        46.2504         41.2504
  -5423398.91445  -4202190.30845  25198476.6884                   25198469.7854
        33.5004         30.2504
 -17480166.52547 -12716047.20346  22365356.0474                   22365344.2234
        45.2504         36.5004
  -3721413.58145  -2882412.55842  24902812.0704                   24902801.5944
        35.5004         16.2504
 -24185264.74448 -18710954.20249  21145245.4304                   21145236.7704
        50.2504         54.7504
 -15616417.25847 -12117493.01247  22258062.2974                   22258051.5274
        45.7504         47.7504
 -11852925.32846 -10686200.07046  22840409.1024                   22840400.5004
        41.2504         41.5004
  -4201603.94445  -3464707.90345  24428389.8834                   24428383.2734
        34.0004         30.7504
 -17536161.59348 -19825894.28749  20605984.3524                   20605975.2814
        51.0004         55.5004
 23  1  1  1 37 30.0000000  0 11G24G23G22G08G21G12G10G31G01G25G32
  -7933859.16845  -7092791.34143  24899943.6804                   24899934.8444
        32.5004         19.0004
  -1424574.13646  -3103895.05944  23627492.4614                   23627481.8094
        41.0004         26.5004
 -15347505.33447 -12602626.32746  20818275.3054                   20818264.3594
        47.2504         41.5004
  -5344160.37145  -4140445.93245  25213553.6254                   25213547.4844
        31.5004         30.0004
 -17510846.90147 -12739953.98546  22359517.7504                   22359505.8094
        46.0004         36.7504
  -3770639.03045  -2920770.03242  24893444.7974                   24893433.6764
        35.7504         16.7504
 -24138463.82848 -18674485.97649  21154151.2034                   21154142.6604
        50.7504         54.7504
 -15719905.68247 -12198133.33547  22238369.4774                   22238358.7074
        45.7504         47.7504
 -11934160.74147 -10749500.38446  22824949.6884                   22824942.0234
        42.0004         41.2504
  -4276330.52545  -3522936.38144  24414170.3674                   24414162.5864
        34.0004         29.5004
 -17515899.68248 -19810105.79049  20609840.2584                   20609831.0124
        52.0004         55.0004
 23  1  1  1 38  0.0000000  0 11G24G23G22G08G21G12G10G31G01G25G32
  -7824044.88355  -7007221.82953  24920839.0704                   24920832.6374
        32.5004         19.0004
  -1335502.51246  -3034488.68644  23644441.7424                   23644431.5004
        40.0004         26.2504
 -15376943.89247 -12625565.45746  20812673.3834                   20812662.3204
        47.0004         41.0004
  -5264820.17545  -4078622.47745  25228652.6484                   25228646.4494
        33.7504         30.0004
 -17541071.63747 -12763505.73946  22353766.1724                   22353754.5234
        45.7504         36.5004
  -3819439.79645  -2958796.59042  24884158.1484                   24884147.8484
        35.0004         16.2504
 -24091325.14348 -18637754.54949  21163121.6024                   21163112.7074
        49.5004         54.7504
 -15823081.62147 -12278530.15948  22218736.0784                   22218724.7234
        46.2504         48.0004
 -12014969.32646 -10812468.09546  22809572.8524                   22809564.7194
        40.7504         41.2504
  -4350800.48245  -3580964.87344  24399998.5394                   24399991.6954
        33.7504         29.7504
 -17495313.66548 -19794064.72849  20613757.2974                   20613748.4024
        50.7504         55.0004
 23  1  1  1 38 30.0000000  0 11G24G23G22G08G21G12G10G31G01G25G32
  -7714048.72845  -6921510.59043  24941771.6484                   24941763.9844
        33.2504         19.5004
  -1246251.09046  -2964942.19244  23661425.2584                   23661415.7774
        39.2504         26.2504
 -15406052.31247 -12648247.34146  20807134.3754                   20807123.4884
        47.5004         41.5004
  -5185382.61146  -4016723.07245  25243773.2974                   25243762.1174
        37.0004         30.5004
 -17570841.17247 -12786702.78146  22348101.5084                   22348089.3914
        46.2504         37.0004
  -3867814.54545  -2996491.12142  24874952.3134                   24874943.3014
        34.0004         16.2504
 -24043850.06248 -18600760.99749  21172155.9304                   21172147.2114
        51.2504         55.0004
 -15925943.66447 -12358682.39448  22199161.6724                   22199150.9024
        45.7504         48.5004
 -12095349.82346 -10875102.25946  22794277.2664                   22794268.8404
        41.2504         41.2504
  -4425012.15545  -3638792.15045  24385877.0554                   24385870.1524
        33.7504         30.7504
 -17474406.12748 -19777773.13949  20617735.8834                   20617727.0474
        52.2504         55.0004
 23  1  1  1 39  0.0000000  0 11G24G23G22G08G21G12G10G31G01G25G32
  -7603872.82945  -6835659.25543  24962737.1954                   24962729.2974
        32.0004         19.2504
  -1156819.86546  -2895255.61144  23678443.5474                   23678433.9494
        40.5004         26.2504
 -15434829.96847 -12670671.47346  20801658.1644                   20801647.1024
        46.5004         41.2504
  -6681270.49355  -5182349.92655  25258905.6954                   25258897.0944
        35.0004         30.5004
 -17600154.05747 -12809543.99446  22342523.2974                   22342511.0634
        45.5004         36.7504
  -3915760.49946  -3033851.59143  24865829.4774                   24865819.8794
        36.5004         19.0004
 -23996038.12348 -18563504.95949  21181253.9384                   21181245.7464
        49.0004         54.7504
 -16028488.10047 -12438587.14248  22179647.7974                   22179637.1454
        45.5004         48.0004
 -12175298.94746 -10937400.27346  22779062.5634                   22779055.1914
        41.2504         41.2504
  -4498961.70945  -3696415.15945  24371805.6724                   24371798.3594
        33.2504         30.0004
 -17453177.45048 -19761231.32249  20621775.7194                   20621766.7664
        51.2504         55.2504
 23  1  1  1 39 30.0000000  0 11G24G23G22G08G21G12G10G31G01G25G32
  -7493519.23445  -6749669.50342  24983737.9384                   24983728.7504
        32.5004         17.7504
  -1067209.06446  -2825429.09644  23695496.5084                   23695486.4414
        39.2504         27.2504
 -15463277.14747 -12692838.09446  20796244.8054                   20796233.8594
        46.7504         41.2504
  -6601646.23045  -5120305.01645  25274058.3444                   25274049.1564
        35.7504         31.0004
 -17629008.76947 -12832028.19546  22337032.4844                   22337020.3094
        45.5004         36.5004
  -3963274.69446  -3070875.55443  24856787.7344                   24856779.0744
        36.2504         18.5004
 -23947888.68348 -18525985.93749  21190416.3444                   21190408.1524
        51.0004         54.7504
 -16130711.58247 -12518241.79748  22160195.2734                   22160184.7974
        46.0004         48.2504
 -12254813.43446 -10999359.61646  22763931.7504                   22763923.7934
        40.7504         41.2504
  -4572645.43845  -3753831.02945  24357783.0004                   24357777.3874
        33.5004         30.0004
 -17431628.15948 -19744439.66949  20625876.4614                   20625867.4494
        52.7504         54.7504
 23  1  1  1 40  0.0000000  0 11G24G23G22G08G21G12G10G31G01G25G32
  -7382991.88345  -6663544.28843  25004771.2034                   25004762.1334
        33.0004         20.2504
   -977420.22246  -2755463.85344  23712581.7974                   23712573.0204
        38.7504         25.2504
 -15491395.10047 -12714748.17746  20790894.3524                   20790882.9964
        47.0004         41.5004
  -6521933.30055  -5058191.00954  25289225.0164                   25289218.2894
        31.0004         29.0004
 -17657405.06047 -12854155.17646  22331628.7974                   22331617.0904
        45.7504         36.7504
  -4010355.06745  -3107561.54743  24847827.3134                   24847820.4104
        33.7504         19.2504
 -23899402.59348 -18488204.58949  21199643.4614                   21199634.7424
        50.0004         54.7504
 -16232611.92047 -12597644.64548  22140804.5474                   22140793.6604
        44.7504         48.2504
 -12333891.44946 -11060978.83946  22748883.4534                   22748875.3794
        41.0004         41.0004
  -4646060.80545  -3811037.80645  24343812.8054                   24343806.4304
        34.5004         31.7504
 -17409760.10448 -19727399.62049  20630037.7504                   20630029.0314
        52.2504         54.7504
 23  1  1  1 40 30.0000000  0 11G24G23G22G08G21G12G10G31G01G25G32
  -7272292.99745  -6577285.51043  25025835.0784                   25025828.4104
        31.5004         19.0004
   -887453.77946  -2685360.22644  23729703.6254                   23729693.2074
        40.0004         26.2504
 -15519183.59447 -12736401.54246  20785605.8054                   20785594.8014
        47.0004         41.7504
  -6442134.71945  -4996010.31545  25304410.8914                   25304402.8164
        34.0004         31.0004
 -17685341.38447 -12875923.74646  22326312.5704                   22326300.8054
        45.7504         37.2504
  -4056999.29146  -3143907.65643  24838954.5634                   24838943.7934
        37.0004         19.0004
 -23850579.36648 -18450160.52949  21208934.2114                   21208925.6094
        49.7504         54.7504
 -16334185.81447 -12676793.12648  22121475.9924                   22121464.6954
        46.5004         48.2504
 -12412529.99746 -11122255.64446  22733919.8364                   22733911.8204
        41.7504         41.2504
  -4719204.33745  -3868032.74645  24329895.0084                   24329886.9924
        34.5004         31.2504
 -17387574.06948 -19710111.80049  20634259.8754                   20634250.7464
        52.7504         54.7504
 23  1  1  1 41  0.0000000  0 11G24G23G22G08G21G12G10G31G01G25G32
  -7161425.59245  -6490895.35543  25046933.1414                   25046924.8914
        33.0004         18.2504
   -797310.57246  -2615118.83344  23746856.5944                   23746846.6454
        39.0004         25.7504
 -15546643.29647 -12757798.69846  20780381.3364                   20780369.7464
        47.5004         41.7504
  -6362253.49455  -4933765.15855  25319610.7424                   25319603.2544
        31.0004         30.0004
 -17712817.42847 -12897333.64746  22321084.2114                   22321072.2704
        45.2504         36.7504
  -4103204.81446  -3179911.93243  24830158.4144                   24830151.1604
        36.2504         19.2504
 -23801419.24248 -18411853.96949  21218288.8444                   21218280.1254
        49.5004         54.5004
 -16435430.49847 -12755685.08248  22102209.1484                   22102198.4384
        45.0004         48.2504
 -12490726.49546 -11183187.97146  22719039.0084                   22719030.8164
        41.2504         41.0004
  -4792072.95645  -3924813.44445  24316026.2114                   24316019.8954
        32.0004         31.0004
 -17365071.19248 -19692577.09749  20638542.0314                   20638532.6684
        53.2504         54.7504
 23  1  1  1 41 30.0000000  0 11G24G23G22G08G21G12G10G31G01G25G32
  -7050391.01545  -6404374.90543  25068062.5634                   25068054.7234
        31.7504         19.2504
   -706990.04746  -2544739.30744  23764043.5164                   23764034.3874
        38.0004         26.5004
 -15573772.97747 -12778938.69646  20775218.2734                   20775207.2114
        47.5004         41.5004
                                  25334826.8594                   25334820.0744
        33.2504         30.5004
 -17739830.46747 -12918382.76846  22315943.6174                   22315931.9694
        46.0004         37.0004
  -4148967.59446  -3215571.19743  24821453.8444                   24821442.3714
        38.2504         19.2504
 -23751921.10248 -18373284.01049  21227708.2894                   21227699.8054
        48.7504         54.5004
 -16536341.75647 -12834317.21548  22083006.8134                   22082995.6914
        45.7504         48.5004
 -12568476.98446 -11243772.78046  22704244.0394                   22704235.5554
        41.2504         41.2504
  -4864662.09445  -3981376.35744  24302213.2664                   24302206.6564
        34.2504         29.5004
 -17342251.17748 -19674795.27049  20642884.3594                   20642875.3484
        51.7504         55.0004
 23  1  1  1 42  0.0000000  0 11G24G23G22G08G21G12G10G31G01G25G32
  -6939194.98844  -6317728.71042  25089220.8594                   25089214.6024
        29.5004         17.2504
   -616495.99446  -2474224.56044  23781263.8204                   23781255.1024
        39.0004         25.2504
 -15600576.49847 -12799824.54946  20770117.5314                   20770106.5864
        47.5004         41.7504
  -6202253.83245  -4809090.14945  25350057.2114                   25350052.0704
        33.5004         31.0004
 -17766382.79047 -12939072.89446  22310891.2734                   22310878.9804
        45.5004         37.0004
  -4194288.44845  -3250886.15143  24812827.2584                   24812817.8364
        35.0004         18.5004
 -23702087.80148 -18334452.88149  21237191.4384                   21237182.4844
        49.0004         54.5004
 -16636919.69647 -12912689.62248  22063867.2894                   22063856.1094
        46.0004         48.5004
 -12645781.96546 -11304010.42646  22689532.3204                   22689524.8914
        41.5004         41.2504
  -4936971.68845  -4037721.43545  24288453.3984                   24288446.9064
        33.5004         30.2504
 -17319118.20448 -19656769.58449  20647286.2344                   20647277.1644
        52.5004         54.7504
 23  1  1  1 42 30.0000000  0 11G24G23G22G08G21G12G10G31G01G25G32
  -6827836.91045  -6230956.27843  25110412.5784                   25110404.5634
        33.5004         19.7504
   -525825.81646  -2403572.55444  23798519.1724                   23798509.2234
        39.2504         26.0004
 -15627050.70947 -12820453.79246  20765079.6094                   20765068.6054
        46.7504         41.7504
  -6122140.88245  -4746664.42244  25365302.9384                   25365295.8014
        33.0004         29.5004
 -17792470.18847 -12959400.74146  22305926.7734                   22305914.5984
        45.2504         37.0004
  -4239161.94246  -3285852.49443  24804288.3834                   24804278.6094
        37.0004         19.0004
 -23651916.22248 -18295358.16949  21246738.8834                   21246729.5784
        48.7504         54.5004
 -16737157.98047 -12990797.36448  22044793.1564                   22044781.8014
        46.2504         48.7504
 -12722635.27846 -11363896.11746  22674907.8984                   22674899.4144
        41.7504         41.5004
  -5008995.10945  -4093843.52045  24274747.9304                   24274742.3164
        32.5004         30.5004
 -17295669.89548 -19638498.18649  20651748.7504                   20651739.5044
        53.0004         54.7504
 23  1  1  1 43  0.0000000  0 11G24G23G22G08G21G12G10G31G01G25G32
  -6716321.01345  -6144060.77242  25131633.9144                   25131625.6054
        32.0004         16.7504
   -434981.67546  -2332785.00344  23815806.0554                   23815796.3984
        39.0004         25.7504
 -15653197.27447 -12840827.72947  20760104.0084                   20760093.1214
        47.2504         42.0004
  -6041957.04045  -4684183.51545  25380563.2584                   25380555.0664
        35.0004         31.0004
 -17818093.04547 -12979366.60346  22301050.3834                   22301039.4384
        45.5004         37.5004
  -4283586.67245  -3320469.14143  24795833.9304                   24795824.9184
        35.7504         19.2504
 -23601407.86148 -18256001.02949  21256350.3524                   21256341.1644
        49.5004         54.2504
 -16837055.41147 -13068639.50348  22025782.7664                   22025771.7624
        47.0004         49.0004
 -12799035.74946 -11423428.97146  22660369.6954                   22660361.3874
        41.5004         41.2504
  -5080730.56845  -4149741.22145  24261096.4144                   24261091.6254
        33.5004         31.0004
 -17271908.78448 -19619983.04549  20656269.9694                   20656260.8984
        53.2504         55.0004
 23  1  1  1 43 30.0000000  0 11G24G23G22G08G21G12G10G31G01G25G32
                                  25152883.9694                   25152876.4224
        30.0004         15.5004
   -343962.77146  -2261861.27744  23833125.5554                   23833116.7194
        38.2504         26.7504
 -15679015.25647 -12860945.62446  20755191.3284                   20755180.0904
        47.2504         41.7504
  -5961703.59455  -4621648.29955  25395832.3284                   25395826.1884
        31.5004         31.0004
 -17843249.29047 -12998968.88346  22296263.6884                   22296252.0394
        46.2504         37.0004
  -4327558.67445  -3354732.97942  24787466.8364                   24787456.3594
        35.0004         17.7504
 -23550560.93548 -18216380.07149  21266026.5474                   21266017.3594
        49.2504         54.2504
 -16936607.25747 -13146212.35448  22006838.9064                   22006827.7854
        46.5004         49.0004
 -12874979.24646 -11482605.70946  22645917.8594                   22645910.1954
        41.2504         41.5004
  -5152173.32245  -4205410.84045  24247502.5474                   24247495.7034
        33.7504         31.2504
 -17247834.32748 -19601223.72949  20660851.4844                   20660842.1804
        53.0004         54.7504
 23  1  1  1 44  0.0000000  0 11G24G23G22G08G21G12G10G31G01G25G32
  -6492826.66955  -5969909.42252  25174162.7114                   25174156.1024
        30.5004         16.2504
   -252774.86146  -2190805.87844  23850478.5234                   23850469.5124
        38.5004         25.5004
 -15704510.01047 -12880811.65447  20750339.8444                   20750328.6054
        46.5004         42.5004
  -5881388.10155  -4559064.84055  25411116.1334                   25411109.9344
        32.5004         30.5004
 -17867942.65647 -13018210.45946  22291564.2504                   22291553.1294
        45.5004         37.0004
  -4371080.38345  -3388645.96942  24779184.0944                   24779173.9104
        35.5004         16.7504
 -23499380.53948 -18176499.25849  21275765.7894                   21275756.6024
        49.7504         54.0004
 -17035815.77147 -13223517.66848  21987960.1644                   21987948.6914
        46.0004         49.0004
 -12950468.13246 -11541428.21146  22631553.4534                   22631544.7934
        41.5004         41.5004
  -5223325.29845  -4260853.82445  24233962.6804                   24233956.1884
        33.5004         30.2504
 -17223452.61248 -19582225.00049  20665491.0164                   20665481.8284
        53.7504         54.7504
 23  1  1  1 44 30.0000000  0 11G24G23G22G08G21G12G10G31G01G25G32
  -6380853.51555  -5882657.67452  25195470.2894                   25195462.9774
        31.5004         17.2504
   -161413.64746  -2119615.42644  23867864.2114                   23867854.6724
        39.5004         24.0004
 -15729676.83847 -12900422.15547  20745550.5554                   20745539.6684
        47.5004         42.0004
  -5801008.43545  -4496431.29345  25426411.2894                   25426405.9694
        31.7504         31.0004
 -17892168.03847 -13037087.38146  22286954.6564                   22286943.0084
        46.0004         37.0004
  -4414144.96246  -3422202.76542  24770988.9144                   24770978.9654
        36.0004         17.2504
 -23447861.62448 -18136354.66349  21285569.0474                   21285559.8594
        48.5004         54.0004
 -17134672.77747 -13300549.08948  21969148.0864                   21969137.1994
        46.2504         49.2504
 -13025494.65146 -11599890.43047  22617275.9224                   22617267.9064
        41.7504         42.0004
  -5294178.06245  -4316063.70245  24220479.2894                   24220473.2074
        33.5004         31.0004
 -17198759.50548 -19562983.61449  20670189.9144                   20670180.6094
        52.7504         54.7504
 23  1  1  1 45  0.0000000  0 11G24G23G22G08G21G12G10G31G01G25G32
  -6268731.41055  -5795289.86153  25216807.8204                   25216799.1604
        32.5004         19.7504
    -69879.64846  -2048290.31544  23885282.8134                   23885273.2154
        37.7504         26.0004
 -15754516.28548 -12919777.57146  20740824.0704                   20740812.5984
        48.0004         41.7504
                                  25441723.0944                   25441713.8484
        37.0004         29.0004
 -17915923.20947 -13055597.91746  22282434.6254                   22282422.6254
        46.7504         37.5004
  -4456749.56645  -3455401.13742  24762881.6334                   24762871.9774
        35.5004         17.7504
 -23396004.30748 -18095946.39349  21295437.0004                   21295428.3984
        49.2504         54.0004
 -17233175.56547 -13377304.49248  21950403.5944                   21950392.5904
        46.2504         49.2504
 -13100056.07447 -11657990.23946  22603087.7974                   22603079.3714
        42.2504         41.5004
  -5364728.37845  -4371037.89745  24207055.1254                   24207047.6374
        34.7504         31.7504
 -17173755.96648 -19543500.33949  20674947.9454                   20674938.9344
        53.7504         55.0004
 23  1  1  1 45 30.0000000  0 11G24G23G22G08G21G12G10G31G01G25G32
  -6156469.06055  -5707812.72753  25238169.2274                   25238162.0904
        31.0004         18.2504
     21820.43446  -1976835.80244  23902732.3284                   23902722.7304
        38.2504         24.0004
 -15779034.29647 -12938882.50746  20736158.1484                   20736147.2034
        47.7504         41.7504
  -5640074.72955  -4371028.62254  25457039.0004                   25457029.6954
        35.5004         29.0004
 -17939213.63347 -13073746.30446  22278002.5474                   22277990.3714
        47.2504         37.2504
  -4498897.51546  -3488243.68543  24754861.7734                   24754850.4184
        36.2504         18.2504
 -23343814.32848 -18055278.89749  21305368.8364                   21305359.6484
        50.0004         54.0004
 -17331326.84747 -13453785.97748  21931726.0084                   21931715.0044
        46.0004         49.2504
 -13174155.63546 -11715730.15546  22588986.4384                   22588978.5394
        41.5004         41.5004
  -5434978.84145  -4425778.44745  24193685.9774                   24193678.8984
        34.2504         31.0004
 -17148448.86348 -19523780.51649  20679763.9224                   20679754.6764
        53.7504         54.7504
 23  1  1  1 46  0.0000000  0 11G24G23G22G08G21G12G10G31G01G25G32
                                  25259561.0084                   25259554.0474
        30.5004         15.5004
    113697.96146  -1905243.03744  23920215.8594                   23920207.0234
        38.0004         25.2504
 -15803219.20647 -12957727.88247  20731555.9694                   20731544.9064
        46.7504         42.0004
                                  25472368.7344                   25472361.0704
        35.5004         31.5004
 -17962026.33947 -13091522.44146  22273661.5164                   22273649.5744
        46.0004         37.5004
  -4540574.66545  -3520719.37242  24746930.0784                   24746919.4264
        35.5004         17.7504
 -23291279.83548 -18014342.94248  21315365.4694                   21315356.8674
        49.0004         53.7504
 -17429111.64247 -13529981.91048  21913118.0784                   21913107.1334
        46.0004         49.5004
 -13247778.63547 -11773098.71046  22574977.0474                   22574968.2114
        42.5004         41.7504
  -5504914.23845  -4480273.49345  24180378.1174                   24180370.9224
        34.5004         32.0004
 -17122827.13948 -19503815.54049  20684639.6484                   20684630.1094
        52.5004         54.7504
 23  1  1  1 46 30.0000000  0 10G23G22G08G21G12G10G31G01G25G32
    205734.64146  -1833526.25344  23937730.6644                   23937721.2424
        38.2504         25.5004
 -15827089.25748 -12976327.91147  20727013.5944                   20727002.5314
        48.5004         42.2504
  -5478923.16445  -4245456.09045  25487703.7194                   25487698.9884
        34.0004         30.7504
 -17984378.46847 -13108939.68746  22269408.0084                   22269395.9494
        47.2504         37.5004
  -4581796.61645  -3552840.39543  24739085.7194                   24739075.8284
        35.2504         19.2504
 -23238418.35048 -17973152.20748  21325424.4064                   21325416.0394
        48.5004         53.7504
 -17526544.70347 -13605903.75448  21894577.5554                   21894566.2584
        47.0004         49.5004
 -13320940.08547 -11830107.64446  22561054.5634                   22561046.8404
        42.0004         41.5004
  -5574548.92145  -4534534.25345  24167127.6724                   24167120.8874
        35.0004         32.5004
 -17096909.41248 -19483619.90449  20689571.2584                   20689562.1294
        53.0004         55.0004
 23  1  1  1 47  0.0000000  0 10G23G22G08G21G12G10G31G01G25G32
    297942.94846  -1761675.71344  23955276.8444                   23955268.1844
        38.7504         24.2504
 -15850630.83748 -12994671.99647  20722533.9144                   20722522.3834
        49.0004         42.2504
  -5398275.06156  -4182613.27155  25503053.5474                   25503043.7154
        36.5004         31.7504
 -18006255.46848 -13125986.70146  22265244.5554                   22265232.7894
        48.0004         37.5004
  -4622547.10745  -3584594.06143  24731331.3984                   24731321.8014
        35.7504         19.0004
 -23185216.54948 -17931696.28148  21335548.7504                   21335539.8554
        49.0004         53.5004
 -17623609.65147 -13681538.76348  21876105.8834                   21876095.5824
        46.0004         49.5004
 -13393624.05946 -11886744.50146  22547223.5474                   22547214.6524
        41.2504         41.2504
  -5643866.42145  -4588547.83545  24153935.6884                   24153928.3754
        34.7504         31.2504
 -17070683.35448 -19463184.02049  20694561.8754                   20694552.6884
        53.0004         54.7504
 23  1  1  1 47 30.0000000  0 10G23G22G08G21G12G10G31G01G25G32
    390318.29746  -1689695.03344  23972855.6414                   23972846.1604
        38.5004         24.0004
 -15873848.97648 -13012764.04647  20718115.8444                   20718104.3134
        49.0004         42.0004
  -5317581.95245  -4119735.53845  25518407.7894                   25518398.3674
        35.2504         31.2504
 -18027660.54348 -13142665.98946  22261172.0164                   22261159.7234
        48.2504         37.5004
  -4662827.53346  -3615981.42343  24723667.7584                   24723656.6954
        36.5004         20.2504
 -23131678.34348 -17889978.22048  21345736.6254                   21345727.7894
        49.0004         53.5004
 -17720307.56547 -13756887.77348  21857705.4304                   21857694.0744
        46.5004         49.5004
 -13465831.83846 -11943010.30146  22533482.7424                   22533474.2584
        41.7504         41.2504
  -5712867.41045  -4642314.80145  24140806.2504                   24140798.8204
        34.2504         32.0004
 -17044153.89848 -19442511.71849  20699610.4224                   20699601.1174
        53.2504         54.7504
 23  1  1  1 48  0.0000000  0 10G23G22G08G21G12G10G31G01G25G32
    482859.44046  -1617585.16644  23990465.9774                   23990456.2034
        38.7504         24.2504
 -15896744.19747 -13030604.46847  20713758.7274                   20713747.8984
        46.7504         42.2504
  -5236847.21345  -4056825.31445  25533768.2424                   25533761.2234
        32.2504         30.0004
 -18048593.37347 -13158977.29346  22257188.3594                   22257176.0664
        46.7504         37.2504
  -4702636.91946  -3647001.76943  24716091.0864                   24716080.9024
        36.7504         19.7504
 -23077804.27048 -17847998.45248  21355988.3594                   21355979.9924
        48.5004         53.2504
 -17816636.05347 -13831948.91748  21839374.4144                   21839363.9964
        46.0004         49.7504
 -13537561.31746 -11998903.41446  22519832.8524                   22519824.7774
        41.0004         41.7504
  -5781549.18045  -4695833.06145  24127735.3054                   24127729.2814
        33.2504         31.7504
 -17017322.52148 -19421604.15949  20704716.2344                   20704706.9884
        53.0004         55.0004
 23  1  1  1 48 30.0000000  0 10G23G22G08G21G12G10G31G01G25G32
    575566.63746  -1545345.89343  24008106.9304                   24008098.0354
        37.5004         22.2504
 -15919316.19548 -13048193.03647  20709463.3834                   20709452.3794
        49.0004         42.0004
  -5156072.51745  -3993884.04744  25549139.2194                   25549132.9024
        33.0004         29.0004
 -18069052.09747 -13174919.16946  22253295.5704                   22253283.2194
        46.7504         37.2504
  -4741971.75545  -3677652.32043  24708606.3204                   24708595.7854
        35.5004         19.0004
 -23023593.89248 -17805756.62748  21366304.2974                   21366295.9304
        48.5004         53.2504
 -17912591.49147 -13906719.38148  21821114.9774                   21821103.8554
        46.0004         49.7504
 -13608808.97546 -12054421.06046  22506274.6334                   22506266.6764
        40.5004         41.7504
  -5849907.54045  -4749099.30945  24114727.6644                   24114719.8834
        34.0004         31.7504
 -16990189.22948 -19400461.34049  20709879.4384                   20709870.1334
        51.5004         54.7504
 23  1  1  1 49  0.0000000  0 10G23G22G08G21G12G10G31G01G25G32
    668437.66946  -1472978.96443  24025780.3444                   24025771.0984
        38.0004         22.5004
 -15941566.57348 -13065530.97847  20705229.3284                   20705218.3834
        48.2504         42.5004
  -5075262.253 5                  25564518.563
        34.750
 -18089037.71348 -13190492.38446  22249491.8134                   22249479.6954
        48.0004         37.0004
  -4780830.72145  -3707932.02743  24701212.4304                   24701202.1884
        35.7504         20.0004
 -22969048.02648 -17763253.37648  21376684.3984                   21376675.7384
        49.5004         53.2504
 -18008172.41847 -13981198.01048  21802926.6724                   21802915.3164
        46.0004         49.7504
 -13679573.60447 -12109562.34946  22492809.2274                   22492800.6844
        42.2504         41.5004
  -5917940.70245  -4802112.15145  24101781.4144                   24101774.6294
        35.0004         31.2504
 -16962756.44648 -19379085.15349  20715099.8284                   20715090.2894
        52.0004         55.2504
 23  1  1  1 49 30.0000000  0 11G23G22G03G08G21G12G10G31G01G25G32
    761476.80246  -1400481.05343  24043484.5634                   24043475.9024
        37.0004         22.7504
 -15963491.02648 -13082614.96247  20701057.1644                   20701045.6914
        48.0004         42.0004
   -458551.79454   -353997.29554  25643233.0234                   25643226.8244
        28.5004         24.5004
                                  25579908.1254                   25579900.4614
        38.7504         30.2504
 -18108544.18948 -13205692.24646  22245779.9224                   22245768.0984
        48.5004         37.5004
  -4819207.22345  -3737835.83543  24693907.8524                   24693899.4264
        34.5004         20.7504
 -22914162.25248 -17720485.27148  21387128.5234                   21387119.9804
        49.5004         53.2504
 -18103370.82247 -14055378.58248  21784810.7894                   21784799.9614
        46.7504         50.0004
 -13749847.69846 -12164321.38746  22479436.3054                   22479428.1724
        41.5004         41.5004
  -5985640.55645  -4854865.27745  24088898.4534                   24088891.9024
        35.0004         32.0004
 -16935020.21148 -19357472.50849  20720378.0314                   20720368.4344
        51.5004         54.7504
 23  1  1  1 50  0.0000000  0 10G23G22G08G21G12G10G31G01G25G32
    854665.53746  -1327866.58744  24061218.3284                   24061210.0784
        37.2504         24.7504
 -15985107.35147 -13099458.84347  20696943.9304                   20696932.3404
        47.5004         42.0004
   -347635.04055  -3854222.24355  25595291.8754                   25595285.3244
        33.5004         33.5004
 -18127588.40847 -13220531.89746  22242155.8444                   22242143.9614
        46.5004         37.2504
  -4857116.09645  -3767375.22343  24686694.2894                   24686685.5704
        35.2504         19.0004
 -22858953.90748 -17677465.81148  21397634.5234                   21397626.1564
        48.0004         53.2504
 -18198201.39847 -14129272.52548  21766765.0314                   21766753.9694
        46.5004         50.0004
 -13819646.42147 -12218709.99946  22466154.3524                   22466145.9844
        42.5004         41.5004
  -6053021.57045  -4907369.97645  24076076.7894                   24076069.0084
        34.5004         31.2504
 -16906999.15248 -19335637.92049  20725710.1954                   20725700.5394
        51.2504         55.0004
 23  1  1  1 50 30.0000000  0 11G23G22G03G08G21G12G10G31G01G25G32
    948030.42246  -1255114.84943  24078985.6254                   24078976.0274
        37.7504         21.5004
 -16006388.76848 -13116041.76247  20692894.2424                   20692882.9454
        48.5004         42.2504
                                  25605141.047
        34.000
   -266728.27855  -3791178.25054  25610688.0314                   25610681.8914
        35.5004         28.7504
 -18146142.76947 -13234989.84346  22238625.3444                   22238613.5204
        47.5004         37.2504
  -4894528.22545  -3796527.57943  24679574.7664                   24679566.2814
        35.0004         19.7504
 -22803396.33448 -17634174.23548  21408207.1884                   21408198.2344
        48.5004         53.2504
 -18292634.00847 -14202856.37648  21748795.0084                   21748784.4734
        46.7504         50.2504
 -13888939.91647 -12272704.95346  22452967.8524                   22452959.4264
        42.0004         41.7504
  -6120053.36845  -4959602.53345  24063319.8674                   24063313.4344
        34.0004         31.2504
 -16878667.05948 -19313560.96849  20731101.2664                   20731092.1374
        51.5004         55.2504
 23  1  1  1 51  0.0000000  0 11G23G22G03G08G21G12G10G31G01G25G32
   1041549.29746  -1182243.12043  24096780.5554                   24096771.7774
        37.0004         22.7504
 -16027357.08948 -13132380.71747  20688903.9614                   20688892.7814
        48.2504         42.2504
                                  25586080.2894                   25586074.0314
        33.5004         31.0004
   -324103.35756  -3745574.62855  25626089.6414                   25626080.5704
        38.2504         31.0004
 -18164227.44148 -13249081.80146  22235184.2894                   22235172.1724
        48.0004         37.0004
  -4931462.77146  -3825307.76043  24672547.1954                   24672538.1254
        36.2504         21.0004
 -22747510.86947 -17590627.14948  21418841.1724                   21418832.8054
        47.7504         53.0004
 -18386687.37347 -14276144.70448  21730897.6334                   21730886.6294
        46.0004         50.2504
 -13957747.09347 -12326320.93947  22439874.0944                   22439866.0784
        42.2504         42.2504
  -6186754.12145  -5011577.15745  24050627.4844                   24050620.4064
        34.0004         31.5004
 -16850046.27048 -19291259.05549  20736548.1254                   20736538.7034
        50.7504         54.7504
 23  1  1  1 51 30.0000000  0 11G23G22G03G08G21G12G10G31G01G25G32
   1135232.50446  -1109243.34543  24114608.0704                   24114599.6454
        37.2504         21.7504
 -16048001.99948 -13148467.65447  20684975.2894                   20684964.3444
        48.0004         42.0004
                                  25567011.5084                   25567004.8404
        31.7504         25.0004
   -243153.65156  -3682496.76554  25641493.3674                   25641481.1914
        38.0004         27.2504
 -18181831.14447 -13262798.98446  22231834.2114                   22231822.0354
        47.5004         37.2504
  -4967906.29246  -3853705.27843  24665613.1484                   24665602.2624
        37.0004         19.7504
 -22691286.50548 -17546815.99048  21429540.5634                   21429531.9614
        48.0004         53.2504
 -18480347.71947 -14349126.78148  21713074.0864                   21713063.1994
        46.2504         50.5004
 -14026054.27347 -12379547.31347  22426876.0784                   22426867.5354
        42.7504         42.5004
  -6253109.55645  -5063282.71345  24038000.4694                   24037993.8594
        34.5004         31.5004
 -16821126.66348 -19268724.29749  20742051.3834                   20742041.6684
        51.2504         55.0004
 23  1  1  1 52  0.0000000  0 11G23G22G03G08G21G12G10G31G01G25G32
   1229074.77446  -1036119.62343  24132467.0394                   24132458.1454
        36.5004         22.7504
 -16068327.98748 -13164306.07747  20681107.4144                   20681096.1174
        48.5004         42.0004
                                  25547933.8524                   25547928.4734
        25.2504         22.0004
   -162185.58956  -3619404.82655  25656901.3674                   25656891.7114
        38.7504         32.0004
 -18198957.62947 -13276144.30546  22228574.1174                   22228562.7034
        46.7504         37.2504
  -5003861.17046  -3881722.08343  24658771.5474                   24658760.6024
        37.0004         20.2504
 -22634727.60948 -17502744.14548  21440303.6804                   21440294.6094
        49.0004         53.0004
 -18573616.44047 -14421803.71048  21695325.8914                   21695315.1804
        46.7504         50.5004
 -14093863.44247 -12432385.63847  22413971.8134                   22413964.0314
        42.2504         42.2504
  -6319120.94245  -5114720.16445  24025438.0704                   24025433.1644
        33.5004         32.2504
 -16791913.68248 -19245960.93749  20747610.4534                   20747600.9734
        51.7504         54.7504
 23  1  1  1 52 30.0000000  0 11G23G22G03G08G21G12G10G31G01G25G32
   1323075.60745   -962872.36743  24150353.5314                   24150345.3404
        35.7504         22.2504
 -16088335.16448 -13179896.08847  20677300.1174                   20677288.8794
        49.0004         42.0004
   -743851.90745   -662072.48644  25528851.7034                   25528846.3834
        31.0004         25.2504
    -81201.67646  -3565733.59255  25672310.1254                   25672303.8674
        36.0004         30.5004
 -18215605.23548 -13289116.46846  22225406.9844                   22225395.0434
        48.5004         37.5004
  -5039325.15346  -3909356.34743  24652022.2974                   24652011.7624
        36.7504         21.2504
 -22577834.25348 -17458411.68948  21451130.0864                   21451121.3094
        48.0004         53.0004
 -18666490.40747 -14494173.02048  21677652.7274                   21677641.4884
        47.0004         50.7504
 -14161171.92047 -12484833.79447  22401163.3364                   22401155.5554
        42.0004         43.0004
  -6384785.08145  -5165887.03945  24012943.3054                   24012937.1644
        34.5004         31.7504
 -16762408.17048 -19222969.63549  20753224.6484                   20753215.9304
        50.5004         54.7504
 23  1  1  1 53  0.0000000  0 11G23G22G03G08G21G12G10G31G01G25G32
   1417233.49846   -889502.68343  24168272.7034                   24168262.4614
        37.7504         21.2504
 -16108024.58647 -13195238.49447  20673553.2274                   20673542.1644
        47.7504         42.0004
   -844178.87155   -740249.52854  25509762.0084                   25509753.4654
        33.2504         25.0004
      -205.18445  -3502619.31545  25687721.1564                   25687715.6024
        33.0004         30.5004
 -18231774.75548 -13301716.10546  22222329.5084                   22222318.5634
        48.5004         37.5004
  -5074296.75746  -3936606.88643  24645368.1644                   24645356.8094
        37.0004         20.0004
 -22520607.26047 -17413819.26048  21462020.1024                   21462011.3834
        47.7504         53.0004
 -18758967.56547 -14566233.14448  21660054.7814                   21660044.0704
        46.5004         51.0004
 -14227977.80047 -12536890.33347  22388451.7034                   22388443.3364
        43.0004         43.2504
  -6450099.33045  -5216781.23645  24000514.5784                   24000507.8524
        34.5004         31.7504
 -16732611.68548 -19199751.59649  20758894.8054                   20758885.9694
        50.5004         54.7504
 23  1  1  1 53 30.0000000  0 11G23G22G03G08G21G12G10G31G01G25G32
   1511549.04045   -816010.18043  24186218.9844                   24186211.0274
        35.5004         22.0004
 -16127395.77647 -13210332.92547  20669867.0864                   20669855.6134
        47.7504         42.0004
   -944543.80445   -818456.07644  25490665.5634                   25490653.6214
        35.0004         27.7504
     80802.54545  -3439496.40044  25703135.7814                   25703129.5824
        33.2504         29.0004
 -18247464.55348 -13313941.93546  22219344.5004                   22219332.3244
        48.0004         37.0004
  -5108772.39046  -3963471.02043  24638807.6414                   24638794.8794
        37.5004         19.7504
 -22463045.64047 -17368966.08048  21472973.5474                   21472964.8874
        47.5004         52.7504
 -18851043.85047 -14637980.89148  21642533.4064                   21642522.1684
        47.0004         51.0004
 -14294277.36547 -12588552.31547  22375834.2894                   22375826.1564
        42.0004         43.2504
  -6515059.22545  -5267399.32145  23988154.0234                   23988146.8284
        34.5004         32.0004
 -16702523.90548 -19176306.57849  20764620.6334                   20764611.2114
        50.2504         55.0004
 23  1  1  1 54  0.0000000  0 11G23G22G03G08G21G12G10G31G01G25G32
   1606020.83546   -742395.92243  24204197.7034                   24204188.6334
        36.7504         21.0004
 -16146449.63147 -13225180.08646  20666241.6724                   20666230.0824
        47.0004         41.7504
  -1044947.53245   -896692.71944  25471555.9924                   25471548.2114
        31.5004         25.0004
    161818.13945  -3376367.31144  25718553.5634                   25718545.7234
        32.2504         29.0004
 -18262673.44047 -13325793.02546  22216450.1414                   22216438.2584
        47.5004         37.0004
  -5142750.86946  -3989947.72343  24632342.2814                   24632329.4614
        37.7504         20.5004
 -22405149.69347 -17323852.39148  21483990.4774                   21483982.0514
        47.5004         52.7504
 -18942717.08647 -14709414.58548  21625088.7274                   21625077.3714
        47.0004         51.0004
 -14360068.65847 -12639818.27747  22363315.6884                   22363306.6764
        43.0004         43.5004
  -6579662.27345  -5317739.33845  23975859.4844                   23975852.1134
        34.5004         31.0004
 -16672146.40348 -19152635.79749  20770401.0084                   20770391.9964
        50.2504         54.7504
 23  1  1  1 54 30.0000000  0 11G23G22G03G08G21G12G10G31G01G25G32
   1700648.76645   -668660.02143  24222203.3444                   24222195.6804
        35.7504         22.0004
 -16165185.98648 -13239779.83546  20662675.9224                   20662664.6844
        48.5004         41.7504
  -1145388.35955   -974958.21754  25452443.4774                   25452434.6994
        33.0004         24.7504
    242839.32746  -3313234.01744  25733973.4694                   25733964.8674
        36.7504         29.2504
 -18277400.71847 -13337268.82946  22213647.9534                   22213636.1884
        47.5004         37.2504
  -5176229.05146  -4016034.55443  24625971.8674                   24625959.4574
        38.0004         21.2504
 -22346918.93447 -17278477.82148  21495071.4924                   21495063.3014
        47.0004         52.5004
 -19033983.76847 -14780531.47748  21607721.1644                   21607709.9844
        46.7504         51.2504
 -14425348.70347 -12690685.81947  22350892.2584                   22350884.7704
        42.0004         43.5004
  -6643904.74445  -5367798.41245  23963634.6174                   23963627.2464
        33.7504         31.7504
 -16641479.52048 -19128739.52549  20776236.6024                   20776227.3554
        50.2504         55.0004
 23  1  1  1 55  0.0000000  0 11G23G22G03G08G21G12G10G31G01G25G32
   1795430.37445   -594804.34643  24240241.6954                   24240232.2154
        35.7504         20.7504
 -16183606.75448 -13254133.67747  20659170.9304                   20659159.1644
        48.2504         42.0004
  -1245866.65545  -1053253.02244  25433324.2424                   25433313.8244
        34.2504         27.7504
    323861.53746  -3250099.77745  25749391.3204                   25749383.3054
        36.2504         30.0004
 -18291647.57248 -13348370.28446  22210936.3284                   22210924.5044
        48.0004         37.5004
  -5209206.77146  -4041731.46243  24619696.4694                   24619683.1804
        38.5004         21.0004
 -22288355.24747 -17232843.80948  21506216.0704                   21506207.5274
        47.5004         52.5004
 -19124842.52947 -14851330.50648  21590431.5474                   21590420.1334
        47.2504         51.2504
 -14490116.59347 -12741154.30647  22338568.5234                   22338559.5124
        42.5004         44.0004
  -6707785.12045  -5417575.32245  23951478.3834                   23951471.5394
        35.0004         31.2504
 -16610525.79848 -19104619.74649  20782126.9304                   20782117.8594
        49.7504         54.7504
 23  1  1  1 55 30.0000000  0 11G23G22G03G08G21G12G10G31G01G25G32
   1890365.84745   -520828.75543  24258306.0004                   24258297.8094
        35.2504         20.7504
 -16201711.57947 -13268241.33247  20655725.4304                   20655713.8984
        47.0004         42.0004
  -1346380.54044  -1131575.50044  25414193.6024                   25414187.1094
        29.5004         27.7504
    404883.05245  -3186966.07844  25764805.0084                   25764799.6294
        32.5004         26.5004
 -18305412.50747 -13359096.21046  22208316.9924                   22208305.1684
        46.7504         37.0004
  -5241681.10746  -4067036.12943  24613516.0554                   24613502.3554
        37.5004         19.2504
 -22229458.07247 -17186949.93248  21517423.7194                   21517415.4104
        47.2504         52.5004
 -19215289.71647 -14921808.83248  21573219.5864                   21573208.5824
        46.7504         51.2504
 -14554368.95047 -12791221.09547  22326340.5164                   22326332.2664
        42.0004         43.7504
  -6771299.27945  -5467066.83045  23939391.8284                   23939387.2154
        33.5004         32.5004
 -16579285.31348 -19080276.51049  20788072.1094                   20788062.8054
        50.0004         54.7504
 23  1  1  1 56  0.0000000  0 11G23G22G03G08G21G12G10G31G01G25G32
   1985454.43845   -446733.89743  24276401.2974                   24276392.9884
        35.7504         22.0004
 -16219500.64747 -13282102.93746  20652339.9614                   20652329.1914
        47.5004         41.7504
  -1446929.01145  -1209924.90844  25395061.1804                   25395053.8674
        31.7504         28.5004
    485901.32645  -3123834.87444  25780225.8284                   25780216.5824
        35.2504         27.7504
 -18318694.82547 -13369446.06546  22205789.4694                   22205777.7624
        47.7504         37.0004
  -5273649.84946  -4091946.77343  24607432.9144                   24607419.2734
        39.2504         20.0004
 -22170227.57547 -17140796.35048  21528695.2034                   21528686.6024
        47.5004         52.5004
 -19305322.73947 -14991964.43148  21556086.8754                   21556075.5204
        47.5004         51.5004
 -14618103.47647 -12840884.34047  22314212.5864                   22314204.7464
        42.0004         44.0004
  -6834444.17345  -5516270.62745  23927376.3444                   23927370.4964
        34.7504         33.0004
 -16547758.99348 -19055710.54049  20794071.0864                   20794061.9574
        50.0004         55.0004
