     2.11           OBSERVATION DATA    G (GPS)             RINEX VERSION / TYPE
teqc  2019Feb25     Salamtina Y.M.      20230920 03:20:33UTCPGM / RUN BY / DATE
OBSERVATION MODE: Permanent                                 COMMENT
CHUM Chumysh (CHUM)                                         MARKER NAME
25601M001                                                   MARKER NUMBER
4549261325          TRIMBLE NETRS        1.3-2              REC # / TYPE / VERS
237                 AOAD/M_T        NONE                    ANT # / TYPE
        0.0900        0.0000        0.0000                  ANTENNA: DELTA H/E/N
  1228950.3080  4508080.0097  4327868.5420                  APPROX POSITION XYZ
  74.75110458  42.99850161  716.3351  LonLatAlt  S/W        COMMENT
ANT ADDED FROM RCV_ANT.txt                                  COMMENT
Linux 2.6.32-573.12.1.x86_64|x86_64|gcc|Linux 64|=+         COMMENT
BIT 2 OF LLI FLAGS DATA COLLECTED UNDER A/S CONDITION       COMMENT
Konovalov S.M.      RS_RAS                                  OBSERVER / AGENCY
     1     1                                                WAVELENGTH FACT L1/2
     7    L1    L2    C1    P1    P2    S1    S2            # / TYPES OF OBSERV
    30.0000                                                 INTERVAL
    18                                                      LEAP SECONDS
TIME: 2023.01.05                                            COMMENT
TOUR: cont                                                  COMMENT
RSET: RAS02                                                 COMMENT
ASET: DS24                                                  COMMENT
OPER: skon (Konovalov S.M.)                                 COMMENT
SOUR: chum202301050000d.dat                                 COMMENT
SUPP: chum202301050000d.eph                                 COMMENT
SUPP: chum202301050000d.ion                                 COMMENT
SUPP: chum202301050000d.mes                                 COMMENT
Forced Modulo Decimation to 30 seconds                      COMMENT
 SNR is mapped to RINEX snr flag value [0-9]                COMMENT
  L1 & L2: min(max(int(snr_dBHz/6), 0), 9)                  COMMENT
  2023     1     5     0     0    0.0000000     GPS         TIME OF FIRST OBS
  2023     1     5    23    59   30.0000000     GPS         TIME OF LAST OBS
                                                            END OF HEADER
 23  1  5  0  0  0.0000000  0  9G24G23G27G08G22G21G10G18G32
 -15201267.92947 -12376351.76047  22362421.9694                   22362413.8954
        42.0004         44.0004
 -14065175.91547 -13049739.74446  21409435.4614                   21409424.5744
        47.0004         39.7504
 -11690556.68546  -8902941.25946  23297679.7734                   23297672.9304
        39.7504         38.5004
  -9759162.30946  -7555017.98346  23407657.3754                   23407647.3674
        41.5004         39.5004
  -7565176.47146  -5638270.77144  22576405.4144                   22576394.2344
        41.5004         26.0004
  -8741914.03846  -5811701.07443  24236222.6804                   24236210.7974
        40.2504         22.0004
 -27898752.26348 -21997068.41449  20514578.0314                   20514569.0784
        53.5004         54.7504
 -14176478.79846 -10746545.20344  23411387.0944                   23411378.5514
        37.5004         27.7504
 -17230678.10248 -19712635.63349  20908909.6954                   20908900.8014
        51.0004         54.7504
 23  1  5  0  0 30.0000000  0  9G24G23G27G08G22G21G10G18G32
 -15157585.14647 -12342313.22047  22370735.3364                   22370726.6174
        42.5004         43.7504
 -14011843.39747 -13008181.94346  21419584.4614                   21419573.8674
        47.0004         39.5004
 -11613457.10446  -8842863.66346  23312353.0634                   23312344.2854
        40.0004         39.0004
  -9732674.23546  -7534377.95146  23412696.6564                   23412688.2894
        40.7504         39.0004
  -7647264.09346  -5702235.12244  22560783.4534                   22560773.5634
        41.7504         27.2504
  -8825230.15946  -5876622.73343  24220368.2194                   24220355.9844
        40.5004         22.2504
 -27902368.10148 -21999885.94249  20513890.1334                   20513881.0044
        52.5004         55.0004
 -14069439.77146 -10663138.19844  23431757.1174                   23431746.9344
        39.5004         27.2504
 -17272763.95048 -19745429.78249  20900901.0864                   20900891.9574
        51.5004         54.7504
 23  1  5  0  1  0.0000000  0  9G24G23G27G08G22G21G10G18G32
 -15113302.65046 -12307807.37347  22379160.5394                   22379152.9924
        41.0004         43.5004
 -13958263.21047 -12966431.15946  21429780.2664                   21429769.4964
        46.2504         39.5004
 -11536042.55246  -8782540.64946  23327083.3134                   23327075.9414
        38.7504         37.5004
  -9705670.01946  -7513335.72546  23417834.5784                   23417827.1484
        40.0004         39.5004
  -7729074.39447  -5765983.40444  22545215.2034                   22545205.6054
        42.0004         27.0004
  -8908367.97146  -5941405.43243  24204547.9454                   24204535.7704
        41.0004         21.5004
 -27905707.05148 -22002487.72749  20513254.7734                   20513245.8204
        53.2504         55.0004
 -13962193.85646 -10579569.95644  23452163.6024                   23452155.0594
        38.0004         27.2504
 -17314433.28648 -19777899.37349  20892971.7814                   20892962.9454
        52.0004         55.0004
 23  1  5  0  1 30.0000000  0  9G24G23G27G08G22G21G10G18G32
 -15068423.31246 -12272836.46747  22387702.0554                   22387693.1024
        41.5004         43.2504
 -13904436.92247 -12924488.61646  21440023.3674                   21440012.6564
        46.2504         39.5004
 -11458317.32646  -8721975.55346  23341874.1644                   23341865.9144
        39.2504         38.0004
  -9678152.96446  -7491893.90546  23423071.2344                   23423063.1604
        41.0004         38.7504
  -7810607.79246  -5829515.91144  22529700.8054                   22529689.9774
        41.5004         25.7504
  -8991326.37246  -6006048.31743  24188761.3754                   24188748.9064
        40.5004         21.7504
 -27908769.37348 -22004873.95149  20512671.9924                   20512663.0984
        53.2504         54.7504
 -13854744.53846 -10495843.21344  23472612.2194                   23472601.7424
        38.2504         26.0004
 -17355687.18848 -19810045.25349  20885121.0234                   20885112.4224
        51.0004         54.7504
 23  1  5  0  2  0.0000000  0  9G24G23G27G08G22G21G10G18G32
 -15022949.60347 -12237402.38547  22396355.7974                   22396346.7854
        42.0004         43.7504
 -13850365.60547 -12882355.12046  21450312.4534                   21450301.9774
        45.7504         39.2504
 -11380285.50446  -8661171.53546  23356723.6024                   23356715.8204
        38.7504         37.5004
  -9650124.93546  -7470053.90946  23428404.9224                   23428397.0234
        38.5004         38.7504
  -7891864.22547  -5892832.57544  22514237.3444                   22514227.8054
        42.0004         26.7504
  -9074104.68246  -6070550.91443  24173009.2274                   24172996.6994
        39.7504         22.7504
 -27911555.95948 -22007045.30649  20512141.7734                   20512132.6454
        52.0004         54.7504
 -13747094.62246 -10411960.18144  23493095.8834                   23493087.4574
        38.0004         27.5004
 -17396526.39448 -19841867.99649  20877349.8364                   20877341.1174
        51.5004         54.7504
 23  1  5  0  2 30.0000000  0  9G24G23G27G08G22G21G10G18G32
 -14976882.02246 -12201505.57547  22405121.2894                   22405113.5664
        40.2504         43.5004
 -13796048.37547 -12840030.01646  21460648.5864                   21460638.1684
        46.2504         39.2504
 -11301948.94146  -8600130.07046  23371630.0704                   23371622.2304
        39.5004         37.5004
  -9621586.66146  -7447816.32546  23433835.9534                   23433827.7624
        39.2504         38.7504
  -7972841.07747  -5955931.40844  22498828.9844                   22498818.2734
        42.0004         27.0004
  -9156699.52546  -6134910.48443  24157291.2194                   24157279.8634
        39.7504         22.5004
 -27914065.08648 -22009000.47649  20511664.2274                   20511655.2154
        53.0004         55.0004
 -13639245.07046 -10327921.56144  23513619.5394                   23513610.2344
        36.5004         26.0004
 -17436949.62548 -19873366.60449  20869657.4064                   20869648.3954
        51.5004         55.0004
 23  1  5  0  3  0.0000000  0  9G24G23G27G08G22G21G10G18G32
 -14930222.38046 -12165147.41947  22414000.1954                   22413992.6484
        40.7504         43.5004
 -13741485.72547 -12797513.67246  21471031.2814                   21471020.9804
        45.5004         39.0004
 -11223310.89146  -8538853.66046  23386594.5084                   23386586.2584
        40.5004         37.5004
  -9592540.08046  -7425182.65846  23439363.6484                   23439355.3404
        39.0004         38.7504
  -8053537.97247  -6018812.08744  22483472.6484                   22483462.1134
        42.0004         27.0004
  -9239109.59146  -6199126.14743  24141609.4774                   24141597.6524
        40.5004         22.5004
 -27916296.32748 -22010739.10949  20511239.5164                   20511230.6214
        52.2504         55.0004
 -13531198.19146 -10243729.18444  23534180.0864                   23534171.0744
        36.5004         27.5004
 -17476956.89248 -19904541.09749  20862043.9304                   20862035.2704
        51.0004         55.0004
 23  1  5  0  3 30.0000000  0  9G24G23G27G08G22G21G10G18G32
 -14882972.72547 -12128329.50747  22422991.9694                   22422983.6024
        42.2504         43.0004
 -13686678.24547 -12754806.56546  21481461.4534                   21481450.6254
        46.0004         39.0004
 -11144374.88746  -8477345.09446  23401616.0704                   23401608.2894
        39.0004         37.5004
  -9562987.40046  -7402154.62846  23444986.6564                   23444978.9924
        39.0004         38.5004
  -8133953.80846  -6081473.76044  22468169.9924                   22468159.1644
        41.7504         28.2504
  -9321333.05146  -6263196.38243  24125962.7894                   24125950.4384
        40.0004         22.7504
 -27918249.64148 -22012261.16649  20510867.8284                   20510858.8164
        52.2504         55.0004
 -13422956.38946 -10159384.91244  23554777.8054                   23554768.7934
        36.2504         26.7504
 -17516548.45448 -19935391.64749  20854510.3914                   20854501.3794
        51.5004         55.0004
 23  1  5  0  4  0.0000000  0  9G24G23G27G08G22G21G10G18G32
 -14835134.15446 -12091052.68947  22432095.0704                   22432086.9964
        41.0004         42.7504
 -13631625.54847 -12711908.35946  21491937.4774                   21491926.8834
        47.0004         39.0004
 -11065143.36546  -8415606.26046  23416693.0084                   23416684.6414
        38.5004         38.0004
  -9532929.21446  -7378732.69946  23450707.7114                   23450698.6414
        39.7504         38.5004
  -8214087.28347  -6143915.42144  22452920.7974                   22452910.4964
        42.0004         28.2504
  -9403367.58746  -6327119.36643  24110352.9534                   24110339.8984
        40.5004         22.5004
 -27919923.97948 -22013565.84649  20510549.2814                   20510540.2114
        53.7504         55.0004
 -13314521.19846 -10074889.95144  23575412.4144                   23575403.8134
        37.5004         25.5004
 -17555723.58948 -19965917.70449  20847055.4924                   20847046.5984
        52.0004         55.0004
 23  1  5  0  4 30.0000000  0  9G24G23G27G08G22G21G10G18G32
 -14786624.54546 -12053253.00247  22441325.6954                   22441317.6214
        40.0004         42.5004
 -13576244.18047 -12668754.05846  21502475.9224                   21502465.5634
        45.5004         39.0004
 -10985535.73046  -8353574.33646  23431842.1414                   23431833.8324
        39.0004         37.7504
  -9502284.34646  -7354853.59846  23456538.2424                   23456530.2274
        41.0004         39.0004
  -8293853.72347  -6206071.06944  22437741.9224                   22437731.3284
        42.2504         27.7504
  -9485127.10046  -6390828.08643  24094793.5084                   24094782.0944
        39.0004         22.2504
 -27921235.25348 -22014587.62449  20510299.8834                   20510290.9884
        53.5004         55.0004
 -13205810.83746  -9990180.59844  23596100.7424                   23596090.0314
        37.5004         26.0004
 -17594398.49148 -19996053.97849  20839695.8364                   20839687.0594
        51.7504         55.2504
 23  1  5  0  5  0.0000000  0  9G24G23G27G08G22G21G10G18G32
 -14737698.26246 -12015128.59647  22450636.8754                   22450628.3324
        40.7504         42.7504
 -13520786.86547 -12625540.57746  21513029.2814                   21513018.6884
        45.5004         38.7504
 -10905807.52346  -8291448.47746  23447013.4304                   23447005.8244
        38.5004         37.5004
  -9471306.07346  -7330714.70846  23462433.5394                   23462425.4654
        39.2504         38.7504
  -8373504.61047  -6268136.67044  22422584.2584                   22422574.0744
        42.5004         27.7504
  -9566862.62646  -6454518.10443  24079240.2424                   24079228.5354
        39.7504         22.0004
 -27922435.33748 -22015522.74949  20510071.4454                   20510062.2584
        52.5004         54.7504
 -13097079.99946  -9905455.26944  23616791.6414                   23616780.7544
        38.0004         26.0004
 -17632825.50748 -20025997.08949  20832383.6094                   20832374.4804
        51.2504         55.0004
 23  1  5  0  5 30.0000000  0  9G24G23G27G08G22G21G10G18G32
 -14688103.87846 -11976483.63147  22460072.9304                   22460065.8524
        38.5004         42.0004
 -13465000.74147 -12582070.87246  21523644.6954                   21523634.6884
        45.5004         38.5004
 -10825708.74246  -8229033.85646  23462255.7114                   23462247.7544
        38.2504         37.0004
  -9439743.61946  -7306120.61246  23468439.2814                   23468431.7344
        39.2504         39.0004
  -8452785.46346  -6329913.95344  22407498.1644                   22407487.2194
        41.5004         27.0004
  -9648319.36046  -6517990.88343  24063739.5784                   24063727.1094
        39.0004         22.5004
 -27923270.87848 -22016173.82949  20509912.5944                   20509903.3484
        53.0004         55.0004
 -12988077.60146  -9820518.34144  23637533.5394                   23637523.1804
        38.5004         27.0004
 -17670751.51648 -20055549.81549  20825166.3754                   20825157.4804
        50.7504         54.7504
 23  1  5  0  6  0.0000000  0  9G24G23G27G08G22G21G10G18G32
 -14637927.90746 -11937385.47247  22469622.4844                   22469614.2344
        39.7504         42.5004
 -13408970.82347 -12538411.20046  21534307.2034                   21534296.4924
        46.5004         38.5004
 -10745327.30746  -8166398.97146  23477553.1254                   23477543.9384
        40.2504         38.0004
  -9407683.26946  -7281138.54346  23474540.5864                   23474532.3954
        39.5004         38.2504
  -8531780.27847  -6391468.31644  22392465.8594                   22392455.0904
        42.0004         27.0004
  -9729579.63946  -6581310.56543  24048276.1334                   24048264.4264
        38.7504         22.7504
 -27923825.87949 -22016606.29849  20509806.8284                   20509797.5234
        54.0004         54.7504
 -12878890.59046  -9735437.58244  23658311.8754                   23658300.8714
        39.0004         26.0004
 -17708261.16848 -20084778.10549  20818028.5634                   20818019.3754
        51.5004         54.7504
 23  1  5  0  6 30.0000000  0  9G24G23G27G08G22G21G10G18G32
 -14587172.00146 -11897835.41947  22479280.5784                   22479272.3874
        39.0004         42.5004
 -13352697.18947 -12494561.62346  21545016.1024                   21545004.9224
        45.7504         38.7504
 -10664666.12646  -8103546.11746  23492902.1804                   23492893.6954
        39.0004         37.5004
  -9375126.37046  -7255769.55646  23480735.4224                   23480727.6414
        39.5004         38.2504
  -8610487.97647  -6452798.97644  22377488.2734                   22377477.6214
        42.2504         27.7504
  -9810641.06346  -6644475.30243  24032851.0634                   24032838.7704
        40.7504         23.0004
 -27924099.67648 -22016819.64749  20509754.7194                   20509745.4734
        53.5004         54.7504
 -12769520.78746  -9650214.35844  23679123.3524                   23679113.5784
        37.5004         25.5004
 -17745354.23848 -20113681.77549  20810969.8444                   20810961.0084
        51.0004         55.0004
 23  1  5  0  7  0.0000000  0  9G24G23G27G08G22G21G10G18G32
 -14535838.43746 -11857835.23947  22489049.5314                   22489041.2234
        39.5004         42.2504
 -13296180.52247 -12450522.66846  21555770.6414                   21555759.6374
        45.7504         38.5004
 -10583728.73546  -8040478.02046  23508302.8444                   23508294.8874
        39.2504         37.5004
  -9342075.50346  -7230015.64646  23487024.6024                   23487017.0554
        39.2504         38.2504
  -8688908.16747  -6513905.58744  22362565.4534                   22362555.0354
        42.0004         28.5004
  -9891502.83846  -6707484.47144  24017463.5944                   24017451.0084
        41.2504         24.0004
 -27924092.36848 -22016813.95449  20509755.9614                   20509746.9494
        52.7504         55.0004
 -12659970.80146  -9564850.75044  23699970.7274                   23699959.7814
        38.5004         25.5004
 -17782031.16148 -20142261.18949  20803990.2664                   20803981.2544
        51.2504         54.7504
 23  1  5  0  7 30.0000000  0  9G24G23G27G08G22G21G10G18G32
 -14483928.11646 -11817385.62947  22498927.3054                   22498919.4064
        39.5004         42.0004
 -13239420.23047 -12406293.87746  21566571.6334                   21566561.3324
        45.7504         38.2504
 -10502517.43446  -7977196.48446  23523757.2584                   23523749.3594
        38.5004         37.7504
  -9308531.44646  -7203877.45346  23493407.9224                   23493400.1994
        39.0004         38.0004
  -8767038.87947  -6574786.64744  22347697.0634                   22347687.2894
        42.5004         27.7504
  -9972162.05646  -6770335.82243  24002113.8984                   24002102.1914
        40.5004         22.7504
 -27923802.38648 -22016587.99549  20509811.5474                   20509802.1844
        53.5004         54.7504
 -12550241.83946  -9479347.65344  23720850.9304                   23720840.6294
        38.5004         24.5004
 -17818291.01048 -20170515.61449  20797090.2034                   20797081.4264
        51.0004         55.0004
 23  1  5  0  8  0.0000000  0  9G24G23G27G08G22G21G10G18G32
 -14431442.97446 -11776488.12747  22508915.0944                   22508906.7274
        39.7504         42.0004
 -13182416.57747 -12361875.45946  21577419.1484                   21577408.6134
        45.2504         38.0004
 -10421035.35146  -7913703.98146  23539262.4844                   23539254.6454
        39.0004         37.7504
  -9274496.26246  -7177356.55246  23499885.3284                   23499877.0204
        40.0004         39.0004
  -8844879.00047  -6635441.26444  22332883.6954                   22332874.2154
        42.5004         29.2504
 -10052616.85946  -6833027.86044  23986805.1644                   23986792.4024
        41.2504         25.0004
 -27923229.61748 -22016141.67549  20509920.3444                   20509911.1564
        52.7504         54.7504
 -12440336.05546  -9393706.78144  23741764.5314                   23741754.8754
        37.5004         25.7504
 -17854133.78748 -20198445.03449  20790269.9924                   20790260.9804
        51.5004         55.0004
 23  1  5  0  8 30.0000000  0  9G24G23G27G08G22G21G10G18G32
 -14378385.86746 -11735144.91446  22519011.9454                   22519003.4614
        39.7504         41.7504
 -13125170.78147 -12317268.36246  21588312.6724                   21588301.8444
        45.7504         38.5004
 -10339286.53446  -7850003.60846  23554819.0864                   23554811.1884
        38.5004         37.2504
  -9239972.34246  -7150454.81546  23506454.8524                   23506446.6024
        40.5004         38.5004
  -8922428.77747  -6695869.64744  22318127.5234                   22318117.3984
        42.0004         28.2504
 -10132865.76846  -6895559.46844  23971533.4454                   23971521.5634
        41.2504         24.0004
 -27922374.56848 -22015475.40249  20510083.1884                   20510074.0594
        53.7504         54.7504
 -12330256.55046  -9307930.53443  23762712.7814                   23762702.1294
        38.5004         23.5004
 -17889560.43748 -20226050.19649  20783528.6644                   20783519.3594
        51.5004         55.0004
 23  1  5  0  9  0.0000000  0  9G24G23G27G08G22G21G10G18G32
 -14324757.54946 -11693356.62147  22529217.3444                   22529208.6844
        40.7504         42.0004
 -13067681.99247 -12272471.90646  21599252.0554                   21599241.8134
        45.5004         38.0004
 -10257273.08446  -7786097.03246  23570425.6334                   23570417.6174
        38.2504         36.7504
  -9204960.84646  -7123173.14646  23513117.1884                   23513109.0554
        41.0004         38.5004
  -8999686.01947  -6756070.07844  22303425.3054                   22303415.7074
        42.7504         28.7504
 -10212906.09846  -6957928.54644  23956302.2274                   23956290.2274
        41.5004         25.0004
 -27921235.57349 -22014587.87349  20510299.6484                   20510290.6954
        54.0004         55.0004
 -12220004.24346  -9222019.66244  23783693.0234                   23783682.9574
        39.0004         24.0004
 -17924569.86348 -20253330.25049  20776866.4534                   20776857.7344
        52.0004         55.0004
 23  1  5  0  9 30.0000000  0  9G24G23G27G08G22G21G10G18G32
 -14270560.47646 -11651125.12847  22539529.4924                   22539521.9454
        38.2504         42.0004
 -13009950.92847 -12227486.66946  21610238.5234                   21610227.6374
        45.5004         38.2504
 -10174998.57046  -7721987.03546  23586081.9064                   23586074.1254
        38.7504         36.7504
  -9169464.19746  -7095513.44546  23519871.6254                   23519863.7274
        39.7504         38.0004
  -9076650.57647  -6816042.43044  22288779.0554                   22288769.4574
        42.5004         28.7504
 -10292735.89546  -7020133.57744  23941111.5004                   23941099.2074
        41.5004         26.2504
 -27919812.74148 -22013479.18749  20510570.3754                   20510561.5984
        53.5004         55.0004
 -12109581.84146  -9135976.24043  23804706.2114                   23804695.1484
        38.2504         22.5004
 -17959162.59348 -20280285.60849  20770283.6024                   20770274.5904
        51.2504         55.0004
 23  1  5  0 10  0.0000000  0  9G24G23G27G08G22G21G10G18G32
 -14215795.71146 -11608451.31546  22549951.4534                   22549943.1454
        39.5004         41.5004
 -12951977.11747 -12182312.28046  21621270.1024                   21621259.6254
        45.2504         38.0004
 -10092465.36746  -7657675.44446  23601787.6254                   23601779.2584
        37.5004         36.2504
  -9133482.80446  -7067476.01946  23526718.5474                   23526711.4104
        40.2504         38.0004
  -9153320.58147  -6875785.28744  22274191.2734                   22274179.5084
        43.2504         29.2504
 -10372352.82846  -7082172.72544  23925961.0004                   23925948.4734
        40.7504         25.2504
 -27918104.47848 -22012148.07249  20510895.5084                   20510886.5554
        53.5004         54.7504
 -11998990.68346  -9049801.31543  23825749.8674                   23825740.6804
        36.5004         22.5004
 -17993337.86148 -20306915.67849  20763780.3284                   20763771.0234
        51.0004         54.7504
 23  1  5  0 10 30.0000000  0  9G24G23G27G08G22G21G10G18G32
 -14160466.54346 -11565337.64346  22560480.8594                   22560471.8484
        39.7504         41.7504
 -12893761.95447 -12136949.83246  21632348.2194                   21632337.5664
        45.5004         37.5004
 -10009677.77346  -7593165.65446  23617541.3914                   23617533.4924
        38.2504         36.0004
  -9097020.62746  -7039063.95546  23533657.6564                   23533649.5234
        41.2504         38.2504
  -9229696.31747  -6935298.82444  22259657.1954                   22259646.1334
        43.7504         29.0004
 -10451756.65247  -7144045.85144  23910851.0864                   23910838.2664
        42.2504         25.5004
 -27916111.71148 -22010595.26549  20511274.7194                   20511265.7074
        52.7504         54.7504
 -11888233.97946  -8963497.36243  23846826.0704                   23846816.2384
        36.5004         23.2504
 -18027096.92648 -20333221.42449  20757356.2194                   20757347.1484
        51.2504         55.0004
 23  1  5  0 11  0.0000000  0 10G24G23G27G08G22G21G10G18G31G32
 -14104574.30746 -11521785.26746  22571115.6484                   22571107.7504
        38.5004         41.2504
 -12835305.24247 -12091399.15746  21643472.1954                   21643461.4264
        45.5004         38.0004
  -9926638.49746  -7528459.71846  23633344.2194                   23633335.2664
        38.2504         36.2504
  -9060078.82947  -7010278.15246  23540688.0234                   23540679.5984
        42.0004         38.7504
  -9305776.43647  -6994582.01945  22245179.1804                   22245168.5274
        44.0004         30.0004
 -10530944.14546  -7205750.36944  23895782.2424                   23895770.3014
        41.2504         26.0004
 -27913833.44948 -22008820.00049  20511708.1954                   20511699.3594
        53.5004         54.7504
 -11777313.47946  -8877065.84143  23867933.3674                   23867924.3554
        37.0004         22.2504
    481475.80755    404142.50854  25310970.2974                   25310960.3484
        30.7504         27.0004
 -18060439.32848 -20359202.50049  20751010.8054                   20751002.3204
        50.5004         55.0004
 23  1  5  0 11 30.0000000  0 10G24G23G27G08G22G21G10G18G31G32
 -14048120.72446 -11477795.45746  22581859.1884                   22581850.8794
        39.0004         41.5004
 -12776606.85947 -12045660.17746  21654642.5474                   21654631.4844
        45.5004         37.7504
  -9843350.18046  -7463559.73546  23649192.5314                   23649184.8094
        38.0004         36.5004
  -9022659.26446  -6981120.06146  23547808.6334                   23547800.2664
        41.7504         38.5004
  -9381559.67147  -7053633.88344  22230757.9924                   22230747.3404
        44.2504         29.5004
 -10609913.47146  -7267284.90344  23880754.2974                   23880741.7704
        41.5004         25.0004
 -27911269.11048 -22006821.81349  20512196.1094                   20512186.9804
        53.7504         54.7504
 -11666230.89446  -8790507.98443  23889072.6094                   23889062.3674
        37.5004         22.5004
    363651.62055    312331.37254  25288549.4224                   25288539.6484
        32.7504         29.0004
 -18093364.69648 -20384858.60449  20744745.6644                   20744736.5944
        51.5004         55.0004
 23  1  5  0 12  0.0000000  0 10G24G23G27G08G22G21G10G18G31G32
 -13991108.22246 -11433370.14146  22592708.4144                   22592699.6374
        40.0004         41.2504
 -12717667.40547 -11999733.33846  21665857.7504                   21665847.3914
        45.5004         38.0004
  -9759816.48246  -7398468.53546  23665088.7274                   23665080.7704
        38.0004         36.0004
  -8984763.36647  -6951590.81046  23555020.0004                   23555011.5164
        42.2504         38.0004
  -9457045.56847  -7112454.04445  22216393.6414                   22216383.3404
        44.0004         30.0004
 -10688662.87446  -7328648.07144  23865768.9064                   23865756.7894
        41.0004         26.5004
 -27908417.89148 -22004600.08949  20512738.7664                   20512729.9304
        53.0004         55.0004
 -11554988.71546  -8703825.74243  23910240.9304                   23910231.5084
        37.0004         22.5004
    245735.30556    220448.49654  25266115.2114                   25266099.8714
        36.5004         26.5004
 -18125873.52048 -20410190.14349  20738559.3594                   20738550.4654
        51.5004         55.0004
 23  1  5  0 12 30.0000000  0 10G24G23G27G08G22G21G10G18G31G32
 -13933539.18046 -11388511.12145  22603663.4924                   22603654.7154
        40.0004         34.2504
 -12658487.67547 -11953619.28446  21677119.7814                   21677109.0704
        46.0004         38.5004
  -9676041.00946  -7333188.95145  23681029.8524                   23681022.4224
        37.2504         34.5004
  -8946394.55647  -6921693.03546  23562321.2584                   23562312.3054
        42.5004         38.2504
  -9532233.71747  -7171042.20145  22202085.8594                   22202075.2074
        44.5004         31.0004
 -10767190.90946  -7389838.73844  23850825.8054                   23850813.6294
        41.5004         24.2504
 -27905280.47649 -22002155.34849  20513335.8134                   20513327.2114
        54.0004         54.7504
 -11443589.61946  -8617021.25343  23931439.5634                   23931429.5554
        38.0004         22.7504
    127728.53955    128495.10655  25243657.7664                   25243645.8244
        34.7504         30.0004
 -18157966.44848 -20435197.61149  20732452.0784                   20732443.4774
        52.2504         54.7504
 23  1  5  0 13  0.0000000  0 10G24G23G27G08G22G21G10G18G31G32
 -13875416.04746 -11343220.38644  22614722.9844                   22614715.0864
        38.7504         29.5004
 -12599068.22647 -11907318.42546  21688426.6954                   21688416.0434
        46.0004         38.0004
  -9592027.14846  -7267723.60545  23697017.6564                   23697010.0514
        38.0004         34.2504
  -8907554.41247  -6891428.00646  23569712.1564                   23569703.9654
        42.0004         38.0004
  -9607123.54147  -7229397.88945  22187834.4064                   22187824.3404
        44.2504         30.7504
 -10845495.98546  -7450855.65444  23835923.6484                   23835912.4104
        41.0004         24.0004
 -27901856.18448 -21999487.07149  20513987.3054                   20513978.4104
        52.2504         54.7504
 -11332035.99546  -8530096.35343  23952667.3674                   23952657.8874
        36.0004         22.2504
      9633.83745     36473.32244  25221179.5944                   25221171.8134
        31.5004         28.7504
 -18189643.77748 -20459881.21949  20726424.1334                   20726415.4734
        51.5004         55.0004
 23  1  5  0 13 30.0000000  0 10G24G23G27G08G22G21G10G18G31G32
 -13816737.92346 -11297497.15845  22625890.3754                   22625881.1884
        40.5004         30.2504
 -12539406.29447 -11860828.61246  21699780.1564                   21699769.6214
        45.7504         37.7504
  -9507775.10946  -7202072.67645  23713049.9534                   23713042.5824
        36.2504         34.0004
  -8868242.61847  -6860795.46946  23577192.3594                   23577184.5204
        42.5004         38.0004
  -9681711.29347  -7287518.18545  22173640.8204                   22173630.9304
        44.0004         30.5004
 -10923573.72246  -7511695.46144  23821066.9774                   23821054.9184
        40.7504         24.7504
 -27898141.83148 -21996592.77049  20514693.9614                   20514685.3014
        53.5004         54.7504
 -11220327.01346  -8443050.38243  23973925.3524                   23973914.9344
        38.0004         22.0004
   -108542.90956    -55612.49355  25198696.6644                   25198683.0234
        37.2504         31.0004
 -18220902.64048 -20484238.76449  20720476.0784                   20720467.0664
        52.5004         54.7504
 23  1  5  0 14  0.0000000  0 10G24G23G27G08G22G21G10G18G31G32
 -13757508.99046 -11251344.75845  22637159.9774                   22637152.1374
        39.0004         30.2504
 -12479504.30947 -11814151.75146  21711179.0474                   21711168.3954
        46.0004         38.0004
  -9423290.14346  -7136240.23045  23729126.9694                   23729119.1294
        37.5004         34.0004
  -8828463.11247  -6829798.46246  23584762.5944                   23584754.8134
        42.0004         38.0004
  -9755998.13747  -7345404.02845  22159504.2664                   22159494.0824
        43.7504         31.2504
 -11001423.08846  -7572357.29844  23806252.2424                   23806241.0634
        40.0004         24.5004
 -27894138.95348 -21993473.65349  20515455.7424                   20515446.9064
        53.7504         55.0004
 -11108466.92846  -8355886.69143  23995210.0634                   23995201.1684
        36.5004         22.5004
   -226802.28346   -147762.54945  25176191.9224                   25176180.3914
        37.5004         31.0004
 -18251745.36848 -20508272.04349  20714606.8834                   20714597.8134
        52.2504         55.0004
 23  1  5  0 14 30.0000000  0 10G24G23G27G08G22G21G10G18G31G32
 -13697730.99446 -11204764.49444  22648535.8914                   22648527.4064
        39.7504         29.0004
 -12419362.17247 -11767287.76646  21722623.7274                   21722612.7814
        45.5004         38.0004
  -9338575.06345  -7070228.46945  23745246.6334                   23745240.2584
        35.0004         33.7504
  -8788217.87546  -6798438.55346  23592421.1804                   23592413.1054
        41.7504         38.0004
  -9829982.89847  -7403054.45645  22145426.1414                   22145415.3134
        44.7504         31.2504
 -11079042.35946  -7632839.84344  23791481.9224                   23791470.0394
        39.7504         25.0004
 -27889846.85748 -21990129.16049  20516272.5474                   20516263.7114
        53.0004         54.7504
 -10996457.59346  -8268606.66143  24016525.7814                   24016515.8914
        37.5004         22.7504
   -345140.35246   -239973.91045  25153674.1334                   25153662.8954
        38.0004         31.0004
 -18282171.61548 -20531980.79849  20708816.8284                   20708807.8164
        52.2504         54.7504
 23  1  5  0 15  0.0000000  0 10G24G23G27G08G22G21G10G18G31G32
 -13637406.99246 -11157758.78545  22660014.6644                   22660006.5904
        39.0004         30.0004
 -12358981.05447 -11720237.56246  21734114.4224                   21734103.2424
        46.2504         37.7504
  -9253633.98246  -7004040.63645  23761412.4064                   23761404.1564
        37.7504         34.0004
  -8747509.58647  -6766717.81546  23600167.5944                   23600159.1684
        42.5004         38.0004
  -9903665.84647  -7460469.72945  22131403.9454                   22131394.1724
        44.7504         30.7504
 -11156430.73946  -7693142.47344  23776754.3914                   23776743.9734
        40.7504         26.0004
 -27885265.82148 -21986559.52649  20517144.1254                   20517135.5234
        53.0004         54.7504
 -10884301.99146  -8181212.70543  24037869.1644                   24037858.3954
        38.0004         22.5004
   -463555.86155   -332245.93455  25131135.4534                   25131128.3164
        33.0004         31.0004
 -18312182.53048 -20555365.91649  20703105.6884                   20703096.7934
        52.0004         54.7504
 23  1  5  0 15 30.0000000  0 11G24G23G27G08G22G21G10G18G31G01G32
 -13576369.67246 -11110197.21244  22671630.8834                   22671621.9304
        39.0004         29.5004
 -12298191.74847 -11672869.28246  21745681.5944                   21745671.0594
        46.0004         37.2504
  -9168300.48046  -6937546.97145  23777650.3594                   23777642.0514
        36.5004         32.5004
  -8706170.81046  -6734505.77646  23608033.9924                   23608025.9184
        41.5004         37.2504
  -9976876.49047  -7517516.95345  22117473.0784                   22117462.3674
        44.2504         31.2504
 -11233416.55647  -7753131.38744  23762107.3674                   23762094.5474
        42.0004         25.5004
 -27880226.14248 -21982632.50949  20518103.5864                   20518094.7504
        53.2504         55.0004
 -10771832.85046  -8093574.42743  24059270.8364                   24059260.4774
        38.0004         22.7504
   -581876.81945   -424444.07845  25108621.0234                   25108611.6604
        30.5004         31.0004
    571629.90155    513801.58552  25344137.8284                   25344130.0474
        30.5004         16.7504
 -18341608.71848 -20578295.40549  20697506.4694                   20697497.4574
        52.0004         55.0004
 23  1  5  0 16  0.0000000  0 11G24G23G27G08G22G21G10G18G31G01G32
 -13515124.58946 -11062473.80444  22683284.0944                   22683276.3134
        38.2504         29.2504
 -12237497.98947 -11625575.45246  21757230.9304                   21757220.5124
        45.2504         37.0004
  -9083081.20046  -6871142.35745  23793866.5474                   23793859.1174
        36.5004         33.0004
  -8664707.16247  -6702196.46446  23615924.0784                   23615917.1764
        42.2504         37.7504
 -10050117.57547  -7574587.91645  22103536.1094                   22103525.3404
        45.0004         31.5004
 -11310501.14346  -7813197.32144  23747436.6414                   23747425.0514
        40.0004         26.0004
 -27875230.30748 -21978739.65349  20519054.1094                   20519045.2154
        53.0004         55.0004
 -10659555.79946  -8006085.79843  24080637.0944                   24080626.2074
        39.5004         22.5004
                                  25086031.3674                   25086018.0784
        36.0004         30.2504
    458600.47445    425726.76242  25322629.5704                   25322621.3204
        31.0004         14.7504
 -18370953.96148 -20601161.81649  20691922.0784                   20691913.0664
        51.7504         55.0004
 23  1  5  0 16 30.0000000  0 11G24G23G27G08G22G21G10G18G31G01G32
 -13453174.43346 -11014200.92744  22695073.9614                   22695065.0084
        39.0004         29.5004
 -12176400.41847 -11577966.96646  21768857.3674                   21768847.2424
        45.5004         37.2504
  -8997479.75246  -6804439.93445  23810157.7734                   23810148.2344
        37.7504         33.0004
  -8622621.35947  -6669402.34846  23623934.3524                   23623925.3404
        43.0004         37.5004
 -10122888.81347  -7631292.75545  22089687.5704                   22089677.2704
        44.7504         31.2504
 -11387183.42646  -7872949.72844  23732844.3914                   23732833.0354
        40.7504         25.7504
 -27869778.42948 -21974491.43749  20520091.7274                   20520082.5984
        52.7504         55.0004
 -10546973.34646  -7918359.22444  24102060.3134                   24102050.4224
        38.2504         24.5004
   -819235.15845   -609398.50145  25063454.0314                   25063443.3794
        34.2504         31.5004
    345807.38755    337835.96252  25301164.7814                   25301159.1684
        30.0004         14.7504
 -18399718.61948 -20623575.82149  20686448.3594                   20686439.3484
        51.5004         54.7504
 23  1  5  0 17  0.0000000  0 11G24G23G27G08G22G21G10G18G31G01G32
 -13390684.79946 -10965507.70044  22706964.2424                   22706956.0514
        38.0004         29.2504
 -12115062.86247 -11530171.47846  21780529.5164                   21780519.2734
        45.5004         37.0004
  -8911662.76445  -6737569.54845  23826486.9144                   23826479.3094
        35.7504         33.5004
  -8580078.87947  -6636252.39346  23632029.0864                   23632019.7234
        43.2504         37.5004
 -10195352.55847  -7687757.99345  22075898.7114                   22075888.0594
        44.5004         32.0004
 -11463624.75147  -7932514.40344  23718298.9534                   23718286.7194
        42.2504         25.0004
 -27864033.85048 -21970015.13749  20521184.9924                   20521175.9804
        52.7504         54.7504
 -10434251.19246  -7830523.80443  24123512.0864                   24123499.9694
        40.2504         22.7504
   -937931.42046   -701889.04245  25040869.0704                   25040856.3094
        37.0004         31.7504
    233089.78254    250004.11752  25279716.2814                   25279710.0234
        28.5004         14.7504
 -18428066.47048 -20645665.03949  20681053.9774                   20681044.7304
        52.2504         54.7504
 23  1  5  0 17 30.0000000  0 11G24G23G27G08G22G21G10G18G31G01G32
 -13327659.78746 -10916397.30944  22718958.7424                   22718949.6134
        38.7504         29.2504
 -12053487.44947 -11482190.63346  21792247.7894                   21792236.6094
        45.0004         37.5004
  -8825635.30346  -6670535.15845  23842857.2664                   23842849.7194
        36.7504         33.5004
  -8537083.40646  -6602749.42246  23640210.3984                   23640201.8554
        41.7504         37.5004
 -10267510.37647  -7743984.85645  22062167.0234                   22062156.6644
        44.2504         30.0004
 -11539824.92746  -7991891.15844  23703797.9384                   23703785.6454
        41.2504         25.7504
 -27857997.44348 -21965311.44549  20522333.5554                   20522324.5434
        52.0004         54.7504
 -10321393.31546  -7742582.59344  24144985.1174                   24144976.6334
        37.5004         24.5004
  -1056691.88845   -794429.67145  25018267.3364                   25018256.3914
        35.2504         30.0004
    120442.76755    205839.08653  25258280.7344                   25258269.1454
        34.5004         19.5004
 -18455999.53348 -20667431.05349  20675738.3594                   20675729.2894
        51.5004         54.7504
 23  1  5  0 18  0.0000000  0 11G24G23G27G08G22G21G10G18G31G01G32
 -13264098.33546 -10866868.91344  22731052.7894                   22731045.3594
        38.0004         29.0004
 -11991671.05947 -11434022.03846  21804010.4384                   21804000.1374
        44.5004         37.2504
  -8739397.02546  -6603336.52845  23859268.2974                   23859259.6954
        36.5004         32.7504
  -8493634.29947  -6568892.99446  23648477.5864                   23648470.2154
        42.5004         37.5004
 -10339357.76047  -7799969.81645  22048494.9454                   22048484.4104
        44.5004         30.0004
 -11615778.63247  -8051075.87444  23689344.9924                   23689332.6994
        42.2504         26.0004
 -27851665.63748 -21960377.57049  20523538.2974                   20523529.5784
        52.0004         55.0004
 -10208398.58146  -7654534.76243  24166489.1564                   24166478.6214
        38.2504         22.2504
  -1175510.46045   -887015.57045  24995657.5704                   24995646.4494
        35.7504         31.2504
                                  25236861.250
        26.250
 -18483514.71148 -20688871.42949  20670502.8134                   20670493.5084
        51.5004         55.0004
 23  1  5  0 18 30.0000000  0 11G24G23G27G08G22G21G10G18G31G01G32
 -13200008.02446 -10816928.41144  22743249.1954                   22743241.0634
        38.2504         29.2504
 -11929619.41547 -11385670.12246  21815818.8444                   21815808.6024
        45.5004         37.0004
  -8652956.67946  -6535980.40245  23875717.5474                   23875708.8284
        37.0004         33.5004
  -8449738.97847  -6534688.86246  23656831.4694                   23656823.2774
        42.5004         37.2504
 -10410899.60847  -7855716.70145  22034881.0164                   22034870.4224
        44.2504         31.7504
 -11691489.56447  -8110071.39444  23674937.5394                   23674925.0704
        42.0004         26.0004
 -27845043.33448 -21955217.33449  20524798.5084                   20524789.6724
        52.2504         55.0004
 -10095274.44146  -7566386.09743  24188015.6564                   24188006.2934
        38.7504         23.7504
  -1294389.88845   -979648.86345  24973034.7034                   24973024.2854
        34.0004         31.2504
    714361.73215                  25215456.492
        32.750
 -18510617.63248 -20709990.58349  20665345.0164                   20665335.5354
        52.0004         55.0004
 23  1  5  0 19  0.0000000  0 10G24G23G27G08G22G21G10G18G31G32
 -13135386.40746 -10766573.88644  22755546.3524                   22755537.5744
        37.7504         29.5004
 -11867328.01547 -11337131.37546  21827672.6954                   21827662.0434
        45.5004         37.0004
  -8566312.52446  -6468465.50345  23892204.6644                   23892197.3524
        36.0004         32.5004
  -8405395.05747  -6500135.16046  23665270.0004                   23665262.3364
        43.0004         36.7504
 -10482130.33047  -7911221.14145  22021326.5084                   22021315.6804
        44.5004         31.0004
 -11766951.05846  -8168872.57244  23660577.3984                   23660564.9884
        41.5004         27.0004
 -27838125.27248 -21949826.64349  20526114.7734                   20526106.1724
        51.7504         54.7504
  -9982018.47146  -7478134.68043  24209567.7114                   24209557.0594
        38.7504         22.5004
  -1413323.12245  -1072324.12545  24950405.5784                   24950391.5864
        35.7504         31.0004
 -18537303.73848 -20730784.94049  20660266.8364                   20660257.5904
        51.7504         55.0004
 23  1  5  0 19 30.0000000  0 11G24G23G27G08G22G21G10G18G31G01G32
 -13070238.46146 -10715809.26144  22767943.4774                   22767935.3444
        38.5004         27.7504
 -11804799.93047 -11288408.18646  21839570.7664                   21839560.5824
        44.5004         37.0004
  -8479470.63646  -6400796.48745  23908730.6414                   23908722.0984
        36.7504         33.0004
  -8360607.39746  -6465235.72146  23673792.8524                   23673784.2504
        41.7504         36.0004
 -10553052.06647  -7966484.82045  22007830.0084                   22007819.2974
        44.5004         31.0004
 -11842163.56546  -8227479.71844  23646264.3444                   23646253.3984
        41.5004         26.7504
 -27830913.71648 -21944207.25949  20527487.1954                   20527478.5944
        51.0004         55.0004
  -9868635.48846  -7389784.33643  24231145.0554                   24231134.1094
        39.0004         22.2504
  -1532309.82445  -1165040.97645  24927761.4694                   24927749.2934
        35.7504         30.5004
                                  25172696.0234                   25172687.9494
        30.7504         18.2504
 -18563576.07048 -20751256.87649  20655267.2734                   20655258.2034
        51.0004         54.7504
 23  1  5  0 20  0.0000000  0 11G24G23G27G08G22G21G10G18G31G01G32
 -13004566.14746 -10664636.05644  22780440.4224                   22780432.6994
        37.2504         29.2504
 -11742035.00647 -11239500.47846  21851514.2814                   21851504.0394
        44.2504         36.7504
  -8392433.60145  -6332975.43945  23925291.8984                   23925285.1724
        35.2504         32.2504
  -8315377.80647  -6429991.90646  23682399.7894                   23682391.1884
        42.5004         36.5004
 -10623663.48247  -8021506.68545  21994393.1334                   21994382.5984
        44.7504         30.7504
 -11917124.80046  -8285891.06244  23632000.3284                   23631988.2704
        41.2504         25.2504
 -27823408.06048 -21938358.70549  20528915.3524                   20528906.5744
        52.0004         54.7504
  -9755127.33246  -7301336.43843  24252743.8134                   24252733.6884
        39.2504         22.7504
  -1651346.96945  -1257797.27645  24905106.8364                   24905097.4734
        32.5004         31.0004
                                  25151340.8754                   25151332.5664
        32.2504         15.5004
 -18589434.51048 -20771406.29549  20650346.7194                   20650337.4144
        52.0004         54.7504
 23  1  5  0 20 30.0000000  0 11G24G23G27G08G22G21G10G18G31G01G32
 -12938371.44346 -10613055.74744  22793037.2734                   22793028.6724
        38.5004         28.5004
 -11679033.20447 -11190408.18446  21863503.6724                   21863493.1374
        44.2504         37.0004
  -8305204.29846  -6265004.58045  23941892.9144                   23941883.8444
        36.5004         32.7504
  -8269707.88747  -6394404.97746  23691090.5704                   23691081.6764
        42.2504         36.7504
 -10693963.68547  -8076286.04645  21981015.3284                   21981005.0274
        44.5004         30.5004
 -11991832.25047  -8344104.67744  23617783.9924                   23617772.0514
        42.0004         27.0004
 -27815606.87548 -21932279.85749  20530400.0314                   20530391.2544
        51.5004         54.7504
  -9641495.77546  -7212792.35543  24274366.6334                   24274356.5084
        38.0004         22.5004
  -1770431.77545  -1350590.62045  24882448.0864                   24882435.9694
        35.0004         31.2504
                                  25130001.8284                   25129992.9344
        30.0004         17.7504
 -18614878.89248 -20791233.07449  20645504.7664                   20645495.6374
        51.2504         54.7504
 23  1  5  0 21  0.0000000  0 11G24G23G27G08G22G21G10G18G31G01G32
 -12871657.86546 -10561071.14444  22805732.3914                   22805723.6134
        37.7504         27.2504
 -11615796.11047 -11141132.52946  21875537.3054                   21875526.6524
        45.0004         36.2504
  -8217787.25146  -6196887.38445  23958527.7814                   23958519.2384
        36.7504         33.0004
  -8223601.61746  -6358478.05046  23699864.1254                   23699855.5824
        41.5004         36.2504
 -10763953.25047  -8130823.35845  21967696.5634                   21967686.7304
        44.2504         30.5004
 -12066285.55346  -8402120.23444  23603616.1414                   23603604.4924
        40.5004         26.7504
 -27807511.52448 -21925971.79449  20531940.5634                   20531931.7274
        51.0004         55.0004
  -9527744.29146  -7124154.86043  24296013.6954                   24296003.2194
        39.5004         23.2504
  -1889562.74746  -1443419.91845  24859777.1564                   24859766.8554
        36.2504         31.5004
  -1422178.73055  -1354281.31752  25108681.5474                   25108673.4734
        31.7504         17.7504
 -18639910.78448 -20810738.43749  20640741.1484                   20640732.1954
        51.2504         54.7504
 23  1  5  0 21 30.0000000  0 11G24G23G27G08G22G21G10G18G31G01G32
 -12804423.84146 -10508681.01344  22818526.9614                   22818518.0084
        38.7504         27.0004
 -11552319.96147 -11091670.59646  21887616.1334                   21887605.5394
        44.5004         36.5004
  -8130181.44146  -6128623.13745  23975198.3444                   23975190.4454
        38.0004         32.2504
  -8177057.58147  -6322210.01446  23708721.5474                   23708712.9454
        42.0004         36.2504
 -10833627.36547  -8185114.85045  21954438.6644                   21954428.0124
        45.0004         32.0004
 -12140479.00346  -8459933.30844  23589497.7194                   23589485.6604
        41.7504         27.5004
 -27799117.26948 -21919430.81049  20533537.8984                   20533529.1214
        52.0004         54.7504
  -9413871.00546  -7035422.42344  24317682.9614                   24317672.6604
        38.5004         24.0004
  -2008732.96745  -1536279.87345  24837100.4384                   24837089.1994
        34.0004         31.2504
                                  25087376.3674                   25087370.9304
        30.5004         14.7504
 -18664526.49148 -20829919.50049  20636057.1564                   20636048.0864
        52.0004         54.7504
 23  1  5  0 22  0.0000000  0 11G24G23G27G08G22G21G10G18G31G01G32
 -12736675.81146 -10455890.31444  22831418.7734                   22831410.6414
        38.2504         28.7504
 -11488609.18847 -11042025.86846  21899740.4534                   21899729.3324
        44.5004         36.0004
  -8042394.32446  -6060217.58245  23991903.2344                   23991895.1604
        36.2504         32.0004
  -8130081.31646  -6285605.17846  23717659.9384                   23717653.2114
        41.2504         36.0004
 -10902989.60147  -8239163.34345  21941239.1804                   21941229.1134
        44.5004         32.0004
 -12214414.44646  -8517545.35144  23575427.7274                   23575416.0784
        40.5004         26.0004
 -27790427.71848 -21912659.73049  20535191.3284                   20535182.6094
        52.2504         54.7504
  -9299882.31046  -6946600.09543  24339373.3914                   24339364.3794
        38.5004         22.5004
  -2127944.28946  -1629171.81345  24814415.8054                   24814404.4494
        36.7504         31.7504
                                  25066093.6414                   25066087.0904
        28.7504         15.5004
 -18688730.41848 -20848779.69349  20631451.3204                   20631442.1914
        52.0004         54.7504
 23  1  5  0 22 30.0000000  0 11G24G23G27G08G22G21G10G18G31G01G32
 -12668416.62946 -10402701.34444  22844407.7814                   22844399.9414
        37.5004         27.2504
 -11424664.59147 -10992198.92046  21911909.0314                   21911897.8524
        45.0004         36.2504
  -7954429.49645  -5991673.54345  24008641.7504                   24008634.3204
        35.0004         32.0004
  -8082676.15846  -6248666.16645  23726680.5944                   23726673.4574
        40.7504         35.5004
 -10972039.63647  -8292968.54245  21928099.3674                   21928088.8324
        44.5004         32.0004
 -12288090.36746  -8574955.15244  23561407.5554                   23561396.3754
        41.7504         27.2504
 -27781442.94248 -21905658.60649  20536901.2584                   20536892.5984
        51.5004         55.0004
  -9185780.87346  -6857689.85443  24361086.6644                   24361076.7734
        38.7504         23.7504
  -2247194.39845  -1722093.97545  24791721.8364                   24791711.1254
        35.5004         31.2504
  -1757723.24455  -1615744.70952  25044828.7344                   25044822.3594
        30.7504         16.2504
 -18712523.38548 -20867319.65449  20626923.6954                   20626914.5084
        52.0004         54.7504
 23  1  5  0 23  0.0000000  0 11G24G23G27G08G22G21G10G18G31G01G32
 -12599642.59946 -10349111.20644  22857496.6414                   22857486.3404
        38.7504         27.2504
 -11360480.38947 -10942185.27345  21924122.3914                   21924111.4454
        44.5004         35.7504
  -7866283.96145  -5922988.72545  24025414.3054                   24025408.1644
        34.5004         31.5004
  -8034838.20646  -6211389.87645  23735785.1254                   23735775.7624
        41.5004         34.7504
 -11040770.87347  -8346525.33945  21915020.3284                   21915009.9104
        45.0004         31.5004
 -12361498.77146  -8632156.49544  23547437.8204                   23547426.8754
        40.7504         26.7504
 -27772156.41948 -21898422.36449  20538668.3444                   20538659.6844
        50.7504         55.0004
  -9071562.68646  -6768688.70744  24382821.3754                   24382811.3674
        39.5004         24.0004
  -2366474.40446  -1815039.47645  24769025.2344                   24769013.2934
        37.0004         32.0004
                                  25023582.2584                   25023576.7034
        28.7504         16.7504
 -18735899.62548 -20885534.90449  20622475.3914                   20622466.0864
        51.5004         54.7504
 23  1  5  0 23 30.0000000  0 11G24G23G27G08G22G21G10G18G31G01G32
 -12530362.62246 -10295126.78244  22870678.4614                   22870670.2114
        38.7504         27.7504
 -11296063.26147 -10891990.12146  21936380.4614                   21936369.6334
        45.2504         36.2504
  -7777967.41146  -5854170.63345  24042222.5004                   24042214.2504
        36.0004         31.0004
  -7986576.16147  -6173783.12045  23744969.9924                   23744959.9264
        42.5004         35.0004
 -11109189.04447  -8399838.17345  21902000.6414                   21901990.2814
        44.5004         32.0004
 -12434644.48146  -8689153.16144  23533518.7424                   23533507.7384
        41.2504         26.5004
 -27762573.74848 -21890955.35249  20540491.6414                   20540482.5704
        51.5004         54.7504
  -8957236.48346  -6679603.35244  24404577.8674                   24404567.3914
        39.5004         25.0004
  -2485788.07145  -1908011.17845  24746318.0004                   24746309.1644
        35.2504         31.5004
                                  25002358.2424                   25002351.2814
        31.2504         16.7504
 -18758865.85448 -20903430.66149  20618104.6804                   20618095.7274
        52.0004         55.0004
 23  1  5  0 24  0.0000000  0 11G24G23G27G08G22G21G10G18G31G01G32
 -12460577.45346 -10240748.76444  22883958.0474                   22883949.9144
        37.5004         27.0004
 -11231411.98247 -10841612.51945  21948682.8754                   21948672.6914
        44.2504         35.5004
  -7689481.32745  -5785220.43545  24059060.4774                   24059052.8134
        34.2504         31.0004
  -7937890.90246  -6135846.58445  23754232.7114                   23754225.6914
        41.2504         34.5004
 -11177291.78347  -8452905.21845  21889041.0554                   21889030.7544
        45.5004         32.2504
 -12507523.63346  -8745942.10444  23519651.4454                   23519639.4454
        41.7504         27.0004
 -27752693.37948 -21883256.37149  20542372.2344                   20542363.3984
        51.2504         54.7504
  -8842802.82146  -6590434.27043  24426352.3524                   24426343.0474
        37.5004         23.0004
  -2605131.10946  -2001005.81145  24723610.0394                   24723598.7424
        36.7504         33.2504
  -2092342.68955  -1849354.93652  24981151.9844                   24981145.0824
        31.5004         16.7504
 -18781420.88848 -20921006.01249  20613812.6484                   20613803.5204
        51.5004         54.7504
 23  1  5  0 24 30.0000000  0 11G24G23G27G08G22G21G10G18G31G01G32
 -12390286.54346 -10185976.61644  22897333.7114                   22897325.5204
        37.5004         26.2504
 -11166523.71147 -10791050.24746  21961031.3594                   21961020.7074
        44.5004         36.0004
  -7600825.87645  -5716138.26345  24075931.1884                   24075923.5824
        34.7504         31.5004
  -7888781.94146  -6097579.93945  23763578.1414                   23763571.4734
        40.0004         35.0004
 -11245075.45647  -8505723.63745  21876142.5704                   21876131.9184
        45.2504         32.7504
 -12580131.32946  -8802519.52644  23505833.9924                   23505822.2854
        41.2504         26.2504
 -27742511.39048 -21875322.35749  20544309.9614                   20544300.8914
        51.0004         54.7504
  -8728260.80746  -6501180.77543  24448151.0314                   24448139.5004
        39.0004         22.7504
  -2724497.77746  -2094018.80445  24700894.2344                   24700884.1094
        36.5004         32.5004
                                  24959968.1724                   24959962.7344
        31.5004         16.2504
 -18803561.95148 -20938258.76649  20609599.3754                   20609590.4224
        51.7504         54.7504
 23  1  5  0 25  0.0000000  0 11G24G23G27G08G22G21G10G18G31G01G32
 -12319497.03546 -10130815.95744  22910805.6804                   22910796.7274
        38.7504         27.0004
 -11101403.63947 -10740307.34446  21973423.1024                   21973412.4494
        44.2504         36.0004
  -7512008.93645  -5646930.26145  24092831.6724                   24092824.1254
        34.5004         31.0004
  -7839256.02946  -6058988.39545  23773003.8134                   23772995.6214
        41.0004         35.5004
 -11312544.30047  -8558296.73745  21863303.6414                   21863292.9304
        45.0004         33.0004
 -12652470.49246  -8858887.70044  23492069.2114                   23492056.4494
        41.7504         27.0004
 -27732032.28248 -21867156.82149  20546303.6954                   20546294.7424
        50.7504         55.0004
  -8613617.42246  -6411848.27544  24469964.9774                   24469955.9064
        37.7504         24.0004
  -2843889.86546  -2187051.63545  24678173.8674                   24678164.4454
        36.2504         32.0004
   -697692.15715                  24938805.359
        31.500
 -18825294.23948 -20955193.00449  20605464.0004                   20605454.6954
        51.5004         55.0004
 23  1  5  0 25 30.0000000  0 11G24G23G27G08G22G21G10G18G31G01G32
 -12248207.42746 -10075265.60344  22924370.8134                   22924362.2114
        37.7504         26.7504
 -11036048.00947 -10689380.90145  21985859.6254                   21985848.9144
        44.2504         35.7504
  -7423029.73645  -5577595.82345  24109764.3054                   24109756.9344
        35.5004         30.7504
  -7789311.94446  -6020070.94645  23782507.8594                   23782498.4964
        40.7504         34.7504
 -11379693.54847  -8610620.80445  21850525.6884                   21850515.0944
        45.7504         33.5004
 -12724535.18946  -8915042.00444  23478354.6644                   23478343.1914
        41.5004         27.0004
 -27721251.59848 -21858756.29149  20548355.4924                   20548346.3634
        50.7504         55.2504
  -8498870.89846  -6322435.40643  24491800.7584                   24491791.5704
        37.7504         22.7504
  -2963300.84246  -2280099.18345  24655453.0704                   24655441.1294
        37.0004         33.2504
   -808788.51015                  24917663.781
        30.750
 -18846614.12748 -20971805.89649  20601406.9614                   20601397.7734
        51.7504         54.7504
 23  1  5  0 26  0.0000000  0 11G24G23G27G08G22G21G10G18G31G01G32
 -12176420.47746 -10019327.73744  22938031.8834                   22938023.1054
        37.0004         27.0004
 -10970457.37447 -10638271.32645  21998341.2194                   21998330.7424
        44.5004         35.2504
  -7333891.68245  -5508137.58645  24126727.2344                   24126718.5164
        35.5004         30.2504
  -7738952.23646  -5980829.64345  23792089.1724                   23792081.3324
        40.0004         34.2504
 -11446523.02447  -8662695.70445  21837808.1564                   21837797.5634
        45.5004         33.7504
 -12796323.86046  -8970981.20944  23464693.5554                   23464681.9654
        41.5004         27.7504
 -27710168.98248 -21850120.49749  20550464.1884                   20550455.4104
        50.7504         54.7504
  -8384023.63646  -6232944.04644  24513656.3984                   24513645.9804
        38.7504         24.5004
  -3082728.18446  -2373159.49445  24632727.1094                   24632715.4614
        37.5004         34.0004
                                  24896546.9614                   24896539.6484
        31.5004         16.2504
 -18867522.21648 -20988097.90749  20597428.3444                   20597419.2734
        51.5004         54.7504
 23  1  5  0 26 30.0000000  0 11G24G23G27G08G22G21G10G18G31G01G32
 -12104141.63546  -9963006.56444  22951788.1644                   22951777.8054
        38.0004         27.0004
 -10904635.09647 -10586981.24046  22010866.7344                   22010856.4924
        45.5004         36.2504
  -7244600.87246  -5438560.31545  24143720.3444                   24143710.4534
        36.0004         31.5004
  -7688182.08846  -5941268.53745  23801751.4144                   23801743.6914
        40.7504         35.0004
 -11513035.09647  -8714523.26945  21825151.1414                   21825140.5474
        46.0004         34.0004
 -12867837.27146  -9026705.94144  23451084.9384                   23451073.4064
        41.2504         25.5004
 -27698786.98248 -21841251.40749  20552630.2894                   20552621.3364
        50.7504         55.0004
  -8269080.82746  -6143378.23743  24535528.3524                   24535519.1054
        37.2504         22.7504
  -3202171.89446  -2466232.54045  24609997.2664                   24609985.9694
        37.2504         34.0004
  -1030625.69955  -2045728.13152  24875449.9614                   24875442.7664
        32.0004         15.5004
 -18888021.93648 -21004071.71149  20593526.9924                   20593518.0394
        51.2504         55.0004
 23  1  5  0 27  0.0000000  0 11G24G23G27G08G22G21G10G18G31G01G32
 -12031371.07346  -9906302.21744  22965634.1804                   22965624.8754
        37.0004         25.5004
 -10838579.06647 -10535509.01245  22023436.8204                   22023426.6374
        45.0004         35.5004
  -7155157.98746  -5368864.56445  24160739.0864                   24160731.2464
        36.0004         30.0004
  -7637001.63846  -5901387.72145  23811491.6024                   23811484.2894
        39.7504         35.0004
 -11579226.62047  -8766101.07445  21812555.3444                   21812545.3364
        46.2504         33.5004
 -12939071.05546  -9082212.78544  23437529.6484                   23437518.1174
        41.5004         26.7504
 -27687102.97248 -21832146.99049  20554853.6644                   20554844.5944
        51.7504         55.0004
  -8154042.33246  -6053737.83343  24557420.5004                   24557410.1414
        37.7504         22.2504
  -3321627.36946  -2559314.75545  24587264.5554                   24587254.2544
        37.0004         33.7504
  -1141362.22945  -2132016.32442  24854378.3284                   24854370.4884
        32.2504         16.7504
 -18908111.24848 -21019725.70549  20589704.3364                   20589695.0904
        52.2504         54.7504
 23  1  5  0 27 30.0000000  0 11G24G23G27G08G22G21G10G18G31G01G32
 -11958111.60546  -9849216.91844  22979574.6884                   22979565.3244
        37.5004         26.5004
 -10772290.02947 -10483855.24545  22036050.7974                   22036040.6134
        46.0004         35.5004
  -7065566.81646  -5299053.25345  24177788.5234                   24177779.7464
        37.0004         31.0004
  -7585414.00946  -5861189.63445  23821307.5864                   23821300.7424
        40.0004         34.0004
 -11645097.78447  -8817429.21745  21800020.5474                   21800009.9534
        46.7504         33.5004
 -13010024.28547  -9137501.00944  23424028.2114                   23424016.2114
        42.5004         26.5004
 -27675116.52948 -21822806.91149  20557134.6414                   20557125.5704
        50.7504         54.7504
  -8038910.76746  -5964024.93843  24579329.0234                   24579318.8404
        38.0004         22.7504
  -3441092.04346  -2652404.15945  24564532.2504                   24564520.9534
        38.0004         34.0004
  -1251973.46245  -2218206.92042  24833329.2974                   24833321.7504
        32.5004         17.7504
 -18927791.06948 -21035060.62249  20585959.4614                   20585950.1564
        51.5004         54.7504
 23  1  5  0 28  0.0000000  0 11G24G23G27G08G22G21G10G18G31G01G32
 -11884365.90246  -9791752.72344  22993607.8204                   22993599.3954
        37.5004         26.5004
 -10705768.30147 -10432020.14145  22048709.8594                   22048699.6174
        46.0004         35.5004
  -6975830.38446  -5229128.76045  24194864.8284                   24194855.8164
        36.7504         31.5004
  -7533421.62646  -5820676.13845  23831200.1724                   23831192.3914
        38.0004         32.5004
 -11710647.74947  -8868507.08845  21787547.2034                   21787536.4344
        46.5004         34.0004
 -13080694.67947  -9192568.82944  23410580.2344                   23410567.8834
        42.5004         27.7504
 -27662827.30048 -21813230.88549  20559472.9224                   20559464.3204
        52.0004         55.0004
  -7923688.18246  -5874241.11943  24601254.9064                   24601245.0164
        37.2504         22.2504
  -3560562.98246  -2745498.40545  24541797.6484                   24541786.4694
        38.2504         34.2504
  -1362456.91445  -2304297.92042  24812306.3134                   24812298.0634
        33.7504         17.7504
 -18947061.75248 -21050076.72849  20582292.2504                   20582282.7704
        53.0004         55.0004
 23  1  5  0 28 30.0000000  0 11G24G23G27G08G22G21G10G18G31G01G32
 -11810136.47046  -9733911.61744  23007733.1414                   23007725.0084
        37.5004         24.5004
 -10639014.30747 -10380004.05545  22061412.7424                   22061402.1484
        46.2504         35.7504
  -6885951.88646  -5159093.55445  24211967.7194                   24211958.2974
        37.0004         30.5004
  -7481026.74846  -5779848.98945  23841172.1884                   23841163.4104
        38.5004         32.7504
 -11775876.11447  -8919334.36445  21775134.5164                   21775123.8634
        46.0004         34.0004
 -13151080.17646  -9247414.66644  23397185.2424                   23397174.6484
        41.5004         28.5004
 -27650234.94448 -21803418.66149  20561869.7274                   20561861.3014
        50.0004         54.7504
  -7808377.04346  -5784388.31343  24623198.0634                   24623188.0554
        37.2504         22.7504
  -3680037.60946  -2838595.55545  24519062.0004                   24519051.1134
        38.2504         34.5004
  -1472810.09345  -2390287.43443  24791305.3134                   24791298.1764
        31.2504         18.2504
 -18965923.86348 -21064774.46249  20578702.6334                   20578693.8554
        51.5004         55.0004
 23  1  5  0 29  0.0000000  0 11G24G23G27G08G22G21G10G18G31G01G32
 -11735425.87846  -9675695.57844  23021950.2664                   23021941.0784
        37.2504         25.5004
 -10572028.27847 -10327807.15445  22074159.7274                   22074149.1914
        46.0004         35.7504
  -6795934.47446  -5088950.14345  24229096.7734                   24229089.1684
        36.0004         30.2504
  -7428231.97146  -5738710.22045  23851218.7424                   23851211.0204
        39.5004         34.0004
 -11840782.18147  -8969910.50145  21762783.1804                   21762772.1764
        46.5004         33.2504
 -13221179.27047  -9302037.32244  23383847.5394                   23383835.0124
        43.0004         27.7504
 -27637338.91948 -21793369.81549  20564323.5474                   20564314.1254
        50.7504         54.7504
  -7692979.36946  -5694468.03343  24645157.5474                   24645147.5394
        37.7504         22.5004
  -3799513.01346  -2931693.30545  24496326.9454                   24496315.7664
        38.2504         34.7504
  -1583030.41245  -2476173.43542  24770331.1334                   24770323.5274
        33.0004         17.7504
 -18984377.71548 -21079154.07349  20575191.5704                   20575181.9734
        51.5004         54.7504
 23  1  5  0 29 30.0000000  0 11G24G23G27G08G22G21G10G18G31G01G32
 -11660236.36346  -9617106.34044  23036258.1334                   23036249.8244
        37.2504         25.5004
 -10504810.32347 -10275429.54146  22086951.4304                   22086940.3094
        46.5004         36.0004
  -6705781.02646  -5018700.65345  24246252.7034                   24246244.1024
        37.0004         31.2504
  -7375040.16646  -5697262.12245  23861339.6484                   23861333.5084
        37.5004         33.0004
 -11905365.46347  -9020235.11345  21750493.4064                   21750482.5784
        46.5004         33.5004
 -13290989.40647  -9356434.82844  23370561.7734                   23370550.0664
        42.5004         26.7504
 -27624138.64848 -21783083.89749  20566835.2274                   20566826.5084
        50.5004         54.7504
  -7577497.10446  -5604481.89643  24667133.5704                   24667123.3284
        37.5004         22.0004
  -3918986.39746  -3024789.46745  24473590.9774                   24473580.2664
        38.0004         35.0004
  -1693115.04345  -2561953.68442  24749382.5084                   24749374.8444
        32.5004         17.7504
 -19002423.55548 -21093215.75349  20571757.0704                   20571747.4734
        51.2504         55.0004
 23  1  5  0 30  0.0000000  0 11G24G23G27G08G22G21G10G18G31G01G32
 -11584570.67146  -9558146.08444  23050657.6414                   23050648.2774
        38.2504         25.0004
 -10437360.83847 -10222871.50045  22099786.3914                   22099775.7974
        46.7504         35.5004
  -6615494.74845  -4948347.73645  24263432.0784                   24263425.0594
        35.5004         30.7504
  -7321453.17646  -5655506.10145  23871537.8054                   23871529.7894
        37.5004         31.7504
 -11969625.39847  -9070307.78745  21738265.0944                   21738254.0314
        46.5004         34.2504
 -13360509.02447  -9410605.94644  23357333.5314                   23357321.5314
        42.7504         28.7504
 -27610633.75748 -21772560.61049  20569405.3834                   20569396.6054
        50.0004         55.0004
  -7461932.67346  -5514431.68043  24689123.2194                   24689114.6764
        37.7504         22.0004
  -4038454.69746  -3117881.66346  24450857.7584                   24450846.7544
        38.2504         36.0004
  -1803061.51945  -2647626.31843  24728460.9844                   24728453.3794
        33.0004         18.2504
 -19020061.96748 -21106959.95549  20568400.7584                   20568391.5124
        51.0004         54.7504
 23  1  5  0 30 30.0000000  0 11G24G23G27G08G22G21G10G18G31G01G32
 -11508431.76746  -9498817.05244  23065144.8754                   23065136.3324
        37.2504         24.0004
 -10369680.59847 -10170133.66846  22112665.0864                   22112654.8444
        45.7504         36.0004
  -6525079.19946  -4877894.05745  24280638.5084                   24280630.4924
        36.2504         31.0004
  -7267473.74746  -5613444.24545  23881810.4534                   23881801.3244
        38.0004         32.5004
 -12033561.46247  -9120128.07145  21726098.8284                   21726087.8834
        46.2504         34.5004
 -13429736.37547  -9464549.33544  23344159.9224                   23344147.6884
        42.5004         28.0004
 -27596823.90048 -21761799.68049  20572033.3674                   20572024.4734
        51.5004         54.7504
  -7346288.61946  -5424319.42243  24711130.6724                   24711120.6644
        38.0004         22.0004
  -4157915.66746  -3210968.13345  24428123.9534                   24428113.7704
        37.0004         35.2504
  -1912867.66245  -2733189.58642  24707564.3054                   24707557.6374
        32.7504         16.7504
 -19037293.80848 -21120387.34949  20565121.5234                   20565112.2774
        52.5004         54.7504
 23  1  5  0 31  0.0000000  0 11G24G23G27G08G22G21G10G18G31G01G32
 -11431821.78846  -9439120.95744  23079724.7194                   23079715.4734
        37.7504         25.7504
 -10301769.40547 -10117215.86645  22125588.4304                   22125578.1294
        45.5004         35.0004
  -6434537.04446  -4807341.74245  24297868.0944                   24297860.6644
        37.2504         31.7504
  -7213104.84346  -5571078.88745  23892155.4844                   23892147.8794
        38.7504         32.5004
 -12097173.11947  -9169695.56845  21713993.4454                   21713982.7344
        46.5004         34.2504
 -13498669.41846  -9518263.36644  23331041.6414                   23331029.6994
        41.5004         27.7504
 -27582708.16848 -21750800.40949  20574719.3674                   20574710.2974
        51.0004         54.7504
  -7230566.58546  -5334146.43243  24733152.0004                   24733141.6994
        37.0004         22.0004
  -4277365.96846  -3304046.28645  24405394.1954                   24405383.1334
        38.5004         34.7504
  -2022530.40645  -2818641.10743  24686697.6174                   24686689.3094
        33.2504         18.2504
 -19054119.03948 -21133497.90349  20561919.2894                   20561910.6884
        52.0004         54.7504
 23  1  5  0 31 30.0000000  0 11G24G23G27G08G22G21G10G18G31G01G32
 -11354743.65246  -9379060.06244  23094391.8364                   23094383.0594
        38.0004         25.7504
 -10233627.97347 -10064118.65045  22138555.4304                   22138544.7194
        46.5004         34.5004
  -6343871.71246  -4736693.43845  24315122.6724                   24315113.1334
        37.7504         32.0004
  -7158348.62645  -5528411.75045  23902574.3444                   23902568.3204
        35.5004         31.5004
 -12160460.18547  -9219010.13345  21701949.8754                   21701939.5744
        46.0004         34.2504
 -13567305.87047  -9571746.32544  23317981.0634                   23317969.3554
        42.2504         28.5004
 -27568286.70548 -21739562.91649  20577463.6174                   20577454.8404
        52.0004         55.0004
  -7114769.15146  -5243914.65343  24755186.9534                   24755176.9454
        37.5004         22.5004
  -4396803.59746  -3397114.55645  24382665.0864                   24382654.9614
        37.7504         34.0004
  -2132047.37645  -2903979.02643  24665857.1254                   24665849.6954
        33.5004         18.2504
 -19070538.55548 -21146292.32149  20558795.1724                   20558786.1024
        53.0004         54.7504
 23  1  5  0 32  0.0000000  0 11G24G23G27G08G22G21G10G18G31G01G32
 -11277198.82546  -9318635.56244  23109147.7894                   23109139.0124
        37.7504         25.5004
 -10165255.48247 -10010841.39345  22151566.5784                   22151555.5164
        46.5004         34.5004
  -6253085.19346  -4665950.70145  24332397.6884                   24332389.7894
        36.0004         31.5004
  -7103206.76746  -5485444.15245  23913067.8364                   23913061.3444
        36.0004         31.7504
 -12223420.93247  -9268070.42945  21689969.5784                   21689958.5744
        46.0004         34.7504
 -13635643.59547  -9624996.47944  23304976.1174                   23304964.9964
        42.2504         27.7504
 -27553557.70648 -21728085.77149  20580266.5234                   20580257.3954
        51.7504         55.0004
  -6998897.43746  -5153625.01243  24777236.4224                   24777227.2934
        36.5004         22.0004
  -4516224.07345  -3490169.49145  24359939.6564                   24359929.8244
        35.5004         34.0004
  -2241414.96745  -2989200.57642  24645045.4534                   24645037.7304
        33.5004         17.7504
 -19086551.66048 -21158770.05249  20555747.9144                   20555739.2544
        52.0004         54.7504
 23  1  5  0 32 30.0000000  0 11G24G23G27G08G22G21G10G18G31G01G32
 -11199191.67646  -9257850.72344  23123992.4384                   23123982.8404
        38.2504         25.5004
 -10096653.94647  -9957385.66345  22164620.6174                   22164610.2584
        46.0004         35.0004
  -6162182.42346  -4595117.35245  24349695.9534                   24349687.7624
        36.5004         31.5004
  -7047683.49546  -5442179.27145  23923635.2194                   23923626.2664
        37.5004         30.7504
 -12286056.41847  -9316877.27745  21678050.2424                   21678039.5314
        45.7504         33.7504
 -13703681.39747  -9678012.93944  23292029.5164                   23292017.3984
        42.2504         28.0004
 -27538522.36648 -21716369.92449  20583127.6484                   20583118.7544
        51.0004         55.0004
  -6882955.26746  -5063280.46643  24799299.6334                   24799289.7424
        36.5004         21.5004
  -4635626.14946  -3583210.05245  24337219.3134                   24337208.6024
        37.5004         34.5004
  -2350632.03345  -3074304.87243  24624262.9064                   24624254.4804
        34.5004         19.5004
 -19102160.57348 -21170932.83449  20552777.6724                   20552768.5434
        52.2504         54.7504
 23  1  5  0 33  0.0000000  0 11G24G23G27G08G22G21G10G18G31G01G32
 -11120723.57446  -9196706.77844  23138924.2034                   23138915.1334
        38.5004         25.0004
 -10027822.52647  -9903750.79645  22177719.1094                   22177708.2234
        46.0004         34.5004
  -6071165.16646  -4524194.83945  24367016.2664                   24367007.6644
        37.2504         31.7504
  -6991780.38046  -5398618.40445  23934271.8054                   23934264.3164
        36.0004         30.7504
 -12348365.08747  -9365429.46445  21666193.2274                   21666182.3984
        45.5004         34.7504
 -13771417.21347  -9730794.10244  23279140.6564                   23279127.7194
        42.7504         27.5004
 -27523179.42048 -21704414.38249  20586047.2344                   20586038.5164
        51.2504         55.0004
  -6766943.67045  -4972881.84043  24821375.9534                   24821366.3554
        35.7504         21.0004
  -4755006.08746  -3676233.36245  24314502.6414                   24314491.4024
        37.2504         34.5004
  -2459694.96045  -3159288.98043  24603508.3674                   24603499.7664
        35.0004         18.5004
 -19117364.64548 -21182780.15249  20549884.3524                   20549875.4574
        52.2504         54.7504
 23  1  5  0 33 30.0000000  0 11G24G23G27G08G22G21G10G18G31G01G32
 -11041797.66046  -9135206.05044  23153942.9534                   23153934.1174
        37.5004         26.5004
  -9958762.00347  -9849937.40845  22190860.3984                   22190850.0984
        46.0004         35.0004
  -5980037.06846  -4453185.93645  24384356.9304                   24384349.0904
        36.5004         32.5004
  -6935500.37545  -5354763.91845  23944980.4454                   23944974.9494
        34.5004         31.0004
 -12410346.95347  -9413726.99645  21654398.5394                   21654387.7114
        45.7504         34.0004
 -13838849.53147  -9783338.74644  23266307.9694                   23266296.2034
        42.5004         27.7504
 -27507528.24448 -21692218.66549  20589026.0234                   20589017.0124
        51.5004         55.0004
  -6650865.28246  -4882431.11543  24843465.7814                   24843455.0124
        36.0004         20.7504
  -4874361.47946  -3769237.58845  24291789.2664                   24291779.1414
        37.0004         34.0004
  -2568601.40545  -3244151.17643  24582783.9694                   24582776.6564
        34.7504         18.5004
 -19132164.77348 -21194312.70549  20547068.2194                   20547058.7384
        52.7504         55.0004
 23  1  5  0 34  0.0000000  0 11G24G23G27G08G22G21G10G18G31G01G32
 -10962416.44346  -9073350.57144  23169050.0314                   23169039.8484
        39.0004         25.5004
  -9889472.59847  -9795945.67845  22204045.8524                   22204035.5514
        46.0004         34.5004
  -5888801.03346  -4382092.91145  24401718.3834                   24401710.4264
        36.5004         31.5004
  -6878845.95346  -5310617.65345  23955764.3754                   23955756.3594
        37.0004         31.7504
 -12472001.61747  -9461769.57845  21642665.9774                   21642655.0904
        45.5004         34.7504
 -13905975.37047  -9835644.58944  23253534.0704                   23253521.7774
        43.0004         28.2504
 -27491568.58648 -21679782.55649  20592062.6954                   20592053.5664
        52.0004         55.0004
  -6534722.06345  -4791929.96343  24865566.9774                   24865556.8524
        35.5004         21.5004
  -4993689.56446  -3862220.49245  24269082.6334                   24269071.3954
        37.0004         34.2504
  -2677348.65245  -3328889.36343  24562090.0784                   24562081.8874
        34.5004         18.5004
 -19146561.41848 -21205530.86349  20544328.4224                   20544319.4104
        52.2504         55.0004
 23  1  5  0 34 30.0000000  0 11G24G23G27G08G22G21G10G18G31G01G32
 -10882582.60746  -9011142.38444  23184241.2664                   23184231.5514
        38.5004         25.7504
  -9819954.65547  -9741775.88145  22217275.1804                   22217264.5864
        45.5004         34.2504
  -5797460.30146  -4310918.31945  24419100.8914                   24419091.8204
        36.2504         30.7504
  -6821818.82645  -5266180.97045  23966616.0394                   23966606.8524
        35.2504         31.0004
 -12533328.45947  -9509556.71845  21630995.8054                   21630985.0354
        45.7504         34.7504
 -13972793.06247  -9887710.32244  23240819.3524                   23240807.4694
        42.7504         28.5004
 -27475300.10148 -21667105.81449  20595158.1094                   20595149.6254
        51.7504         54.7504
  -6418516.34545  -4701380.05243  24887677.2734                   24887669.3164
        34.5004         21.2504
  -5112987.28846  -3955179.75545  24246380.1334                   24246369.4804
        36.5004         34.0004
  -2785934.05746  -3413501.40442  24541426.7664                   24541419.1024
        36.2504         17.7504
 -19160555.12748 -21216435.04449  20541665.5004                   20541656.7234
        53.5004         55.0004
 23  1  5  0 35  0.0000000  0 11G24G23G27G08G22G21G10G18G31G01G32
 -10802298.49546  -8948583.30844  23199518.8524                   23199509.2544
        38.7504         26.0004
  -9750208.20247  -9687427.99645  22230547.6024                   22230536.5984
        46.0004         35.0004
  -5706017.57745  -4239664.24745  24436500.3754                   24436493.1214
        35.2504         32.0004
  -6764422.59145  -5221456.67445  23977536.5864                   23977528.8054
        33.7504         30.0004
 -12594326.70447  -9557087.80445  21619387.9924                   21619377.7504
        46.2504         34.7504
 -14039300.90047  -9939534.59144  23228164.0394                   23228151.2194
        43.5004         29.0004
 -27458721.71548 -21654187.58549  20598313.1254                   20598304.1134
        52.0004         55.0004
  -6302249.98445  -4610782.92343  24909803.5944                   24909794.6994
        35.2504         21.5004
  -5232251.31746  -4048112.75245  24223686.0164                   24223674.3674
        38.0004         34.5004
  -2894354.54446  -3497984.94242  24520795.4384                   24520786.8364
        36.5004         16.7504
 -19174146.09548 -21227025.39749  20539079.2734                   20539070.3204
        53.2504         55.0004
 23  1  5  0 35 30.0000000  0 11G24G23G27G08G22G21G10G18G31G01G32
 -10721567.77546  -8885676.26544  23214881.0864                   23214872.0744
        38.5004         26.5004
  -9680234.57147  -9632903.10045  22243862.5784                   22243852.3954
        45.2504         34.5004
  -5614476.96145  -4168333.86945  24453920.3754                   24453913.0634
        35.5004         32.2504
  -6706660.59245  -5176447.34645  23988528.9064                   23988521.9454
        34.5004         31.0004
 -12654996.92847  -9604363.27945  21607842.9144                   21607832.2034
        45.2504         34.5004
 -14105498.43047  -9991117.09644  23215566.7424                   23215554.0394
        43.7504         29.5004
 -27441834.20148 -21641028.48249  20601526.6024                   20601517.7664
        51.5004         55.0004
  -6185926.19546  -4520141.00843  24931939.8914                   24931929.5904
        36.5004         20.2504
  -5351479.71046  -4141017.98345  24200996.7974                   24200986.1454
        37.5004         34.5004
  -3002608.54946  -3582338.74843  24500195.4304                   24500186.8874
        36.5004         18.2504
 -19187335.87748 -21237303.14749  20536569.1724                   20536560.5704
        53.0004         55.0004
 23  1  5  0 36  0.0000000  0 11G24G23G27G08G22G21G10G18G31G01G32
 -10640392.01446  -8822422.44844  23230328.4614                   23230319.5664
        38.7504         25.2504
  -9610032.93447  -9578200.53645  22257220.8364                   22257211.0634
        45.2504         34.7504
  -5522840.31545  -4096928.74445  24471358.2504                   24471350.6454
        35.0004         31.7504
  -6648534.08046  -5131153.97745  23999591.5704                   23999583.3204
        36.0004         32.0004
 -12715337.35747  -9651381.77745  21596360.6094                   21596349.7234
        46.2504         35.0004
 -14171381.64747 -10042454.64344  23203028.7424                   23203017.0944
        42.5004         29.2504
 -27424635.63248 -21627627.00449  20604799.6094                   20604790.7734
        52.7504         55.0004
  -6069545.91246  -4429455.10643  24954086.8674                   24954076.5664
        36.7504         20.5004
  -5470668.77846  -4233892.56745  24178316.4224                   24178304.7154
        37.5004         34.0004
  -3110692.17046  -3666559.72943  24479627.6094                   24479619.1254
        37.2504         19.0004
 -19200123.90948 -21247267.83449  20534135.9614                   20534127.0664
        53.0004         54.7504
 23  1  5  0 36 30.0000000  0 11G24G23G27G08G22G21G10G18G31G01G32
 -10558774.47246  -8758824.35344  23245859.7584                   23245850.8054
        38.7504         25.5004
  -9539604.30947  -9523321.09745  22270623.6954                   22270613.2194
        45.5004         34.5004
  -5431111.48245  -4025451.69345  24488813.0784                   24488806.0004
        35.2504         30.5004
  -6590046.23645  -5085579.07044  24010719.4534                   24010712.7274
        33.0004         29.7504
 -12775348.51947  -9698143.70845  21584940.0164                   21584930.3594
        46.0004         34.7504
 -14236949.58547 -10093546.54644  23190552.8914                   23190540.4804
        45.0004         29.5004
 -27407126.35148 -21613983.41349  20608131.3594                   20608122.1134
        51.7504         54.7504
  -5953111.97246  -4338727.36543  24976243.7114                   24976233.1764
        36.5004         20.5004
  -5589816.05646  -4326734.62445  24155643.3054                   24155631.8914
        38.5004         35.5004
  -3218603.36846  -3750646.43643  24459092.9924                   24459084.3324
        36.5004         18.2504
 -19212511.33848 -21256920.36449  20531778.5634                   20531769.6094
        53.7504         54.7504
 23  1  5  0 37  0.0000000  0 11G24G23G27G08G22G21G10G18G31G01G32
 -10476717.57746  -8694883.93144  23261474.3594                   23261466.2274
        39.0004         26.0004
  -9468948.67747  -9468264.76645  22284069.1484                   22284058.5554
        45.7504         34.2504
  -5339293.15846  -3953904.95345  24506286.2114                   24506278.1954
        36.0004         30.5004
  -6531198.97945  -5039724.13545  24021918.3364                   24021910.6134
        33.7504         30.2504
 -12835029.47347  -9744648.33445  21573583.9534                   21573573.1254
        46.5004         34.7504
 -14302199.87447 -10144390.90545  23178134.5164                   23178123.3954
        43.0004         30.5004
 -27389305.58448 -21600097.10649  20611522.8914                   20611514.1724
        51.5004         54.7504
  -5836626.19845  -4247959.23743  24998409.4064                   24998399.8094
        35.0004         21.0004
  -5708918.44146  -4419541.67345  24132977.1564                   24132967.4414
        36.7504         34.0004
  -3326339.07946  -3834596.35043  24438591.2114                   24438582.9614
        36.5004         19.2504
 -19224498.42549 -21266260.94249  20529497.4844                   20529488.8244
        54.0004         54.7504
 23  1  5  0 37 30.0000000  0 11G24G23G27G08G22G21G10G18G31G01G32
 -10394224.40746  -8630603.51844  23277172.8914                   23277163.7034
        38.2504         24.5004
  -9398066.82747  -9413032.16545  22297557.4844                   22297546.7734
        45.2504         34.5004
  -5247388.75946  -3882291.11945  24523774.6484                   24523766.8674
        36.7504         31.0004
  -6471996.04645  -4993591.98845  24033184.1024                   24033176.4384
        34.2504         31.0004
 -12894380.36047  -9790895.75645  21562289.9064                   21562279.2544
        47.0004         34.5004
 -14367131.45147 -10194986.92045  23165779.2274                   23165766.9924
        44.5004         31.2504
 -27371173.33948 -21585968.06849  20614972.9694                   20614963.8984
        52.0004         55.2504
  -5720091.27946  -4157152.84243  25020586.4304                   25020575.4264
        37.5004         21.5004
  -5827973.61446  -4512311.92845  24110322.7584                   24110311.9884
        38.2504         34.7504
  -3433896.97846  -3918407.71943  24418124.7664                   24418115.5204
        37.0004         19.0004
 -19236086.17648 -21275290.35049  20527292.5554                   20527283.8364
        53.5004         54.7504
 23  1  5  0 38  0.0000000  0 11G24G23G27G08G22G21G10G18G31G01G32
 -10311297.22046  -8565984.94444  23292953.3984                   23292944.3874
        39.2504         26.0004
  -9326958.60747  -9357623.18445  22311089.1564                   22311078.3874
        45.7504         34.5004
  -5155400.97245  -3810612.31145  24541279.1024                   24541272.1414
        35.0004         30.7504
  -6412439.79145  -4947184.56145  24044517.8204                   24044510.5084
        33.7504         30.0004
 -12953400.32347  -9836885.31245  21551058.2274                   21551047.6334
        46.0004         35.2504
 -14431742.42047 -10245333.14745  23153484.2114                   23153472.2704
        43.7504         30.2504
 -27352728.63248 -21571595.57049  20618482.9064                   20618474.1294
        52.0004         54.7504
  -5603508.87446  -4066309.42543  25042773.8594                   25042761.7424
        38.7504         21.2504
  -5946977.77546  -4605042.43145  24087677.7274                   24087666.7234
        38.2504         34.7504
  -3541273.94146  -4002078.07943  24397690.7814                   24397682.1214
        38.0004         19.2504
 -19247274.70248 -21284008.66649  20525163.3364                   20525154.3244
        53.5004         54.7504
 23  1  5  0 38 30.0000000  0 11G24G23G27G08G22G21G10G18G31G01G32
 -10227938.83246  -8501030.34744  23308816.3444                   23308806.8054
        39.2504         25.0004
  -9255624.50547  -9302038.17945  22324663.1484                   22324652.6134
        45.2504         33.7504
  -5063332.91645  -3738870.98344  24558798.7344                   24558791.4804
        35.2504         29.5004
  -6352532.45145  -4900503.58545  24055918.7814                   24055910.2974
        35.0004         30.5004
 -13012088.71747  -9882616.52245  21539890.6024                   21539879.7154
        46.2504         35.7504
 -14496029.46547 -10295426.91845  23141250.4224                   23141238.7734
        43.5004         30.2504
 -27333971.14548 -21556979.35549  20622052.4694                   20622043.6914
        52.0004         55.0004
  -5486881.21145  -3975430.67743  25064964.0394                   25064955.1454
        32.2504         19.7504
  -6065928.10446  -4697731.00045  24065041.4224                   24065030.7114
        38.5004         35.0004
  -3648467.29146  -4085605.38143  24377293.0864                   24377283.8404
        38.5004         19.5004
 -19258064.66348 -21292416.41749  20523110.0394                   20523101.2624
        53.0004         55.0004
 23  1  5  0 39  0.0000000  0 11G24G23G27G08G22G21G10G18G31G01G32
 -10144152.25746  -8435742.10843  23324759.1804                   23324750.4024
        38.0004         23.0004
  -9184065.14747  -9246277.66545  22338280.2584                   22338270.0164
        45.2504         34.0004
  -4971187.93646  -3667069.66945  24576335.0084                   24576326.1724
        36.0004         30.0004
  -6292277.26545  -4853551.52945  24067384.6644                   24067376.5314
        34.5004         30.2504
 -13070445.85547  -9928089.58545  21528785.5004                   21528774.6724
        46.7504         35.5004
 -14559991.72247 -10345267.63345  23129079.7974                   23129066.9774
        45.0004         30.5004
 -27314900.80748 -21542119.35349  20625681.3594                   20625672.3484
        51.5004         55.2504
  -5370210.70345  -3884518.67343  25087165.5554                   25087156.8364
        35.7504         19.5004
  -6184822.28546  -4790375.82246  24042415.7664                   24042406.4024
        37.0004         36.0004
  -3755474.62446  -4168987.72843  24356934.2814                   24356920.7584
        38.7504         20.2504
 -19268457.00848 -21300514.34149  20521132.6644                   20521123.4184
        53.0004         55.0004
 23  1  5  0 39 30.0000000  0 11G24G23G27G08G22G21G10G18G31G01G32
 -10059940.12146  -8370122.26544  23340785.1414                   23340776.2464
        38.7504         24.5004
  -9112280.73647  -9190341.77845  22351941.2194                   22351930.0984
        45.5004         34.7504
  -4878969.02345  -3595210.76044  24593882.5864                   24593875.2154
        34.7504         29.5004
  -6231676.80345  -4806330.38145  24078915.6174                   24078908.1294
        32.5004         30.0004
 -13128470.99447  -9973303.96445  21517744.0704                   21517733.0664
        46.5004         35.5004
 -14623627.87947 -10394854.25245  23116969.5784                   23116956.9924
        44.2504         31.5004
 -27295516.76448 -21527014.90749  20629370.0784                   20629361.0664
        51.2504         55.0004
  -5253499.51946  -3793574.95743  25109377.2114                   25109366.7344
        37.7504         20.2504
  -6303657.10846  -4882974.37646  24019803.0634                   24019792.2344
        38.0004         36.0004
  -3862293.12146  -4252222.92843  24336602.3674                   24336594.4694
        37.0004         19.7504
 -19278452.18348 -21308302.78049  20519230.6724                   20519221.3674
        53.2504         54.7504
 23  1  5  0 40  0.0000000  0 11G24G23G27G08G22G21G10G18G31G01G32
  -9975304.82546  -8304172.67944  23356890.9534                   23356881.8244
        39.0004         24.5004
  -9040271.28947  -9134230.52545  22365644.8134                   22365633.4574
        45.0004         34.0004
  -4786678.78945  -3523296.30644  24611444.4694                   24611436.9224
        35.5004         29.0004
  -6170733.36845  -4758842.05244  24090513.5554                   24090505.3054
        33.5004         29.7504
 -13186163.48847 -10018259.12945  21506764.8054                   21506754.5634
        46.0004         35.5004
 -14686934.80947 -10444184.30345  23104922.6174                   23104910.8524
        43.5004         31.0004
 -27275818.24048 -21511665.40549  20633118.4844                   20633109.6484
        49.5004         54.7504
  -5136749.49246  -3702600.88343  25131593.6884                   25131582.8014
        37.2504         20.7504
  -6422429.58046  -4975524.32746  23997202.7504                   23997191.3364
        39.0004         36.2504
  -3968919.61946  -4335308.49843  24316313.5704                   24316304.1484
        38.0004         19.0004
 -19288050.47948 -21315781.95949  20517404.0634                   20517394.9344
        51.5004         55.0004
 23  1  5  0 40 30.0000000  0 11G24G23G27G08G22G21G10G18G31G01G32
  -9890249.56746  -8237895.87643  23373075.9844                   23373066.9144
        38.7504         22.7504
  -8968037.73247  -9077944.65045  22379388.8834                   22379378.3484
        44.5004         34.0004
  -4694320.77845  -3451328.99845  24629020.1484                   24629012.5434
        35.2504         30.5004
  -6109450.53045  -4711089.22144  24102174.1724                   24102166.9774
        34.0004         29.5004
 -13243523.39947 -10062955.13646  21495850.0474                   21495839.2194
        47.7504         36.2504
 -14749911.59447 -10493257.11045  23092939.3834                   23092926.8554
        44.7504         31.0004
 -27255805.35948 -21496070.95749  20636927.0084                   20636918.0554
        50.2504         54.7504
  -5019963.04946  -3611598.51843  25153816.9224                   25153805.8594
        36.5004         18.2504
  -6541137.07046  -5068023.66646  23974611.1884                   23974601.5904
        37.7504         36.0004
  -4075351.85746  -4418242.69943  24296059.4144                   24296050.7544
        38.0004         19.5004
 -19297253.01648 -21322952.75449  20515652.9454                   20515643.8164
        51.7504         55.0004
 23  1  5  0 41  0.0000000  0 11G24G23G27G08G22G21G10G18G31G01G32
  -9804776.74446  -8171293.64743  23389340.1564                   23389331.7894
        38.0004         22.5004
  -8895579.94947  -9021484.06845  22393177.1094                   22393166.8674
        45.2504         33.5004
  -4601897.67745  -3379310.99944  24646608.3364                   24646600.4964
        35.2504         29.7504
  -6047830.02545  -4663073.26445  24113901.8284                   24113893.5784
        34.5004         30.2504
 -13300550.49547 -10107391.81545  21484997.3284                   21484987.0864
        46.7504         35.7504
 -14812556.11847 -10542071.02645  23081017.2584                   23081005.6094
        43.0004         31.0004
 -27235477.46848 -21480231.05449  20640795.1884                   20640786.4694
        51.2504         55.5004
  -4903142.24144  -3520569.20443  25176042.3594                   25176037.5704
        28.5004         19.2504
  -6659776.18246  -5160469.76046  23952036.1024                   23952025.8014
        39.0004         38.0004
  -4181586.80446  -4501023.18143  24275842.8204                   24275835.2154
        37.7504         19.5004
 -19306060.01148 -21329815.34149  20513976.8754                   20513967.8054
        53.0004         55.0004
 23  1  5  0 41 30.0000000  0 11G24G23G27G08G22G21G10G18G31G01G32
  -9718889.66146  -8104368.68044  23405684.1174                   23405675.5744
        38.0004         25.0004
  -8822898.96247  -8964849.54045  22407007.8674                   22406997.9774
        45.5004         34.0004
  -4509413.10645  -3307245.08144  24664207.8364                   24664198.8834
        35.7504         28.5004
  -5985875.01145  -4614796.67545  24125690.6174                   24125682.9534
        33.5004         30.2504
 -13357244.54647 -10151568.97545  21474209.5864                   21474198.8754
        47.0004         35.5004
 -14874866.75847 -10590624.77045  23069160.7734                   23069148.5394
        44.0004         31.2504
 -27214834.06848 -21464145.27749  20644723.5634                   20644714.6094
        50.5004         54.7504
 -14238809.67355 -10809717.44453  25198282.8984                   25198273.1254
        35.2504         19.2504
  -6778344.70646  -5252860.80546  23929473.4384                   23929462.5514
        38.5004         38.0004
  -4287622.12846  -4583648.11943  24255664.8134                   24255657.3244
        37.7504         19.7504
 -19314472.71248 -21336370.67849  20512375.8204                   20512367.2194
        51.5004         55.0004
 23  1  5  0 42  0.0000000  0 11G24G23G27G08G22G21G10G18G31G01G32
  -9632590.54746  -8037122.59143  23422106.8204                   23422097.6334
        38.0004         22.7504
  -8749994.44747  -8908040.85145  22420879.9694                   22420871.0744
        45.0004         34.0004
  -4416869.52345  -3235133.17444  24681816.1724                   24681809.7974
        33.0004         28.0004
  -5923588.35645  -4566261.64445  24137543.8914                   24137535.2304
        34.2504         30.7504
 -13413604.83947 -10195486.06746  21463484.8444                   21463473.3714
        46.7504         36.5004
 -14936841.02247 -10638916.40445  23057367.8204                   23057355.7034
        44.0004         31.5004
 -27193874.82348 -21447813.40149  20648711.9844                   20648702.9734
        51.5004         54.7504
 -14121926.95944 -10718639.87443  25220523.7734                   25220516.7544
        29.5004         19.0004
  -6896838.85946  -5345193.88546  23906926.6724                   23906913.7934
        40.5004         38.5004
  -4393454.55346  -4666114.92843  24235526.0084                   24235517.6994
        37.2504         20.7504
 -19322491.16348 -21342618.81549  20510849.9844                   20510841.1484
        52.7504         54.7504
 23  1  5  0 42 30.0000000  0 11G24G23G27G08G22G21G10G18G31G01G32
  -9545882.17346  -7969557.61544  23438606.8984                   23438598.0634
        37.2504         24.5004
  -8676866.91747  -8851058.37745  22434797.6024                   22434786.8324
        45.0004         34.0004
  -4324269.80745  -3162977.56444  24699438.2504                   24699430.4694
        34.0004         29.0004
  -5860972.44745  -4517470.08545  24149461.1024                   24149451.9144
        34.0004         31.5004
 -13469630.91947 -10239142.73346  21452823.0474                   21452812.4534
        46.7504         36.0004
 -14998477.92447 -10686945.13945  23045637.0944                   23045625.5634
        42.5004         30.0004
 -27172599.12348 -21431234.93549  20652760.3284                   20652751.6684
        50.2504         54.7504
 -14005016.13156 -10627540.84053  25242776.7504                   25242764.3984
        39.0004         19.2504
  -7015255.89546  -5437466.91046  23884390.7344                   23884379.7304
        39.7504         38.5004
  -4499081.33846  -4748421.55343  24215425.8914                   24215417.5824
        37.0004         20.0004
 -19330116.05648 -21348560.28149  20509399.1174                   20509390.1054
        52.5004         55.0004
 23  1  5  0 43  0.0000000  0 10G24G23G27G08G22G21G10G31G01G32
  -9458766.93246  -7901675.60543  23455184.0864                   23455175.5434
        37.2504         22.5004
  -8603516.26347  -8793902.04945  22448755.4304                   22448745.7734
        44.5004         33.5004
  -4231616.84745  -3090780.45944  24717068.7344                   24717062.0664
        31.5004         26.7504
  -5798029.42045  -4468423.55145  24161436.6644                   24161428.5904
        33.2504         30.7504
 -13525322.23047 -10282538.53846  21442225.1174                   21442214.4064
        47.2504         37.0004
 -15059773.84347 -10734708.19245  23033973.3984                   23033961.3984
        44.5004         31.2504
 -27151006.06048 -21414409.18149  20656869.4774                   20656860.7584
        49.5004         54.7504
  -7133592.54646  -5529677.27246  23861872.1644                   23861861.2194
        40.5004         38.7504
  -4604499.29646  -4830565.41843  24195365.9534                   24195357.5864
        37.2504         21.5004
 -19337347.69648 -21354195.32649  20508022.8444                   20508013.8324
        51.5004         55.0004
 23  1  5  0 43 30.0000000  0 11G24G23G27G08G22G21G10G18G31G01G32
  -9371251.14546  -7833481.47743  23471838.0554                   23471829.6294
        37.7504         22.5004
  -8529946.37647  -8736574.87945  22462755.7344                   22462744.8484
        45.2504         33.2504
  -4138916.95045  -3018546.71644  24734709.2114                   24734701.1954
        33.2504         26.0004
  -5734766.56445  -4419127.82145  24173475.5394                   24173467.2894
        34.2504         31.5004
 -13580681.68647 -10325675.75546  21431691.0634                   21431680.1174
        47.5004         36.0004
 -15120731.46247 -10782207.64345  23022373.6254                   23022362.0354
        43.5004         31.7504
 -27129098.64748 -21397338.47749  20661038.1024                   20661029.5594
        50.0004         54.7504
 -13771121.46955 -10477761.17053  25287280.8134                   25287271.3324
        32.5004         19.5004
  -7251849.20946  -5621825.31346  23839369.0944                   23839357.9734
        40.2504         39.0004
  -4709709.13046  -4912547.12943  24175345.1334                   24175336.7664
        37.5004         19.5004
 -19344190.14948 -21359527.09649  20506720.7814                   20506711.5944
        51.5004         55.0004
 23  1  5  0 44  0.0000000  0 11G24G23G27G08G22G21G10G18G31G01G32
  -9283332.52546  -7764973.45743  23488567.9774                   23488559.3754
        36.7504         23.2504
  -8456152.65447  -8679073.29045  22476797.6484                   22476787.0554
        44.2504         33.7504
  -4046168.12945  -2946274.92044  24752359.9534                   24752352.8164
        33.0004         27.5004
  -5671180.28145  -4369580.14344  24185574.5084                   24185567.8984
        32.7504         29.7504
 -13635704.48047 -10368550.63846  21421220.1724                   21421209.5204
        46.7504         36.0004
 -15181343.94647 -10829438.12245  23010838.8984                   23010827.1914
        44.0004         32.2504
 -27106871.77948 -21380018.84149  20665268.0394                   20665259.1454
        49.2504         55.0004
 -13654140.34645 -10386607.07843  25309541.3444                   25309531.3364
        34.2504         18.5004
  -7370017.94446  -5713904.84046  23816881.0164                   23816870.9494
        39.7504         39.0004
  -4814703.06446  -4994360.61943  24155364.7194                   24155356.7624
        36.5004         21.7504
 -19350639.17948 -21364552.30549  20505493.8284                   20505484.7584
        50.5004         55.0004
 23  1  5  0 44 30.0000000  0 11G24G23G27G08G22G21G10G18G31G01G32
  -9195016.02746  -7696155.39643  23505373.6094                   23505365.5354
        36.5004         22.0004
  -8382137.57947  -8621399.22245  22490881.8984                   22490872.2424
        44.5004         33.5004
  -3953375.64945  -2873969.06044  24770016.7274                   24770009.0044
        33.0004         26.2504
  -5607276.10945  -4319784.71045  24197735.8674                   24197728.2034
        32.7504         31.0004
 -13690392.13547 -10411164.37546  21410813.6334                   21410802.7464
        47.2504         36.5004
 -15241611.50947 -10876399.86645  22999371.2424                   22999358.8324
        44.5004         31.5004
 -27084326.68548 -21362451.24349  20669558.0004                   20669549.6334
        49.2504         54.7504
 -13537140.07655 -10295438.07552  25331807.1724                   25331797.1054
        35.0004         17.2504
  -7488098.01246  -5805915.27946  23794412.3984                   23794401.1604
        40.7504         39.7504
  -4919480.39346  -5076005.32643  24135427.2274                   24135418.8014
        37.2504         21.2504
 -19356697.57448 -21369273.13849  20504340.9304                   20504331.6844
        50.7504         55.0004
 23  1  5  0 45  0.0000000  0 11G24G23G27G08G22G21G10G18G31G01G32
  -9106304.76646  -7627029.75643  23522256.6334                   23522246.6254
        38.0004         22.7504
  -8307901.87747  -8563553.24045  22505008.4844                   22504998.5354
        43.7504         33.5004
  -3860542.70745  -2801631.68744  24787685.2584                   24787674.8984
        34.7504         26.2504
  -5543057.08345  -4269743.92845  24209957.5004                   24209948.4884
        33.7504         31.7504
 -13744744.50447 -10453516.85746  21400470.5554                   21400459.7274
        47.2504         36.2504
 -15301532.85347 -10923091.81645  22987968.0234                   22987956.3754
        43.5004         31.5004
 -27061463.23048 -21344635.56649  20673908.9144                   20673900.3134
        50.7504         55.0004
 -13420122.94845 -10204255.96142  25354074.6644                   25354066.0634
        35.0004         17.7504
  -7606086.49746  -5897854.34246  23771959.7424                   23771948.4454
        41.7504         39.7504
  -5024038.69846  -5157479.33743  24115530.6334                   24115521.5634
        37.5004         21.5004
 -19362366.31048 -21373690.32249  20503261.9924                   20503253.0984
        53.2504         54.7504
 23  1  5  0 45 30.0000000  0 11G24G23G27G08G22G21G10G18G31G01G32
  -9017200.37346  -7557597.73444  23539211.2194                   23539203.0274
        37.0004         24.7504
  -8233444.73147  -8505534.69245  22519177.9614                   22519167.5434
        45.0004         33.5004
  -3767671.17245  -2729264.33244  24805356.5474                   24805347.9454
        32.7504         25.7504
  -5478524.78245  -4219459.05845  24222235.6334                   24222228.3204
        33.0004         31.0004
 -13798760.46047 -10495607.19646  21390191.6094                   21390180.9574
        47.5004         36.5004
 -15361104.08447 -10969510.93945  22976632.7034                   22976620.7034
        44.5004         32.0004
 -27038280.12148 -21326570.80149  20678320.4454                   20678311.6094
        50.5004         55.0004
                                  25376341.0314                   25376335.8914
        26.2504         17.2504
  -7723979.28446  -5989718.85646  23749525.5004                   23749514.4384
        41.2504         40.0004
  -5128373.95345  -5238779.57243  24095674.3364                   24095667.6684
        35.0004         21.0004
 -19367644.95548 -21377803.54349  20502257.4304                   20502248.7704
        52.5004         55.0004
 23  1  5  0 46  0.0000000  0 11G24G23G27G08G22G21G10G18G31G01G32
  -8927708.40846  -7487863.76543  23556241.5944                   23556232.8164
        37.7504         23.0004
  -8158769.34547  -8447346.10345  22533388.5474                   22533377.8954
        44.5004         34.0004
  -3674766.69745  -2656871.17344  24823036.1334                   24823025.7154
        34.0004         25.7504
  -5413685.12745  -4168934.68145  24234573.8594                   24234567.6024
        33.2504         31.2504
 -13852442.34347 -10537437.21346  21379976.5084                   21379965.6804
        46.5004         36.5004
 -15420326.27147 -11015658.10345  22965362.9844                   22965350.6334
        44.5004         31.5004
 -27014779.72148 -21308258.80249  20682792.4144                   20682783.8714
        50.7504         55.5004
 -13186046.10446 -10021858.57443  25398619.6334                   25398608.3364
        36.5004         19.0004
  -7841776.28746  -6081508.71146  23727109.2894                   23727098.5204
        41.5004         40.0004
  -5232486.12746  -5319905.99643  24075864.3914                   24075855.7304
        36.5004         20.2504
 -19372536.96148 -21381615.49949  20501326.6804                   20501317.3754
        52.5004         55.0004
 23  1  5  0 46 30.0000000  0 11G24G23G27G08G22G21G10G18G31G01G32
  -8837828.26846  -7417827.27044  23573345.5164                   23573336.2114
        38.2504         25.2504
  -8083872.60747  -8388985.02345  22547641.1564                   22547630.4454
        44.7504         33.7504
  -3581828.92645  -2584452.11244  24840719.9694                   24840712.8914
        31.2504         24.7504
  -5348536.90745  -4118169.90745  24246974.6884                   24246965.0314
        34.7504         32.2504
 -13905786.61747 -10579004.16046  21369825.7274                   21369814.6054
        46.5004         36.0004
 -15479194.57947 -11061529.49445  22954160.4844                   22954148.6604
        45.0004         32.7504
 -26990957.78648 -21289696.25849  20687325.5704                   20687316.7934
        51.5004         55.0004
                                  25420895.164
        34.000
  -7959471.17047  -6173219.00946  23704712.7664                   23704701.7034
        42.0004         41.0004
  -5336368.87745  -5400853.67243  24056094.9694                   24056087.3634
        35.0004         20.2504
 -19377039.53748 -21385123.99649  20500469.5394                   20500460.8794
        52.5004         54.7504
 23  1  5  0 47  0.0000000  0 11G24G23G27G08G22G21G10G18G31G01G32
  -8747565.83346  -7347492.94044  23590520.3594                   23590512.5784
        37.5004         24.2504
  -8008758.01547  -8330454.20645  22561934.5784                   22561924.5124
        44.5004         33.5004
  -3488863.74945  -2512011.72944  24858412.1804                   24858402.9344
        33.5004         25.5004
  -5283086.40645  -4067169.52245  24259427.1334                   24259419.5274
        33.0004         31.5004
 -13958796.15447 -10620310.26546  21359738.1174                   21359727.2894
        47.5004         37.0004
 -15537711.28747 -11107126.92245  22943025.3674                   22943013.3094
        46.0004         32.5004
 -26966817.27748 -21270885.47749  20691919.6024                   20691910.6484
        49.7504         55.0004
 -12951926.39355  -9886012.70353  25443169.0084                   25443159.3524
        34.0004         18.5004
  -8077063.74947  -6264849.58146  23682335.1414                   23682324.1954
        42.0004         39.7504
  -5440022.62745  -5481622.78243  24036370.8364                   24036363.1134
        35.7504         19.5004
 -19381156.55748 -21388332.05249  20499686.3364                   20499677.5004
        51.5004         54.7504
 23  1  5  0 47 30.0000000  0 10G24G23G27G08G22G21G10G31G01G32
  -8656920.99146  -7276860.59143  23607770.3914                   23607761.9654
        38.0004         22.7504
  -7933423.02647  -8271751.62445  22576270.6254                   22576259.9734
        45.7504         33.0004
  -3395871.36645  -2439550.13144  24876106.2114                   24876098.8984
        32.0004         24.0004
  -5217333.35545  -4015933.45745  24271938.8054                   24271931.9614
        32.2504         31.2504
 -14011467.74747 -10661353.03946  21349714.5784                   21349704.0434
        46.5004         36.2504
 -15595871.15547 -11152446.30845  22931957.8834                   22931945.5904
        44.5004         32.7504
 -26942354.72748 -21251823.75149  20696574.4064                   20696565.5704
        51.0004         55.5004
  -8194548.48447  -6356396.11846  23659979.5004                   23659968.0274
        42.2504         40.2504
  -5543441.46845  -5562208.96643  24016689.6254                   24016682.6054
        34.0004         18.5004
 -19384885.72948 -21391237.88749  20498976.8054                   20498967.7344
        52.5004         54.7504
 23  1  5  0 48  0.0000000  0 10G24G23G27G08G22G21G10G31G01G32
  -8565899.06046  -7205934.39243  23625092.0784                   23625082.1294
        37.5004         22.5004
  -7857870.50147  -8212879.53445  22590647.3674                   22590637.2424
        45.2504         33.7504
  -3302857.13645  -2367071.48344  24893807.5944                   24893798.9924
        32.2504         24.7504
  -5151282.97245  -3964465.63945  24284507.1804                   24284501.1564
        32.2504         31.0004
 -14063803.49647 -10702134.11746  21339755.7274                   21339744.8984
        47.0004         36.7504
 -15653673.44247 -11197487.03745  22920958.0704                   22920946.1884
        43.7504         32.2504
 -26917572.14148 -21232512.64349  20701290.1254                   20701281.5824
        49.5004         55.0004
  -8311924.59947  -6447858.02346  23637643.3594                   23637632.0044
        42.0004         40.5004
  -5646625.07446  -5642611.81643  23997056.6024                   23997048.0594
        36.5004         20.2504
 -19388230.34248 -21393844.07349  20498340.1954                   20498331.2424
        51.5004         55.0004
 23  1  5  0 48 30.0000000  0 10G24G23G27G08G22G21G10G31G01G32
  -8474501.72646  -7134715.68643  23642483.4774                   23642474.6994
        37.0004         23.2504
  -7782099.73747  -8153837.40345  22605066.6724                   22605055.7854
        45.5004         33.0004
  -3209822.93545  -2294577.28244  24911511.1094                   24911502.4494
        34.0004         24.0004
  -5084936.93145  -3912767.48645  24297134.4614                   24297126.2704
        33.5004         31.0004
 -14115802.15447 -10742652.53746  21329860.4844                   21329849.7734
        47.0004         36.5004
 -15711115.86047 -11242247.35545  22910028.1174                   22910015.4144
        45.0004         32.2504
 -26892468.15248 -21212951.09949  20706067.6564                   20706059.0554
        50.5004         55.0004
  -8429187.91947  -6539232.03946  23615328.6484                   23615317.1764
        42.7504         40.0004
  -5749569.48445  -5722828.26044  23977465.2424                   23977457.9884
        32.5004         28.5004
 -19391189.98248 -21396150.27749  20497777.0004                   20497767.9304
        52.0004         54.7504
 23  1  5  0 49  0.0000000  0 11G24G23G27G08G22G21G10G31G01G25G32
  -8382732.20146  -7063206.97743  23659947.2584                   23659938.5984
        37.0004         22.7504
  -7706111.53647  -8094625.85645  22619526.7114                   22619515.8834
        45.5004         33.0004
  -3116772.01745  -2222070.08244  24929216.9064                   24929209.3014
        33.0004         24.0004
  -5018298.55645  -3860841.51945  24309815.2194                   24309807.4384
        33.2504         30.7504
 -14167463.83347 -10782908.37346  21320029.4064                   21320018.9884
        46.5004         36.5004
 -15768197.65047 -11286726.67045  22899165.1954                   22899153.3134
        45.0004         33.2504
 -26867042.76648 -21193139.11949  20710905.8834                   20710896.9884
        50.7504         55.0004
  -8546335.85847  -6630516.15046  23593036.3594                   23593025.8834
        42.0004         40.5004
  -5852272.34945  -5802856.51144  23957923.1724                   23957913.8674
        34.2504         29.0004
    -76800.16414                  25395150.391
        28.000
 -19393765.78448 -21398157.38949  20497286.8284                   20497277.9924
        52.2504         54.7504
 23  1  5  0 49 30.0000000  0 11G24G23G27G08G22G21G10G31G01G25G32
  -8290593.32146  -6991410.45743  23677480.1884                   23677471.5864
        36.7504         22.0004
  -7629906.30447  -8035245.17645  22634027.6174                   22634017.0234
        45.0004         33.2504
  -3023707.29345  -2149552.06644  24946926.4224                   24946918.6414
        31.7504         25.7504
  -4951370.31845  -3808689.69745  24322550.1254                   24322543.3984
        31.5004         31.0004
 -14218788.35247 -10822901.47146  21310263.1414                   21310252.4304
        46.5004         36.7504
 -15824916.78147 -11330923.38045  22888371.3364                   22888359.5124
        44.7504         33.0004
 -26841295.18148 -21173076.05749  20715805.6254                   20715796.5554
        50.5004         54.7504
  -8663365.09346  -6721707.75446  23570765.5864                   23570754.9344
        41.7504         40.5004
  -5954730.61145  -5882694.18144  23938423.6644                   23938417.1724
        32.7504         29.7504
    -77906.28755    -45051.62154  25379114.3054                   25379108.3404
        32.7504         28.5004
 -19395958.46048 -21399865.95449  20496869.6254                   20496860.4384
        52.5004         54.7504
 23  1  5  0 50  0.0000000  0 10G24G23G27G08G22G21G10G31G01G32
  -8198087.40146  -6919327.92043  23695082.9304                   23695074.3874
        36.7504         22.5004
  -7553483.92647  -7975695.27645  22648570.6254                   22648559.8554
        45.2504         33.0004
  -9232311.39755  -6987425.36554  24964638.3284                   24964631.7194
        30.5004         25.2504
  -4884154.93845  -3756314.12745  24335341.1804                   24335334.2774
        31.7504         31.0004
 -14269775.08447 -10862631.36846  21300560.4384                   21300549.7274
        47.0004         37.5004
 -15881271.13647 -11374835.86645  22877648.3204                   22877635.6174
        45.5004         33.7504
 -26815224.82448 -21152761.50249  20720766.5634                   20720758.0204
        49.5004         55.0004
  -8780272.55047  -6812804.47846  23548519.4064                   23548508.8714
        42.2504         41.2504
  -6056941.20445  -5962338.75544  23918975.5554                   23918966.8954
        35.2504         29.5004
 -19397768.29248 -21401276.21349  20496525.2194                   20496515.9734
        51.0004         55.0004
 23  1  5  0 50 30.0000000  0 11G24G23G27G08G22G21G10G12G31G01G32
  -8105218.46046  -6846962.50843  23712755.8204                   23712746.9844
        37.2504         22.2504
  -7476845.88747  -7915977.33745  22663154.7114                   22663144.0594
        45.5004         33.0004
  -9139228.09645  -6914892.92644  24982350.3834                   24982344.5354
        31.0004         24.5004
  -4816656.37245  -3703717.84645  24348185.5864                   24348179.3284
        31.2504         31.0004
 -14320424.99047 -10902098.80546  21290921.6174                   21290911.0824
        45.7504         37.0004
 -15937260.12047 -11418463.64545  22866993.7034                   22866981.7624
        44.7504         33.5004
 -26788832.11548 -21132195.75949  20725788.8284                   20725779.9344
        50.0004         55.0004
    -66091.02756    -33388.00652  25597560.2664                   25597550.7854
        36.7504         17.7504
  -8897056.40046  -6903804.87746  23526295.8754                   23526284.9884
        41.5004         41.2504
  -6158902.08545  -6041788.87945  23899571.4064                   23899564.5044
        34.5004         30.2504
 -19399197.08348 -21402389.55549  20496253.4064                   20496244.1604
        52.0004         54.7504
 23  1  5  0 51  0.0000000  0 12G24G23G27G08G22G21G10G12G31G01G25G32
  -8011988.41145  -6774315.71843  23730495.5234                   23730488.0944
        35.7504         21.7504
  -7399991.76447  -7856091.02845  22677778.5784                   22677768.6294
        45.0004         33.0004
  -9046139.52845  -6842356.32044  25000065.0704                   25000057.9344
        30.2504         25.2504
  -4748876.51245  -3650902.44145  24361084.9614                   24361076.5944
        33.0004         30.2504
 -14370736.91547 -10941302.86046  21281348.0784                   21281337.2504
        46.2504         37.0004
 -15992881.08247 -11461804.63645  22856409.1254                   22856397.4184
        44.5004         33.5004
 -26762116.15048 -21111378.12449  20730873.1094                   20730864.0394
        50.5004         55.2504
   -135765.54045    -87679.71342  25584300.5234                   25584291.9224
        33.5004         16.7504
  -9013712.43946  -6994705.70346  23504096.5784                   23504086.9224
        40.7504         41.5004
  -6260609.71946  -6121041.54845  23880219.8674                   23880210.9734
        37.5004         31.0004
    -44163.83956   -106753.67954  25331082.3364                   25331071.0984
        36.5004         25.5004
 -19400244.78248 -21403205.93249  20496054.0234                   20496044.8364
        51.2504         55.0004
 23  1  5  0 51 30.0000000  0 12G24G23G27G08G22G21G10G12G31G01G25G32
  -7918400.80545  -6701390.32243  23748305.8674                   23748296.9734
        35.5004         22.0004
  -7322922.69647  -7796037.23845  22692444.6024                   22692434.3594
        44.7504         32.5004
  -8953049.41845  -6769818.59944  25017782.4384                   25017773.3094
        31.5004         25.2504
  -4680818.64645  -3597870.35245  24374034.7734                   24374027.4614
        32.5004         30.5004
 -14420711.41047 -10980244.01146  21271838.0704                   21271827.3594
        46.5004         36.5004
 -16048132.48647 -11504857.67445  22845895.7894                   22845883.0274
        44.5004         32.2504
 -26735076.93248 -21090308.59649  20736018.2424                   20736009.1724
        49.7504         55.0004
   -205189.86745   -141776.55242  25571088.0394                   25571080.8444
        31.5004         17.2504
  -9130238.42447  -7085505.16146  23481923.1024                   23481912.0984
        42.0004         41.7504
  -6362061.81446  -6200095.22445  23860912.9694                   23860904.3674
        36.2504         30.5004
                                  25315092.617
        38.000
 -19400912.88548 -21403726.52049  20495927.0394                   20495917.7344
        52.0004         54.7504
 23  1  5  0 52  0.0000000  0 12G24G23G27G08G22G21G10G12G31G01G25G32
  -7824457.34546  -6628187.63243  23766182.2114                   23766173.9614
        36.5004         22.2504
  -7245637.91147  -7735815.33445  22707152.3914                   22707141.0354
        45.7504         32.2504
  -8859959.32545  -6697280.81144  25035496.1024                   25035487.8524
        30.0004         26.5004
  -4612484.88245  -3544623.28245  24387037.8914                   24387031.3404
        32.0004         30.5004
 -14470347.17347 -11018921.21346  21262392.6804                   21262382.3794
        46.7504         37.0004
 -16103011.64647 -11547620.65945  22835452.1484                   22835439.6804
        45.0004         33.0004
 -26707712.91548 -21068985.98649  20741225.5234                   20741216.5124
        49.7504         55.0004
   -274359.88146   -195675.23142  25557929.3364                   25557918.0984
        38.0004         17.2504
  -9246630.14146  -7176200.00047  23459774.0004                   23459763.4064
        41.2504         42.0004
  -6463254.52745  -6278946.66145  23841655.3524                   23841648.2734
        35.2504         32.0004
                                  25299115.8984                   25299107.3554
        38.0004         33.5004
 -19401200.96248 -21403950.99049  20495872.1954                   20495862.9494
        51.7504         55.0004
 23  1  5  0 52 30.0000000  0 12G24G23G27G08G22G21G10G12G31G01G25G32
  -7730161.71546  -6554710.50543  23784126.9924                   23784117.8054
        36.2504         21.7504
  -7168138.68347  -7675426.34445  22721898.9614                   22721889.0704
        44.5004         31.7504
  -8766873.05045  -6624746.04744  25053208.7734                   25053201.5204
        31.0004         25.7504
  -4543878.28445  -3491163.66544  24400094.6724                   24400086.5984
        32.2504         29.7504
 -14519644.93447 -11057335.02146  21253011.7974                   21253000.7934
        47.0004         37.5004
 -16157517.76147 -11590092.93845  22825079.8134                   22825067.9884
        46.0004         33.2504
 -26680024.60748 -21047410.68149  20746494.4534                   20746485.3244
        50.0004         55.0004
   -343273.05146   -249373.67342  25544814.3364                   25544804.3284
        36.7504         16.2504
  -9362885.28646  -7266788.42647  23437652.2344                   23437641.2304
        41.7504         42.5004
  -6564185.66146  -6357594.30545  23822450.7974                   23822442.3714
        37.7504         33.2504
                                  25283152.367
        37.500
 -19401110.64648 -21403880.60949  20495889.2894                   20495880.2774
        52.5004         54.7504
 23  1  5  0 53  0.0000000  0 11G24G23G27G08G22G21G10G12G31G01G32
  -7635516.11345  -6480960.70743  23802136.9224                   23802128.4384
        35.2504         21.7504
  -7090424.83047  -7614870.12445  22736687.7194                   22736677.3014
        45.0004         31.7504
                                  25070919.6174                   25070913.5944
        30.2504         22.7504
  -4475002.19045  -3437493.98345  24413200.0004                   24413193.1564
        31.5004         30.2504
 -14568603.94147 -11095484.87246  21243694.9384                   21243684.4024
        46.5004         37.2504
 -16211648.96647 -11632273.09745  22814779.4384                   22814766.9694
        46.0004         34.0004
 -26652011.16248 -21025582.02549  20751825.3134                   20751816.4184
        50.0004         54.7504
   -411925.81545   -302869.34143  25531749.1484                   25531740.2544
        34.0004         18.2504
  -9479000.36146  -7357267.70947  23415555.3444                   23415544.9844
        41.2504         42.2504
  -6664851.84546  -6436035.52845  23803293.7664                   23803285.6334
        37.2504         32.5004
 -19400642.08548 -21403515.48749  20495978.5554                   20495969.6024
        52.0004         55.2504
 23  1  5  0 53 30.0000000  0 12G24G23G27G08G22G21G10G12G31G01G25G32
  -7540525.50645  -6406942.07843  23820213.3754                   23820205.3014
        35.5004         22.5004
  -7012498.83247  -7554148.58545  22751516.0314                   22751505.9064
        45.0004         31.5004
  -8580723.77355  -6479694.65754  25088630.8364                   25088624.0514
        30.0004         24.5004
  -4405860.60745  -3383617.43045  24426357.9304                   24426350.6174
        32.0004         30.7504
 -14617226.04947 -11133372.20446  21234442.6644                   21234431.9534
        47.7504         37.0004
 -16265404.70547 -11674160.67945  22804549.8054                   22804537.7464
        45.0004         34.0004
 -26623674.29148 -21003501.35049  20757217.3134                   20757208.2424
        49.7504         55.0004
   -480317.42946   -356161.43842  25518736.0164                   25518725.5984
        37.2504         16.2504
  -9594974.36147  -7447637.03847  23393486.8754                   23393476.2814
        42.2504         42.7504
  -6765252.17746  -6514269.53745  23784188.4144                   23784180.6914
        38.2504         33.5004
     20261.65754   -184811.14753  25251266.9304                   25251257.3324
        28.5004         21.5004
 -19399798.12848 -21402857.84549  20496138.9924                   20496129.6294
        51.5004         54.7504
 23  1  5  0 54  0.0000000  0 12G24G23G27G08G22G21G10G12G31G01G25G32
  -7445190.38246  -6332654.94943  23838355.6724                   23838346.2504
        36.7504         21.5004
  -6934358.82047  -7493260.29245  22766386.5234                   22766375.3444
        45.0004         32.2504
  -8487666.26045  -6407182.25844  25106340.8204                   25106332.6294
        31.5004         26.0004
  -4336454.51145  -3329534.78044  24439564.1564                   24439558.5434
        31.0004         29.5004
 -14665508.82447 -11170995.11646  21225254.8054                   21225243.6844
        47.0004         37.5004
 -16318781.55747 -11715753.01945  22794392.4064                   22794380.3484
        44.5004         33.5004
 -26595010.80948 -20981166.17249  20762672.0234                   20762663.4224
        50.2504         55.0004
   -548442.15945   -409245.57642  25505769.3834                   25505762.5984
        33.0004         17.2504
  -9710802.11247  -7537892.42747  23371446.0084                   23371434.1844
        42.2504         42.7504
  -6865381.52346  -6592292.42645  23765134.7504                   23765126.2664
        37.7504         33.7504
      3122.04555   -222426.88254  25235347.0704                   25235337.7664
        35.0004         28.7504
 -19398577.33048 -21401906.57249  20496371.4614                   20496361.9804
        52.5004         54.7504
 23  1  5  0 54 30.0000000  0 12G24G23G27G08G22G21G10G12G31G01G25G32
  -7349513.41546  -6258101.47343  23856562.0234                   23856553.5394
        36.0004         22.0004
  -6856004.89847  -7432205.30445  22781296.1484                   22781286.0234
        45.0004         31.7504
                                  25124047.0944                   25124037.0864
        33.5004         25.5004
  -4266786.81045  -3275248.30244  24452822.3524                   24452815.2154
        31.0004         29.7504
 -14713451.81747 -11208353.27346  21216131.3754                   21216120.6644
        46.5004         37.0004
 -16371777.20947 -11757048.33145  22784307.4924                   22784295.4924
        45.2504         33.0004
 -26566020.62848 -20958576.42049  20768188.3524                   20768179.5164
        51.0004         54.7504
   -616296.55745   -462119.08843  25492858.7194                   25492849.8244
        35.0004         18.2504
  -9826479.94646  -7628030.99947  23349432.6724                   23349422.1374
        41.7504         42.7504
  -6965236.72546  -6670101.66645  23746133.1414                   23746124.6564
        39.0004         34.2504
                                  25219441.6954                   25219433.4454
        35.7504         31.7504
 -19396980.13048 -21400661.98949  20496675.3134                   20496666.1844
        52.0004         55.0004
 23  1  5  0 55  0.0000000  0 12G24G23G27G08G22G21G10G12G31G01G25G32
  -7253500.04446  -6183285.87743  23874833.0784                   23874824.5354
        36.0004         21.0004
  -6777440.26847  -7370986.11845  22796246.6804                   22796236.6134
        44.2504         31.7504
                                  25141747.9844                   25141740.2034
        31.7504         26.5004
  -4196861.82645  -3220761.29445  24466129.0554                   24466121.6844
        30.2504         30.0004
 -14761057.74747 -11245448.77946  21207072.0474                   21207061.8634
        47.5004         37.0004
 -16424393.00147 -11798047.63745  22774294.7974                   22774283.4414
        45.5004         33.5004
 -26536705.53248 -20935733.48949  20773767.2344                   20773758.1644
        51.0004         55.0004
   -683880.39646   -514781.85243  25479999.4454                   25479988.7344
        36.7504         18.2504
  -9942007.62346  -7718052.56147  23327448.0314                   23327437.4964
        41.2504         43.0004
  -7064817.57946  -6747697.16545  23727183.0704                   23727174.4104
        37.5004         34.0004
   -163954.12855   -339598.24554  25203551.2034                   25203544.0664
        32.5004         24.0004
 -19395010.09348 -21399126.88949  20497050.2114                   20497041.0824
        53.0004         54.7504
 23  1  5  0 55 30.0000000  0 12G24G23G27G08G22G21G10G12G31G01G25G32
  -7157153.52445  -6108210.68343  23893165.6174                   23893158.4224
        34.2504         21.2504
  -6698665.68947  -7309603.35445  22811237.0164                   22811227.0084
        44.0004         31.2504
  -8208598.82745  -6189727.07844  25159445.2194                   25159437.4384
        32.2504         25.0004
  -4126683.80745  -3166077.15744  24479483.8914                   24479477.3404
        32.2504         29.7504
 -14808326.95847 -11282281.91046  21198077.2274                   21198066.7504
        46.5004         37.0004
 -16476627.28147 -11838749.67045  22764355.1024                   22764343.6884
        44.5004         33.0004
 -26507065.76848 -20912637.57849  20779407.5084                   20779398.3794
        51.5004         55.2504
   -751190.99546   -567231.60442  25467190.6094                   25467179.4304
        37.5004         15.5004
 -10057382.45246  -7807955.02147  23305493.6884                   23305482.5664
        41.7504         42.7504
  -7164121.56046  -6825076.87145  23708285.7734                   23708277.9924
        39.0004         33.7504
   -247363.31245   -404592.43444  25187678.6334                   25187671.8484
        32.5004         26.5004
 -19392668.34148 -21397302.14449  20497495.8524                   20497486.8404
        53.5004         54.7504
 23  1  5  0 56  0.0000000  0 12G24G23G27G08G22G21G10G12G31G01G25G32
  -7060472.61045  -6032874.97043  23911564.4304                   23911556.2384
        35.0004         21.5004
  -6619677.50047  -7248054.14145  22826268.4534                   22826257.0394
        45.5004         31.5004
  -8115619.91155  -6117275.95354  25177138.8204                   25177129.5744
        32.0004         25.7504
  -4056251.73345  -3111195.04044  24492886.0634                   24492879.4534
        32.5004         29.5004
 -14855255.12647 -11318849.29246  21189147.0554                   21189135.6994
        46.7504         37.2504
 -16528474.62747 -11879150.18345  22754489.6644                   22754477.1374
        46.0004         33.5004
 -26477096.66848 -20889285.04349  20785110.5554                   20785101.0164
        50.5004         54.7504
   -818221.06845   -619462.78642  25454432.8524                   25454424.1914
        35.2504         16.7504
 -10172597.39446  -7897732.87347  23283568.4384                   23283557.5514
        41.5004         42.5004
  -7263141.64046  -6902235.38245  23689442.8524                   23689435.5394
        37.0004         33.5004
   -330679.04044   -469513.79244  25171821.9454                   25171817.6254
        29.0004         24.2504
 -19389951.62848 -21395185.22449  20498012.6414                   20498003.6294
        52.0004         55.0004
 23  1  5  0 56 30.0000000  0 12G24G23G27G08G22G21G10G12G31G01G25G32
  -6963461.51945  -5957281.84643  23930024.5474                   23930016.2384
        34.7504         21.5004
  -6540477.50947  -7186339.88445  22841339.0394                   22841328.7974
        44.0004         31.7504
                                  25194826.1804                   25194819.5704
        31.0004         25.5004
  -3985568.95545  -3056117.59445  24506336.7734                   24506329.4024
        31.5004         30.0004
 -14901843.26947 -11355151.73546  21180282.0634                   21180270.6484
        47.0004         37.2504
 -16579934.52047 -11919248.80245  22744696.4304                   22744684.7814
        44.7504         33.5004
 -26446799.69948 -20865677.01849  20790875.7504                   20790866.6214
        51.5004         55.0004
   -884968.79646   -671473.99443  25441734.2114                   25441723.0314
        37.7504         19.2504
 -10287650.53846  -7987384.68047  23261674.8834                   23261663.9384
        41.5004         42.5004
  -7361876.28546  -6979171.49045  23670655.3364                   23670646.2074
        38.2504         34.2504
   -413899.27845   -534360.70844  25155988.2114                   25155981.4264
        33.0004         26.7504
 -19386862.08248 -21392777.77949  20498600.7114                   20498591.9344
        52.7504         55.0004
 23  1  5  0 57  0.0000000  0 12G24G23G27G08G22G21G10G12G31G01G25G32
  -6866125.66845  -5881435.73943  23948546.7344                   23948539.3054
        35.0004         22.0004
  -6461068.69247  -7124462.90645  22856450.7194                   22856440.2424
        44.7504         31.0004
                                  25212507.2274                   25212500.3834
        29.0004         25.0004
  -3914641.67145  -3000849.57545  24519834.4614                   24519826.7384
        33.5004         32.0004
 -14948094.39547 -11391191.53946  21171480.1954                   21171469.6024
        46.2504         37.5004
 -16631007.66447 -11959046.04645  22734977.6954                   22734965.6954
        45.5004         34.5004
 -26416176.46748 -20841814.76449  20796703.0004                   20796694.1054
        50.5004         54.7504
   -951433.86946   -723264.88842  25429086.7114                   25429074.8874
        38.0004         16.7504
 -10402541.45746  -8076910.05947  23239811.4064                   23239800.9884
        40.7504         42.5004
  -7460325.19746  -7055884.93545  23651919.4924                   23651912.5314
        37.5004         33.7504
   -497023.49145   -599132.80444  25140170.0164                   25140162.5274
        33.2504         24.0004
 -19383403.07749 -21390082.44249  20499258.8834                   20499249.8134
        54.0004         55.0004
 23  1  5  0 57 30.0000000  0 12G24G23G27G08G22G21G10G12G31G01G25G32
  -6768468.29645  -5805339.08743  23967130.5314                   23967121.7544
        34.0004         21.2504
  -6381451.94047  -7062423.91845  22871601.1484                   22871590.9064
        44.5004         30.7504
  -7836850.77055  -5910450.63654  25230186.6564                   25230176.8244
        32.5004         24.7504
  -3843472.95645  -2945393.42545  24533374.6334                   24533370.1374
        30.7504         31.5004
 -14994008.50047 -11426968.74446  21162743.3984                   21162732.1024
        47.0004         37.2504
 -16681693.18547 -11998541.25045  22725333.2194                   22725320.5744
        45.5004         33.5004
 -26385227.48748 -20817698.67749  20802592.1884                   20802583.1174
        50.0004         55.2504
  -1017613.63245   -774833.50242  25416490.2034                   25416481.8954
        35.0004         17.7504
 -10517267.47946  -8166306.94047  23217980.4304                   23217969.0744
        41.5004         42.5004
  -7558485.87346  -7132373.78145  23633242.0234                   23633232.9534
        38.5004         33.7504
   -580048.90155   -663827.87254  25124369.3984                   25124363.9024
        31.7504         26.7504
 -19379575.91048 -21387100.23149  20499987.1414                   20499978.0704
        53.0004         55.0004
 23  1  5  0 58  0.0000000  0 12G24G23G27G08G22G21G10G12G31G01G25G32
  -6670488.61545  -5728991.28343  23985774.5554                   23985767.0084
        32.5004         19.2504
  -6301623.96547  -7000220.30945  22886791.5084                   22886781.3834
        43.0004         30.7504
  -7743997.06345  -5838097.09544  25247854.5944                   25247846.6374
        32.0004         25.7504
  -3772061.58045  -2889748.21345  24546965.0164                   24546958.7584
        32.2504         31.5004
 -15039581.67547 -11462480.29346  21154070.4694                   21154060.0514
        47.0004         37.5004
 -16731985.44147 -12037730.01645  22715762.5554                   22715750.3794
        45.0004         34.0004
 -26353948.41348 -20793325.39449  20808544.5314                   20808535.9304
        50.0004         55.0004
  -1083501.04746   -826174.30443  25403953.6024                   25403944.1804
        37.5004         19.2504
 -10631821.85846  -8255570.09547  23196181.2274                   23196169.9304
        41.0004         42.5004
  -7656351.67046  -7208632.85445  23614617.3284                   23614609.1954
        37.2504         33.5004
   -662968.47545   -728440.56044  25108591.9454                   25108583.5784
        32.7504         25.5004
 -19375377.66948 -21383828.87649  20500785.9454                   20500777.0514
        52.7504         55.0004
 23  1  5  0 58 30.0000000  0 12G24G23G27G08G22G21G10G12G31G01G25G32
  -6572191.37645  -5652396.06543  24004480.9454                   24004472.5784
        34.2504         21.2504
  -6221587.29147  -6937854.07445  22902022.0554                   22902011.6374
        43.5004         30.7504
  -7651181.74755  -5765773.51153  25265518.5314                   25265508.9344
        32.2504         22.5004
  -3700412.95545  -2833918.14845  24560598.8204                   24560593.1484
        32.7504         31.5004
 -15084816.29547 -11497728.01646  21145463.1024                   21145451.7464
        46.2504         37.5004
 -16781885.26847 -12076612.98145  22706266.5234                   22706254.3484
        45.5004         33.5004
 -26322341.17648 -20768696.38349  20814559.0394                   20814550.2034
        51.0004         55.0004
  -1149095.49446   -877286.95743  25391473.7504                   25391461.3404
        38.2504         20.7504
 -10746203.45147  -8344698.59247  23174414.7114                   23174404.1174
        42.0004         43.0004
  -7753921.80446  -7284661.50445  23596051.0394                   23596042.9654
        38.2504         34.2504
   -745780.92145   -792969.74744  25092833.7034                   25092825.8054
        33.0004         27.2504
 -19370811.21448 -21380270.59549  20501655.0234                   20501645.7194
        53.7504         55.0004
 23  1  5  0 59  0.0000000  0 12G24G23G27G08G22G21G10G12G31G01G25G32
  -6473577.62045  -5575554.18443  24023245.0474                   24023237.7934
        32.7504         19.5004
  -6141340.42047  -6875324.08045  22917293.3914                   22917282.6214
        45.0004         31.0004
                                  25283169.6564                   25283162.2854
        31.5004         21.7504
  -3628528.12145  -2777904.00745  24574280.7424                   24574272.4924
        34.5004         30.5004
 -15129710.11047 -11532710.18746  21136920.2584                   21136908.9614
        47.0004         37.5004
 -16831388.58147 -12115186.99145  22696846.1564                   22696834.4494
        45.5004         34.2504
 -26290403.36648 -20743809.78549  20820636.9844                   20820627.5044
        51.2504         54.7504
  -1214391.80746   -928167.18942  25379046.5944                   25379035.2974
        38.0004         17.7504
 -10860407.27747  -8433688.58447  23152682.7504                   23152671.6884
        42.2504         43.2504
  -7851191.30346  -7360455.93645  23577540.8984                   23577532.5314
        38.2504         34.5004
   -828481.22445   -857411.49944  25077094.9384                   25077088.9734
        32.7504         28.0004
 -19365875.42148 -21376424.51549  20502594.0784                   20502585.5354
        53.0004         55.0004
 23  1  5  0 59 30.0000000  0 12G24G23G27G08G22G21G10G12G31G01G25G32
  -6374653.87545  -5498470.75343  24042071.1484                   24042063.0164
        34.5004         19.2504
  -6060887.49447  -6812633.53145  22932602.3444                   22932592.5704
        43.7504         31.7504
                                  25300819.906
        30.250
  -3556413.05245  -2721710.44545  24588001.8674                   24587995.1414
        34.5004         31.0004
 -15174266.61147 -11567429.51946  21128440.8444                   21128430.4844
        47.2504         37.5004
 -16880497.62547 -12153453.77545  22687501.2424                   22687489.2424
        45.5004         34.0004
 -26258138.22148 -20718668.12149  20826776.6884                   20826767.9104
        50.5004         54.7504
  -1279390.71645   -978815.77442  25366675.0944                   25366665.5554
        34.0004         17.7504
 -10974433.98246  -8522540.55247  23130983.9144                   23130973.1454
        41.5004         43.0004
  -7948161.10246  -7436016.82345  23559088.7194                   23559080.0594
        39.0004         34.7504
   -911069.72945   -921766.17744  25061380.0704                   25061372.2304
        32.7504         26.7504
 -19360574.91248 -21372294.24749  20503602.9224                   20503594.1454
        53.0004         55.0004
 23  1  5  1  0  0.0000000  0 12G24G23G27G08G22G21G10G12G31G01G25G32
  -6275421.31845  -5421146.71043  24060955.3834                   24060946.3714
        34.0004         19.7504
  -5980227.34547  -6749781.47345  22947951.1564                   22947941.0904
        44.0004         31.5004
                                  25318459.2974                   25318446.3014
        35.0004         25.5004
  -3484069.78745  -2665339.06545  24601768.7344                   24601762.1844
        33.7504         31.2504
 -15218484.33147 -11601884.86446  21120026.2504                   21120016.0084
        46.5004         37.5004
 -16929209.07447 -12191410.74145  22678231.6884                   22678219.6294
        44.5004         34.5004
 -26225543.69248 -20693269.78849  20832979.2274                   20832970.1564
        50.2504         55.0004
  -1344087.27446  -1029228.60442  25354365.8674                   25354354.9224
        36.2504         16.2504
 -11088278.93947  -8611250.90647  23109320.2814                   23109309.3364
        42.0004         43.2504
  -8044826.50746  -7511340.52945  23540693.3914                   23540685.4344
        38.5004         35.2504
   -993541.50445   -986029.86144  25045684.5944                   25045679.1564
        32.0004         28.5004
 -19354908.80248 -21367879.10449  20504681.2974                   20504672.1094
        52.5004         55.0004
 23  1  5  1  0 30.0000000  0 11G24G23G08G22G21G10G12G31G01G25G32
  -6175883.12145  -5343584.43943  24079897.9844                   24079887.7424
        35.0004         21.5004
  -5899360.63047  -6686768.46344  22963339.8524                   22963329.6094
        43.7504         29.7504
  -3411500.32145  -2608791.47945  24615576.1564                   24615571.0164
        34.0004         31.0004
 -15262363.31047 -11636076.25846  21111676.3364                   21111665.5664
        46.5004         37.5004
 -16977521.60347 -12229056.86145  22669038.1484                   22669026.0904
        45.7504         34.5004
 -26192619.77048 -20667614.79649  20839244.5474                   20839235.7114
        51.0004         54.7504
  -1408478.87746  -1079403.88442  25342113.4384                   25342102.1414
        37.7504         17.7504
 -11201939.27447  -8699817.38647  23087691.0554                   23087680.5204
        42.5004         43.5004
  -8141184.94946  -7586425.00945  23522358.2274                   23522348.8634
        39.7504         35.0004
  -1075893.42945  -1050200.20744  25030014.2584                   25030007.0634
        31.0004         26.2504
 -19348878.21749 -21363179.95049  20505828.7194                   20505819.3554
        54.0004         55.0004
 23  1  5  1  1  0.0000000  0 12G24G23G27G08G22G21G10G12G31G01G25G32
  -6076041.09145  -5265785.48143  24098895.2504                   24098887.5274
        32.2504         19.7504
  -5818286.91147  -6623594.16445  22978768.7974                   22978757.7344
        44.5004         30.7504
                                  25353702.672
        31.750
  -3338708.03346  -2552070.22645  24629432.1644                   24629423.1524
        36.0004         31.0004
 -15305902.90247 -11670003.19546  21103391.3834                   21103380.3794
        46.7504         38.0004
 -17025432.53047 -12266390.06345  22659921.1724                   22659909.2304
        46.0004         33.7504
 -26159365.11748 -20641702.09649  20845572.5944                   20845563.7584
        50.2504         55.2504
  -1472561.39246  -1129338.30142  25329917.8754                   25329907.6334
        36.5004         17.7504
 -11315410.68647  -8788236.66347  23066098.4064                   23066087.6954
        42.2504         43.7504
  -8237232.45146  -7661267.22846  23504079.9844                   23504071.6174
        38.7504         36.0004
                                  25014366.1334                   25014359.9344
        31.0004         26.0004
 -19342483.08448 -21358196.73349  20507045.8204                   20507036.5744
        52.5004         54.7504
 23  1  5  1  1 30.0000000  0 12G24G23G27G08G22G21G10G12G31G01G25G32
  -5975902.41145  -5187755.32343  24117950.2814                   24117942.5004
        32.7504         19.7504
  -5737011.02747  -6560262.34645  22994233.9844                   22994224.0354
        44.0004         31.5004
    375965.57655  -5445279.49053  25371309.4304                   25371298.4844
        31.5004         22.0004
  -3265699.43145  -2495180.40245  24643323.2034                   24643315.7734
        35.2504         31.0004
 -15349107.08547 -11703668.77746  21095169.7584                   21095158.9884
        47.5004         37.7504
 -17072945.02547 -12303412.79245  22650879.4614                   22650867.9304
        46.2504         34.0004
 -26125783.82148 -20615534.87049  20851963.1414                   20851954.1294
        50.5004         54.7504
  -1536336.23445  -1179033.00343  25317781.3834                   25317771.9024
        34.7504         18.2504
 -11428694.83847  -8876510.00647  23044541.9224                   23044530.2154
        43.0004         44.0004
  -8332970.57046  -7735868.33345  23485862.1024                   23485853.2664
        40.0004         35.5004
  -1240226.65355  -1178251.94254  24998742.3054                   24998735.6374
        33.0004         26.5004
 -19335728.59048 -21352933.48949  20508330.9224                   20508321.9694
        52.5004         54.7504
 23  1  5  1  2  0.0000000  0 12G24G23G27G08G22G21G10G12G31G01G25G32
  -5875460.65345  -5109489.04443  24137064.4774                   24137056.0514
        32.7504         18.5004
  -5655524.13047  -6496766.07045  23009740.7034                   23009730.1094
        43.7504         31.0004
                                  25388903.523
        33.500
  -3192468.27445  -2438117.17945  24657258.9454                   24657252.0434
        34.7504         31.0004
 -15391966.88247 -11737066.00646  21087013.6884                   21087003.0944
        47.2504         38.0004
 -17120047.86847 -12340116.31445  22641916.3054                   22641904.5394
        45.7504         35.0004
 -26091866.19448 -20589105.55449  20858417.3594                   20858408.4064
        50.5004         54.7504
  -1599790.81446  -1228478.12743  25305707.0314                   25305696.6134
        36.5004         18.5004
 -11541779.11447  -8964627.62347  23023021.3674                   23023011.0084
        42.5004         43.7504
  -8428386.98546  -7810218.78645  23467704.2424                   23467696.2854
        38.7504         35.2504
  -1322196.36855  -1242124.44054  24983145.2584                   24983137.4184
        33.5004         26.5004
 -19328606.26348 -21347383.62549  20509686.2664                   20509677.1374
        53.7504         55.0004
 23  1  5  1  2 30.0000000  0 11G24G23G08G22G21G10G12G31G01G25G32
  -5774727.45345  -5030995.61643  24156232.8134                   24156224.6214
        32.2504         19.0004
  -5573835.31147  -6433112.47445  23025285.6484                   23025274.8794
        43.5004         30.0004
  -3119025.91845  -2380889.35045  24671235.0314                   24671227.3094
        35.5004         32.0004
 -15434490.64747 -11770201.38446  21078921.8364                   21078911.0664
        46.7504         38.0004
 -17166748.11347 -12376506.11045  22633029.7734                   22633017.6564
        45.7504         34.2504
 -26057620.61648 -20562420.69849  20864934.0084                   20864924.9964
        50.7504         55.2504
  -1662931.20345  -1277678.39543  25293689.7424                   25293681.3754
        32.2504         18.2504
 -11654669.19647  -9052593.90347  23001539.5474                   23001528.7194
        43.0004         44.2504
  -8523487.50946  -7884323.08346  23449607.1484                   23449599.6024
        39.2504         36.2504
  -1404035.94555  -1305895.52354  24967571.0704                   24967563.6414
        32.2504         25.5004
 -19321125.67148 -21341554.59149  20511109.3984                   20511100.5044
        52.5004         55.0004
 23  1  5  1  3  0.0000000  0 12G24G23G27G08G22G21G10G12G31G01G25G32
  -5673704.40945  -4952276.39343  24175458.0394                   24175448.7934
        33.5004         19.0004
  -5491944.06247  -6369301.15245  23040868.6804                   23040858.7894
        43.7504         30.5004
    388664.76755  -5309424.66353  25424061.0634                   25424051.8164
        30.5004         22.7504
  -3045374.41745  -2323498.60945  24685246.8054                   24685242.8364
        33.0004         31.7504
 -15476677.51047 -11803074.25646  21070893.9304                   21070883.2194
        47.5004         38.0004
 -17213043.17047 -12412580.18845  22624219.7894                   22624208.5514
        46.0004         34.5004
 -26023045.46548 -20535479.03149  20871513.3364                   20871504.2074
        51.2504         55.0004
  -1725753.15346  -1326630.52442  25281736.7344                   25281726.4924
        36.5004         17.2504
 -11767360.83147  -9140405.55747  22980094.9384                   22980083.8164
        42.7504         44.0004
  -8618268.18646  -7958178.14245  23431570.7424                   23431562.6684
        39.2504         35.0004
  -1485740.08555  -1369560.89054  24952022.1724                   24952015.6214
        31.0004         26.7504
 -19313286.57948 -21335446.21649  20512601.4454                   20512592.2584
        53.7504         54.7504
 23  1  5  1  3 30.0000000  0 12G24G23G27G08G22G21G10G12G31G01G25G32
  -5572388.25845  -4873328.71243  24194736.3674                   24194729.3484
        31.5004         19.0004
  -5409844.62147  -6305327.57645  23056491.8754                   23056481.5744
        43.5004         30.5004
                                  25441620.5554                   25441612.6564
        25.7504         22.2504
  -2971510.33346  -2265942.21545  24699307.1954                   24699298.5944
        36.0004         32.0004
 -15518521.28647 -11835679.77546  21062931.4614                   21062920.5164
        46.5004         38.5004
 -17258925.21947 -12448332.43345  22615488.7034                   22615476.9964
        44.7504         34.2504
 -25988134.52748 -20508275.71949  20878156.6414                   20878147.8634
        50.7504         54.7504
  -1788247.55645  -1375327.50742  25269844.7034                   25269834.1684
        34.0004         17.2504
 -11879844.65347  -9228055.28647  22958689.8284                   22958679.4104
        42.5004         44.5004
  -8712719.97546  -8031776.92445  23413597.4694                   23413589.3364
        39.2504         35.7504
                                  24936502.8984                   24936495.1174
        33.0004         27.5004
 -19305083.66548 -21329054.33249  20514162.6644                   20514153.5354
        53.5004         55.0004
 23  1  5  1  4  0.0000000  0 12G24G23G27G08G22G21G10G12G31G01G25G32
  -5470789.14845  -4794160.61443  24214070.4384                   24214062.4224
        32.2504         18.5004
  -5327544.86047  -6241197.91944  23072152.8204                   23072142.5784
        43.5004         29.5004
                                  25459170.4224                   25459159.2424
        34.0004         22.5004
  -2897444.30846  -2208228.40045  24713402.4144                   24713392.4654
        37.7504         32.0004
 -15560029.29347 -11868023.65246  21055032.5164                   21055021.8634
        47.5004         38.5004
 -17304400.40147 -12483767.64945  22606835.6254                   22606823.4494
        46.0004         34.5004
 -25952894.82848 -20480816.22549  20884862.9144                   20884853.9024
        50.5004         55.0004
  -1850418.70246  -1423772.53542  25258014.2974                   25258003.1174
        36.5004         16.2504
 -11992125.01947  -9315546.47147  22937324.0164                   22937313.0124
        42.7504         44.5004
  -8806847.04946  -8105122.67945  23395685.7274                   23395677.5944
        38.7504         35.5004
                                  24921009.0864                   24921000.9534
        33.5004         26.5004
 -19296525.22948 -21322385.42249  20515791.2894                   20515782.3364
        53.0004         55.0004
 23  1  5  1  4 30.0000000  0 12G24G23G27G08G22G21G10G12G31G01G25G32
  -5368907.46545  -4714772.26343  24233459.2894                   24233450.2194
        33.0004         19.5004
  -5245042.65547  -6176910.53644  23087852.7584                   23087842.4574
        43.5004         29.0004
                                  25476696.672
        26.750
  -2823176.37945  -2150357.25445  24727532.3754                   24727525.4144
        34.2504         31.2504
 -15601198.94347 -11900103.88446  21047198.0084                   21047187.2384
        46.7504         38.7504
 -17349464.29747 -12518882.38145  22598259.7734                   22598247.2464
        46.2504         35.0004
 -25917323.24948 -20453098.12249  20891632.0004                   20891622.8134
        51.7504         54.7504
  -1912260.21746  -1471960.71643  25246245.9454                   25246234.9414
        36.2504         18.2504
 -12104196.21547  -9402874.66047  22915997.8204                   22915986.4064
        43.0004         44.5004
  -8900644.07146  -8178211.23645  23377836.0554                   23377828.3324
        38.5004         34.7504
  -1729994.86855  -1559888.52854  24905542.3524                   24905535.9184
        31.0004         26.0004
 -19287609.52248 -21315438.11849  20517488.0784                   20517478.7154
        53.5004         54.7504
 23  1  5  1  5  0.0000000  0 12G24G23G27G08G22G21G10G12G31G01G25G32
  -5266748.66545  -4635168.02942  24252898.6414                   24252889.8634
        33.5004         17.2504
  -5162341.34947  -6112467.98944  23103590.1024                   23103580.3284
        43.5004         29.5004
    462891.96255  -5096237.23754  25494219.5004                   25494209.3164
        31.7504         26.7504
  -2748711.91845  -2092333.00645  24741702.4224                   24741696.0474
        33.7504         31.7504
 -15642033.13247 -11931922.71046  21039427.6094                   21039416.9574
        47.2504         38.7504
 -17394117.88447 -12553677.39045  22589762.0234                   22589750.4924
        44.5004         34.0004
 -25881422.50248 -20425123.52649  20898463.9144                   20898454.7274
        51.2504         54.7504
  -1973772.99445  -1519892.72542  25234540.2424                   25234529.7074
        35.5004         16.7504
 -12216057.80247  -9490039.52247  22894710.9224                   22894699.9184
        43.0004         44.5004
  -8994110.90646  -8251042.54745  23360050.2034                   23360042.4804
        37.7504         35.2504
                                  24890104.0084                   24890097.3404
        32.2504         27.0004
 -19278340.23648 -21308215.29549  20519251.7114                   20519242.5824
        52.7504         54.7504
 23  1  5  1  5 30.0000000  0 12G24G23G27G08G22G21G10G12G31G01G25G32
  -5164306.78545  -4555343.16043  24272393.1804                   24272383.7584
        35.2504         19.2504
  -5079432.40147  -6047863.64244  23119366.6644                   23119356.3634
        43.0004         29.7504
                                  25511722.9694                   25511714.3674
        30.5004         22.7504
  -2674045.15945  -2034151.15745  24755911.4774                   24755904.3404
        34.7504         31.2504
 -15682522.63948 -11963472.95546  21031723.0314                   21031712.2034
        48.0004         39.0004
 -17438351.34047 -12588145.00645  22581344.4144                   22581333.1764
        44.5004         33.7504
 -25845183.28848 -20396885.19049  20905359.4774                   20905350.5824
        50.7504         54.7504
  -2034944.97355  -1567559.12253  25222898.3594                   25222889.8754
        33.7504         18.2504
 -12327697.91847  -9577031.81347  22873466.4924                   22873455.7234
        43.0004         44.7504
  -9087235.66946  -8323607.26245  23342329.1564                   23342321.3754
        38.0004         34.5004
  -1892094.75055  -1686200.10754  24874695.8284                   24874688.3404
        31.5004         28.7504
 -19268709.23448 -21300710.62149  20521084.3054                   20521075.2934
        53.7504         55.0004
 23  1  5  1  6  0.0000000  0 12G24G23G27G08G22G21G10G12G31G01G25G32
  -5061594.06845  -4475307.34043  24291939.5004                   24291930.0204
        34.7504         20.0004
  -4996325.93247  -5983105.39244  23135182.1334                   23135171.5394
        42.5004         29.5004
                                  25529212.1564                   25529203.7894
        31.2504         24.7504
  -2599188.74645  -1975821.46045  24770155.7344                   24770149.5944
        34.2504         31.2504
 -15722677.54347 -11994762.47346  21024081.6884                   21024070.8594
        47.7504         39.0004
 -17482172.56847 -12622291.42645  22573007.3134                   22572994.3754
        47.0004         34.5004
 -25808614.81148 -20368390.28649  20912318.6804                   20912309.3754
        50.7504         54.7504
  -2095782.56345  -1614965.03443  25211319.9144                   25211313.0124
        32.2504         18.5004
 -12439122.79447  -9663856.36647  22852263.1174                   22852251.9384
        42.7504         44.5004
  -9180025.01646  -8395910.65945  23324672.5784                   23324664.0944
        38.2504         35.5004
  -1972912.99745  -1749175.29444  24859317.1804                   24859309.8094
        33.2504         29.2504
 -19258727.03948 -21292932.28649  20522983.9774                   20522974.6724
        53.5004         55.0004
 23  1  5  1  6 30.0000000  0 12G24G23G27G08G22G21G10G12G31G01G25G32
  -4958609.99245  -4395060.00142  24311536.5234                   24311527.0434
        33.0004         17.7504
  -4913018.96047  -5918190.89744  23151035.5864                   23151025.2274
        43.0004         29.2504
                                  25546683.3444                   25546677.6724
        30.5004         25.0004
  -2524142.25245  -1917343.70145  24784437.4844                   24784429.5274
        35.0004         31.5004
 -15762494.33647 -12025788.53446  21016504.6174                   21016493.9654
        47.5004         39.2504
 -17525576.43147 -12656112.62345  22564747.1024                   22564734.9264
        46.0004         34.7504
 -25771713.11248 -20339635.71949  20919340.7424                   20919331.7894
        51.5004         55.0004
  -2156279.17045  -1662105.23142  25199809.7344                   25199800.4304
        35.5004         16.2504
 -12550326.22647  -9750508.38847  22831101.1094                   22831091.2194
        42.5004         44.5004
  -9272472.64246  -8467947.74045  23307079.8594                   23307071.7854
        38.2504         35.0004
  -2053572.23455  -1812026.63554  24843967.3204                   24843960.4774
        32.5004         27.2504
 -19248391.04048 -21284878.25649  20524950.9924                   20524941.5124
        53.5004         55.0004
 23  1  5  1  7  0.0000000  0 12G24G23G27G08G22G21G10G12G31G01G25G32
  -4855360.16545  -4314605.63643  24331184.1724                   24331175.1024
        34.5004         19.7504
  -4829514.80247  -5853122.76944  23166924.5634                   23166914.6134
        42.5004         28.5004
    830338.05654  -4821835.01253  25564140.1884                   25564132.0554
        28.2504         22.7504
  -2448910.72945  -1858721.71645  24798751.8834                   24798745.9774
        34.7504         31.7504
 -15801975.54147 -12056553.09646  21008991.4304                   21008980.7774
        47.5004         39.2504
 -17568564.16647 -12689609.54845  22556565.6484                   22556554.6454
        45.2504         34.0004
 -25734480.99448 -20310623.68449  20926425.6804                   20926416.4344
        51.2504         55.0004
  -2216434.82245  -1708979.80542  25188361.8204                   25188352.3984
        34.2504         15.5004
 -12661307.93447  -9836987.62547  22809982.7114                   22809971.6484
        43.0004         45.0004
  -9364578.32446  -8539718.39245  23289552.6024                   23289544.5864
        38.2504         35.0004
  -2134071.94645  -1874753.68744  24828648.0704                   24828641.2274
        32.2504         28.5004
 -19237705.01348 -21276551.49349  20526984.2504                   20526975.2384
        53.2504         54.7504
 23  1  5  1  7 30.0000000  0 12G24G23G27G08G22G21G10G12G31G01G25G32
  -4751842.86245  -4233942.80143  24350882.7034                   24350873.6334
        34.0004         19.7504
  -4745809.37247  -5787897.78144  23182853.7504                   23182843.2734
        42.5004         28.0004
    921985.76055  -4750421.23854  25581583.9694                   25581572.6724
        34.0004         26.7504
  -2373493.03145  -1799954.68245  24813104.8284                   24813097.8094
        34.0004         32.0004
 -15841116.63347 -12087052.63346  21001543.3984                   21001532.7464
        47.2504         40.0004
 -17611129.76247 -12722777.53945  22548466.7584                   22548454.7584
        45.0004         34.2504
 -25696913.49848 -20281350.31649  20933574.7814                   20933565.5944
        51.5004         54.7504
  -2276241.99145  -1755582.78342  25176982.1414                   25176972.2504
        32.7504         17.2504
 -12772059.96747  -9923287.89647  22788907.3674                   22788896.3054
        43.2504         44.7504
  -9456334.60546  -8611216.78645  23272091.7814                   23272083.8244
        38.0004         35.5004
  -2214404.13545  -1937350.19144  24813361.3524                   24813354.4494
        33.0004         27.5004
 -19226665.15848 -21267949.00649  20529084.9304                   20529076.0354
        53.0004         54.7504
 23  1  5  1  8  0.0000000  0 12G24G23G27G08G22G21G10G12G31G01G25G32
  -4648063.01845  -4153075.37543  24370630.2194                   24370621.9694
        32.2504         18.5004
  -4661905.42047  -5722518.10844  23198820.3834                   23198809.9654
        42.7504         28.5004
   1013542.65455  -4679078.12853  25599003.3754                   25598996.0634
        31.5004         23.0004
  -2297894.37345  -1741046.62545  24827490.9384                   24827482.9804
        34.7504         32.0004
 -15879920.78247 -12117289.62346  20994159.4694                   20994148.2304
        47.2504         39.5004
 -17653274.10247 -12755617.27845  22540446.2424                   22540434.8284
        44.2504         34.2504
 -25659012.51548 -20251817.10349  20940787.1254                   20940777.8794
        51.7504         54.7504
  -2335699.65845  -1801913.42842  25165666.2894                   25165657.9224
        33.7504         17.7504
 -12882581.39247 -10009408.47947  22767875.4924                   22767864.6644
        42.7504         44.2504
  -9547740.83046  -8682442.40146  23254697.8364                   23254689.8794
        38.5004         36.2504
  -2294567.63045  -1999815.24444  24798106.1484                   24798100.3014
        32.7504         27.7504
 -19215274.71548 -21259073.32749  20531252.6804                   20531243.7854
        53.0004         55.0004
 23  1  5  1  8 30.0000000  0 12G24G23G27G08G22G21G10G12G31G01G25G32
  -4544020.00045  -4072002.90543  24390430.3674                   24390421.2384
        34.5004         19.0004
  -4577799.99447  -5656981.44944  23214824.2814                   23214815.1524
        42.5004         28.5004
                                  25616407.4694                   25616401.0944
        27.5004         22.5004
  -2222113.51145  -1681996.57845  24841911.5944                   24841904.5744
        35.0004         31.7504
 -15918383.71548 -12147260.70946  20986839.7974                   20986829.0864
        48.5004         39.2504
 -17694992.18447 -12788124.87645  22532507.6094                   22532496.1954
        45.0004         34.7504
 -25620774.32448 -20222021.11649  20948063.3524                   20948054.3404
        51.2504         54.7504
  -2394801.84345  -1847967.02643  25154420.2664                   25154411.4884
        35.0004         18.2504
 -12992865.78847 -10095344.35847  22746889.5234                   22746877.9344
        43.5004         45.0004
  -9638790.51446  -8753390.19946  23237372.2274                   23237363.6254
        39.0004         36.7504
  -2374555.76945  -2062143.61844  24782885.6094                   24782879.7034
        31.7504         28.0004
 -19203530.97048 -21249922.36149  20533487.9384                   20533478.1644
        53.2504         55.0004
 23  1  5  1  9  0.0000000  0 12G24G23G27G08G22G21G10G12G31G01G25G32
  -4439723.48845  -3990732.93143  24410277.1884                   24410268.1174
        33.0004         19.2504
  -4493500.28447  -5591293.41244  23230866.9384                   23230856.4024
        42.5004         28.2504
                                  25633794.1254                   25633787.0474
        30.2504         24.2504
  -2146161.02245  -1622812.80045  24856365.6484                   24856358.3954
        34.5004         31.2504
 -15956512.41847 -12176971.36946  20979584.5784                   20979573.4574
        47.5004         39.5004
 -17736289.41047 -12820304.53345  22524649.6564                   22524637.3634
        46.0004         34.5004
 -25582205.41248 -20191967.43749  20955402.8984                   20955393.7114
        51.7504         55.0004
  -2453552.11145  -1893746.49143  25143240.1954                   25143231.4184
        33.7504         18.2504
 -13102916.84647 -10181098.41347  22725947.5784                   22725936.2814
        44.5004         45.0004
  -9729487.62946  -8824063.25946  23220113.4064                   23220105.0984
        39.0004         37.2504
  -2454371.79945  -2124337.89344  24767698.8524                   24767690.8364
        33.5004         28.5004
 -19191441.68048 -21240502.12649  20535787.8204                   20535778.9844
        53.2504         54.7504
 23  1  5  1  9 30.0000000  0 12G24G23G27G08G22G21G10G12G31G01G25G32
  -4335176.62345  -3909267.81143  24430172.7274                   24430162.7774
        34.2504         20.5004
  -4409007.31747  -5525454.76144  23246945.2664                   23246934.5554
        42.2504         28.5004
   1287641.63545  -4465494.48543  25651161.7504                   25651154.3794
        31.0004         22.2504
  -2070039.73945  -1563497.51845  24870850.2194                   24870842.6724
        34.2504         32.5004
 -15994307.61048 -12206422.15846  20972392.2734                   20972381.5634
        48.0004         39.5004
 -17777164.70447 -12852155.40745  22516870.9384                   22516859.1724
        46.0004         35.0004
 -25543306.06248 -20161656.26149  20962805.2424                   20962795.9964
        51.0004         54.7504
  -2511948.01645  -1939249.76342  25132126.4384                   25132118.7154
        32.2504         16.2504
 -13212731.62747 -10266668.35747  22705050.5084                   22705038.9184
        44.0004         45.5004
  -9819829.60846  -8894459.59946  23202921.5394                   23202913.2304
        40.5004         37.0004
                                  24752541.1484                   24752534.9494
        31.7504         27.0004
 -19179008.15548 -21230813.66449  20538153.9144                   20538144.2584
        52.2504         55.5004
 23  1  5  1 10  0.0000000  0 12G24G23G27G08G22G21G10G12G31G01G25G32
  -4230375.05745  -3827604.29343  24450114.0394                   24450105.9064
        33.7504         18.5004
  -4324314.48647  -5459460.39444  23263061.8134                   23263051.3364
        42.5004         29.5004
   1378808.52155  -4394455.38354  25668511.5474                   25668503.1804
        32.0004         25.5004
  -1993745.68345  -1504047.59145  24885368.8054                   24885361.1994
        34.2504         32.7504
 -16031762.08448 -12235607.45046  20965264.7894                   20965253.6094
        48.0004         39.7504
 -17817609.36547 -12883670.72745  22509174.2814                   22509162.7504
        46.2504         34.7504
 -25504068.53048 -20131081.57049  20970272.1414                   20970262.7194
        50.5004         54.7504
  -2569979.51245  -1984469.12942  25121082.5474                   25121075.9964
        32.2504         15.5004
 -13322299.92447 -10352046.24247  22684199.8364                   22684188.8914
        43.7504         46.0004
  -9909806.43546  -8964571.39946  23185799.1724                   23185790.9804
        39.5004         38.0004
                                  24737421.6254                   24737415.4844
        31.5004         27.7504
 -19166224.17448 -21220852.11549  20540586.5004                   20540577.6054
        51.5004         55.0004
 23  1  5  1 10 30.0000000  0 12G24G23G27G08G22G21G10G12G31G01G25G32
  -4125325.16345  -3745747.22042  24470104.7344                   24470095.4884
        33.7504         17.7504
  -4239425.72746  -5393313.33944  23279215.2974                   23279205.4064
        41.5004         28.7504
   1469871.48255  -4323497.16754  25685840.1804                   25685831.6954
        32.2504         25.2504
  -1917284.90145  -1444467.77645  24899916.5394                   24899911.6334
        33.2504         32.2504
 -16068879.39847 -12264530.00746  20958201.9694                   20958190.7894
        47.7504         40.0004
 -17857625.66847 -12914852.25345  22501559.7664                   22501548.1764
        44.5004         34.7504
 -25464496.48648 -20100246.22149  20977802.1564                   20977793.0864
        51.0004         55.0004
  -2627647.19245  -2029404.97242  25110110.8054                   25110101.7934
        33.7504         15.5004
 -13431622.45947 -10437232.62047  22663396.4614                   22663385.6914
        43.7504         46.0004
  -9999418.59846  -9034399.02846  23168746.8914                   23168738.4064
        40.5004         38.0004
  -2692739.41955  -2310078.87554  24722337.3444                   24722330.3834
        32.0004         28.7504
 -19153094.09548 -21210620.87849  20543085.2424                   20543075.5864
        52.5004         54.7504
 23  1  5  1 11  0.0000000  0 12G24G23G27G08G22G21G10G12G31G01G25G32
  -4020028.95845  -3663698.28143  24490141.0234                   24490133.5354
        33.7504         19.0004
  -4154341.01646  -5327013.61544  23295406.3204                   23295396.4304
        41.2504         28.7504
   1560828.42145  -4252621.60544  25703148.5084                   25703139.6724
        31.7504         24.2504
  -1840660.29045  -1384760.24945  24914499.5004                   24914492.4804
        34.0004         32.0004
 -16105659.17948 -12293189.56746  20951202.9614                   20951191.4884
        48.2504         40.2504
 -17897211.41847 -12945698.29745  22494026.7664                   22494014.9414
        46.7504         35.2504
 -25424588.84248 -20069149.37549  20985396.0394                   20985387.0864
        51.5004         54.7504
  -2684947.24945  -2074054.33242  25099208.0004                   25099198.2274
        35.7504         17.2504
 -13540695.41547 -10522224.51847  22642641.2814                   22642629.8674
        44.2504         46.2504
 -10088662.70146  -9103939.88146  23151764.6564                   23151755.9964
        41.0004         39.0004
  -2771820.93445  -2371700.80044  24707289.0314                   24707282.2464
        33.0004         29.5004
 -19139618.25348 -21200120.21449  20545649.6334                   20545640.3284
        52.0004         54.7504
 23  1  5  1 11 30.0000000  0 12G24G23G27G08G22G21G10G12G31G01G25G32
  -3914492.26645  -3581461.88743  24510225.2584                   24510216.6564
        34.7504         20.0004
  -4069063.63447  -5260563.75144  23311634.6644                   23311624.0124
        42.2504         28.5004
   1651674.26245  -4181832.67443  25720436.8444                   25720427.8324
        33.5004         22.7504
  -1763876.52645  -1324928.76245  24929110.8444                   24929103.7074
        34.5004         32.0004
 -16142104.28148 -12321588.33146  20944267.6884                   20944256.4494
        48.7504         40.2504
 -17936368.33647 -12976210.17845  22486575.5234                   22486563.9924
        46.5004         35.2504
 -25384348.00848 -20037792.89049  20993053.8054                   20993044.9694
        51.5004         55.0004
  -2741879.94845  -2118417.44742  25088373.2504                   25088363.6524
        35.7504         17.7504
 -13649518.36047 -10607021.60247  22621932.5394                   22621921.3014
        44.2504         46.2504
 -10177538.51246  -9173193.73946  23134851.6094                   23134843.7114
        40.2504         38.7504
  -2850712.60845  -2433174.81945  24692276.7584                   24692269.9734
        33.5004         30.5004
 -19125800.32648 -21189352.99649  20548279.2894                   20548269.9264
        52.5004         55.0004
 23  1  5  1 12  0.0000000  0 12G24G23G27G08G22G21G10G12G31G01G25G32
  -3808715.82345  -3499038.64943  24530352.8594                   24530344.3164
        33.5004         19.5004
  -3983592.29146  -5193962.71544  23327898.8524                   23327889.0204
        41.2504         29.0004
   1742408.02545  -4111130.96043  25737701.7504                   25737693.9104
        32.5004         23.5004
  -1686935.09045  -1264974.40045  24943752.4774                   24943745.4574
        35.2504         32.2504
 -16178213.01548 -12349724.98546  20937396.1884                   20937385.0084
        48.2504         40.5004
 -17975092.89247 -13006385.15345  22479206.7734                   22479195.0084
        45.5004         34.7504
 -25343772.11948 -20006175.33049  21000774.8444                   21000766.4184
        51.0004         54.7504
  -2798440.61545  -2162490.70343  25077609.8984                   25077600.6524
        34.7504         19.0004
 -13758086.40247 -10691620.06947  22601272.6804                   22601261.2074
        44.5004         46.5004
 -10266041.34246  -9242156.97346  23118010.0944                   23118001.6094
        40.2504         39.2504
  -2929409.43945  -2494497.01844  24677301.2034                   24677292.9534
        33.2504         28.2504
 -19111639.35248 -21178318.46649  20550973.8364                   20550964.6484
        51.5004         55.2504
 23  1  5  1 12 30.0000000  0 11G24G23G08G22G21G10G12G31G01G25G32
  -3702701.30645  -3416429.99443  24550528.5784                   24550519.6844
        35.0004         20.7504
  -3897926.28346  -5127210.03644  23344200.6254                   23344191.0864
        41.7504         28.0004
  -1609838.47845  -1204899.06245  24958424.1174                   24958416.2774
        35.2504         32.5004
 -16213984.34348 -12377598.73546  20930589.1884                   20930577.6564
        48.5004         40.2504
 -18013382.23247 -13036221.00145  22471920.7584                   22471908.6414
        46.0004         35.0004
 -25302859.57748 -19974295.44849  21008560.5394                   21008551.5864
        51.5004         54.7504
  -2854625.01945  -2206270.77342  25066919.7584                   25066909.4574
        34.0004         16.7504
 -13866395.20147 -10776016.52147  22580662.1724                   22580651.2854
        45.0004         46.7504
 -10354167.07046  -9310826.35746  23101240.3594                   23101232.3444
        40.2504         39.0004
  -3007906.66845  -2555663.67244  24662363.3524                   24662355.2194
        33.0004         28.2504
 -19097135.04148 -21167016.40349  20553734.1024                   20553724.9734
        51.7504         55.0004
 23  1  5  1 13  0.0000000  0 12G24G23G27G08G22G21G10G12G31G01G25G32
  -3596455.86145  -3333641.33942  24570745.3134                   24570736.8284
        32.5004         17.2504
  -3812070.68847  -5060309.60744  23360538.8914                   23360528.2974
        42.0004         29.0004
   1923530.28555  -3992583.45454  25772168.8054                   25772159.9694
        31.7504         26.0004
  -1532592.86845  -1144707.68545  24973121.8754                   24973115.4414
        33.7504         31.7504
 -16249422.79547 -12405213.10546  20923845.7274                   20923834.1374
        47.2504         40.2504
 -18051239.89547 -13065720.47745  22464716.7274                   22464704.1994
        45.0004         35.5004
 -25261614.61648 -19942156.52649  21016409.0314                   21016400.3714
        50.5004         54.7504
  -2910434.80245  -2249758.88242  25056298.4534                   25056289.4414
        34.7504         17.2504
 -13974446.16447 -10860212.06747  22560100.4064                   22560089.6374
        44.2504         46.2504
 -10441917.26646  -9379203.10746  23084542.2114                   23084533.8444
        40.0004         39.5004
  -3086205.64945  -2616675.82444  24647463.9144                   24647456.0164
        34.5004         28.0004
 -19082292.87848 -21155451.07349  20556557.9454                   20556549.0514
        50.5004         54.7504
 23  1  5  1 13 30.0000000  0 12G24G23G27G08G22G21G10G12G31G01G25G32
  -3489977.95045  -3250671.50843  24591007.4144                   24590999.1644
        34.7504         19.5004
  -3726021.56347  -4993258.38444  23376913.4924                   23376903.1914
        42.0004         29.0004
   2013912.26845  -3922155.97944  25789366.5004                   25789359.5394
        33.5004         27.5004
  -1455197.40546  -1084399.53145  24987851.3364                   24987843.4964
        36.5004         33.2504
 -16284523.97148 -12432564.64746  20917165.2974                   20917154.4694
        48.2504         40.5004
 -18088660.22447 -13094879.18446  22457595.7894                   22457583.5554
        47.0004         36.0004
 -25220032.49748 -19909754.88149  21024322.1174                   21024313.2814
        50.0004         54.7504
  -2965862.78146  -2292949.50642  25045751.7974                   25045740.6764
        36.5004         16.2504
 -14082231.66647 -10944200.75747  22539590.2584                   22539578.5514
        44.5004         46.2504
 -10529284.54546  -9447281.48246  23067916.1094                   23067908.2704
        40.5004         39.0004
  -3164298.45645  -2677527.36844  24632603.2194                   24632595.9064
        34.5004         28.5004
 -19067109.23548 -21143619.66149  20559447.4304                   20559438.5354
        50.2504         55.0004
 23  1  5  1 14  0.0000000  0 11G24G23G08G22G21G10G12G31G01G25G32
  -3383270.52445  -3167522.92243  24611312.7894                   24611304.7154
        33.5004         19.0004
  -3639779.73347  -4926057.00544  23393324.9534                   23393314.5944
        42.5004         29.5004
  -1377655.17745  -1023977.00445  25002605.2814                   25002599.0824
        34.5004         32.7504
 -16319288.34448 -12459653.74046  20910550.0944                   20910539.1484
        49.0004         40.5004
 -18125642.01247 -13123696.15645  22450557.9224                   22450545.9224
        46.0004         35.7504
 -25178113.40648 -19877090.66949  21032298.7114                   21032289.8754
        51.0004         54.7504
  -3020905.96646  -2335840.24342  25035278.7814                   25035267.1914
        37.5004         17.2504
 -14189748.80447 -11027980.33347  22519129.8674                   22519119.0984
        44.2504         46.2504
 -10616266.37846  -9515059.51746  23051365.2734                   23051356.8484
        41.0004         39.7504
  -3242182.02755  -2738215.86454  24617781.8914                   24617775.6334
        33.5004         29.2504
 -19051585.33348 -21131523.10449  20562401.3754                   20562392.3634
        50.7504         55.0004
 23  1  5  1 14 30.0000000  0 11G24G23G08G22G21G10G12G31G01G25G32
  -3276339.24845  -3084199.83243  24631662.6484                   24631653.1684
        34.5004         21.0004
  -3553348.53746  -4858708.05944  23409771.8754                   23409761.3984
        41.2504         27.5004
  -1299971.90745   -963444.57945  25017388.3364                   25017381.7274
        34.2504         32.0004
 -16353718.92547 -12486482.76546  20903998.3204                   20903986.9654
        47.2504         40.7504
 -18162186.22347 -13152172.16245  22443603.9534                   22443591.7194
        45.0004         35.7504
 -25135859.86048 -19844165.83249  21040339.6724                   21040330.0164
        52.0004         54.7504
  -3075564.79245  -2378431.49542  25024875.5234                   25024865.7504
        34.5004         16.7504
 -14296997.45047 -11111550.69447  22498721.0084                   22498709.9454
        44.5004         46.5004
 -10702862.60146  -9582537.08346  23034885.0554                   23034877.3914
        40.5004         39.2504
  -3319855.91545  -2798740.93044  24603000.1414                   24602993.5904
        33.0004         28.5004
 -19035724.87748 -21119164.30049  20565419.5864                   20565410.3984
        51.5004         55.2504
 23  1  5  1 15  0.0000000  0 11G24G23G08G22G21G10G12G31G01G25G32
  -3169186.04045  -3000703.83743  24652050.0864                   24652044.2384
        32.2504         18.5004
  -3466727.77247  -4791211.40344  23426255.6024                   23426245.1844
        42.0004         28.7504
  -1222149.28846   -902803.54245  25032198.0634                   25032191.0434
        36.5004         32.7504
 -16387815.07948 -12513051.19146  20897510.2274                   20897499.1644
        48.7504         40.5004
 -18198291.29547 -13180305.99146  22436733.8284                   22436722.0634
        47.0004         36.5004
 -25093271.08148 -19810979.78649  21048443.8834                   21048434.8134
        51.2504         54.7504
  -3129835.38746  -2420720.24942  25014548.8204                   25014537.1724
        36.5004         16.7504
 -14403973.84547 -11194908.90847  22478363.7894                   22478352.8444
        44.5004         46.2504
 -10789069.67946  -9649711.42746  23018481.1254                   23018472.6414
        41.2504         39.2504
  -3397315.99345  -2859099.40744  24588260.3204                   24588254.9414
        34.5004         29.7504
 -19019528.08448 -21106543.41649  20568501.8834                   20568492.3444
        51.2504         55.0004
 23  1  5  1 15 30.0000000  0 11G24G23G08G22G21G10G12G31G01G25G32
  -3061812.98845  -2917036.55443  24672485.5394                   24672476.3524
        34.5004         20.5004
  -3379917.47246  -4723567.02944  23442774.9924                   23442764.6914
        41.5004         28.7504
  -1144190.25845   -842056.23245  25047032.7894                   25047026.0634
        33.5004         31.7504
 -16421576.36548 -12539358.67246  20891085.4614                   20891074.4574
        48.5004         41.0004
 -18233955.12547 -13208095.98846  22429946.8984                   22429934.8404
        46.5004         36.0004
 -25050346.13048 -19777531.79549  21056611.8134                   21056603.6214
        51.5004         54.7504
  -3183714.49646  -2462703.97242  25004296.1804                   25004284.4144
        36.0004         16.2504
 -14510674.10247 -11278051.96347  22458059.8364                   22458048.6564
        44.0004         46.2504
 -10874884.02246  -9716579.74546  23002150.4774                   23002143.1644
        40.2504         40.0004
  -3474558.13645  -2919288.10844  24573561.2504                   24573554.2894
        35.0004         29.7504
 -19002995.23548 -21093660.66549  20571647.4844                   20571638.7074
        51.5004         55.5004
 23  1  5  1 16  0.0000000  0 11G24G23G08G22G21G10G12G31G01G25G32
  -2954223.41845  -2833200.52843  24692957.1484                   24692949.3674
        33.0004         19.7504
  -3292918.43946  -4655775.64344  23459330.0944                   23459320.3204
        41.2504         28.5004
  -1066097.76245   -781204.90745  25061893.8914                   25061886.5784
        35.2504         33.0004
 -16455003.60648 -12565405.86346  20884724.6174                   20884713.3794
        48.7504         40.7504
 -18269176.73847 -13235541.40745  22423244.4844                   22423232.7194
        47.2504         35.7504
 -25007085.06148 -19743821.88649  21064844.6564                   21064835.4694
        50.2504         55.0004
  -3237199.72945  -2504380.80542  24994117.3674                   24994107.4774
        35.0004         17.2504
 -14617095.30847 -11360977.56047  22437808.6564                   22437797.2424
        44.7504         46.5004
 -10960303.16046  -9783140.10746  22985896.7504                   22985887.9734
        40.7504         39.7504
  -3551579.55245  -2979304.78244  24558902.9774                   24558896.8954
        34.2504         28.7504
 -18986127.64348 -21080517.08749  20574857.8134                   20574848.6254
        50.5004         54.7504
 23  1  5  1 16 30.0000000  0 11G24G23G08G22G21G10G12G31G01G25G32
  -2846420.18745  -2749198.00843  24713473.0394                   24713464.0274
        35.5004         19.5004
  -3205731.66246  -4587837.93444  23475921.3054                   23475910.9454
        41.2504         27.5004
   -987874.96245   -720252.07045  25076777.4064                   25076771.6764
        34.2504         32.5004
 -16488096.93148 -12591192.85746  20878427.1174                   20878415.9964
        48.7504         41.0004
 -18303955.40847 -13262641.67145  22416626.2424                   22416614.4184
        46.5004         35.7504
 -24963487.94648 -19709850.13049  21073140.8674                   21073131.9144
        51.2504         54.7504
  -3290288.30745  -2545748.49042  24984015.3754                   24984005.0164
        35.7504         16.7504
 -14723234.78847 -11443683.63247  22417610.6564                   22417599.7704
        44.2504         46.5004
 -11045324.48846  -9849390.48846  22969716.6804                   22969709.3674
        40.2504         39.5004
  -3628377.18455  -3039147.07054  24544290.7194                   24544283.9924
        34.5004         29.0004
 -18968926.54048 -21067113.62249  20578130.8444                   20578121.7734
        51.0004         55.0004
 23  1  5  1 17  0.0000000  0 11G24G23G08G22G21G10G12G31G01G25G32
  -2738405.71145  -2665030.90343  24734027.1094                   24734018.5664
        34.0004         19.2504
  -3118357.16146  -4519753.94644  23492548.2974                   23492537.7034
        41.0004         28.0004
   -909524.14946   -659199.47845  25091689.9694                   25091681.1914
        36.2504         32.0004
 -16520856.12248 -12616719.48146  20872193.1414                   20872182.0784
        48.7504         41.0004
 -18338289.32747 -13289395.37545  22410092.1024                   22410080.6884
        45.0004         35.5004
 -24919554.27148 -19675616.11049  21081501.3054                   21081492.2344
        51.5004         54.7504
  -3342977.57946  -2586804.95943  24973989.3134                   24973978.6604
        36.0004         19.0004
 -14829089.32947 -11526167.67447  22397467.2664                   22397456.1454
        45.0004         46.5004
 -11129944.66146  -9915328.27146  22953615.1254                   22953606.6414
        41.0004         40.5004
  -3704947.09945  -3098811.93045  24529722.3984                   24529713.5044
        34.7504         30.0004
 -18951392.39748 -21053450.65249  20581467.2344                   20581458.8094
        51.2504         55.0004
 23  1  5  1 17 30.0000000  0 11G24G23G08G22G21G10G12G31G01G25G32
  -2630183.04445  -2580701.56143  24754621.4454                   24754612.3754
        35.5004         20.5004
  -3030796.07146  -4451524.57644  23509210.3524                   23509200.3444
        40.7504         27.0004
   -831049.06246   -598050.01545  25106623.4924                   25106614.8914
        36.5004         32.2504
 -16553281.80548 -12641986.23646  20866022.5944                   20866011.5314
        48.2504         41.0004
 -18372177.64447 -13315801.85745  22403644.2274                   22403632.4024
        47.0004         35.7504
 -24875284.17848 -19641119.94849  21089925.4534                   21089916.4414
        50.5004         55.0004
  -3395264.79345  -2627548.23742  24964038.1954                   24964029.2424
        35.0004         17.7504
 -14934656.08647 -11608427.45947  22377378.5164                   22377367.5704
        45.2504         46.5004
 -11214161.41046  -9980951.70646  22937588.2734                   22937580.3754
        40.7504         39.7504
  -3781286.57045  -3158297.21345  24515193.9534                   24515186.6994
        35.2504         30.5004
 -18933526.62948 -21039529.26549  20584867.3524                   20584858.1644
        51.0004         55.0004
 23  1  5  1 18  0.0000000  0 11G24G23G08G22G21G10G12G31G01G25G32
  -2521754.80145  -2496212.03242  24775253.5314                   24775245.6914
        32.7504         17.7504
  -2943048.60746  -4383149.97644  23525909.0784                   23525898.1334
        41.2504         26.5004
   -752452.13545   -536805.63145  25121576.8204                   25121571.3244
        32.2504         31.5004
 -16585374.12447 -12666993.21846  20859915.9774                   20859904.6804
        46.7504         40.7504
 -18405618.89447 -13341859.98845  22397280.9384                   22397268.5864
        45.2504         35.7504
 -24830677.26848 -19606361.32949  21098413.7894                   21098404.9534
        51.0004         54.7504
  -3447147.08445  -2667975.90342  24954163.3674                   24954156.2894
        33.7504         17.7504
 -15039931.71647 -11690460.40947  22357345.4064                   22357334.4024
        45.2504         46.7504
 -11297971.45846 -10046258.23346  22921640.5314                   22921632.2234
        41.5004         40.5004
  -3857391.94645  -3217600.13044  24500710.9534                   24500704.4024
        34.5004         29.2504
 -18915329.85648 -21025349.96049  20588329.9064                   20588320.8364
        51.7504         54.7504
 23  1  5  1 18 30.0000000  0 11G24G23G08G22G21G10G12G31G01G25G32
  -2413123.81045  -2411564.54343  24795926.6254                   24795918.4344
        33.2504         20.7504
  -2855115.62246  -4314630.82244  23542641.3284                   23542630.9694
        41.0004         26.7504
   -673736.40445   -475468.72145  25136557.3914                   25136549.7274
        34.7504         31.2504
 -16617133.24947 -12691740.57946  20853872.0704                   20853861.0084
        47.0004         40.7504
 -18438612.05147 -13367568.94446  22391001.6644                   22390990.0744
        44.5004         36.0004
 -24785733.87148 -19571340.51949  21106966.5004                   21106957.6644
        50.5004         55.0004
  -3498621.76345  -2708085.98042  24944369.8284                   24944361.1684
        34.0004         17.7504
 -15144913.19147 -11772264.13747  22337368.2974                   22337357.0594
        45.5004         47.0004
 -11381372.24946 -10111245.84946  22905770.1024                   22905761.2664
        41.0004         40.7504
  -3933260.04945  -3276718.12544  24486275.2114                   24486267.1374
        34.2504         29.7504
 -18896803.27948 -21010913.65349  20591855.3834                   20591846.3714
        51.0004         55.0004
 23  1  5  1 19  0.0000000  0 11G24G23G08G22G21G10G12G31G01G25G32
  -2304293.21245  -2326761.43043  24816635.3674                   24816627.4694
        33.2504         20.2504
  -2766997.99146  -4245967.79144  23559409.8204                   23559399.4614
        40.5004         26.5004
   -594905.26146   -414041.80445  25151560.2504                   25151551.5904
        36.7504         31.2504
 -16648560.07648 -12716228.99746  20847891.9694                   20847880.8484
        48.0004         41.0004
 -18471155.95447 -13392927.82446  22384808.5704                   22384797.2734
        45.5004         36.0004
 -24740453.76948 -19536057.34849  21115583.0314                   21115573.7274
        50.7504         54.7504
  -3549686.59046  -2747876.78142  24934652.8134                   24934643.0394
        36.2504         17.2504
 -15249598.19647 -11853836.85647  22317447.6094                   22317436.2544
        46.2504         47.2504
 -11464361.25846 -10175912.58646  22889976.9304                   22889968.7974
        41.5004         41.0004
  -4008887.85145  -3335648.88845  24471882.5944                   24471875.9844
        34.2504         30.5004
 -18877948.15548 -20996221.34349  20595443.2274                   20595434.4494
        51.0004         55.0004
 23  1  5  1 19 30.0000000  0 11G24G23G08G22G21G10G12G31G01G25G32
  -6921525.67155  -5924604.98353  24837383.6334                   24837375.0904
        32.2504         18.5004
  -2678696.44446  -4177161.42944  23576213.3984                   23576202.8634
        41.0004         26.2504
   -515961.66045   -352527.25645  25166580.9064                   25166573.8874
        33.7504         31.5004
 -16679654.44847 -12740458.36946  20841974.6254                   20841963.6214
        46.5004         41.2504
 -18503249.64447 -13417935.89746  22378702.0084                   22378689.7734
        45.0004         36.2504
 -24694837.16648 -19500511.96349  21124263.5234                   21124254.5704
        51.7504         55.0004
  -3600339.00145  -2787346.17043  24925013.6414                   24925003.9264
        34.2504         19.0004
 -15353983.39647 -11935175.96247  22297583.2814                   22297572.4534
        46.5004         47.5004
 -11546935.66947 -10240256.28846  22874264.9694                   22874256.0744
        42.2504         41.5004
  -4084272.15945  -3394389.88244  24457538.0084                   24457530.8714
        35.0004         29.7504
 -18858765.46348 -20981273.79649  20599093.8134                   20599084.8594
        51.7504         55.0004
 23  1  5  1 20  0.0000000  0 11G24G23G08G22G21G10G12G31G01G25G32
  -6812304.31345  -5839497.35143  24858167.4614                   24858159.2114
        31.7504         19.0004
  -2590211.82246  -4108212.42944  23593050.9844                   23593040.9184
        40.5004         28.5004
   -436908.82445   -290927.63245  25181623.5234                   25181616.4454
        33.5004         31.7504
 -16710417.06947 -12764429.22546  20836120.6174                   20836109.9654
        47.0004         40.5004
 -18534892.38447 -13442592.59345  22372680.3674                   22372668.4844
        46.0004         35.7504
 -24648883.97748 -19464704.29249  21133008.2114                   21132999.5514
        51.0004         54.7504
  -3650576.42745  -2826492.13942  24915454.2424                   24915444.1174
        35.5004         17.2504
 -15458066.01747 -12016279.29447  22277776.4844                   22277765.8914
        46.0004         47.5004
 -11629092.99246 -10304274.94246  22858629.2584                   22858622.0044
        41.0004         41.0004
  -4159409.86145  -3452938.75145  24443240.2814                   24443232.7344
        34.2504         30.2504
 -18839256.44248 -20966071.95149  20602806.4144                   20602797.1094
        51.7504         55.0004
 23  1  5  1 20 30.0000000  0 11G24G23G08G22G21G10G12G31G01G25G32
  -6702887.10755  -5766764.62953  24878987.0704                   24878979.6994
        32.0004         18.5004
  -2501543.16946  -4039120.03544  23609923.7504                   23609914.0354
        40.7504         27.2504
   -357747.59645   -229243.53545  25196686.1334                   25196680.8714
        30.5004         30.5004
 -16740846.41347 -12788140.39346  20830329.6724                   20830319.1954
        46.5004         40.7504
 -18566081.49247 -13466895.79446  22366745.2274                   22366733.6954
        44.7504         36.2504
 -24602592.67048 -19428633.16849  21141817.0084                   21141808.0554
        50.5004         54.7504
  -3700394.67046  -2865311.55942  24905974.5164                   24905962.9844
        36.2504         16.7504
 -15561841.76647 -12097143.49747  22258029.4774                   22258018.0634
        45.5004         47.5004
 -11710828.81247 -10367965.19846  22843076.3284                   22843067.7854
        42.0004         41.5004
  -4234296.16845  -3511291.72544  24428988.4614                   24428981.7934
        34.0004         29.7504
 -18819420.52648 -20950615.39249  20606581.0084                   20606571.9384
        51.5004         55.0004
 23  1  5  1 21  0.0000000  0 11G24G23G08G22G21G10G12G31G01G25G32
  -6593285.88145  -5681361.08343  24899844.5554                   24899836.2464
        33.0004         18.2504
  -2412693.98846  -3969886.96544  23626831.9304                   23626821.6884
        40.7504         27.5004
   -278483.74345   -167479.54044  25211770.8594                   25211764.2504
        33.2504         29.7504
 -16770946.01447 -12811594.62046  20824602.3134                   20824591.6604
        46.7504         41.0004
 -18596818.49347 -13490846.69445  22360895.8444                   22360884.2544
        44.7504         35.7504
 -24555965.65248 -19392300.44649  21150689.7814                   21150680.9454
        50.7504         54.7504
  -3749793.87645  -2903804.41942  24896574.4304                   24896562.4884
        35.5004         16.7504
 -15665310.06947 -12177768.13747  22238339.5234                   22238328.0514
        46.0004         47.5004
 -11792143.20146 -10431327.03646  22827602.2034                   22827594.5394
        40.7504         41.2504
  -4308930.59145  -3569448.44144  24414785.9304                   24414779.2034
        33.0004         29.0004
 -18799261.46148 -20934907.02449  20610417.3134                   20610408.0084
        52.2504         55.0004
 23  1  5  1 21 30.0000000  0 11G24G23G08G22G21G10G12G31G01G25G32
  -6483498.99745  -5595812.88443  24920735.3914                   24920727.5514
        31.5004         19.5004
  -2323663.69246  -3900512.76144  23643773.8204                   23643763.8134
        40.0004         25.7504
   -199119.22045   -105637.00045  25226875.2734                   25226866.6134
        35.5004         30.5004
 -16800714.82647 -12834791.09046  20818938.1024                   20818926.5124
        46.7504         41.2504
 -18627101.40047 -13514443.76846  22355133.7114                   22355121.7114
        45.2504         36.5004
 -24509001.94248 -19355705.36949  21159626.4144                   21159617.4614
        49.7504         54.7504
  -3798770.28445  -2941967.90042  24887251.9224                   24887243.3204
        33.5004         15.5004
 -15768466.76447 -12258149.97447  22218709.0084                   22218698.4734
        45.5004         47.5004
 -11873032.17646 -10494357.39346  22812210.5474                   22812201.4184
        41.7504         41.5004
  -4383308.60045  -3627405.34245  24400632.1414                   24400625.5904
        34.2504         30.0004
 -18778779.06848 -20918946.71949  20614315.0234                   20614305.8364
        51.7504         55.0004
 23  1  5  1 22  0.0000000  0 11G24G23G08G22G21G10G12G31G01G25G32
                                  24941662.6024                   24941655.2894
        33.0004         18.2504
  -2234450.89846  -3830996.34444  23660750.0634                   23660740.4654
        39.2504         26.5004
   -119654.99145    -43716.76545  25241997.6564                   25241988.2934
        35.5004         31.0004
 -16830150.77447 -12857728.18146  20813336.4694                   20813325.2894
        47.0004         40.7504
 -18656926.53347 -13537684.13446  22349458.5474                   22349446.3714
        45.5004         36.5004
 -24461699.30248 -19318846.17649  21168627.8914                   21168619.3484
        50.2504         54.7504
  -3847319.56945  -2979798.48142  24878015.4774                   24878004.7074
        35.0004         16.7504
 -15871306.92347 -12338285.15147  22199139.8204                   22199128.6994
        46.2504         47.7504
 -11953490.91346 -10557052.50346  22796898.5084                   22796890.9614
        41.0004         41.0004
  -4457424.81945  -3685158.24445  24386528.6484                   24386522.7424
        33.0004         30.5004
 -18757972.27248 -20902733.62149  20618274.1024                   20618265.0904
        52.0004         54.7504
 23  1  5  1 22 30.0000000  0 11G24G23G08G22G21G10G12G31G01G25G32
  -7838798.07945  -6651890.12343  24962623.3834                   24962615.6604
        32.0004         19.2504
  -2145061.29446  -3761342.15944  23677760.7034                   23677750.4614
        40.0004         25.5004
    -40099.21045     18274.82345  25257135.8284                   25257126.9924
        35.0004         31.7504
 -16859259.30747 -12880410.14546  20807796.8364                   20807785.5984
        46.2504         41.0004
 -18686298.35847 -13560571.27646  22343868.8914                   22343856.8324
        45.5004         37.0004
 -24414062.60248 -19281726.67949  21177692.9614                   21177684.3594
        49.0004         54.7504
  -3895443.69345  -3017297.76042  24868856.8594                   24868847.7304
        34.5004         17.2504
 -15973832.49947 -12418175.20247  22179629.6954                   22179618.7504
        46.0004         47.7504
 -12033521.66947 -10619414.11546  22781669.2504                   22781661.7624
        42.0004         41.5004
  -4531281.03645  -3742708.55145  24372474.5234                   24372468.6764
        33.7504         30.5004
 -18736847.10948 -20886272.46349  20622294.0164                   20622285.2384
        52.0004         55.0004
 23  1  5  1 23  0.0000000  0 11G24G23G08G22G21G10G12G31G01G25G32
  -7728470.24045  -6565920.36442  24983619.3984                   24983610.2704
        33.0004         16.7504
  -2055491.33246  -3691547.43144  23694805.1564                   23694795.0904
        39.2504         27.0004
     39550.15245     80339.27545  25272291.8914                   25272284.2274
        34.2504         30.5004
 -16888036.57347 -12902833.97246  20802320.2504                   20802310.0084
        47.0004         41.0004
 -18715211.10547 -13583100.69946  22338366.8754                   22338355.1684
        46.0004         36.5004
 -24366087.71648 -19244343.67149  21186822.1724                   21186813.5704
        49.2504         54.5004
  -3943135.74545  -3054460.42242  24859782.4694                   24859771.9924
        35.5004         17.7504
 -16076036.29147 -12497814.52547  22160181.2034                   22160170.0824
        45.5004         47.7504
 -12113117.41946 -10681436.76246  22766522.1884                   22766514.8164
        41.0004         41.0004
  -4604869.75945  -3800050.41645  24358470.5394                   24358464.8094
        33.0004         30.2504
 -18715400.27848 -20869560.64549  20626375.7664                   20626366.4614
        52.0004         55.0004
 23  1  5  1 23 30.0000000  0 11G24G23G08G22G21G10G12G31G01G25G32
  -7617967.33445  -6479814.23643  25004646.7974                   25004638.2544
        33.0004         19.5004
  -1965742.42446  -3621613.27944  23711883.4614                   23711874.3324
        39.0004         26.7504
    119288.99945    142473.50645  25287463.5234                   25287457.4414
        31.0004         30.0004
 -16916483.68547 -12925000.55046  20796907.0164                   20796896.1294
        47.0004         40.7504
 -18743665.39147 -13605272.86246  22332952.3984                   22332940.1054
        45.7504         36.5004
 -24317775.20848 -19206697.57049  21196015.8524                   21196006.8984
        49.0004         54.5004
  -3990394.38946  -3091285.31543  24850790.1484                   24850780.0234
        36.0004         19.0004
 -16177916.24247 -12577201.49848  22140793.9844                   22140782.9224
        45.0004         48.0004
 -12192276.36746 -10743119.05146  22751459.3134                   22751451.1804
        41.5004         41.2504
  -4678188.45745  -3857181.88445  24344519.2734                   24344511.5514
        34.2504         30.7504
 -18693633.68548 -20852599.66449  20630517.6414                   20630508.3954
        51.2504         55.0004
 23  1  5  1 24  0.0000000  0 11G24G23G08G22G21G10G12G31G01G25G32
  -7507292.79045  -6393574.41842  25025705.7194                   25025698.8164
        31.0004         17.2504
  -1875816.31346  -3551541.06644  23728996.1564                   23728986.3244
        39.0004         26.5004
    199113.38945    204674.32644  25302652.5084                   25302647.4844
        30.7504         29.7504
 -16944602.14047 -12946911.02946  20791556.8134                   20791545.9264
        47.0004         40.7504
 -18771660.64947 -13627087.35946  22327624.8984                   22327612.9574
        46.2504         36.5004
 -24269126.18148 -19168789.24949  21205273.4534                   21205264.8524
        49.2504         54.2504
  -4037218.10746  -3127771.34043  24841880.6884                   24841868.2194
        36.7504         19.2504
 -16279470.03047 -12656334.30948  22121469.0474                   22121457.8674
        45.7504         48.0004
 -12270996.61946 -10804459.50646  22736479.9064                   22736471.5984
        41.2504         41.0004
  -4751234.96445  -3914101.25345  24330619.2274                   24330611.3284
        34.0004         30.5004
 -18671549.19448 -20835390.97049  20634719.8674                   20634710.9734
        53.5004         54.7504
 23  1  5  1 24 30.0000000  0 11G24G23G08G22G21G10G12G31G01G25G32
  -7396449.17745  -6307202.73243  25046800.3134                   25046791.9454
        33.2504         18.5004
  -1785713.27246  -3481330.95744  23746143.1804                   23746132.0004
        39.7504         25.0004
  -6022659.60455  -4643460.43555  25317859.2034                   25317853.9414
        31.0004         30.2504
 -16972391.82747 -12968565.31546  20786268.6414                   20786257.4614
        46.5004         40.7504
 -18799194.89247 -13648542.62046  22322385.3754                   22322373.5514
        45.2504         36.5004
 -24220140.31448 -19130618.46149  21214594.8594                   21214586.4344
        49.0004         54.2504
  -4083603.48645  -3163915.82843  24833051.2344                   24833041.8714
        34.7504         19.2504
 -16380694.56347 -12735210.56448  22102206.6954                   22102195.2814
        45.5004         48.2504
 -12349275.17346 -10865455.75746  22721583.8594                   22721575.1414
        41.5004         40.5004
  -4824005.52645  -3970805.59245  24316770.8914                   24316763.8134
        33.7504         30.2504
 -18649147.50448 -20817935.10749  20638982.9224                   20638973.5594
        52.5004         55.0004
 23  1  5  1 25  0.0000000  0 11G24G23G08G22G21G10G12G31G01G25G32
  -7285439.06545  -6220701.34143  25067923.2034                   25067916.9454
        31.5004         18.5004
  -1695434.03646  -3410983.55844  23763322.5234                   23763312.2234
        38.7504         26.2504
  -5942672.02055  -4581132.45855  25333081.2664                   25333074.5394
        33.2504         30.5004
 -16999852.76447 -12989963.43346  20781043.0164                   20781031.7774
        47.0004         41.2504
 -18826268.00747 -13669638.56046  22317233.1564                   22317221.5664
        45.0004         36.5004
 -24170817.23348 -19092184.90849  21223981.0784                   21223972.3594
        50.2504         54.2504
  -4129548.33146  -3199717.01043  24824309.6724                   24824299.2544
        36.2504         19.2504
 -16481586.89847 -12813827.96648  22083006.9534                   22082996.2424
        45.5004         48.2504
 -12427109.27547 -10926105.71846  22706772.4534                   22706764.3794
        42.0004         41.2504
  -4896496.96745  -4027292.41644  24302976.0554                   24302969.2114
        34.2504         29.5004
 -18626429.59948 -20800232.84449  20643306.1724                   20643296.9264
        53.5004         55.0004
 23  1  5  1 25 30.0000000  0 11G24G23G08G22G21G10G12G31G01G25G32
  -7174264.49855  -6134071.86852  25089079.5944                   25089072.4574
        30.0004         16.7504
  -1604978.60546  -3340498.88544  23780535.6414                   23780525.3404
        39.0004         25.5004
  -5862606.92745  -4518744.02645  25348316.5634                   25348310.1294
        32.7504         31.2504
 -17026984.91947 -13011105.36646  20775879.9384                   20775868.8754
        46.5004         41.0004
 -18852877.85647 -13690373.51246  22312169.7894                   22312157.8484
        45.0004         36.2504
 -24121156.75248 -19053488.45149  21233431.2584                   21233422.5394
        50.0004         54.0004
  -4175049.91745  -3235172.78243  24815650.0944                   24815640.0864
        35.5004         18.2504
 -16582143.29547 -12892183.59148  22063872.1414                   22063861.0784
        46.0004         48.5004
 -12504495.68446 -10986406.80346  22692046.0164                   22692038.4694
        41.5004         41.2504
  -4968705.44645  -4083558.78145  24289235.6024                   24289228.4064
        34.2504         31.0004
 -18603395.93248 -20782284.53449  20647689.3754                   20647679.8954
        53.2504         54.7504
 23  1  5  1 26  0.0000000  0 11G24G23G08G22G21G10G12G31G01G25G32
  -7062929.51245  -6047317.40043  25110266.9614                   25110258.8284
        33.0004         18.5004
  -1514349.10146  -3269878.55444  23797782.1334                   23797771.7154
        38.5004         26.2504
  -5782468.18345  -4456298.19345  25363567.0474                   25363560.6724
        33.5004         30.7504
 -17053789.91647 -13031992.36346  20770779.0084                   20770768.1804
        46.2504         41.0004
 -18879024.80047 -13710747.74946  22307194.0164                   22307182.1334
        45.0004         36.7504
 -24071159.77848 -19014529.79649  21242945.1414                   21242936.4224
        48.7504         54.0004
  -4220106.77445  -3270282.03542  24807075.2734                   24807065.8524
        34.5004         16.7504
 -16682362.28047 -12970276.29948  22044800.8524                   22044789.9654
        46.2504         48.5004
 -12581432.91147 -11046357.87046  22677405.9454                   22677397.6954
        42.7504         41.2504
  -5040628.93945  -4139603.06245  24275548.7814                   24275541.5274
        34.0004         31.0004
 -18580048.74448 -20764091.92149  20652132.0234                   20652122.9534
        53.0004         55.0004
 23  1  5  1 26 30.0000000  0 11G24G23G08G22G21G10G12G31G01G25G32
  -6951436.12445  -5960439.35742  25131482.8284                   25131475.1644
        31.2504         16.7504
  -1423545.48546  -3199122.53744  23815061.7194                   23815050.7734
        39.2504         26.2504
  -5702257.77345  -4393796.56645  25378830.4064                   25378823.5044
        33.5004         30.0004
 -17080267.36047 -13052624.12946  20765740.6334                   20765729.3364
        47.5004         41.0004
 -18904707.46147 -13730760.21746  22302306.7504                   22302294.8094
        46.5004         36.5004
 -24020825.69648 -18975308.44949  21252523.8834                   21252514.9304
        49.2504         54.0004
  -4264715.53646  -3305042.11243  24798587.7344                   24798577.2584
        36.0004         19.5004
 -16782240.11747 -13048103.17348  22025794.8364                   22025784.0664
        47.0004         48.5004
 -12657917.62146 -11105956.34646  22662850.7894                   22662843.0664
        41.7504         41.0004
  -5112263.54745  -4195422.22945  24261917.1484                   24261909.5434
        33.5004         30.5004
 -18556388.36248 -20745655.26049  20656634.5634                   20656625.4924
        53.7504         54.7504
 23  1  5  1 27  0.0000000  0 11G24G23G08G22G21G10G12G31G01G25G32
  -6839790.03314                  25152729.547
        29.500
  -1332568.44646  -3128231.40144  23832373.4694                   23832363.4614
        39.5004         25.5004
  -5621978.81055  -4331241.44855  25394107.1094                   25394100.2074
        33.2504         30.5004
 -17106417.68247 -13073000.99746  20760764.2424                   20760753.4144
        46.5004         41.0004
 -18929925.06647 -13750410.30746  22297508.2344                   22297496.5274
        45.5004         36.7504
 -23970154.61648 -18935824.51048  21262165.9534                   21262157.1174
        49.5004         53.7504
  -4308873.97246  -3339451.24942  24790184.3054                   24790173.6524
        36.7504         17.2504
 -16881773.94247 -13125661.98748  22006854.3204                   22006843.6094
        46.0004         48.7504
 -12733947.14646 -11165200.12546  22648382.6414                   22648375.2704
        41.2504         41.7504
  -5183606.00945  -4251013.70945  24248341.9454                   24248334.5744
        34.5004         31.5004
 -18532415.77248 -20726975.32749  20661196.4454                   20661187.2584
        53.2504         54.7504
 23  1  5  1 27 30.0000000  0 11G24G23G08G22G21G10G12G31G01G25G32
  -6727991.35055  -5865917.97652  25174004.6484                   25173997.0434
        30.5004         16.7504
  -1241419.29646  -3057206.17043  23849718.4304                   23849708.5984
        38.5004         23.5004
  -5541634.62845  -4268635.61444  25409395.1804                   25409390.0394
        32.7504         29.7504
 -17132241.78747 -13093123.67346  20755850.3134                   20755839.3094
        47.7504         41.2504
 -18954677.22148 -13769697.70846  22292798.2194                   22292785.9264
        48.0004         36.5004
 -23919146.77348 -18896078.15548  21271872.6954                   21271863.8014
        49.7504         53.7504
  -4352580.10545  -3373507.99443  24781866.2034                   24781856.6054
        34.2504         18.5004
 -16980961.07047 -13202950.64748  21987979.2734                   21987968.3874
        46.0004         48.7504
 -12809519.38046 -11224087.57446  22634002.1174                   22633993.8094
        40.7504         41.0004
  -5254653.75945  -4306375.58345  24234822.4924                   24234815.4144
        34.7504         32.0004
 -18508132.60548 -20708053.37749  20665817.0314                   20665807.9614
        53.0004         54.7504
 23  1  5  1 28  0.0000000  0 11G24G23G08G22G21G10G12G31G01G25G32
  -6616039.50155  -5778682.83652  25195308.4144                   25195300.7504
        31.5004         16.2504
  -1150098.35146  -2986047.05744  23867096.1334                   23867086.5354
        39.7504         24.5004
  -5461227.87745  -4205980.91045  25424694.7424                   25424690.6564
        31.2504         30.0004
 -17157739.50747 -13112992.01446  20750998.2114                   20750987.2074
        46.5004         41.5004
 -18978962.20947 -13788621.07546  22288176.8754                   22288164.9924
        45.2504         37.0004
 -23867802.31248 -18856069.50048  21281643.5314                   21281633.9344
        49.0004         53.5004
  -4395830.93745  -3407209.94342  24773637.0164                   24773625.6604
        35.5004         16.2504
 -17079798.50047 -13279966.81248  21969171.2584                   21969160.6644
        45.7504         49.0004
 -12884631.31246 -11282616.33346  22619708.8914                   22619700.4654
        41.7504         41.5004
  -5325403.08845  -4361504.92645  24221358.9844                   24221351.4964
        33.7504         32.0004
 -18483539.42248 -20688889.86549  20670496.8364                   20670487.9414
        53.0004         54.7504
 23  1  5  1 28 30.0000000  0 11G24G23G08G22G21G10G12G31G01G25G32
  -6503941.73655  -5691333.96653  25216639.0164                   25216631.4104
        31.7504         18.5004
  -1058608.06546  -2914755.99144  23884505.3984                   23884497.0314
        37.7504         25.5004
  -5380763.84355  -4143281.92954  25440010.3594                   25440001.5824
        35.5004         29.2504
 -17182913.05447 -13132607.75446  20746207.6254                   20746196.6804
        47.0004         41.2504
 -19002781.07147 -13807181.22846  22283643.8524                   22283632.2034
        45.0004         37.0004
 -23816122.51748 -18815799.55348  21291477.3834                   21291468.7814
        49.5004         53.5004
  -4438626.29046  -3440556.91342  24765494.8444                   24765481.7304
        37.2504         17.7504
 -17178284.89547 -13356709.44748  21950430.2974                   21950419.1174
        45.5004         49.0004
 -12959281.94646 -11340785.65546  22605503.8364                   22605495.2934
        41.7504         41.7504
  -5395852.54645  -4416400.59445  24207952.2734                   24207944.3164
        34.0004         30.7504
 -18458639.00648 -20669486.93749  20675235.5084                   20675226.4964
        53.5004         55.0004
 23  1  5  1 29  0.0000000  0 11G24G23G08G22G21G10G12G31G01G25G32
                                  25238000.0944                   25237991.4924
        31.5004         16.2504
   -966942.65146  -2843328.47443  23901950.4534                   23901939.9774
        38.7504         23.5004
  -5300237.61555  -4080534.10255  25455335.3134                   25455325.3634
        34.2504         31.2504
 -17207756.09148 -13151965.94946  20741480.3984                   20741469.1604
        49.0004         41.5004
 -19026126.64248 -13825372.58646  22279201.1884                   22279189.8324
        48.0004         37.2504
 -23764101.19548 -18775263.47648  21301377.4384                   21301367.9574
        50.2504         53.5004
  -4480957.16446  -3473542.05242  24757438.0004                   24757426.8794
        36.2504         17.2504
 -17276410.84547 -13433171.20448  21931757.3834                   21931746.3204
        46.0004         49.0004
 -13033462.16647 -11398588.40446  22591387.4924                   22591378.7734
        42.5004         41.2504
  -5465992.36745  -4471054.96445  24194604.2584                   24194597.6484
        34.2504         31.5004
 -18433425.82648 -20649840.31449  20680033.4614                   20680023.9804
        53.7504         55.0004
 23  1  5  1 29 30.0000000  0 11G24G23G08G22G21G10G12G31G01G25G32
  -6279309.73655  -5516296.11852  25259384.8674                   25259377.8484
        30.5004         14.7504
   -875113.13846  -2771773.09144  23919424.4144                   23919414.5824
        38.2504         24.7504
  -5219662.60855  -4017748.40255  25470666.6024                   25470659.6414
        33.5004         31.0004
 -17232279.68148 -13171075.23946  20736813.7814                   20736802.1334
        48.2504         41.5004
 -19049008.00047 -13843202.21946  22274847.1644                   22274835.5164
        47.7504         37.0004
 -23711748.53348 -18734469.20348  21311339.2504                   21311330.5904
        48.7504         53.5004
  -4522831.31846  -3506171.21643  24749471.9534                   24749458.2544
        38.5004         19.0004
 -17374183.86847 -13509357.96248  21913152.1804                   21913140.5904
        46.5004         49.2504
 -13107179.68747 -11456030.61646  22577358.8284                   22577350.9304
        42.0004         41.5004
  -5535829.62945  -4525473.59545  24181315.6884                   24181308.8444
        34.0004         31.5004
 -18407911.13048 -20629958.73649  20684888.8524                   20684879.6644
        52.0004         55.0004
 23  1  5  1 30  0.0000000  0 10G23G08G22G21G10G12G31G01G25G32
   -783111.22546  -2700083.36144  23936931.6804                   23936922.1414
        38.0004         24.0004
  -5139032.90845  -3954920.06544  25486011.5704                   25486002.5004
        35.0004         29.5004
 -17256475.18448 -13189928.87447  20732209.7034                   20732198.4654
        48.0004         42.0004
 -19071415.57248 -13860662.66546  22270583.7114                   22270571.5354
        48.5004         37.2504
 -23659055.42748 -18693409.65148  21321366.2114                   21321357.6684
        49.5004         53.2504
  -4564237.39646  -3538435.72043  24741591.0084                   24741578.3634
        37.0004         19.5004
 -17471592.06447 -13585260.44048  21894615.5554                   21894604.0824
        46.5004         49.2504
 -13180422.77946 -11513103.15346  22563421.5394                   22563413.5234
        41.0004         41.5004
  -5605352.05645  -4579646.92845  24168085.5394                   24168078.8134
        34.5004         31.7504
 -18382086.99048 -20609836.03049  20689802.8054                   20689793.6174
        53.5004         54.7504
 23  1  5  1 30 30.0000000  0 10G23G08G22G21G10G12G31G01G25G32
   -690943.61846  -2628264.52344  23954470.8914                   23954461.4694
        39.0004         24.0004
  -5058357.38946  -3892055.90945  25501363.2734                   25501353.9694
        37.0004         31.7504
 -17280348.68848 -13208531.59547  20727666.5944                   20727655.0634
        48.5004         42.0004
 -19093354.00448 -13877757.55046  22266409.0704                   22266397.0124
        48.5004         37.0004
 -23606027.99948 -18652089.60048  21331457.4224                   21331448.4104
        48.5004         53.2504
  -4605178.94846  -3570338.20743  24733800.4304                   24733787.9024
        37.5004         19.5004
 -17568638.27447 -13660880.84948  21876148.0474                   21876136.9844
        45.7504         49.2504
 -13253194.82346 -11569808.64046  22549572.8364                   22549565.0554
        40.5004         41.0004
  -5674562.53645  -4633577.14045  24154915.7734                   24154908.5784
        33.7504         32.0004
 -18355960.28548 -20589477.56749  20694774.6644                   20694765.2424
        52.5004         54.7504
 23  1  5  1 31  0.0000000  0 10G23G08G22G21G10G12G31G01G25G32
   -598608.49646  -2556315.17343  23972041.0314                   23972031.6094
        36.7504         23.0004
  -4977636.18445  -3829156.23345  25516722.4924                   25516714.7114
        33.7504         30.2504
 -17303898.09548 -13226881.77846  20723185.0004                   20723173.8794
        48.0004         41.7504
 -19114820.50048 -13894484.69246  22262323.9144                   22262311.9144
        48.0004         37.2504
 -23552663.83748 -18610507.16248  21341612.1024                   21341603.0314
        48.5004         53.2504
  -4645651.27546  -3601875.08343  24726098.6094                   24726086.9024
        37.2504         20.0004
 -17665316.94247 -13736214.86748  21857751.0474                   21857739.9264
        46.0004         49.5004
 -13325490.62546 -11626143.01046  22535815.4304                   22535807.2974
        41.7504         41.5004
  -5743455.24445  -4687259.75045  24141805.3054                   24141798.8134
        34.5004         31.7504
 -18329529.46848 -20568882.13249  20699804.2504                   20699795.1214
        52.0004         54.7504
 23  1  5  1 31 30.0000000  0 11G23G03G08G22G21G10G12G31G01G25G32
   -506107.12946  -2484236.28943  23989644.3984                   23989634.5084
        38.7504         22.7504
                                  25720125.781
        32.000
  -4896873.13145  -3766223.97745  25532091.9534                   25532083.2934
        35.0004         30.5004
 -17327124.29647 -13244980.11846  20718765.7034                   20718754.1724
        47.5004         41.5004
 -19135814.79847 -13910843.89146  22258328.8134                   22258316.5784
        47.0004         37.0004
 -23498963.75448 -18568662.96048  21351830.6804                   21351822.0784
        48.7504         53.0004
  -4685652.56846  -3633044.89943  24718486.5164                   24718475.2774
        37.0004         19.5004
 -17761625.85447 -13811260.75448  21839423.8054                   21839413.0944
        45.5004         49.5004
 -13397308.19846 -11682104.74946  22522149.2034                   22522141.2464
        41.2504         41.0004
  -5812027.47945  -4740692.68245  24128757.0314                   24128748.7814
        35.0004         31.5004
 -18302796.16348 -20548050.98749  20704891.4774                   20704882.2304
        52.5004         55.0004
 23  1  5  1 32  0.0000000  0 11G23G03G08G22G21G10G12G31G01G25G32
   -413436.86746  -2412025.79843  24007277.8284                   24007269.2854
        37.0004         22.7504
                                  25701111.3754                   25701105.2344
        25.7504         20.7504
                                  25547464.4304                   25547460.2274
        30.2504         28.7504
 -17350024.22748 -13262824.21446  20714407.9454                   20714396.6484
        48.2504         41.7504
 -19156332.27947 -13926831.54946  22254424.4844                   22254412.3094
        47.2504         36.7504
 -23444923.96848 -18526554.06848  21362114.1954                   21362105.4184
        48.5004         53.2504
  -4725177.17246  -3663843.29143  24710964.0084                   24710954.4694
        37.7504         20.2504
 -17857558.73747 -13886013.64748  21821168.8134                   21821157.6914
        46.0004         49.5004
 -13468641.52546 -11737689.15746  22508574.8364                   22508566.8794
        40.7504         41.0004
  -5880272.68345  -4793870.72245  24115770.9454                   24115762.9884
        35.5004         32.2504
 -18275757.88248 -20526982.19549  20710036.5394                   20710027.4104
        51.7504         55.0004
 23  1  5  1 32 30.0000000  0 10G23G08G22G21G10G12G31G01G25G32
   -320608.87846  -2339692.37943  24024943.5634                   24024933.7894
        38.0004         22.5004
  -4735231.51345  -3640269.36545  25562850.9304                   25562843.6174
        34.0004         32.5004
 -17372608.95948 -13280422.70346  20710109.9614                   20710098.5474
        48.5004         41.5004
 -19176383.06448 -13942455.54146  22250609.1724                   22250596.9384
        48.0004         37.2504
 -23390555.41648 -18484188.98048  21372460.4224                   21372451.6454
        49.5004         53.0004
  -4764233.28845  -3694276.63143  24703531.9454                   24703522.5234
        35.2504         19.5004
 -17953123.25747 -13960479.49148  21802983.2034                   21802972.2584
        46.0004         49.5004
 -13539498.45246 -11792902.34246  22495091.4224                   22495083.1134
        41.5004         41.0004
  -5948198.07045  -4846799.59645  24102844.8364                   24102837.6994
        35.0004         32.5004
 -18248426.10848 -20505684.72249  20715237.6334                   20715228.4454
        51.5004         54.7504
 23  1  5  1 33  0.0000000  0 11G23G03G08G22G21G10G12G31G01G25G32
   -227610.43646  -2267226.16943  24042640.3914                   24042630.6174
        37.5004         22.5004
                                  25663061.070
        32.000
                                  25578247.656
        39.500
 -17394865.27748 -13297765.27947  20705874.5394                   20705863.6524
        48.0004         42.0004
 -19195952.74147 -13957704.63246  22246885.1564                   22246873.0394
        47.5004         37.2504
 -23335844.15348 -18441556.84248  21382871.4614                   21382862.7424
        48.0004         53.0004
  -4802805.08145  -3724332.57443  24696191.7274                   24696182.7154
        35.0004         20.0004
 -18048302.81247 -14034645.36448  21784870.8674                   21784859.7464
        46.0004         49.5004
 -13609862.91946 -11847731.80946  22481701.1334                   22481693.7624
        41.2504         41.7504
  -6015787.00945  -4899466.29545  24089982.4774                   24089974.9884
        35.0004         31.2504
 -18220788.24848 -20484148.73549  20720497.2034                   20720487.6054
        51.5004         54.7504
 23  1  5  1 33 30.0000000  0 11G23G03G08G22G21G10G12G31G01G25G32
   -134451.78046  -2194635.14243  24060368.2974                   24060358.6994
        37.5004         23.7504
                                  25644021.1644                   25644011.8014
        32.0004         22.0004
                                  25593635.094
        33.500
 -17416802.97947 -13314859.59046  20701700.0004                   20701688.3524
        46.2504         41.7504
 -19215049.73447 -13972585.41946  22243251.0554                   22243238.9384
        46.5004         37.0004
 -23280800.09048 -18398665.39648  21393346.1414                   21393337.4224
        48.2504         53.0004
  -4840899.83146  -3754016.75943  24688943.2194                   24688933.2114
        36.0004         19.2504
 -18143104.30247 -14108516.64348  21766830.9454                   21766820.0594
        46.5004         49.7504
 -13679741.86446 -11902182.91746  22468404.0164                   22468395.7074
        41.2504         41.5004
  -6083045.80045  -4951875.73345  24077183.1094                   24077176.6764
        34.2504         31.7504
 -18192854.84648 -20462382.44349  20725812.7584                   20725803.2194
        52.0004         54.7504
 23  1  5  1 34  0.0000000  0 10G23G08G22G21G10G12G31G01G25G32
    -41135.73446  -2121921.41243  24078126.0474                   24078116.5084
        37.7504         22.5004
   -383498.65646  -3502002.82755  25609037.6174                   25609029.5434
        36.2504         30.0004
 -17438424.70847 -13331707.69446  20697585.6884                   20697574.4494
        47.0004         41.7504
 -19233675.58047 -13987099.07346  22239706.5704                   22239694.6294
        46.5004         37.0004
 -23225425.35648 -18355516.28548  21403883.8054                   21403874.9694
        48.2504         53.0004
  -4878516.98845  -3783328.88543  24681782.5314                   24681775.1024
        32.2504         19.5004
 -18237526.88547 -14182092.68448  21748862.3754                   21748851.4884
        46.0004         49.7504
 -13749134.79347 -11956255.33347  22455199.7274                   22455190.5394
        42.2504         42.0004
  -6149973.30545  -5004027.03045  24064447.2194                   24064440.4344
        34.0004         31.7504
 -18164628.92248 -20440388.21049  20731183.7734                   20731174.3524
        50.7504         55.0004
 23  1  5  1 34 30.0000000  0 11G23G03G08G22G21G10G12G31G01G25G32
     52346.17946  -2049078.45143  24095914.1174                   24095904.6954
        36.5004         22.0004
   -517461.73755   -611686.39254  25605919.6414                   25605905.5904
        34.5004         28.2504
   -302542.54255  -3438920.06754  25624442.7894                   25624433.9534
        35.2504         29.0004
 -17459721.71248 -13348302.75446  20693533.1644                   20693521.6334
        49.0004         41.7504
 -19251820.59948 -14001238.05046  22236253.6334                   22236241.3404
        49.0004         36.7504
 -23169710.75247 -18312102.33448  21414485.6094                   21414477.0084
        47.7504         52.7504
  -4915645.68146  -3812260.32743  24674720.5234                   24674709.7544
        36.2504         19.5004
 -18331558.34147 -14255363.93948  21730969.1724                   21730958.1684
        46.0004         50.0004
 -13818030.02546 -12009939.92547  22442088.6884                   22442080.5554
        41.7504         42.0004
  -6216557.20745  -5055910.59245  24051777.9224                   24051768.7934
        35.5004         32.0004
 -18136102.34648 -20418159.70749  20736612.4144                   20736602.7584
        50.5004         55.0004
 23  1  5  1 35  0.0000000  0 10G23G08G22G21G10G12G31G01G25G32
    145986.69446  -1976111.93543  24113733.5704                   24113724.2074
        36.5004         22.0004
   -402283.33756  -3392441.70255  25639854.2974                   25639841.7704
        37.5004         32.7504
 -17480700.65647 -13364649.97846  20689540.4924                   20689529.5474
        47.7504         41.5004
 -19269490.26148 -14015006.62546  22232891.2344                   22232879.5864
        48.5004         37.0004
 -23113662.63147 -18268428.50848  21425151.1484                   21425142.5474
        47.7504         52.5004
  -4952290.06846  -3840814.39043  24667746.7974                   24667736.6724
        36.5004         21.0004
 -18425202.23447 -14328333.19748  21713149.4384                   21713138.1414
        46.2504         50.0004
 -13886431.38447 -12063239.69247  22429072.6954                   22429064.0944
        42.5004         42.0004
  -6282800.68945  -5107528.89245  24039172.7894                   24039163.9534
        35.5004         31.7504
 -18107282.41348 -20395702.61749  20742096.6564                   20742087.0594
        50.5004         54.7504
 23  1  5  1 35 30.0000000  0 11G23G03G08G22G21G10G12G31G01G25G32
    239789.05846  -1903019.30543  24131585.0314                   24131574.6724
        37.5004         22.0004
                                  25567776.3594                   25567764.7704
        34.0004         28.2504
   -321286.06546  -3329326.90345  25655264.3754                   25655256.4184
        37.0004         31.5004
 -17501357.97848 -13380746.58146  20685609.8054                   20685598.5084
        48.2504         41.5004
 -19286679.82547 -14028401.10346  22229620.5634                   22229607.9184
        47.5004         37.0004
 -23057277.54948 -18224492.10448  21435881.1954                   21435872.0664
        48.5004         52.7504
  -4988443.88146  -3868986.20443  24660866.2424                   24660856.2934
        36.0004         20.5004
 -18518451.99347 -14400995.33948  21695404.4924                   21695393.7234
        46.0004         50.5004
 -13954332.51247 -12116149.65147  22416151.2344                   22416142.8094
        42.5004         42.5004
  -6348696.75745  -5158876.48145  24026632.6954                   24026624.7974
        35.0004         32.5004
 -18078166.24948 -20373014.70049  20747637.1334                   20747627.8284
        51.0004         55.0004
 23  1  5  1 36  0.0000000  0 11G23G03G08G22G21G10G12G31G01G25G32
    333750.58645  -1829802.65043  24149463.5944                   24149454.8754
        35.2504         21.2504
                                  25548689.5944                   25548684.3914
        28.0004         22.7504
   -240271.85445  -3266198.97644  25670680.4224                   25670673.2274
        35.0004         29.2504
 -17521696.17948 -13396594.52546  20681739.6804                   20681728.1484
        48.2504         41.7504
 -19303390.50647 -14041422.42246  22226440.3364                   22226428.4534
        47.5004         36.7504
 -23000557.07948 -18180294.36148  21446674.3284                   21446665.9614
        48.0004         52.5004
  -5024107.09646  -3896775.75643  24654080.3834                   24654069.6724
        36.0004         20.0004
 -18611306.57547 -14473349.54448  21677735.1254                   21677723.6524
        46.5004         50.5004
 -14021732.67547 -12168669.25947  22403326.0164                   22403317.0044
        43.2504         43.0004
  -6414244.02745  -5209952.25545  24014158.1804                   24014151.3364
        34.7504         32.0004
 -18048756.68248 -20350098.15049  20753233.8204                   20753224.3984
        50.5004         55.0004
 23  1  5  1 36 30.0000000  0 11G23G03G08G22G21G10G12G31G01G25G32
    427868.81346  -1756463.86743  24167374.6414                   24167365.2774
        37.5004         20.7504
                                  25529603.5704                   25529594.0904
        34.0004         22.7504
   -159245.77045  -3203061.63645  25686098.8284                   25686090.6954
        34.5004         30.0004
 -17541717.29147 -13412195.39246  20677929.7034                   20677918.1134
        47.2504         41.5004
 -19319623.69647 -14054071.66846  22223351.5634                   22223338.9774
        47.0004         37.2504
 -22943503.38848 -18135836.96748  21457531.5084                   21457522.8484
        48.0004         52.5004
  -5059278.76946  -3924182.26043  24647387.9774                   24647376.3874
        37.5004         20.5004
 -18703764.78847 -14545394.90048  21660140.5314                   21660129.8794
        46.5004         50.5004
 -14088631.12047 -12220797.92447  22390594.9304                   22390586.9144
        42.0004         42.7504
  -6479441.09145  -5260755.12845  24001751.7734                   24001745.6914
        34.0004         31.7504
 -18019056.36748 -20326955.04049  20758885.2034                   20758875.8984
        51.0004         55.0004
 23  1  5  1 37  0.0000000  0 11G23G03G08G22G21G10G12G31G01G25G32
    522143.89545  -1683002.87943  24185313.8594                   24185305.7274
        35.5004         22.5004
   -757965.90455   -872472.36254  25510503.9144                   25510495.6644
        31.7504         27.5004
    -78208.94345  -3139916.01045  25701518.8284                   25701512.3954
        33.5004         30.0004
 -17561420.80447 -13427548.77046  20674179.9924                   20674169.1054
        47.0004         41.2504
 -19335377.39347 -14066347.29146  22220353.2894                   22220341.5824
        47.7504         36.2504
 -22886115.45347 -18091119.12748  21468452.1254                   21468443.4654
        47.5004         52.5004
  -5093956.26546  -3951203.68443  24640789.7344                   24640777.1484
        38.2504         20.7504
 -18795822.86747 -14617128.45348  21642622.9844                   21642611.6294
        46.5004         50.7504
 -14155024.48347 -12272532.97847  22377960.9774                   22377952.2584
        42.2504         43.0004
  -6544283.94345  -5311282.00845  23989412.1414                   23989406.4104
        34.0004         32.0004
 -17989065.35948 -20303585.42549  20764592.4454                   20764583.3164
        50.5004         54.7504
 23  1  5  1 37 30.0000000  0 11G23G03G08G22G21G10G12G31G01G25G32
    616577.29746  -1609418.53343  24203285.3754                   24203275.8364
        37.0004         21.7504
   -858362.96745   -950703.94444  25491401.0634                   25491391.4654
        32.2504         27.5004
      2837.45446  -3076763.00945  25716944.2194                   25716934.9144
        36.7504         30.7504
 -17580804.88647 -13442653.23846  20670491.7504                   20670480.2194
        47.7504         41.2504
 -19350648.99047 -14078247.25246  22217447.1954                   22217435.1954
        46.7504         36.7504
 -22828391.38847 -18046139.35448  21479436.4224                   21479428.1134
        47.5004         52.5004
  -5128135.24346  -3977836.67243  24634285.8674                   24634272.9884
        37.5004         20.5004
 -18887475.98647 -14688546.46048  21625181.6174                   21625170.6134
        47.5004         51.0004
 -14220908.04247 -12323870.82647  22365424.5864                   22365414.9884
        43.2504         43.2504
  -6608767.28545  -5361528.77145  23977142.4304                   23977134.2384
        34.7504         32.2504
 -17958782.50948 -20279988.39649  20770354.6564                   20770345.7624
        50.0004         55.0004
 23  1  5  1 38  0.0000000  0 11G23G03G08G22G21G10G12G31G01G25G32
    711164.02245  -1535714.71143  24221283.2424                   24221275.1094
        35.0004         21.5004
   -958800.80345  -1028967.18744  25472286.9844                   25472279.1454
        33.0004         29.0004
     83886.92346  -3013607.62744  25732365.7114                   25732358.3984
        36.0004         27.0004
 -17599874.18348 -13457512.42246  20666862.9774                   20666851.0944
        48.2504         41.7504
 -19365441.95147 -14089774.23646  22214632.1804                   22214620.0634
        47.7504         37.0004
 -22770335.22247 -18000900.80848  21490484.0314                   21490476.0744
        47.5004         52.2504
  -5161817.66846  -4004082.72643  24627875.6724                   24627863.3204
        38.0004         19.7504
 -18978725.25947 -14759649.78048  21607817.0474                   21607806.2774
        47.0004         51.0004
 -14286283.56847 -12374812.76847  22352982.3834                   22352974.8954
        42.0004         43.5004
  -6672892.04745  -5411496.10945  23964940.0634                   23964930.9924
        35.5004         31.2504
 -17928212.82448 -20256167.86849  20776172.0394                   20776163.3794
        50.7504         55.2504
 23  1  5  1 38 30.0000000  0 11G23G03G08G22G21G10G12G31G01G25G32
    805906.45546  -1461889.55243  24239312.9694                   24239304.2504
        36.5004         20.7504
  -1059275.23645  -1107259.03044  25453166.2344                   25453158.3954
        32.2504         28.0004
    164939.66345  -2950449.54844  25747789.6334                   25747782.0274
        35.2504         29.2504
 -17618626.04347 -13472124.25746  20663294.6564                   20663283.3014
        47.7504         41.5004
 -19379752.92047 -14100925.65446  22211909.1884                   22211897.3634
        47.5004         37.0004
 -22711944.13047 -17955401.29248  21501595.9384                   21501587.2774
        47.5004         52.2504
  -5194997.90146  -4029937.46843  24621563.1724                   24621548.2424
        39.2504         19.7504
 -19069564.72347 -14830433.77148  21590531.2034                   21590520.4924
        47.0004         51.0004
 -14351145.34647 -12425354.40947  22340640.8914                   22340631.8794
        43.2504         43.5004
  -6736651.99545  -5461179.22045  23952805.9454                   23952798.5164
        33.7504         31.0004
 -17897354.11948 -20232122.11749  20782044.4774                   20782035.0554
        49.5004         55.2504
 23  1  5  1 39  0.0000000  0 11G23G03G08G22G21G10G12G31G01G25G32
    900802.20146  -1387944.92043  24257372.1484                   24257362.3164
        36.5004         20.7504
  -1159786.87145  -1185579.84644  25434039.5234                   25434032.0944
        31.7504         28.2504
    245991.40045  -2887292.31244  25763212.6884                   25763205.0824
        35.5004         29.2504
 -17637062.49148 -13486490.31546  20659785.9064                   20659774.6094
        48.0004         41.2504
 -19393582.68447 -14111702.10246  22209277.0784                   22209265.2544
        47.0004         36.2504
 -22653220.23547 -17909642.44148  21512770.8054                   21512762.2034
        47.7504         52.2504
  -5227676.26246  -4055401.14643  24615344.2894                   24615330.3554
        37.7504         20.0004
 -19159993.47147 -14900897.71948  21573322.9614                   21573312.0744
        46.5004         51.0004
 -14415492.71446 -12475495.23347  22328395.2974                   22328386.7544
        41.5004         43.0004
  -6800045.71945  -5510576.88445  23940743.5474                   23940735.7074
        34.2504         32.5004
 -17866209.13948 -20207853.29849  20787971.2114                   20787961.8484
        50.2504         54.7504
 23  1  5  1 39 30.0000000  0 11G23G03G08G22G21G10G12G31G01G25G32
    995851.47045  -1313880.69843  24275458.5864                   24275449.6334
        35.5004         21.2504
  -1260333.65645  -1263928.01344  25414906.3524                   25414898.9804
        32.0004         28.0004
    327040.24245  -2824137.28044  25778636.7894                   25778627.6604
        35.5004         29.0004
 -17655182.87448 -13500610.08046  20656337.5004                   20656326.1454
        48.5004         41.5004
 -19406929.59547 -14122102.29746  22206737.1484                   22206725.2664
        47.7504         36.7504
 -22594161.91747 -17863623.00348  21524009.0084                   21524000.6414
        47.0004         52.0004
  -5259849.54246  -4080471.22843  24609220.7584                   24609207.8794
        37.5004         19.2504
 -19250007.74447 -14971038.70348  21556194.7274                   21556183.3714
        47.7504         51.0004
 -14479322.20047 -12525232.46847  22316248.8524                   22316241.0124
        42.7504         43.5004
  -6863068.94945  -5559685.87445  23928749.5394                   23928743.9844
        34.5004         33.0004
 -17834777.67748 -20183361.24249  20793952.1564                   20793943.0864
        50.2504         55.0004
 23  1  5  1 40  0.0000000  0 11G23G03G08G22G21G10G12G31G01G25G32
   1091051.89145  -1239698.67643  24293572.7504                   24293565.4384
        35.0004         20.5004
  -1360916.14745  -1342304.06444  25395766.2894                   25395759.0354
        32.2504         28.5004
    408081.67846  -2760988.06845  25794059.3754                   25794049.4264
        37.0004         31.2504
 -17672989.41347 -13514485.29846  20652949.2734                   20652937.8594
        47.5004         41.0004
 -19419794.59948 -14132126.98846  22204289.4304                   22204277.3134
        48.2504         36.5004
 -22534771.48848 -17817344.78548  21535310.9534                   21535302.1174
        48.0004         52.0004
  -5291517.02546  -4105147.18043  24603195.3364                   24603181.7544
        37.5004         19.0004
 -19339606.24747 -15040855.70648  21539143.7894                   21539132.8444
        47.7504         51.0004
 -14542632.92847 -12574565.50447  22304202.0864                   22304192.9574
        42.7504         43.7504
  -6925720.30045  -5608505.12245  23916829.0314                   23916821.6024
        35.2504         33.5004
 -17803062.37448 -20158648.02249  20799987.7034                   20799978.5164
        50.5004         54.7504
 23  1  5  1 40 30.0000000  0 11G23G03G08G22G21G10G12G31G01G25G32
   1186403.46346  -1165398.86143  24311720.5634                   24311710.2034
        36.0004         20.5004
  -1461532.30045  -1420706.38044  25376619.7114                   25376611.4024
        32.5004         29.5004
    489114.38245  -2697845.80544  25809477.0084                   25809471.4534
        35.0004         29.0004
 -17690481.52348 -13528115.51446  20649620.8284                   20649609.2384
        48.0004         41.2504
 -19432176.44148 -14141775.19646  22201933.2814                   22201921.0474
        48.5004         36.7504
 -22475048.16748 -17770807.17348  21546675.7734                   21546667.5234
        48.0004         52.0004
  -5322675.98646  -4129426.86042  24597266.4454                   24597252.0434
        38.2504         17.7504
 -19428785.35347 -15110345.91448  21522173.7974                   21522162.9694
        47.2504         51.2504
 -14605421.67846 -12623491.80647  22292252.7584                   22292244.3324
        41.7504         43.2504
  -6987995.89445  -5657031.52645  23904976.6094                   23904970.7034
        34.5004         32.5004
 -17771063.27648 -20133713.67049  20806076.8444                   20806067.7734
        50.2504         55.0004
 23  1  5  1 41  0.0000000  0 11G23G03G08G22G21G10G12G31G01G25G32
   1281906.24245  -1090981.26243  24329893.6954                   24329884.6254
        34.5004         20.7504
  -1562180.33646  -1499133.45944  25357467.2584                   25357459.2424
        36.2504         29.7504
    570136.01145  -2634712.03244  25824894.2194                   25824888.6054
        33.5004         25.2504
 -17707658.76048 -13541500.36346  20646352.8524                   20646340.9694
        48.0004         41.2504
 -19444074.68548 -14151046.56546  22199669.2194                   22199656.9844
        48.0004         36.5004
 -22414991.37748 -17724009.71048  21558104.0314                   21558095.8404
        48.0004         52.0004
  -5353323.89446  -4153308.32343  24591432.0084                   24591419.5984
        36.7504         19.5004
 -19517541.47647 -15179506.52048  21505284.2114                   21505273.0904
        47.0004         51.2504
 -14667685.33847 -12672008.92947  22280405.0634                   22280396.6374
        42.5004         43.7504
  -7049891.72745  -5705262.05745  23893198.2894                   23893190.4494
        34.0004         31.2504
 -17738780.59348 -20108558.33449  20812220.0234                   20812210.8954
        50.0004         55.5004
 23  1  5  1 41 30.0000000  0 11G23G03G08G22G21G10G12G31G01G25G32
   1377557.35245  -1016448.09143  24348095.1024                   24348086.6764
        34.7504         21.5004
  -1662860.92745  -1577585.93045  25338309.1724                   25338301.4494
        34.0004         31.2504
    651142.26245  -2571590.14444  25840311.2894                   25840302.2774
        35.5004         28.5004
 -17724523.88348 -13554642.00346  20643142.6884                   20643130.9224
        49.0004         41.2504
 -19455489.38347 -14159941.15446  22197496.4924                   22197484.5514
        47.2504         36.2504
 -22354603.07647 -17676953.93348  21569595.7734                   21569587.2304
        47.0004         51.7504
  -5383460.49646  -4176791.36543  24585697.9144                   24585684.2154
        37.5004         18.2504
 -19605873.98147 -15248337.03148  21488475.2194                   21488463.8634
        47.0004         51.2504
 -14729423.47547 -12720116.57147  22268656.8444                   22268648.3014
        42.5004         44.0004
  -7111406.83045  -5753195.89845  23881492.4384                   23881484.6564
        34.7504         31.5004
 -17706217.26148 -20083184.30949  20818416.6644                   20818407.1844
        50.0004         55.0004
 23  1  5  1 42  0.0000000  0 11G23G03G08G22G21G10G12G31G01G25G32
   1473357.35045   -941798.86643  24366325.3364                   24366316.6174
        35.0004         20.7504
  -1763571.84945  -1656062.02044  25319143.1174                   25319135.7464
        33.0004         29.5004
    732131.98146  -2508481.32644  25855723.3984                   25855715.7344
        36.5004         26.7504
 -17741075.90148 -13567539.67546  20639992.7894                   20639981.3164
        48.0004         41.0004
 -19466419.32047 -14168457.99146  22195416.3284                   22195404.6804
        47.5004         36.5004
 -22293882.43947 -17629639.18048  21581150.8914                   21581142.0554
        47.0004         51.7504
  -5413082.70946  -4199873.62043  24580061.5944                   24580047.4264
        37.5004         18.2504
 -19693778.56147 -15316834.10648  21471747.4614                   21471736.3404
        47.7504         51.2504
 -14790632.47646 -12767811.88847  22257007.6724                   22256999.7154
        41.2504         43.2504
  -7172536.83146  -5800829.69345  23869862.0704                   23869852.7074
        36.0004         32.2504
 -17673372.91748 -20057591.32049  20824666.7584                   20824657.5124
        50.0004         55.0004
 23  1  5  1 42 30.0000000  0 11G23G03G08G22G21G10G12G31G01G25G32
   1569304.84045   -867034.74743  24384583.7274                   24384574.5984
        34.5004         20.0004
  -1864312.42345  -1734561.21944  25299974.1484                   25299965.1954
        34.7504         29.7504
    813097.52955  -2455644.17454  25871130.6644                   25871123.1174
        34.2504         26.5004
 -17757315.66048 -13580194.01646  20636902.5394                   20636891.1844
        48.5004         41.5004
 -19476864.89247 -14176597.39946  22193428.7194                   22193417.3054
        46.7504         36.0004
 -22232830.00547 -17582065.88948  21592768.8594                   21592760.1414
        47.0004         51.7504
  -5442189.21746  -4222554.00843  24574521.7274                   24574509.4924
        36.7504         18.2504
 -19781253.45647 -15384996.34548  21455101.7814                   21455090.0164
        47.0004         51.2504
 -14851310.62047 -12815093.55147  22245462.4774                   22245453.5234
        42.2504         43.5004
  -7233279.30445  -5848161.46645  23858300.8524                   23858294.8284
        34.0004         32.5004
 -17640249.10448 -20031780.56649  20830969.8524                   20830960.9574
        50.5004         55.0004
 23  1  5  1 43  0.0000000  0 11G23G03G08G22G21G10G12G31G01G25G32
   1665398.78845   -792156.47843  24402868.9614                   24402861.3554
        34.5004         20.7504
  -1965081.79045  -1813082.85945  25280798.9614                   25280790.0084
        35.5004         31.5004
    894043.894 5                  25886531.797
        31.250
 -17773244.04848 -13592605.74646  20633871.5474                   20633860.0744
        48.7504         41.2504
 -19486824.92147 -14184358.47846  22191533.4694                   22191521.7624
        47.0004         36.2504
 -22171446.49647 -17534234.60848  21604449.8204                   21604440.9844
        47.7504         51.5004
  -5470778.07746  -4244831.02043  24569081.5084                   24569068.2774
        36.5004         18.2504
 -19868295.93047 -15452821.64648  21438537.5314                   21438526.6454
        47.5004         51.5004
 -14911455.72947 -12861959.87347  22234016.7344                   22234008.9534
        42.5004         44.0004
  -7293631.19945  -5895188.93645  23846817.2584                   23846810.5314
        35.2504         33.7504
 -17606846.97548 -20005752.93649  20837325.8674                   20837316.7384
        50.7504         55.0004
 23  1  5  1 43 30.0000000  0 11G23G03G08G22G21G10G12G31G01G25G32
   1761639.26645   -717164.06343  24421183.9844                   24421175.2664
        34.2504         21.5004
  -2065878.04845  -1891625.42944  25261616.9694                   25261608.6024
        34.0004         29.0004
    974965.04455  -2339761.53954  25901932.9924                   25901924.6254
        35.7504         25.2504
 -17788860.75448 -13604774.59946  20630899.6804                   20630888.5594
        48.2504         41.5004
 -19496299.91347 -14191741.59746  22189731.1564                   22189718.7464
        47.5004         36.0004
 -22109731.06647 -17486144.70448  21616193.6254                   21616185.0234
        47.0004         51.5004
  -5498846.98646  -4266702.90142  24563741.4614                   24563727.8794
        37.5004         17.7504
 -19954902.68647 -15520307.42948  21422056.8444                   21422045.5474
        47.5004         51.5004
 -14971064.71146 -12908408.40347  22222672.6804                   22222665.2504
        41.5004         43.5004
  -7353588.95945  -5941909.24845  23835407.4614                   23835401.0274
        34.0004         32.5004
 -17573166.60448 -19979508.49549  20843735.5394                   20843726.2344
        51.7504         55.0004
 23  1  5  1 44  0.0000000  0 11G23G03G08G22G21G10G12G31G01G25G32
   1858024.12045   -642059.09643  24439524.9384                   24439516.8634
        34.2504         21.5004
  -2166701.12545  -1970188.94445  25242431.8594                   25242422.8484
        33.7504         30.2504
   1055858.12045  -2276727.89045  25917323.9534                   25917318.1644
        34.5004         30.0004
 -17804167.34147 -13616701.81946  20627986.9144                   20627975.6764
        47.7504         41.2504
 -19505289.50947 -14198746.49346  22188020.5084                   22188008.2734
        47.2504         36.0004
 -22047685.19447 -17437797.31148  21628000.8834                   21627992.1644
        47.2504         51.5004
  -5526395.10446  -4288168.92243  24558497.8134                   24558485.8134
        37.2504         20.0004
 -20041071.92547 -15587452.27348  21405659.8364                   21405648.5394
        47.5004         51.7504
 -15030136.37547 -12954438.27747  22211432.3524                   22211424.2194
        42.5004         43.5004
  -7413150.59745  -5988320.89645  23824072.1804                   23824065.8054
        34.0004         32.2504
 -17539210.15448 -19953048.92149  20850197.1414                   20850188.1884
        51.7504         55.0004
 23  1  5  1 44 30.0000000  0 10G23G03G22G21G10G12G31G01G25G32
   1954552.62445   -566842.25243  24457894.2894                   24457885.8634
        34.5004         21.5004
  -2267549.83745  -2048772.41845  25223240.4064                   25223232.3324
        33.2504         30.0004
 -17819164.22448 -13628387.69346  20625133.0084                   20625121.9454
        48.5004         41.2504
 -19513792.62747 -14205372.31346  22186402.0394                   22186389.9224
        47.5004         36.0004
 -21985309.20747 -17389192.68348  21639870.8594                   21639862.2584
        47.2504         51.5004
  -5553420.55346  -4309227.70743  24553355.4304                   24553342.7854
        36.2504         18.5004
 -20126801.34248 -15654254.41748  21389345.8594                   21389334.6214
        48.0004         51.7504
 -15088668.65946 -13000047.85247  22200293.4144                   22200285.8094
        41.7504         43.7504
  -7472313.03745  -6034421.50345  23812815.3204                   23812806.6604
        35.0004         32.5004
 -17504978.57048 -19926374.96249  20856710.7584                   20856701.9224
        51.2504         55.0004
 23  1  5  1 45  0.0000000  0 10G23G03G22G21G10G12G31G01G25G32
   2051224.15145   -491513.97443  24476289.6414                   24476281.8594
        34.2504         20.7504
  -2368422.79345  -2127374.71244  25204045.1484                   25204037.1334
        34.0004         29.5004
 -17833851.72147 -13639832.48846  20622338.0164                   20622326.6024
        47.7504         41.5004
 -19521809.75047 -14211619.43746  22184876.3444                   22184864.4024
        47.2504         36.5004
 -21922602.86647 -17340330.65448  21651803.0004                   21651794.4574
        46.7504         51.2504
  -5579921.32746  -4329877.65543  24548311.5004                   24548299.9694
        36.0004         18.2504
 -20212087.67147 -15720711.27948  21373116.4534                   21373104.9804
        47.7504         52.0004
 -15146658.81946 -13045234.96547  22189258.2504                   22189250.7034
        41.5004         44.5004
  -7531073.20945  -6080208.63645  23801632.6334                   23801624.5004
        34.5004         33.0004
 -17470472.51448 -19899487.13949  20863277.1564                   20863268.2034
        52.2504         54.7504
 23  1  5  1 45 30.0000000  0 10G23G03G22G21G10G12G31G01G25G32
   2148037.11145   -416075.47343  24494712.6094                   24494704.8284
        34.5004         20.7504
  -2469319.58845  -2205995.65345  25184845.8524                   25184836.6644
        34.2504         30.2504
 -17848231.10948 -13651037.19446  20619602.2814                   20619590.8094
        49.2504         41.5004
 -19529340.83947 -14217487.82346  22183443.6174                   22183431.5594
        47.5004         36.5004
 -21859566.98647 -17291211.81748  21663798.5784                   21663789.6844
        47.0004         51.0004
  -5605896.10946  -4350117.77143  24543369.3204                   24543357.6724
        37.0004         19.2504
 -20296929.32448 -15786821.64948  21356971.8594                   21356960.5044
        48.0004         52.0004
 -15204105.60847 -13089998.70047  22178327.7664                   22178319.1644
        43.0004         44.5004
  -7589428.88145  -6125680.61345  23790527.0634                   23790520.7464
        34.5004         33.5004
 -17435693.79848 -19872386.83949  20869895.7194                   20869886.3554
        51.2504         54.7504
 23  1  5  1 46  0.0000000  0 10G23G03G22G21G10G12G31G01G25G32
   2244990.90345   -340527.22543  24513163.3134                   24513155.1214
        35.2504         20.0004
  -2570238.71945  -2284633.96545  25165640.4924                   25165633.3554
        34.5004         30.0004
 -17862302.34848 -13662001.79346  20616924.2814                   20616912.8094
        48.5004         41.5004
 -19536385.34947 -14222977.06046  22182103.0314                   22182090.8554
        47.5004         36.7504
 -21796202.08347 -17241836.60948  21675855.9774                   21675847.9614
        46.5004         51.0004
  -5631343.28746  -4369946.68442  24538525.9614                   24538515.0744
        36.0004         17.2504
 -20381323.15047 -15852583.06148  21340911.8914                   21340901.0044
        47.2504         52.2504
 -15261006.37547 -13134336.95347  22167499.1094                   22167490.8594
        42.5004         44.2504
  -7647376.69545  -6170834.73345  23779501.2344                   23779494.6844
        34.7504         33.7504
 -17400642.97448 -19845074.51149  20876565.5084                   20876556.2034
        52.0004         54.7504
 23  1  5  1 46 30.0000000  0 10G23G03G22G21G10G12G31G01G25G32
   2342085.22645   -264869.49043  24531639.6564                   24531631.2894
        34.7504         20.5004
  -2671178.51845  -2363288.36144  25146432.4064                   25146424.8594
        34.7504         29.7504
 -17876065.89748 -13672726.62847  20614305.2664                   20614293.5594
        48.7504         42.0004
 -19542942.61847 -14228086.63546  22180855.4694                   22180843.1764
        46.7504         37.0004
 -21732507.68047 -17192204.65648  21687976.4844                   21687968.4694
        46.5004         50.5004
  -5656260.80445  -4389362.95442  24533784.6564                   24533773.3014
        35.7504         16.7504
 -20465266.16748 -15917993.18948  21324938.0704                   21324927.0084
        48.0004         52.5004
 -15317358.52847 -13178247.71247  22156776.2424                   22156767.8164
        42.5004         44.7504
  -7704913.32945  -6215668.45745  23768552.2894                   23768545.7974
        35.2504         33.5004
 -17365320.54048 -19817550.53649  20883286.9924                   20883278.0394
        52.2504         55.0004
 23  1  5  1 47  0.0000000  0 10G23G03G22G21G10G12G31G01G25G32
   2439318.42845   -189103.54843  24550142.2344                   24550134.2774
        34.7504         20.0004
  -2772138.55545  -2441958.51745  25127221.0004                   25127212.3404
        34.5004         30.2504
 -17889522.63348 -13683212.40046  20611744.5394                   20611732.9494
        49.0004         41.7504
 -19549012.89847 -14232816.74446  22179700.3444                   22179688.0514
        47.7504         36.5004
 -21668485.03047 -17142316.92548  21700160.0314                   21700151.9574
        47.0004         50.5004
  -5680647.09546  -4408365.25042  24529143.6884                   24529132.6844
        37.0004         17.2504
 -20548756.75047 -15983050.77848  21309050.0474                   21309039.3954
        47.7504         52.5004
 -15373160.65447 -13221729.89747  22146157.5944                   22146148.8754
        43.0004         44.7504
  -7762036.56445  -6260180.06845  23757681.5004                   23757674.8324
        34.7504         33.5004
 -17329728.22248 -19789816.26849  20890060.3914                   20890050.8524
        52.7504         54.7504
 23  1  5  1 47 30.0000000  0 10G23G03G22G21G10G12G31G01G25G32
   2536689.82345   -113229.86943  24568671.8914                   24568663.6414
        35.0004         20.2504
  -2873117.32045  -2520643.28044  25108004.3134                   25107996.8244
        33.5004         29.7504
 -17902672.85948 -13693459.31447  20609242.3204                   20609230.9654
        49.2504         42.0004
 -19554595.73547 -14237167.02346  22178637.7894                   22178625.3794
        46.7504         36.7504
 -21604134.16047 -17092173.42248  21712405.9844                   21712397.0904
        46.5004         50.2504
  -5704500.71246  -4426952.46243  24524605.0394                   24524593.9774
        36.5004         18.2504
 -20631791.97347 -16047753.53648  21293249.2974                   21293238.0004
        47.2504         52.5004
 -15428410.29847 -13264781.55947  22135643.1884                   22135635.2304
        42.2504         45.0004
  -7818743.25446  -6304367.08245  23746892.7894                   23746883.3094
        36.5004         33.7504
 -17293866.68948 -19761872.22049  20896884.4064                   20896875.2194
        52.0004         54.7504
 23  1  5  1 48  0.0000000  0 10G23G03G22G21G10G12G31G01G25G32
   2634198.88045    -37248.96943  24587228.0704                   24587219.2934
        35.7504         19.7504
  -2974113.49145  -2599341.56544  25088786.7814                   25088778.0634
        35.2504         29.7504
 -17915517.03748 -13703467.77346  20606797.9224                   20606786.2154
        49.0004         41.7504
 -19559690.37647 -14241136.88246  22177667.8914                   22177656.1254
        47.2504         37.0004
 -21539455.11847 -17041774.21448  21724713.6334                   21724705.2664
        46.0004         50.2504
  -5727819.68846  -4445123.13443  24520167.6804                   24520157.9654
        36.5004         19.0004
 -20714369.08948 -16112099.32848  21277535.4064                   21277524.2854
        48.2504         52.7504
 -15483105.16347 -13307400.92347  22125235.7894                   22125227.0124
        43.0004         45.5004
  -7875030.25345  -6348227.09045  23736181.1024                   23736172.8524
        35.7504         33.5004
 -17257736.68948 -19733718.98349  20903759.6804                   20903750.6094
        52.0004         54.7504
 23  1  5  1 48 30.0000000  0 10G23G03G22G21G10G12G31G01G25G32
   2731844.11245     38838.01743  24605809.0864                   24605800.4844
        34.7504         21.7504
  -3075126.17345  -2678052.74744  25069563.3364                   25069555.4964
        33.7504         29.2504
 -17928055.85648 -13713238.28346  20604412.2734                   20604400.9774
        48.7504         41.7504
 -19564297.63547 -14244726.97446  22176791.8204                   22176779.2934
        47.0004         37.0004
 -21474448.41947 -16991119.68548  21737084.2194                   21737075.6174
        46.5004         50.0004
  -5750602.69145  -4462876.17642  24515830.7894                   24515821.3094
        34.5004         16.7504
 -20796485.42047 -16176086.08048  21261908.9224                   21261898.1524
        47.5004         52.7504
 -15537243.50647 -13349586.65047  22114933.6564                   22114925.1724
        44.0004         45.2504
  -7930895.15345  -6391758.18445  23725549.2194                   23725541.4384
        35.0004         33.2504
 -17221339.58848 -19705357.62049  20910685.8204                   20910676.8094
        52.2504         55.0004
 23  1  5  1 49  0.0000000  0 10G23G03G22G21G10G12G31G01G25G32
   2829624.92746    115030.68343  24624416.8674                   24624407.8554
        36.2504         20.5004
  -3176153.93745  -2756775.68445  25050338.7584                   25050330.9774
        33.7504         30.0004
 -17940289.94148 -13722771.33146  20602083.8134                   20602072.5164
        49.0004         41.7504
 -19568417.01547 -14247936.89246  22176007.7114                   22175995.5354
        46.7504         36.7504
 -21409114.48247 -16940210.16448  21749517.5864                   21749508.3404
        46.5004         50.0004
  -5772848.14846  -4480210.24943  24511599.1804                   24511587.4144
        37.0004         18.5004
 -20878138.89647 -16239712.15248  21246371.0394                   21246360.0354
        47.7504         53.0004
 -15590823.05247 -13391336.94347  22104737.0394                   22104728.9064
        42.5004         45.2504
  -7986334.81245  -6434957.92245  23714998.7034                   23714992.0944
        34.2504         33.5004
 -17184676.08948 -19676788.65949  20917662.8594                   20917653.2034
        51.5004         54.7504
 23  1  5  1 49 30.0000000  0 10G23G03G22G21G10G12G31G01G25G32
   2927539.88345    191327.88343  24643049.4304                   24643041.0634
        35.7504         22.0004
  -3277196.14245  -2835509.85245  25031111.1804                   25031103.5744
        34.5004         30.5004
 -17952220.25248 -13732067.67547  20599813.1644                   20599802.2194
        48.7504         42.0004
 -19572048.40947 -14250766.55746  22175316.0554                   22175304.5824
        46.0004         37.5004
 -21343453.99447 -16889046.19248  21762011.5784                   21762002.9184
        47.0004         49.7504
  -5794554.50246  -4497124.32543  24507468.5864                   24507457.8754
        37.5004         18.5004
 -20959327.43748 -16302975.95448  21230921.2194                   21230910.2154
        48.0004         53.0004
 -15643842.31547 -13432650.64947  22094649.0004                   22094639.6374
        44.2504         45.5004
  -8041347.02146  -6477824.58045  23704532.3134                   23704524.1214
        36.5004         34.0004
 -17147747.73348 -19648013.33449  20924689.8134                   20924680.8014
        53.0004         54.7504
 23  1  5  1 50  0.0000000  0 10G23G03G22G21G10G12G31G01G25G32
   3025588.22245    267728.97643  24661707.3984                   24661699.0904
        35.0004         21.0004
  -3378251.39345  -2914254.17345  25011879.1954                   25011872.5274
        33.0004         30.0004
 -17963846.86748 -13741127.37447  20597600.5084                   20597589.9144
        48.0004         42.5004
 -19575191.42947 -14253215.66846  22174718.4694                   22174706.4104
        47.0004         37.0004
 -21277467.35647 -16837628.07948  21774568.6884                   21774559.7344
        46.2504         49.7504
  -5815720.01746  -4513616.95143  24503442.4144                   24503430.0044
        37.0004         19.0004
 -21040048.15847 -16365875.19648  21215560.4694                   21215549.4654
        47.2504         53.0004
 -15696299.05947 -13473526.05047  22084666.3984                   22084657.7384
        43.2504         45.5004
  -8095928.61646  -6520355.71145  23694144.6254                   23694137.4884
        36.0004         33.5004
 -17110555.29948 -19619032.22749  20931767.5864                   20931758.1054
        52.5004         55.0004
 23  1  5  1 50 30.0000000  0 10G23G03G22G21G10G12G31G01G25G32
   3123768.97945    344233.28243  24680391.7424                   24680381.7934
        35.7504         20.7504
  -3479318.35145  -2993007.62645  24992647.7734                   24992640.4024
        34.0004         30.5004
 -17975170.77148 -13749951.19747  20595446.3674                   20595434.9534
        49.5004         42.0004
 -19577846.73447 -14255284.75146  22174213.2344                   22174201.1764
        47.7504         37.0004
 -21211154.90747 -16785956.07648  21787187.7344                   21787178.8404
        46.5004         50.0004
  -5836344.01646  -4529687.60843  24499516.1724                   24499505.6374
        36.2504         19.5004
 -21120298.61747 -16428408.02548  21200289.6414                   21200278.5204
        47.5004         53.0004
 -15748191.33947 -13513961.58347  22074790.9534                   22074783.2304
        42.5004         45.5004
  -8150076.99745  -6562549.26445  23683840.1884                   23683833.3444
        35.0004         33.2504
 -17073099.77948 -19589846.11949  20938894.9384                   20938885.7504
        52.5004         54.7504
 23  1  5  1 51  0.0000000  0 10G23G03G22G21G10G12G31G01G25G32
   3222081.26345    420840.07643  24699099.4534                   24699091.0864
        35.7504         21.5004
  -3580395.86045  -3071769.34145  24973414.1024                   24973406.0864
        35.2504         30.0004
 -17986192.16448 -13758539.29447  20593348.8054                   20593337.5084
        48.7504         42.2504
 -19580013.12947 -14256972.86946  22173800.5634                   22173788.5634
        46.5004         37.0004
 -21144516.80147 -16734030.32248  21799868.2734                   21799860.0824
        46.0004         49.7504
  -5856424.05145  -4545334.44942  24495692.5474                   24495685.2934
        33.2504         17.7504
 -21200076.58147 -16490572.65848  21185108.0084                   21185097.2974
        47.5004         53.0004
 -15799517.02947 -13553955.62447  22065024.7344                   22065016.1334
        43.0004         45.5004
  -8203789.22645  -6604402.94545  23673619.7504                   23673612.0274
        35.5004         33.5004
 -17035382.07648 -19560455.71149  20946072.5164                   20946063.3284
        52.0004         54.7504
 23  1  5  1 51 30.0000000  0 10G23G03G22G21G10G12G31G01G25G32
   3320524.19946    497548.67543  24717832.1954                   24717823.7114
        36.0004         20.2504
  -3681482.82345  -3150538.37544  24954177.4694                   24954169.4534
        34.5004         29.5004
 -17996911.91048 -13766892.34347  20591308.8134                   20591297.5744
        49.0004         42.2504
 -19581691.62747 -14258280.81546  22173481.5004                   22173469.3244
        46.5004         36.7504
 -21077553.52947 -16681851.19648  21812611.1024                   21812602.1484
        46.0004         49.7504
  -5875959.40746  -4560556.80143  24491978.9454                   24491967.7074
        37.5004         19.2504
 -21279379.43747 -16552367.06748  21170017.2344                   21170006.4654
        47.5004         53.0004
 -15850274.24547 -13593506.70447  22055366.0554                   22055356.9264
        43.2504         45.7504
  -8257062.52245  -6645914.61845  23663481.8524                   23663474.1294
        35.0004         33.5004
 -16997403.24948 -19530861.83749  20953299.3524                   20953290.3404
        51.7504         55.0004
 23  1  5  1 52  0.0000000  0 10G23G03G22G21G10G12G31G01G25G32
   3419096.50846    574358.07343  24736591.5004                   24736581.7274
        36.0004         20.7504
  -3782577.92145  -3229313.76745  24934940.0944                   24934932.0204
        34.5004         30.0004
 -18007330.60248 -13775010.81347  20589326.1804                   20589315.0004
        48.7504         42.2504
 -19582882.28347 -14259208.61146  22173254.5474                   22173242.7234
        47.0004         36.5004
 -21010266.19247 -16629419.54648  21825415.6174                   21825406.7234
        46.2504         49.7504
  -5894948.65645  -4575353.62543  24488364.5784                   24488353.5164
        35.7504         19.0004
 -21358205.03648 -16613789.60448  21155017.2424                   21155006.0634
        48.0004         53.0004
 -15900461.24247 -13632613.44747  22045815.0234                   22045806.4224
        43.0004         45.5004
  -8309894.42245  -6687082.31445  23653428.3444                   23653420.8554
        35.7504         33.5004
 -16959164.35348 -19501065.32149  20960576.1094                   20960566.6884
        52.5004         54.7504
 23  1  5  1 52 30.0000000  0 10G23G03G22G21G10G12G31G01G25G32
   3517797.12245    651267.46243  24755371.0784                   24755363.7664
        35.0004         20.7504
  -3883680.27145  -3308094.82744  24915700.1254                   24915693.2814
        34.5004         29.5004
 -18017448.92348 -13782895.21747  20587400.7734                   20587389.5944
        49.0004         42.0004
 -19583583.94647 -14259755.37246  22173121.4304                   22173109.3134
        47.7504         37.7504
 -20942654.66347 -16576735.28348  21838281.0164                   21838273.0004
        46.5004         49.5004
  -5913390.38545  -4589723.86743  24484856.5004                   24484844.6174
        35.5004         19.0004
 -21436551.27248 -16674838.61948  21140108.9224                   21140097.6844
        48.5004         53.2504
 -15950076.21747 -13671274.46747  22036373.8444                   22036365.7114
        43.0004         45.7504
  -8362282.25145  -6727904.01745  23643459.0784                   23643451.4734
        35.7504         33.7504
 -16920666.54348 -19471067.04449  20967902.2034                   20967892.7814
        52.0004         55.0004
 23  1  5  1 53  0.0000000  0 10G23G03G22G21G10G12G31G01G25G32
   3616625.48945    728276.34343  24774177.6884                   24774170.7854
        34.0004         19.7504
  -3984787.93645  -3386880.04045  24896460.5634                   24896452.7814
        34.5004         30.5004
 -18027267.03448 -13790545.68847  20585532.5164                   20585521.2774
        49.0004         42.2504
 -19583796.85347 -14259921.29146  22173080.9304                   22173068.6374
        47.0004         37.7504
 -20874719.19047 -16523798.59948  21851209.4224                   21851201.0554
        47.2504         49.7504
  -5931282.59245  -4603665.84043  24481448.0084                   24481439.5824
        34.0004         19.0004
 -21514415.11148 -16735511.72448  21125291.4454                   21125280.0904
        48.5004         53.2504
 -15999116.83747 -13709487.93047  22027041.9924                   22027033.1564
        42.7504         45.7504
  -8414222.88646  -6768377.24945  23633575.1954                   23633567.7664
        37.0004         33.5004
 -16881910.31248 -19440867.40049  20975277.3444                   20975268.1564
        52.2504         54.7504
 23  1  5  1 53 30.0000000  0 10G23G03G22G21G10G12G31G01G25G32
   3715579.94045    805383.52443  24793008.6724                   24793001.3594
        35.2504         19.5004
  -4085900.65745  -3465669.18445  24877219.4614                   24877211.6804
        34.5004         31.2504
 -18036786.56648 -13797963.50447  20583721.1174                   20583709.7034
        49.5004         42.5004
 -19583522.22747 -14259707.31646  22173133.3594                   22173121.4184
        47.5004         37.7504
 -20806461.40347 -16470610.76348  21864198.4304                   21864190.0044
        47.2504         49.5004
  -5948625.13346  -4617179.56543  24478152.8524                   24478141.5554
        37.7504         21.0004
 -21591795.19148 -16795807.88148  21110566.3284                   21110554.6804
        48.0004         53.2504
 -16047582.14747 -13747253.10147  22017819.4144                   22017810.4614
        42.7504         45.7504
  -8465714.55846  -6808500.67345  23623777.3984                   23623769.2664
        36.0004         33.7504
 -16842897.61448 -19410467.90649  20982701.1254                   20982691.7034
        52.5004         54.7504
 23  1  5  1 54  0.0000000  0 10G23G03G22G21G10G12G31G01G25G32
   3814660.04545    882588.58243  24811864.8134                   24811855.8594
        35.2504         20.5004
  -4187016.40345  -3544460.66945  24857977.8364                   24857969.4694
        35.0004         31.7504
 -18046007.31448 -13805148.50147  20581966.4614                   20581954.8134
        49.5004         42.2504
 -19582759.05647 -14259112.65946  22173278.9144                   22173266.7384
        46.2504         37.5004
 -20737880.75447 -16417171.33948  21877248.2664                   21877240.1914
        45.7504         49.5004
  -5965416.00046  -4630263.35743  24474955.8754                   24474944.6954
        37.7504         19.2504
 -21668688.21348 -16855724.51248  21095934.7894                   21095922.6724
        48.5004         53.2504
 -16095469.51747 -13784567.93047  22008707.4454                   22008697.3794
        43.0004         46.0004
  -8516753.74846  -6848271.45045  23614064.3204                   23614057.4184
        36.0004         34.0004
 -16803628.58748 -19379868.67549  20990174.0084                   20990164.1764
        53.0004         54.7504
