     2.10           OBSERVATION DATA    G (GPS)             RINEX VERSION / TYPE
teqc  2004Apr5                          20041208 15:58:13UTCPGM / RUN BY / DATE
OBSERVATION MODE: Permanent                                 COMMENT
CHUM Chumysh (CHUM)                                         MARKER NAME
25601M001                                                   MARKER NUMBER
T136                ROGUE SNR-8000       3.20               REC # / TYPE / VERS
113                 AOAD/M_T        NONE                    ANT # / TYPE
        0.0900        0.0000        0.0000                  ANTENNA: DELTA H/E/N
  1228950.8678  4508079.8907  4327868.4895                  APPROX POSITION XYZ
  74.75109758  42.99850107  716.3230  LonLatAlt  S/W        COMMENT
Linux 2.0.36|Pentium II|gcc -static|Linux|486/DX+           COMMENT
BIT 2 OF LLI FLAGS DATA COLLECTED UNDER A/S CONDITION       COMMENT
Konovalov           IVTAN                                   OBSERVER / AGENCY
     1     1                                                WAVELENGTH FACT L1/2
     5    L1    L2    C1    P2    P1                        # / TYPES OF OBSERV
    30.0000                                                 INTERVAL
    P1 =    P1  TurboRogue; =    Y1  Benchmark              COMMENT
    L1 = L1(P1) TurboRogue; = L1(Y1) Benchmark              COMMENT
    P2 =    P2  TurboRogue; =    Y2  Benchmark              COMMENT
    L2 = L2(P2) TurboRogue; = L2(Y2) Benchmark              COMMENT
 SNR is mapped to RINEX snr flag value [1,4-9]              COMMENT
    SNR:  >=316 >=100 >=31.6 >=10 >=3.2    >0 bad=0         COMMENT
L1 & L2:      9     8     7     6     5     4     1         COMMENT
  2002     1     6     0     0    0.0000000     GPS         TIME OF FIRST OBS
  2002     1     6    23    59   30.0000000     GPS         TIME OF LAST OBS
                                                            END OF HEADER
 02  1  6  0  0  0.0000000  0  8G14G 1G22G29G30G25G20G11
  -3983944.45949  -3104370.58445  22894303.539    22894303.930
  -6471544.92248  -5042757.71945  23864914.954    23864918.226
  -8602020.15348  -6702874.38345  23259913.855    23259916.258
 -12063293.87649  -9399965.78846  21472609.773    21472610.312
    556586.21648    433703.60144  23650905.723    23650907.144
 -24011308.92649 -18710108.39347  20525163.066    20525163.596
 -19317531.79149 -15052621.57046  21680923.175    21680923.593
 -12194546.84748  -9502248.83945  23017687.434    23017687.032
 02  1  6  0  0 30.0000000  0  8G14G 1G22G29G30G25G20G11
  -3908865.80348  -3045867.76545  22908589.695    22908590.827
  -6552178.07548  -5105588.63945  23849570.871    23849571.687
  -8713573.14448  -6789798.81845  23238685.640    23238687.389
 -12011485.39749  -9359595.55346  21482468.774    21482469.222
    610336.30348    475586.77245  23661134.521    23661135.435
 -23993146.24149 -18695955.64647  20528619.242    20528619.866
 -19390034.63549 -15109117.29746  21667125.826    21667126.338
 -12129271.98848  -9451385.37045  23030109.062    23030110.451
 02  1  6  0  1  0.0000000  0  8G14G 1G22G29G30G25G20G11
  -3833667.03549  -2987271.34845  22922900.620    22922900.239
  -6632753.53648  -5168374.63045  23834237.481    23834240.692
  -8825011.99848  -6876634.28445  23217479.868    23217483.001
 -11959484.09049  -9319075.06246  21492363.875    21492364.741
    664595.39148    517866.60445  23671460.428    23671460.462
 -23974570.86549 -18681481.31647  20532153.927    20532154.405
 -19462183.21049 -15165336.96846  21653396.635    21653397.038
 -12063661.98548  -9400260.71545  23042594.691    23042595.343
 02  1  6  0  1 30.0000000  0  8G14G 1G22G29G30G25G20G11
  -3758340.05649  -2928575.02445  22937234.558    22937234.106
  -6713262.68648  -5231108.93945  23818916.577    23818919.223
  -8936324.90748  -6963371.61645  23196297.561    23196300.619
 -11907282.05449  -9278398.16546  21502297.905    21502298.482
    719370.36048    560548.38445  23681882.346    23681884.724
 -23955575.72249 -18666679.89347  20535768.586    20535769.033
 -19533966.71049 -15221272.15546  21639736.767    21639737.018
 -11997710.92148  -9348870.31045  23055144.143    23055143.618
 02  1  6  0  2  0.0000000  0  8G14G 1G22G29G30G25G20G11
  -3682871.73949  -2869768.57045  22951595.486    22951596.080
  -6793691.50648  -5293780.65245  23803612.434    23803615.602
  -9047495.24648  -7049997.85945  23175142.726    23175144.356
 -11854865.68749  -9237554.25546  21512272.292    21512272.791
    774672.87448    603641.28545  23692407.024    23692408.109
 -23936148.67749 -18651541.92947  20539465.540    20539466.058
 -19605369.16149 -15276910.42146  21626149.387    21626149.848
 -11931408.15948  -9297205.83045  23067761.931    23067762.361
 02  1  6  0  2 30.0000000  0  8G14G 1G22G29G30G25G20G11
  -3607277.43449  -2810863.95645  22965981.041    22965981.431
  -6874054.31948  -5356400.97445  23788320.124    23788321.151
  -9158534.56848  -7136522.02544  23154012.322    23154015.179
 -11802249.97749  -9196555.01746  21522284.625    21522285.218
    830486.55948    647132.50745  23703027.819    23703026.911
 -23916305.73349 -18636079.88647  20543241.514    20543241.951
 -19676402.84749 -15332261.34846  21612631.724    21612632.076
 -11864771.01248  -9245280.81045  23080441.731    23080442.140
 02  1  6  0  3  0.0000000  0  8G14G 1G22G29G30G25G20G11
  -3531574.37449  -2751874.57545  22980386.940    22980387.015
  -6954367.95648  -5418982.93545  23773036.638    23773039.232
  -9269456.52048  -7222954.68245  23132905.103    23132908.248
 -11749452.21049  -9155413.91446  21532331.628    21532332.573
    886792.39448    691007.20545  23713742.249    23713744.973
 -23896065.31749 -18620308.13047  20547093.145    20547093.558
 -19747082.49549 -15387336.39346  21599182.263    21599182.578
 -11797819.36248  -9193110.71245  23093182.908    23093185.484
 02  1  6  0  3 30.0000000  0  8G14G 1G22G29G30G25G20G11
  -3455735.28849  -2692779.21145  22994818.604    22994819.195
  -7034604.16448  -5481504.55845  23757767.723    23757769.887
  -9380230.18848  -7309271.83145  23111825.745    23111829.006
 -11696444.77349  -9114109.43246  21542418.809    21542419.534
    943616.56148    735285.76645  23724555.456    23724557.270
 -23875400.70849 -18604205.83847  20551025.788    20551026.238
 -19817377.83949 -15442111.97846  21585805.432    21585805.773
 -11730528.13848  -9140676.02344  23105988.567    23105989.094
 02  1  6  0  4  0.0000000  0  8G14G 1G22G29G30G25G20G11
  -3379760.65049  -2633578.22045  23009276.098    23009275.632
  -7114762.73948  -5543965.73445  23742513.410    23742515.844
  -9490852.33648  -7395470.90445  23090774.618    23090775.521
 -11643227.79049  -9072641.66746  21552545.456    21552546.356
   1000957.00648    779966.64744  23735466.992    23735468.088
 -23854313.07449 -18587773.91447  20555038.681    20555039.102
 -19887286.50249 -15496586.25246  21572501.963    21572502.438
 -11662900.20348  -9087978.96944  23118856.310    23118856.376
 02  1  6  0  4 30.0000000  0  8G14G 1G22G29G30G25G20G11
  -3303653.70949  -2574274.12945  23023758.817    23023759.839
  -7194846.50248  -5606368.61845  23727275.805    23727276.592
  -9601322.91448  -7481551.87545  23069752.790    23069755.990
 -11589804.68649  -9031013.28946  21562711.718    21562712.374
   1058808.73548    825045.91545  23746475.911    23746475.586
 -23832806.97849 -18571015.91347  20559130.815    20559131.214
 -19956809.43549 -15550759.95946  21559272.594    21559272.938
 -11594941.42448  -9035024.12945  23131789.974    23131791.405
 02  1  6  0  5  0.0000000  0  8G14G 1G22G29G30G25G20G11
  -3227423.16049  -2514873.71645  23038264.940    23038265.460
  -7274863.21848  -5668719.25145  23712047.819    23712050.512
  -9711646.77748  -7567518.54445  23048758.472    23048761.501
 -11536183.83549  -8989230.82246  21572915.354    21572915.899
   1117161.61648    870515.69744  23757579.692    23757582.779
 -23810891.85649 -18553939.19747  20563300.847    20563301.360
 -20025952.30649 -15604637.52346  21546114.582    21546115.065
 -11526662.82548  -8981820.06844  23144782.275    23144781.941
 02  1  6  0  5 30.0000000  0  8G14G 1G22G29G30G25G20G11
  -3151082.98949  -2455387.88745  23052791.951    23052791.649
  -7354826.18748  -5731028.00845  23696830.813    23696832.422
  -9821834.28848  -7653378.92245  23027790.212    23027792.170
 -11482379.05949  -8947305.04246  21583154.143    21583154.613
   1176000.47548    916364.20844  23768776.306    23768776.728
 -23788582.68649 -18536555.42447  20567546.342    20567546.786
 -20094726.16449 -15658227.55146  21533027.587    21533027.846
 -11458080.59148  -8928379.39744  23157832.335    23157833.123
 02  1  6  0  6  0.0000000  0  8G14G 1G22G29G30G25G20G11
  -3074618.32849  -2395805.04745  23067342.899    23067343.145
  -7434719.56148  -5793282.54745  23681628.812    23681631.099
  -9931866.91148  -7739118.61445  23006852.570    23006853.987
 -11428375.15449  -8905224.08946  21593430.712    21593431.222
   1235338.52148    962601.64445  23780068.308    23780069.818
 -23765865.38649 -18518853.63247  20571869.337    20571869.654
 -20163113.42749 -15711516.32346  21520013.821    21520014.031
 -11389182.30048  -8874692.46244  23170943.941    23170945.511
 02  1  6  0  6 30.0000000  0  8G14G 1G22G29G30G25G20G11
  -2998030.67949  -2336126.39645  23081916.646    23081916.434
  -7514543.99348  -5855483.36645  23666437.000    23666440.207
 -10041742.40948  -7824735.87945  22985943.725    22985946.005
 -11374173.28749  -8862988.88646  21603745.151    21603745.767
   1295172.94548   1009225.88844  23791454.007    23791454.318
 -23742742.35249 -18500835.68547  20576269.371    20576269.687
 -20231112.67349 -15764502.74346  21507073.985    21507074.426
 -11319971.73848  -8820762.14844  23184114.593    23184113.960
 02  1  6  0  7  0.0000000  0  8G14G 1G22G29G30G25G20G11
  -2921323.39149  -2276354.49345  23096513.964    23096514.418
  -7594302.30048  -5917632.64145  23651261.295    23651261.637
 -10151460.65248  -7910230.61045  22965065.324    22965067.693
 -11319776.91049  -8820602.11346  21614096.375    21614097.024
   1355498.41348   1056232.73744  23802933.676    23802933.077
 -23719218.31849 -18482505.27147  20580745.830    20580746.245
 -20298724.73249 -15817187.46146  21494208.152    21494208.372
 -11250454.71648  -8766593.03844  23197342.773    23197344.642
 02  1  6  0  7 30.0000000  0  8G14G 1G22G29G30G25G20G11
  -2844490.65549  -2216484.85045  23111135.273    23111134.943
  -7673987.90948  -5979725.28645  23636095.896    23636098.616
 -10261011.99248  -7995595.32045  22944217.896    22944220.170
 -11265179.75649  -8778058.88446  21624485.793    21624486.634
   1416319.52548   1103625.84844  23814506.952    23814506.513
 -23695288.14049 -18463858.38047  20585299.708    20585299.962
 -20365940.89049 -15869563.68246  21481416.821    21481417.171
 -11180627.76948  -8712182.45444  23210630.419    23210631.143
 02  1  6  0  8  0.0000000  0  8G14G 1G22G29G30G25G20G11
  -2767527.03848  -2156513.21345  23125779.846    23125780.426
  -7753594.90348  -6041756.65645  23620946.828    23620948.329
 -10370387.57548  -8080823.06145  22923404.647    22923407.592
 -11210376.48449  -8735355.05346  21634914.558    21634915.119
   1477640.10448   1151408.12344  23826176.692    23826177.760
 -23670947.51949 -18444891.66047  20589931.810    20589932.090
 -20432752.98349 -15921625.04046  21468703.481    21468703.716
 -11110488.12148  -8657528.20144  23223977.906    23223977.636
 02  1  6  0  8 30.0000000  0  8G14G 1G22G29G30G25G20G11
  -2690425.87648  -2096434.41745  23140452.380    23140452.020
  -7833115.69148  -6103720.83445  23605814.505    23605817.992
 -10479577.11548  -8165905.83745  22902626.585    22902628.426
 -11155359.97049  -8692485.05646  21645383.837    21645384.151
   1539464.91148   1199583.34144  23837941.284    23837945.051
 -23646190.62749 -18425600.57247  20594642.719    20594643.069
 -20499151.75349 -15973364.31346  21456068.448    21456068.490
 -11040031.36648  -8602626.83544  23237385.364    23237386.380
 02  1  6  0  9  0.0000000  0  8G14G 1G22G29G30G25G20G11
  -2613210.61948  -2036266.70345  23155145.879    23155145.481
  -7912572.78548  -6165635.46445  23590694.748    23590699.709
 -10588600.13148  -8250858.84945  22881880.532    22881883.725
 -11100153.47249  -8649467.01846  21655889.464    21655889.833
   1601769.34848   1248132.23744  23849797.472    23849797.095
 -23621041.52249 -18406003.86447  20599428.435    20599428.513
 -20565157.69749 -16024797.50846  21443507.269    21443507.601
 -10969283.30748  -8547498.49544  23250847.580    23250848.837
 02  1  6  0  9 30.0000000  0  8G14G 1G22G29G30G25G20G11
  -2535861.54948  -1975994.71945  23169864.247    23169864.077
  -7991945.91448  -6227484.61745  23575591.659    23575594.793
 -10697433.39348  -8335663.98145  22861169.995    22861172.142
 -11044737.16949  -8606285.49646  21666434.742    21666435.332
   1664570.99648   1297068.64844  23861748.238    23861747.851
 -23595481.87549 -18386087.25247  20604292.394    20604292.578
 -20630748.54049 -16075907.25846  21431025.882    21431026.403
 -10898226.92148  -8492129.86744  23264369.754    23264370.161
 02  1  6  0 10  0.0000000  0  8G14G 1G22G29G30G25G20G11
  -2458389.13548  -1915626.64145  23184607.626    23184608.039
  -8071244.65748  -6289275.80345  23560499.349    23560501.217
 -10806083.68348  -8420326.55745  22840494.675    22840497.304
 -10989121.19949  -8562948.38246  21677018.133    21677018.675
   1727858.00448   1346383.23244  23873791.410    23873792.570
 -23569522.82749 -18365859.41947  20609232.077    20609232.367
 -20695931.98749 -16126699.55746  21418621.855    21418622.239
 -10826874.97548  -8436530.95744  23277947.731    23277949.647
 02  1  6  0 10 30.0000000  0  8G14G 1G22G29G30G25G20G11
  -2380801.58948  -1855168.84245  23199371.741    23199371.446
  -8150476.48548  -6351014.85645  23545422.740    23545427.104
 -10914555.64348  -8504850.17745  22819853.157    22819854.317
 -10933313.66249  -8519461.99946  21687637.840    21687638.665
   1791620.52848   1396068.33944  23885924.989    23885925.788
 -23543173.73849 -18345327.65847  20614246.256    20614246.554
 -20760713.20649 -16177178.42746  21406294.385    21406294.636
 -10755238.17048  -8380710.07144  23291579.199    23291581.507
 02  1  6  0 11  0.0000000  0  8G14G 1G22G29G30G25G20G11
  -2303094.10448  -1794617.58445  23214158.830    23214160.135
  -8229635.58748  -6412697.25145  23530360.993    23530363.322
 -11022840.33948  -8589227.87545  22799247.095    22799249.018
 -10877309.21249  -8475822.17346  21698295.306    21698295.766
   1855861.83248   1446126.48744  23898149.450    23898150.390
 -23516430.66949 -18324488.89747  20619335.291    20619335.333
 -20825084.68349 -16227338.01546  21394044.940    21394045.309
 -10683314.34948  -8324665.53545  23305265.962    23305265.391
 02  1  6  0 11 30.0000000  0  8G14G 1G22G29G30G25G20G11
  -2225278.23748  -1733981.87645  23228967.380    23228967.533
  -8308733.12048  -6474331.64245  23515307.906    23515311.333
 -11130946.25248  -8673466.24045  22778675.113    22778677.092
 -10821119.68349  -8432038.13546  21708988.014    21708988.144
   1920568.29048   1496547.14944  23910463.057    23910462.604
 -23489306.49849 -18303353.17547  20624496.942    20624496.916
 -20889055.63149 -16277185.49546  21381871.563    21381872.117
 -10611117.41548  -8268408.21844  23319005.557    23319007.082
 02  1  6  0 12  0.0000000  0  8G14G 1G22G29G30G25G20G11
  -2147336.53348  -1673248.10845  23243798.680    23243799.118
  -8387751.04948  -6535904.03945  23500272.281    23500274.190
 -11238852.27948  -8757548.86845  22758141.530    22758142.794
 -10764727.54249  -8388096.21846  21719718.743    21719719.131
   1985755.54348   1547342.43344  23922867.276    23922868.051
 -23461784.90849 -18281907.78247  20629733.977    20629734.130
 -20952605.94149 -16326705.20946  21369778.358    21369778.866
 -10538632.16148  -8211926.18644  23332798.161    23332799.258
 02  1  6  0 12 30.0000000  0  8G14G 1G22G29G30G25G20G11
  -2069257.20648  -1612407.11445  23258657.260    23258656.915
  -8466676.66548  -6597404.48845  23485252.635    23485254.546
 -11346542.79648  -8841463.57345  22737648.373    22737650.942
 -10708120.50249  -8343986.84346  21730490.700    21730491.742
   2051433.93248   1598520.43044  23935365.411    23935364.065
 -23433855.01549 -18260144.22947  20635048.746    20635048.993
 -21015720.85649 -16375885.64746  21357768.175    21357768.529
 -10465849.52848  -8155212.45844  23346648.788    23346649.128
 02  1  6  0 13  0.0000000  0  8G14G 1G22G29G30G25G20G11
  -1991059.61348  -1551473.95945  23273537.654    23273538.084
  -8545528.46848  -6658847.40745  23470247.670    23470249.717
 -11454033.48548  -8925222.56745  22717193.851    22717196.119
 -10651317.78949  -8299724.99546  21741300.073    21741300.667
   2117582.15048   1650064.48844  23947953.294    23947954.633
 -23405537.46449 -18238078.60747  20640437.731    20640437.806
 -21078417.23549 -16424739.95546  21345837.656    21345837.990
 -10392791.27048  -8098283.97644  23360551.666    23360550.738
 02  1  6  0 13 30.0000000  0  8G14G 1G22G29G30G25G20G11
  -1912759.35048  -1490460.80845  23288437.197    23288436.198
  -8624321.31148  -6720244.41245  23455254.446    23455255.607
 -11561336.13248  -9008835.01245  22696774.839    22696777.259
 -10594334.79349  -8255322.66546  21752143.361    21752143.955
   2184183.05848   1701961.35044  23960626.870    23960627.806
 -23376848.78649 -18215723.79447  20645896.920    20645896.842
 -21140708.00749 -16473278.21046  21333983.588    21333984.128
 -10319475.73848  -8041155.05444  23374502.625    23374503.470
 02  1  6  0 14  0.0000000  0  8G14G 1G22G29G30G25G20G11
  -1834335.60648  -1429351.43245  23303361.380    23303361.934
  -8703033.56148  -6781578.62145  23440275.598    23440277.634
 -11668426.59148  -9092282.11245  22676396.223    22676399.402
 -10537150.57249  -8210763.54146  21763025.323    21763026.078
   2251255.64848   1754225.69444  23973389.714    23973392.696
 -23347769.05649 -18193064.26347  20651430.681    20651430.805
 -21202569.45049 -16521481.92246  21322211.728    21322212.151
 -10245884.45948  -7983811.22644  23388506.350    23388507.027
 02  1  6  0 14 30.0000000  0  8G14G 1G22G29G30G25G20G11
  -1755787.82448  -1368145.40845  23318308.616    23318308.214
  -8781663.81348  -6842848.91945  23425312.439    23425313.755
 -11775300.42048  -9175560.40445  22656058.958    22656061.506
 -10479764.23349  -8166046.92046  21773945.496    21773946.441
   2318798.59548   1806856.62844  23986242.985    23986243.949
 -23318298.80549 -18170100.43247  20657038.825    20657038.981
 -21263998.25949 -16569348.52547  21310522.780    21310523.062
 -10172019.35348  -7926254.02244  23402562.981    23402563.618
 02  1  6  0 15  0.0000000  0  8G14G 1G22G29G30G25G20G11
  -1677112.19248  -1306839.74845  23333279.314    23333279.108
  -8860207.43848  -6904051.74245  23410366.955    23410369.098
 -11881950.15048  -9258664.09545  22635763.364    22635766.513
 -10422171.78949  -8121169.69846  21784905.005    21784905.635
   2386814.09748   1859855.71144  23999186.687    23999186.362
 -23288435.17549 -18146830.07047  20662721.617    20662721.756
 -21324988.21549 -16616873.16846  21298916.172    21298916.492
 -10097879.07348  -7868482.42944  23416671.419    23416670.849
 02  1  6  0 15 30.0000000  0  8G14G 1G22G29G30G25G20G11
  -1598315.80148  -1245439.99845  23348274.412    23348274.862
  -8938670.76848  -6965191.97045  23395435.559    23395438.210
 -11988379.17248  -9341595.78945  22615510.997    22615514.219
 -10364380.20049  -8076137.30246  21795902.300    21795902.756
   2455293.00448   1913215.92744  24012216.662    24012217.174
 -23258186.45449 -18123259.64147  20668477.595    20668477.708
 -21385543.68949 -16664059.25947  21287392.885    21287393.233
 -10023473.14648  -7810503.77444  23430829.689    23430828.443
 02  1  6  0 16  0.0000000  0  8G14G 1G22G29G30G25G20G11
  -1519396.22548  -1183944.25845  23363292.786    23363293.424
  -9017050.89548  -7026267.35345  23380520.471    23380521.787
 -12094581.56748  -9424350.90245  22595301.552    22595302.372
 -10306386.89549  -8030947.72546  21806938.281    21806938.717
   2524235.89548   1966937.69044  24025337.244    24025339.366
 -23227551.40449 -18099388.17247  20674307.431    20674307.543
 -21445659.77849 -16710902.96847  21275953.564    21275953.817
  -9948801.88948  -7752318.35244  23445039.373    23445042.411
 02  1  6  0 16 30.0000000  0  8G14G 1G22G29G30G25G20G11
  -1440369.31448  -1122364.90545  23378330.506    23378329.991
  -9095362.91248  -7087289.70345  23365617.855    23365618.333
 -12200569.61648  -9506938.97445  22575132.349    22575134.801
 -10248207.59649  -7985613.21846  21818009.247    21818010.093
   2593624.84648   2021007.02444  24038540.368    24038542.419
 -23196546.90349 -18075228.82247  20680207.307    20680207.452
 -21505349.69149 -16757414.59747  21264594.951    21264595.107
  -9873883.67048  -7693940.51944  23459295.815    23459297.652
 02  1  6  0 17  0.0000000  0  8G14G 1G22G29G30G25G20G11
  -1361244.92948  -1060709.54745  23393387.557    23393387.697
  -9173615.35448  -7148265.60745  23350726.693    23350728.643
 -12306349.09448  -9589364.54445  22555004.009    22555006.129
 -10189851.53749  -7940140.97546  21829114.213    21829114.689
   2663448.84348   2075415.36044  24051827.412    24051827.269
 -23165183.93249 -18050790.14547  20686175.419    20686175.596
 -21564620.17349 -16803599.38947  21253316.164    21253316.519
  -9798730.70248  -7635379.75744  23473596.894    23473598.943
 02  1  6  0 17 30.0000000  0  8G14G 1G22G29G30G25G20G11
  -1282007.40248   -998966.10445  23408466.000    23408466.303
  -9251791.92248  -7209182.39945  23335850.341    23335852.512
 -12411900.91648  -9671612.72545  22534917.924    22534921.133
 -10131303.22649  -7894518.92046  21840255.669    21840256.075
   2733721.22548   2130173.11644  24065200.974    24065202.935
 -23133448.07949 -18026060.90947  20692214.453    20692214.580
 -21623453.15249 -16849443.28447  21242120.229    21242120.478
  -9723330.07848  -7576626.04144  23487945.018    23487945.993
 02  1  6  0 18  0.0000000  0  8G14G 1G22G29G30G25G20G11
  -1202639.94148   -937121.37545  23423569.090    23423570.038
  -9329875.34248  -7270026.63345  23320991.736    23320993.191
 -12517204.83548  -9753667.71745  22514879.142    22514882.585
 -10072545.79949  -7848733.92946  21851436.881    21851437.348
   2804456.79248   2185291.72344  24078660.744    24078661.275
 -23101323.45649 -18001028.73347  20698327.557    20698327.746
 -21681829.67549 -16894931.49047  21231011.751    21231012.069
  -9647667.69148  -7517668.37444  23502344.135    23502343.412
 02  1  6  0 18 30.0000000  0  8G14G 1G22G29G30G25G20G11
  -1123157.61048   -875187.13545  23438694.114    23438695.214
  -9407879.58948  -7330809.15345  23306147.466    23306148.824
 -12622271.93649  -9835538.18345  22494885.906    22494887.276
 -10013593.83649  -7802797.33246  21862654.942    21862655.466
   2875638.77748   2240758.23944  24092206.776    24092208.144
 -23068826.48549 -17975706.41847  20704511.494    20704511.842
 -21739761.75649 -16940073.37547  21219987.802    21219988.257
  -9571760.75248  -7458520.11044  23516787.536    23516789.646
 02  1  6  0 19  0.0000000  0  8G14G 1G22G29G30G25G20G11
  -1043550.61548   -813155.76845  23453842.427    23453843.711
  -9485794.37748  -7391521.99745  23291320.982    23291323.297
 -12727088.98348  -9917213.79345  22474939.037    22474941.191
  -9954437.60349  -7756701.58346  21873912.112    21873912.541
   2947274.86248   2296578.58344  24105837.918    24105835.707
 -23035948.30149 -17950087.05347  20710768.015    20710768.425
 -21797237.14449 -16984859.38647  21209050.536    21209051.036
  -9495602.44948  -7399176.03044  23531280.444    23531282.782
 02  1  6  0 19 30.0000000  0  8G14G 1G22G29G30G25G20G11
   -963836.67448   -751041.06545  23469012.383    23469011.888
  -9563636.36248  -7452178.15845  23276508.556    23276510.104
 -12831669.79148  -9998705.32545  22455037.895    22455040.899
  -9895094.29649  -7710460.05346  21885204.815    21885205.710
   3019345.69348   2352737.70844  24119553.112    24119555.283
 -23002707.67749 -17924185.26647  20717093.653    20717094.023
 -21854270.76449 -17029301.15947  21198197.307    21198197.826
  -9419212.79448  -7339651.60044  23545816.384    23545817.299
 02  1  6  0 20  0.0000000  0  8G14G 1G22G29G30G25G20G11
   -884022.47148   -688848.23545  23484199.962    23484200.495
  -9641411.65548  -7512782.33545  23261708.622    23261709.932
 -12936017.71349 -10080015.37345  22435181.800    22435184.919
  -9835570.83549  -7664078.15546  21896531.766    21896532.080
   3091842.14648   2409228.57044  24133348.187    24133346.103
 -22969112.76449 -17898007.40647  20723486.309    20723486.738
 -21910867.01149 -17073402.12747  21187427.619    21187428.006
  -9342601.05248                  23560395.633
 02  1  6  0 20 30.0000000  0  8G14G 1G22G29G30G25G20G11
   -804087.20048   -626561.04945  23499411.386    23499411.803
  -9719098.35048  -7573317.42545  23246924.547    23246927.440
 -13040108.05749 -10161124.76645  22415373.592    22415376.164
  -9775846.00049  -7617539.34446  21907897.116    21907897.291
   3164783.37048   2466065.84444  24147227.779    24147229.488
 -22935143.69849 -17871538.00447  20729949.953    20729950.404
 -21967002.33949 -17117143.93247  21176745.195    21176745.667
  -9265749.05648                  23575020.010
 02  1  6  0 21  0.0000000  0  8G14G 1G22G29G30G25G20G11
   -724023.59848   -564173.88445  23514647.251    23514648.438
  -9796688.59148  -7633777.28445  23232159.618    23232162.157
 -13143930.04549 -10242025.01845  22395617.058    22395620.115
  -9715912.33149  -7570837.79346  21919301.785    21919302.510
   3238174.45748   2523253.75744  24161193.873    24161195.100
 -22900794.59649 -17844772.46247  20736486.759    20736487.182
 -22022667.20049 -17160519.13847  21166152.517    21166152.990
  -9188652.25048  -7159994.04644  23589689.448    23589691.279
 02  1  6  0 21 30.0000000  0  8G14G 1G22G29G30G25G20G11
   -643848.25948   -501699.65545  23529903.714    23529904.566
  -9874198.01348  -7694174.14445  23217410.591    23217412.192
 -13247496.65149 -10322726.27445  22375909.176    22375912.197
  -9655786.46849  -7523986.49046  21930743.471    21930744.275
   3311996.99948                  24175241.700
 -22866082.92649 -17817724.40247  20743092.306    20743092.751
 -22077875.50049 -17203538.59447  21155646.684    21155646.906
  -9111329.83948                  23604404.395
 02  1  6  0 22  0.0000000  0  8G14G 1G22G29G30G25G20G11
   -563574.88748   -439149.01145  23545179.884    23545180.219
  -9951639.37948  -7754518.05245  23202674.076    23202674.605
 -13350817.49349 -10403236.00245  22356247.656    22356249.581
  -9595481.34249  -7476995.49646  21942219.293    21942220.013
   3386235.39248   2638625.96844  24189369.943    24189370.981
 -22831023.36149 -17790405.25847  20749763.814    20749764.321
 -22132638.12849 -17246210.77047  21145225.801    21145226.225
  -9033797.54247                  23619156.679
 02  1  6  0 22 30.0000000  0  8G14G 1G22G29G30G25G20G11
   -483196.40748   -376516.46945  23560474.802    23560474.702
 -10029004.94848  -7814802.92545  23187951.743    23187954.260
 -13453882.31049 -10483546.25745  22336635.202    22336636.899
  -9534990.09149  -7429859.48046  21953730.494    21953731.013
   3460894.76548   2696802.09344  24203575.626    24203574.806
 -22795610.49149 -17762810.81047  20756502.769    20756503.240
 -22186945.81749 -17288528.45047  21134891.478    21134891.778
  -8956051.18548                  23633953.709
 02  1  6  0 23  0.0000000  0  8G14G 1G22G29G30G25G20G11
   -402696.24648   -313789.09945  23575794.056    23575795.197
 -10106277.36948  -7875015.21645  23173247.313    23173248.935
 -13556670.82749 -10563641.22045  22317075.068    22317076.945
  -9474296.06249  -7382565.45346  21965279.829    21965281.036
   3535989.41948   2755317.45444  24217866.072    24217866.063
 -22759828.63649 -17734928.83447  20763312.031    20763312.422
 -22240779.37349 -17330476.67147  21124647.182    21124647.747
  -8878077.11548                  23648791.214
 02  1  6  0 23 30.0000000  0  8G14G 1G22G29G30G25G20G11
   -322064.28948   -250959.05245  23591137.469    23591137.418
 -10183445.43248  -7935146.13145  23158562.952    23158564.049
 -13659169.14549 -10643510.03345  22297570.352    22297572.402
  -9413388.82649  -7335105.29646  21976870.623    21976871.053
   3611527.47248   2814178.30044  24232241.774    24232238.130
 -22723668.91149 -17706752.41747  20770192.797    20770193.255
 -22294126.25549 -17372045.66947  21114495.757    21114496.321
  -8799867.71348                  23663674.127
 02  1  6  0 24  0.0000000  0  8G14G 1G22G29G30G25G20G11
   -241310.73248   -188034.22145  23606504.113    23606504.329
 -10260518.85648  -7995203.29945  23143895.553    23143898.365
 -13761383.99549 -10723157.95845  22278119.121    22278121.497
  -9352278.59749  -7287486.94346  21988499.278    21988500.171
   3687496.61648   2873375.01544  24246697.667    24246699.030
 -22687142.91649 -17678290.59547  20777143.419    20777143.881
 -22346994.20949 -17413241.48147  21104435.411    21104435.825
  -8721435.56448                  23678599.285
 02  1  6  0 24 30.0000000  0  8G14G 1G22G29G30G25G20G11
   -160447.90648   -125024.27945  23621892.807    23621892.507
 -10337509.17748  -8055195.71845  23129245.413    23129248.000
 -13863323.86649 -10802591.60445  22258721.001    22258723.189
  -9290977.30749  -7239719.72746  22000164.384    22000164.757
   3763882.48848   2932896.50944  24261233.966    24261233.717
 -22650263.78549 -17649553.60247  20784161.505    20784161.813
 -22399392.95049 -17454071.66847  21094463.990    21094464.355
  -8642795.58348                  23693563.705
 02  1  6  0 25  0.0000000  0  8G14G 1G22G29G30G25G20G11
    -79477.00948    -61930.09445  23637300.010    23637301.467
 -10414416.49248  -8115123.48945  23114610.377    23114611.971
 -13964986.34849 -10881809.08146  22239374.982    22239377.987
  -9229485.95349  -7191804.40446  22011865.808    22011866.827
   3840682.04348   2992740.33644  24275847.242    24275848.223
 -22613034.14149 -17620543.48247  20791245.969    20791246.316
 -22451321.14549 -17494535.19047  21084582.250    21084582.588
  -8563951.56248                  23708568.553
 02  1  6  0 25 30.0000000  0  8G20G14G 1G22G29G30G25G11
 -22502778.14749 -17534631.54847  21074790.409    21074790.778
      1600.07248      1246.80545  23652728.859    23652729.443
 -10491241.79948  -8174987.35345  23099990.674    23099992.845
 -14066369.59349 -10960809.01246  22220082.888    22220085.068
  -9167806.03349  -7143742.14646  22023603.400    22023604.289
   3917891.33748   3052903.42644  24290541.187    24290544.348
 -22575456.83349 -17591262.45247  20798396.727    20798397.122
  -8484907.95648                  23723609.808
 02  1  6  0 26  0.0000000  0  8G20G14G 1G22G29G30G25G11
 -22553764.79349 -17574361.40047  21065088.115    21065088.537
     82780.17448     64503.98245  23668177.426    23668176.963
 -10567987.49749  -8234789.16545  23085387.077    23085389.172
 -14167473.49049 -11039591.26146  22200842.914    22200845.562
  -9105941.01049  -7095535.66846  22035375.838    22035376.675
   3995504.80548   3113381.53044  24305310.272    24305308.169
 -22537536.45349 -17561714.10047  20805612.841    20805613.219
  -8405670.68748  -6549878.74244  23738687.735    23738688.640
 02  1  6  0 26 30.0000000  0  8G20G14G 1G22G29G30G25G11
 -22604271.10549 -17613716.96847  21055476.888    21055477.388
    164071.05148    127847.50045  23683645.955    23683645.378
 -10644644.98148  -8294522.20345  23070798.532    23070800.353
 -14268286.39549 -11118146.78746  22181659.292    22181661.746
  -9043882.65149  -7047178.52346  22047184.824    22047185.784
   4073528.22848   3174178.97144  24320156.857    24320157.052
 -22499266.42549 -17531893.29647  20812894.980    20812895.381
  -8326234.45548                  23753803.455
 02  1  6  0 27  0.0000000  0  8G20G14G 1G22G29G30G25G11
 -22654286.59449 -17652690.07447  21045959.309    21045959.806
    245480.45448    191283.35545  23699137.535    23699137.727
 -10721205.60548  -8354179.76845  23056229.699    23056230.928
 -14368797.06249 -11196466.77746  22162532.916    22162535.218
  -8981623.28849  -6998664.75446  22059032.574    22059033.036
   4151967.17448   3235300.26744  24335084.051    24335084.481
 -22460640.24049 -17501794.96347  20820245.282    20820245.834
  -8246594.33048                  23768960.439
 02  1  6  0 27 30.0000000  0  8G20G14G 1G22G29G30G25G11
 -22703825.53449 -17691291.83847  21036532.550    21036532.864
    326991.70348    254798.54945  23714649.343    23714649.587
 -10797685.17449  -8413774.19646  23041676.578    23041678.518
 -14469018.36049 -11274561.28446  22143461.353    22143463.103
  -8919179.17749  -6950007.02846  22070915.199    22070915.684
   4230803.01648   3296730.78344  24350085.185    24350085.364
 -22421675.82349 -17471433.07547  20827659.847    20827660.406
  -8166769.39948                  23784148.901
 02  1  6  0 28  0.0000000  0  8G20G14G 1G22G29G30G25G11
 -22752886.99549 -17729521.54547  21027196.040    21027196.540
    408603.48148    318392.14745  23730179.688    23730178.648
 -10874084.27848  -8473305.96746  23027137.819    23027140.785
 -14568948.11949 -11352428.63446  22124444.990    22124447.077
  -8856551.58849  -6901206.33546  22082833.103    22082833.845
   4310032.31648   3358467.92344  24365162.226    24365159.916
 -22382375.46649 -17440809.41647  20835138.881    20835139.443
  -8086763.52248                  23799374.156
 02  1  6  0 28 30.0000000  0  8G20G14G 1G22G29G30G25G11
 -22801442.87249 -17767357.29147  21017956.299    21017956.824
    490341.46048    382084.01645  23745733.338    23745733.831
 -10950376.14849  -8532754.17146  23012621.246    23012622.027
 -14668556.67849 -11430045.66246  22105490.243    22105492.279
  -8793714.35649  -6852242.28046  22094790.610    22094791.224
   4389678.64348   3420530.03144  24380318.507    24380316.650
 -22342714.61449 -17409904.85147  20842685.626    20842686.071
  -8006553.62648                  23814638.307
 02  1  6  0 29  0.0000000  0  8G20G14G 1G22G29G30G25G11
 -22849503.16749 -17804806.86747  21008811.045    21008811.619
    572193.18048    445864.54845  23761309.827    23761310.790
 -11026572.62549  -8592128.05146  22998120.654    22998122.148
 -14767853.28349 -11507419.62046  22086594.679    22086597.250
  -8730680.25449  -6803124.82446  22106785.240    22106786.021
   4469727.23548   3482905.53444  24395551.557    24395552.437
 -22302707.27049 -17378730.29147  20850298.819    20850299.305
  -7926155.03748                  23829937.283
 02  1  6  0 29 30.0000000  0  8G20G14G 1G22G29G30G25G11
 -22897076.47649 -17841876.97647  20999758.125    20999758.564
    654147.77848    509725.23845  23776904.834    23776905.287
 -11102683.80848  -8651435.44146  22983636.850    22983638.954
 -14866845.22649 -11584556.16046  22067757.030    22067759.235
  -8667459.70249  -6753862.06846  22118816.114    22118816.881
   4550164.97548   3545584.35944  24410858.810    24410857.295
 -22262365.57549 -17347295.20247  20857975.655    20857976.074
  -7845581.23448                  23845268.882
 02  1  6  0 30  0.0000000  0  8G20G14G 1G22G29G30G25G11
 -22944144.78449 -17878553.57247  20990801.221    20990801.647
    736220.61448    573678.05345  23792522.845    23792523.019
 -11178692.94049  -8710663.31845  22969174.138    22969175.235
 -14965513.22149 -11661440.28646  22048981.394    22048983.576
  -8604037.01249  -6704441.82246  22130885.337    22130885.835
   4631005.47248   3608576.96244  24426241.080    24426241.454
 -22221675.02849 -17315588.28347  20865718.832    20865719.189
  -7764819.15948                  23860637.238
 02  1  6  0 30 30.0000000  0  8G14G 1G22G29G30G25G20G11
    818395.33248    637710.26445  23808160.791    23808161.011
 -11254615.57848  -8769823.78445  22954724.507    22954726.892
 -15063870.15149 -11738082.03046  22030264.763    22030266.702
  -8540428.47349  -6654876.75446  22142989.315    22142989.876
   4712229.97848   3671868.76244  24441698.265    24441698.360
 -22180653.73849 -17283623.64047  20873525.027    20873525.270
 -22990722.29449 -17914847.72747  20981937.819    20981938.266
  -7683888.06248                  23876039.390
 02  1  6  0 31  0.0000000  0  8G14G 1G22G29G30G25G20G11
    900669.02148    701819.59845  23823816.528    23823817.099
 -11330454.06549  -8828918.69246  22940293.921    22940295.707
 -15161915.49649 -11814480.99146  22011607.484    22011609.553
  -8476637.11349  -6605169.21846  22155128.250    22155129.675
   4793833.22548   3735455.73144  24457226.610    24457225.312
 -22139305.49249 -17251404.22847  20881393.442    20881393.830
 -23036809.74949 -17950760.01847  20973167.785    20973168.178
  -7602793.48947                  23891468.469
 02  1  6  0 31 30.0000000  0  8G14G 1G22G29G30G25G20G11
    983049.63448    766012.24945  23839492.879    23839492.518
 -11406199.31349  -8887940.94046  22925880.581    22925882.084
 -15259637.42549 -11890627.92646  21993010.867    21993014.032
  -8412654.59449  -6555312.73046  22167304.213    22167305.004
   4875821.20148   3799342.48644  24472828.400    24472828.990
 -22097623.38449 -17218924.66247  20889325.354    20889325.701
 -23082396.59849 -17986282.21747  20964492.719    20964493.242
  -7521529.96347                  23906934.122
 02  1  6  0 32  0.0000000  0  8G14G 1G22G29G30G25G20G11
   1065536.71548    830287.86645  23855189.641    23855189.162
 -11481850.80948  -8946890.12245  22911483.142    22911484.561
 -15357032.94149 -11966520.50346  21974477.738    21974479.275
  -8348481.10249  -6505307.43546  22179516.175    22179516.574
   4958191.26348                  24488503.513
 -22055609.42449 -17186186.51047  20897320.420    20897320.710
 -23127481.18349 -18021413.05047  20955913.538    20955914.017
  -7440100.48447                  23922429.066
 02  1  6  0 32 30.0000000  0  8G14G 1G22G29G30G25G20G11
   1148121.22048    894639.40345  23870905.573    23870906.129
 -11557416.78649  -9005772.68246  22897105.542    22897106.079
 -15454107.48249 -12042162.98546  21956004.454    21956006.494
  -8284125.56049  -6455160.28746  22191762.078    22191762.263
   5040932.18748   3928000.41044  24504248.197    24504248.097
 -22013273.72149 -17153197.64847  20905376.508    20905376.546
 -23172070.39649 -18056157.88247  20947428.366    20947428.683
  -7358516.78647                  23937953.623
 02  1  6  0 33  0.0000000  0  8G14G 1G22G29G30G25G20G11
   1230808.35348    959070.88545  23886639.433    23886639.753
 -11632891.23848  -9064583.95046  22882741.433    22882743.535
 -15550852.30849 -12117548.51446  21937594.611    21937596.801
  -8219582.69749  -6404867.17246  22204044.580    22204045.264
   5124046.72348   3992765.01644  24520064.456    24520065.018
 -21970612.39049 -17119955.04847  20913494.621    20913494.714
 -23216156.53649 -18090510.71347  20939038.816    20939039.438
  -7276776.48647                  23953507.404
 02  1  6  0 33 30.0000000  0  8G14G 1G22G29G30G25G20G11
   1313606.11648   1023588.60345  23902396.032    23902395.189
 -11708265.00448  -9123316.75546  22868398.359    22868400.459
 -15647255.47849 -12192667.83146  21919249.534    21919251.987
  -8154844.22349  -6354421.62846  22216364.125    22216364.304
   5207540.91148   4057825.39944  24535952.374    24535953.795
 -21927618.57149 -17086453.37047  20921676.100    20921676.406
 -23259729.05349 -18124463.30847  20930747.519    20930747.904
  -7194873.79947                  23969094.930
 02  1  6  0 34  0.0000000  0  8G14G 1G22G29G30G25G20G11
   1396519.60648   1088196.50545  23918173.906    23918173.859
 -11783531.88249  -9181966.28246  22854077.511    22854077.906
 -15743308.74349 -12267514.47746  21900971.394    21900973.369
  -8089904.84049  -6303819.53746  22228721.243    22228721.877
   5291417.67748   4123183.91144  24551913.455    24551913.874
 -21884288.56949 -17052689.73247  20929921.656    20929922.019
 -23302781.00349 -18158010.26447  20922554.949    20922555.410
  -7112806.40347                  23984710.071
 02  1  6  0 34 30.0000000  0  8G14G 1G22G29G30G25G20G11
   1479542.96348   1152889.99145  23933971.736    23933973.078
 -11858697.33648  -9240536.75145  22839771.736    22839774.236
 -15839014.09049 -12342090.00446  21882759.408    21882761.797
  -8024770.30549  -6253065.37646  22241116.320    22241116.706
   5375668.64248   4188834.03444  24567946.311    24567945.261
 -21840629.23149 -17018669.46947  20938229.826    20938230.227
 -23345315.84849 -18191154.28847  20914460.998    20914461.307
  -7030582.87648                  24000358.694
 02  1  6  0 35  0.0000000  0  8G14G 1G22G29G30G25G20G11
   1562667.39048   1217662.23145  23949791.600    23949793.184
 -11933768.97049  -9299034.10046  22825486.868    22825488.913
 -15934376.96049 -12416398.66746  21864612.022    21864615.305
  -7959449.28049  -6202165.90446  22253546.434    22253547.152
   5460282.98548   4254767.30744  24584047.315    24584048.909
 -21796650.65649 -16984400.44847  20946598.404    20946598.784
 -23387340.13549 -18223900.48347  20906464.118    20906464.413
  -6948214.57348                  24016032.037
 02  1  6  0 35 30.0000000  0  8G14G 1G22G29G30G25G20G11
   1645896.22848   1282515.83045  23965628.815    23965628.147
 -12008742.61349  -9357455.10946  22811220.645    22811221.617
 -16029390.61449 -12490435.26546  21846531.852    21846533.963
  -7893938.36849  -6151118.46046  22266012.614    22266013.260
   5545261.70148   4320984.43244  24600218.665    24600221.843
 -21752351.20749 -16949881.39847  20955028.170    20955028.544
 -23428848.43549 -18256244.60447  20898565.069    20898565.614
  -6865700.72248                  24031734.341
 02  1  6  0 36  0.0000000  0  8G14G 1G22G29G30G25G20G11
   1729230.10548   1347451.29445  23981486.699    23981487.227
 -12083616.59248  -9415798.46045  22796971.166    22796973.522
 -16124050.37949 -12564196.08946  21828518.411    21828521.030
  -7828236.51349  -6099922.22646  22278515.234    22278515.869
   5630603.35548   4387484.49044  24616459.103    24616459.516
 -21707730.94649 -16915112.36547  20963519.318    20963519.807
 -23469837.86749 -18288184.41647  20890765.028    20890765.202
  -6783043.28048                  24047463.765
 02  1  6  0 36 30.0000000  0  8G14G 1G22G29G30G25G20G11
   1812671.61748   1412470.63045  23997364.582    23997365.640
 -12158387.66949  -9474061.61646  22782743.559    22782744.180
 -16218350.45749 -12637676.66446  21810574.067    21810575.951
  -7762341.19149  -6048575.25146  22291054.858    22291055.058
   5716308.08748   4454267.40644  24632767.222    24632770.635
 -21662788.71549 -16880092.44547  20972071.489    20972071.856
 -23510303.69449 -18319716.22947  20883064.461    20883064.841
  -6700242.29848                  24063220.814
 02  1  6  0 37  0.0000000  0  8G14G 1G22G29G30G25G20G11
   1896215.49748   1477569.71045  24013263.268    24013263.622
 -12233059.86449  -9532247.73646  22768533.865    22768534.502
 -16312292.52249 -12710878.28446  21792697.123    21792699.311
  -7696257.46749  -5997081.46046  22303630.032    22303630.360
   5802368.38648   4521327.34244  24649144.388    24649143.136
 -21617531.05849 -16844826.73647  20980683.658    20980683.920
 -23550249.01649 -18350842.44947  20875463.249    20875463.634
  -6617305.79548                  24079002.844
 02  1  6  0 37 30.0000000  0  8G14G 1G22G29G30G25G20G11
   1979867.12248   1542752.74345  24029181.405    24029180.970
 -12307626.82048  -9590351.84946  22754342.121    22754344.793
 -16405867.57149 -12783793.91446  21774890.829    21774893.054
  -7629979.58649  -5945436.38146  22316242.366    22316243.046
   5888787.43148   4588666.88744  24665589.084    24665590.470
 -21571953.38949 -16809311.66747  20989356.691    20989357.071
 -23589666.10749 -18381557.06847  20867962.641    20867963.008
  -6534230.64948                  24094810.904
 02  1  6  0 38  0.0000000  0  8G14G 1G22G29G30G25G20G11
   2063624.59948   1608018.28345  24045119.429    24045119.194
 -12382089.73049  -9648374.91146  22740175.308    22740175.921
 -16499074.07349 -12856422.36046  21757154.108    21757156.241
  -7563509.51049  -5893641.53646  22328891.497    22328892.090
   5975560.99348   4656282.65044  24682101.877    24682100.528
 -21526059.66449 -16773550.32147  20998090.013    20998090.355
 -23628554.95349 -18411860.06647  20860562.284    20860562.733
  -6451021.65348                  24110644.984
 02  1  6  0 38 30.0000000  0  8G14G 1G22G29G30G25G20G11
   2147488.09648   1673366.43245  24061078.494    24061078.085
 -12456446.95349  -9706315.62246  22726024.066    22726025.563
 -16591907.89549 -12928760.39646  21739488.452    21739490.629
  -7496846.68449  -5841696.51946  22341576.630    22341577.429
   6062687.17548   4724173.14744  24698681.427    24698681.901
 -21479850.21249 -16737542.95647  21006883.397    21006883.644
 -23666912.91249 -18441749.38547  20853262.695    20853263.164
  -6367680.99048                  24126506.355
 02  1  6  0 39  0.0000000  0  8G14G 1G22G29G30G25G20G11
   2231441.38048   1738784.54045  24077054.451    24077055.562
 -12530713.77649  -9764185.85046  22711891.258    22711893.297
 -16684382.01649 -13000818.14746  21721891.085    21721892.773
  -7430007.14449  -5789613.76246  22354295.786    22354296.657
   6150147.52448   4792324.05144  24715324.050    24715322.184
 -21433342.71149 -16701303.34347  21015733.531    21015733.791
 -23704754.23249 -18471236.13047  20846061.907    20846062.254
  -6284227.53648                  24142385.095
 02  1  6  0 39 30.0000000  0  8G14G 1G22G29G30G25G20G11
   2315499.25048   1804284.15745  24093049.694    24093050.917
 -12604874.58649  -9821973.45746  22697780.599    22697781.565
 -16776478.19749 -13072581.39446  21704365.619    21704368.177
  -7362976.35949  -5737382.00046  22367051.688    22367052.126
   6237954.22348   4860744.87444  24732034.014    24732033.536
 -21386523.89649 -16664821.14947  21024643.202    21024643.175
 -23742062.13649 -18500307.22347  20838962.460    20838962.829
  -6200649.08948                  24158290.116
 02  1  6  0 40  0.0000000  0  8G14G 1G22G29G30G25G20G11
   2399659.03548   1869863.16445  24109065.186    24109064.763
 -12678931.28549  -9879679.95746  22683686.455    22683688.974
 -16868195.57449 -13144049.46346  21686912.796    21686914.787
  -7295756.56749  -5685002.95946  22379842.870    22379843.689
   6326102.42948   4929431.77644  24748806.847    24748808.512
 -21339397.88449 -16628099.57947  21033610.898    21033611.029
 -23778837.30649 -18528963.20147  20831964.347    20831964.660
  -6116951.07548                  24174216.915
 02  1  6  0 40 30.0000000  0  8G14G 1G22G29G30G25G20G11
   2483904.39748   1935508.88345  24125096.873    24125096.391
 -12752899.09749  -9937317.19346  22669611.642    22669612.890
 -16959546.83549 -13215232.25446  21669528.886    21669530.972
  -7228363.82549  -5632489.16846  22392667.005    22392668.183
   6414573.62848   4998370.35644  24765643.027    24765641.127
 -21291981.81249 -16591151.98747  21042633.773    21042633.808
 -23815093.92149 -18557215.10647  20825064.902    20825065.310
  -6033152.46248  -4701163.53544  24190164.096    24190166.656
 02  1  6  0 41  0.0000000  0  7G14G 1G22G29G25G20G11
   2568242.44548   2001226.80445  24141145.011    24141146.771
 -12826769.83049  -9994878.75846  22655554.677    22655555.627
 -17050521.78049 -13286121.80146  21652216.989    21652219.401
  -7160791.31149  -5579835.28446  22405525.817    22405526.889
 -21244270.05949 -16553973.99147  21051713.044    21051713.033
 -23850822.93049 -18585055.89247  20818265.706    20818266.081
  -5949248.67048                  24206129.306
 02  1  6  0 41 30.0000000  0  7G14G 1G22G29G25G20G11
   2652689.85548   2067029.97444  24157215.790    24157213.940
 -12900525.61049 -10052350.71446  22641518.623    22641520.345
 -17141099.86049 -13356702.11346  21634980.824    21634982.569
  -7093021.73449  -5527027.83346  22418422.163    22418423.362
 -21196247.17449 -16516553.55747  21060851.345    21060851.251
 -23886005.41449 -18612470.81347  20811570.860    20811571.357
  -5865225.32548  -4570311.31944  24222118.942    24222119.469
 02  1  6  0 42  0.0000000  0  8G14G 1G22G29G 4G25G20G11
   2737235.12048   2132909.36044  24173303.454    24173304.351
 -12974177.18949 -10109741.50646  22627503.788    22627505.205
 -17231289.27749 -13426979.56246  21617817.831    21617820.099
  -7025066.72249  -5474075.90646  22431353.753    22431354.325
         -.94358                  25321946.091
 -21147926.22349 -16478900.86447  21070046.550    21070046.558
 -23920651.08949 -18639467.44647  20804978.107    20804978.497
  -5781096.94148  -4504756.75444  24238128.976    24238130.267
 02  1  6  0 42 30.0000000  0  8G14G 1G22G29G 4G25G20G11
   2821885.66048   2198870.79244  24189412.043    24189411.970
 -13047716.02249 -10167044.48046  22613509.605    22613510.367
 -17321078.78249 -13496945.37446  21600731.393    21600733.470
  -6956918.34249  -5420973.28546  22444321.389    22444322.887
    -53114.15648                  25311839.441
 -21099300.18649 -16441010.43947  21079299.781    21079299.759
 -23954750.37549 -18666038.31647  20798489.275    20798489.679
  -5696858.27548                  24254157.483
 02  1  6  0 43  0.0000000  0  8G14G 1G22G29G 4G25G20G11
   2906647.00548   2264918.54844  24205542.117    24205541.730
 -13121135.42149 -10224254.37846  22599537.461    22599539.589
 -17410459.56849 -13566592.71546  21583722.858    21583724.539
  -6888571.25149  -5367715.82746  22457328.036    22457328.386
   -105760.35648                  25301822.044
 -21050365.23149 -16402879.30247  21088611.731    21088611.842
 -23988295.38349 -18692177.28047  20792105.685    20792106.193
  -5612506.48548  -4373387.65844  24270210.924    24270212.976
 02  1  6  0 43 30.0000000  0  8G14G 1G22G29G 4G25G20G11
   2991510.11448   2331045.64844  24221690.248    24221689.818
 -13194443.39149 -10281377.44446  22585588.406    22585590.211
 -17499437.43549 -13635926.09746  21566790.854    21566792.573
  -6820034.30049  -5314310.43346  22470369.763    22470370.542
   -157946.86748                  25291891.079
 -21001131.64949 -16364515.47047  21097980.591    21097980.634
 -24021293.64749 -18717890.20947  20785826.371    20785826.815
  -5528053.62248                  24286280.868
 02  1  6  0 44  0.0000000  0  8G14G 1G22G29G 4G25G20G11
   3076473.53948   2397250.87945  24237859.243    24237858.666
 -13267640.35949 -10338414.02446  22571659.204    22571660.652
 -17588010.06549 -13704943.72746  21549936.544    21549938.477
  -6751308.52649  -5260757.89246  22483448.114    22483449.857
   -209672.99548                  25282047.220
 -20951601.78249 -16325920.76647  21107405.908    21107405.984
 -24053744.60649 -18743176.66747  20779651.466    20779651.848
  -5443503.29048                  24302371.255
 02  1  6  0 44 30.0000000  0  8G14G 1G22G29G 4G25G20G11
   3161524.85848   2463524.60744  24254043.235    24254045.003
 -13340737.79049 -10395373.02246  22557748.720    22557750.842
 -17676186.39749 -13773652.54646  21533156.345    21533158.564
  -6682406.25749  -5207067.84546  22496559.989    22496560.449
   -260949.21048                  25272290.504
 -20901789.51949 -16287106.01747  21116884.722    21116884.934
 -24085658.47149 -18768044.61147  20773578.635    20773579.001
  -5358870.33448                  24318474.833
 02  1  6  0 45  0.0000000  0  8G14G 1G22G29G 4G25G20G11
   3246667.88848   2529869.78844  24270245.362    24270244.466
 -13413730.74449 -10452250.64546  22543859.410    22543861.062
 -17763959.41349 -13842047.09246  21516454.187    21516455.920
  -6613323.67649  -5153237.27546  22509705.827    22509706.206
   -311769.75948                  25262620.392
 -20851692.24549 -16248069.17947  21126417.719    21126417.996
 -24117029.68049 -18792489.70847  20767608.786    20767609.115
  -5274153.87348  -4109736.49444  24334597.309    24334597.929
 02  1  6  0 45 30.0000000  0  8G14G 1G22G29G 4G25G20G11
   3331910.11348   2596292.26244  24286466.829    24286468.592
 -13486610.82749 -10509040.30546  22529990.213    22529991.515
 -17851318.01149 -13910118.70846  21499830.103    21499832.226
  -6544053.16249  -5099260.27846  22522887.031    22522888.749
   -362125.11948                  25253037.838
 -20801303.87149 -16208805.51047  21136006.819    21136007.070
 -24147848.91249 -18816504.69247  20761743.771    20761744.215
  -5189348.64648                  24350733.828
 02  1  6  0 46  0.0000000  0  8G14G 1G22G29G 4G25G20G11
   3417254.51248   2662794.34744  24302707.422    24302707.709
 -13559374.15749 -10565738.98546  22516143.879    22516145.536
 -17938255.98749 -13977862.57146  21483286.676    21483289.037
  -6474591.50249  -5045134.33345  22536105.857    22536107.357
   -412010.53548                  25243544.177
 -20750622.59449 -16169313.60547  21145650.879    21145651.244
 -24178111.34149 -18840085.80947  20755985.032    20755985.255
  -5104454.32748                  24366888.966
 02  1  6  0 46 30.0000000  0  8G14G 1G22G29G 4G25G20G11
   3502691.76548   2729368.81444  24318965.505    24318965.971
 -13632028.82349 -10622353.02346  22502319.046    22502320.130
 -18024778.97249 -14045283.06346  21466821.666    21466824.269
  -6404948.01949  -4990866.70045  22549358.613    22549359.205
   -461433.34748                  25234139.858
 -20699659.23549 -16129601.89847  21155348.741    21155349.080
 -24207824.11749 -18863238.62247  20750330.814    20750331.216
  -5019482.75448                  24383059.307
 02  1  6  0 47  0.0000000  0  8G14G 1G22G29G 4G25G20G11
   3588226.46448   2796019.16644  24335241.870    24335242.619
 -13704569.11549 -10678877.93346  22488513.659    22488515.321
 -18110879.10649 -14112374.04746  21450437.706    21450438.983
  -6335117.70749  -4936453.50146  22562645.970    22562647.783
   -510387.09348                  25224824.595
 -20648409.96349 -16089667.39847  21165101.270    21165101.480
 -24236981.01049 -18885958.28147  20744782.633    20744782.985
  -4934432.02148                  24399243.262
 02  1  6  0 47 30.0000000  0  8G14G 1G22G29G 4G25G20G11
   3673860.97148   2862747.36844  24351538.093    24351537.700
 -13776991.41049 -10735310.88346  22474733.070    22474734.427
 -18196550.75549 -14179131.14746  21434134.888    21434136.914
  -6265098.25049  -4881892.90845  22575971.097    22575971.477
   -558867.45648                  25215598.149
 -20596873.77249 -16049509.32647  21174908.158    21174908.568
 -24265577.98249 -18908241.63847  20739340.866    20739341.143
  -4849302.20148                  24415442.865
 02  1  6  0 48  0.0000000  0  8G14G 1G22G29G 4G25G20G11
   3759603.61148   2929559.76344  24367854.607    24367855.055
 -13849286.37849 -10791644.62446  22460976.002    22460977.073
 -18281781.90349 -14245545.00046  21417915.620    21417917.404
  -6194881.05649  -4827178.22345  22589332.935    22589333.607
   -606864.32948                  25206464.152
 -20545043.96449 -16009122.46047  21184770.783    21184771.240
 -24293604.71649 -18930080.65847  20734007.448    20734007.648
  -4764087.72248                  24431658.966
 02  1  6  0 48 30.0000000  0  8G14G 1G22G29G 4G25G20G11
   3845432.29948   2996439.21444  24384186.027    24384186.241
 -13921474.81249 -10847895.31746  22447238.190    22447239.774
 -18366591.20949 -14311630.14046  21401776.985    21401778.893
  -6124488.06149  -4772326.55545  22602727.929    22602729.102
   -654397.75348                  25197420.308
 -20492943.33249 -15968524.55847  21194685.186    21194685.637
 -24321081.27749 -18951490.97247  20728778.859    20728779.201
  -4678812.77448                  24447886.314
 02  1  6  0 49  0.0000000  0  8G14G 1G22G29G 4G25G20G11
   3931362.76448   3063397.99644  24400539.360    24400541.122
 -13993540.09149 -10904050.07346  22433524.807    22433526.747
 -18450959.78549 -14377371.84846  21385722.398    21385724.055
  -6053903.39949  -4717325.55345  22616159.827    22616160.461
   -701450.37948                  25188465.855
 -20440557.45849 -15927704.39147  21204654.124    21204654.569
 -24347990.36049 -18972459.09447  20723658.253    20723658.631
  -4593464.33548                  24464128.073
 02  1  6  0 49 30.0000000  0  8G14G 1G22G29G 4G25G20G11
   4017380.28448   3130424.59744  24416907.664    24416909.373
 -14065495.81949 -10960119.46946  22419832.826    22419834.405
 -18534899.07249 -14442779.04546  21369749.144    21369750.716
  -5983141.69249  -4662186.57645  22629625.597    22629627.528
   -748035.05648                  25179601.358
 -20387901.99849 -15886674.15547  21214674.031    21214674.502
 -24374344.98049 -18992995.16447  20718642.918    20718643.286
  -4508059.93648                  24480378.872
 02  1  6  0 50  0.0000000  0  8G14G 1G22G29G 4G25G20G11
   4103484.76048   3197518.98744  24433292.529    24433296.460
 -14137341.12049 -11016102.82846  22406160.250    22406161.180
 -18618405.59549 -14507849.02246  21353857.989    21353859.954
  -5912202.81549  -4606909.56545  22643124.731    22643125.376
   -794150.04548   -618818.02144  25170825.939    25170827.158
 -20334978.69649 -15845435.20747  21224745.067    21224745.477
 -24400143.26749 -19013097.72647  20713733.523    20713734.034
  -4422601.72748                  24496642.193
 02  1  6  0 50 30.0000000  0  8G14G 1G22G29G 4G25G20G11
   4189679.77948   3264683.85444  24449694.875    24449695.717
 -14209071.34449 -11071996.48246  22392510.483    22392512.013
 -18701472.65049 -14572576.56546  21338051.241    21338053.398
  -5841083.34649  -4551491.80945  22656658.385    22656659.425
   -839790.13348                  25162140.756
 -20281785.33349 -15803985.82647  21234867.593    21234867.741
 -24425380.19049 -19032762.86347  20708931.042    20708931.536
  -4337089.11748                  24512914.501
 02  1  6  0 51  0.0000000  0  8G14G 1G22G29G 4G25G20G11
   4275965.03948   3331919.09644  24466115.018    24466114.240
 -14280685.22149 -11127799.46446  22378883.484    22378884.743
 -18784097.05249 -14636959.18246  21322328.109    21322330.013
  -5769783.03348  -4495933.16445  22670226.008    22670227.500
   -884953.60048                  25153546.711
 -20228323.46849 -15762327.21947  21245040.831    21245041.237
 -24450053.97749 -19051989.18947  20704235.967    20704236.546
  -4251524.57148                  24529196.623
 02  1  6  0 51 30.0000000  0  7G14G 1G22G29G25G20G11
   4362340.74448   3399224.80244  24482550.718    24482551.214
 -14352181.51649 -11183510.84346  22365277.105    22365278.726
 -18866275.19749 -14700994.07146  21306689.938    21306691.915
  -5698301.77549  -4440233.50145  22683828.998    22683830.056
 -20174593.64649 -15720459.81747  21255265.594    21255265.951
 -24474162.88849 -19070775.35047  20699648.146    20699648.661
  -4165910.44248                  24545489.202
 02  1  6  0 52  0.0000000  0  7G14G 1G22G29G25G20G11
   4448825.83848   3466615.73544  24499009.375    24499012.548
 -14423540.13649 -11239114.91546  22351698.506    22351699.749
 -18947984.89549 -14764663.93946  21291141.416    21291143.340
  -5626620.47348  -4384377.94545  22697469.509    22697470.011
 -20120578.29749 -15678369.92047  21265544.212    21265544.657
 -24497686.39449 -19089105.35147  20695171.986    20695172.397
  -4080230.09148                  24561792.804
 02  1  6  0 52 30.0000000  0  7G14G 1G22G29G25G20G11
   4535412.47148   3534085.77744  24515486.446    24515489.506
 -14494767.86549 -11294616.97346  22338144.380    22338145.685
 -19029230.59349 -14827972.23546  21275680.919    21275682.673
  -5554746.68348  -4328372.42745  22711146.019    22711148.378
 -20066286.24549 -15636064.42147  21275875.545    21275876.017
 -24520630.53649 -19106983.89947  20690805.929    20690806.540
  -3994494.09048                  24578109.474
 02  1  6  0 53  0.0000000  0  7G14G 1G22G29G25G20G11
   4622087.23848   3601624.55944  24531978.755    24531982.116
 -14565876.88349 -11350026.55546  22324612.185    22324614.198
 -19110022.42849 -14890926.87346  21260306.435    21260308.509
  -5482693.49948  -4272227.11945  22724857.786    22724858.384
 -20011732.53749 -15593555.02947  21286256.816    21286257.085
 -24543007.00649 -19124420.10847  20686547.622    20686548.160
  -3908718.21948                  24594429.335
 02  1  6  0 53 30.0000000  0  7G14G 1G22G29G25G20G11
   4708867.96748   3669245.81944  24548493.221    24548494.399
 -14636848.32949 -11405328.94646  22311107.637    22311108.785
 -19190339.45249 -14953511.53546  21245022.888    21245024.567
  -5410443.39548  -4215928.35145  22738606.147    22738607.296
 -19956900.35849 -15550828.64547  21296691.121    21296691.407
 -24564796.50249 -19141398.93547  20682401.170    20682401.743
  -3822887.10748                  24610764.479
 02  1  6  0 54  0.0000000  0  6G14G 1G22G29G25G20
   4795733.79548   3736933.40944  24565023.350    24565024.913
 -14707701.92049 -11460539.49246  22297624.420    22297625.360
 -19270199.36349 -15015740.00746  21229825.813    21229827.645
  -5338017.02648  -4159492.26445  22752388.189    22752389.261
 -19901811.96449 -15507902.61647  21307173.905    21307174.344
 -24586018.58149 -19157935.61947  20678362.947    20678363.420
 02  1  6  0 54 30.0000000  0  7G14G 1G22G29G25G20G 4
   4882671.13248   3804676.75444  24581567.122    24581566.809
 -14778449.80149 -11515667.67546  22284161.107    22284162.794
 -19349611.98049 -15077619.92946  21214714.152    21214715.892
  -5265427.46048  -4102928.96345  22766202.096    22766203.711
 -19846481.70849 -15464788.12447  21317703.094    21317703.229
 -24606684.67049 -19174039.05747  20674430.603    20674431.118
         -.90858                  25095987.506
 02  1  6  0 55  0.0000000  0  7G14G 1G22G29G25G20G 4
   4969697.79748   3872489.70744  24598127.845    24598128.175
 -14849073.21049 -11570698.88746  22270722.449    22270724.111
 -19428556.57849 -15139135.16546  21199691.260    21199693.322
  -5192657.19748  -4046224.91745  22780049.765    22780051.322
 -19790893.10449 -15421472.31847  21328281.341    21328281.513
 -24626775.78849 -19189694.47047  20670607.233    20670607.684
    -41270.84548                  25088133.776
 02  1  6  0 55 30.0000000  0  7G14G 1G22G29G25G20G 4
   5056819.29148   3940376.49644  24614706.281    24614707.837
 -14919565.32849 -11625627.77146  22257308.291    22257309.715
 -19507024.30549 -15200278.81446  21184759.795    21184761.720
  -5119700.37048  -3989375.44745  22793932.968    22793934.493
 -19735041.87249 -15377951.87347  21338909.319    21338909.866
 -24646284.67049 -19204896.19447  20666894.308    20666894.869
    -82044.44048                  25080374.708
 02  1  6  0 56  0.0000000  0  7G14G 1G22G29G25G20G 4
   5144034.73848   4008336.55244  24631302.555    24631302.889
 -14989925.99349 -11680454.22446  22243918.319    22243920.083
 -19585013.08649 -15261049.25446  21169918.464    21169920.663
  -5046557.83448  -3932381.30645  22807851.053    22807851.851
 -19678930.49749 -15334228.72047  21349587.222    21349587.529
 -24665210.90249 -19219643.90647  20663292.831    20663293.566
   -122321.21548                  25072710.828
 02  1  6  0 56 30.0000000  0  7G14G 1G22G29G25G20G 4
   5231347.52948   4076372.39944  24647918.946    24647919.247
 -15060150.63449 -11735174.66746  22230556.033    22230556.689
 -19662516.30649 -15321441.33446  21155170.238    21155172.153
  -4973226.11448  -3875239.71245  22821806.455    22821807.796
 -19622556.46449 -15290300.89747  21360314.517    21360315.073
 -24683549.52149 -19233933.73847  20659803.487    20659804.027
   -162096.04548                  25065142.178
 02  1  6  0 57  0.0000000  0  7G14G 1G22G29G25G20G 4
   5318731.79948   4144463.99044  24664547.028    24664549.573
 -15130263.57749 -11789808.09546  22217213.317    22217214.908
 -19739556.11549 -15381472.32446  21140509.968    21140511.643
  -4899730.55148  -3817970.46745  22835791.827    22835793.784
 -19565946.40949 -15246189.16347  21371086.832    21371087.388
 -24701324.48349 -19247784.36147  20656420.849    20656421.484
   -201393.03848                  25057664.495
 02  1  6  0 57 30.0000000  0  7G14G 1G22G29G25G20G 4
   5406211.77748   4212630.15944  24681194.141    24681195.085
 -15200239.44949 -11844334.70846  22203896.848    22203898.608
 -19816105.51949 -15441121.18446  21125942.975    21125944.923
  -4826047.15148  -3760554.86745  22849813.400    22849814.870
 -19509077.59349 -15201875.79947  21381909.030    21381909.440
 -24718510.54749 -19261176.10147  20653150.081    20653150.712
   -240186.48748   -187157.77044  25050281.582    25050283.108
 02  1  6  0 58  0.0000000  0  8G14G 1G22G29G13G25G20G 4
   5493775.38448   4280861.46144  24697857.116    24697859.120
 -15270089.28949 -11898763.08746  22190605.444    22190606.760
 -19892173.32849 -15500394.77446  21111468.316    21111469.963
  -4752187.98648  -3703002.28645  22863868.892    22863869.768
         -.66358                  25084305.355
 -19451963.40949 -15157371.24247  21392777.254    21392777.766
 -24735118.25449 -19274117.17547  20649989.634    20649990.246
   -278487.32948                  25042992.875
 02  1  6  0 58 30.0000000  0  7G14G 1G22G29G25G20G 4
   5581421.86448   4349157.34244  24714534.880    24714532.813
 -15339812.23649 -11953092.59746  22177337.037    22177338.291
 -19967757.02649 -15559291.14446  21097084.392    21097086.412
  -4678153.38148  -3645313.02245  22877956.594    22877958.684
 -19394605.51049 -15112676.77447  21403691.988    21403692.455
 -24751146.84649 -19286606.99547  20646939.901    20646940.318
   -316294.34348   -246462.73844  25035799.161    25035799.166
 02  1  6  0 59  0.0000000  0  7G 1G14G22G29G25G20G 4
 -15409395.29149 -12007313.13246  22164095.682    22164097.370
   5669163.09048   4417527.07344  24731232.354    24731232.751
 -20042841.74149 -15617798.68946  21082796.731    21082798.419
  -4603931.40748  -3587477.75045  22892081.039    22892080.748
 -19336993.35049 -15067784.17947  21414655.513    21414655.912
 -24766582.93549 -19298635.12347  20644002.503    20644002.999
   -353594.19448   -275527.55044  25028701.847    25028706.941
 02  1  6  0 59 30.0000000  0  7G 1G14G22G29G25G20G 4
 -15478860.06349 -12061441.52446  22150878.089    22150878.615
   5756975.90648   4485952.58044  24747942.238    24747942.578
 -20117447.14649 -15675932.75046  21068599.924    21068601.529
  -4529544.97648  -3529514.30945  22906235.861    22906237.482
 -19279150.82949 -15022712.08347  21425662.500    21425662.842
 -24781448.30249 -19310218.53447  20641173.919    20641174.278
   -390408.45848                  25021695.298
 02  1  6  1  0  0.0000000  0  8G 1G14G22G29G13G25G20G 4
 -15548202.82049 -12115474.84846  22137681.684    22137682.850
   5844863.17648   4554436.07144  24764666.781    24764669.836
 -20191567.69549 -15733688.99746  21054495.116    21054496.908
  -4454991.19048  -3471420.51245  22920423.085    22920424.106
         -.74158                  25014364.088
 -19221076.44649 -14977459.31547  21436713.605    21436713.955
 -24795738.99849 -19321354.14647  20638454.386    20638454.824
   -426733.25348   -332519.06144  25014783.822    25014785.867
 02  1  6  1  0 30.0000000  0  8G 1G22G14G29G13G25G20G 4
 -15617396.34149 -12169391.86146  22124514.410    22124516.027
 -20265174.11749 -15791044.61946  21040487.773    21040489.851
   5932850.80148   4622997.78144  24781410.651    24781414.976
  -4380244.04748  -3413176.01045  22934647.625    22934648.476
    -91915.31448                  24996872.471
 -19162745.69349 -14932006.77947  21447813.798    21447813.876
 -24809427.51549 -19332020.52947  20635849.769    20635850.211
   -462540.91848                  25007970.418
 02  1  6  1  1  0.0000000  0  8G 1G22G14G29G13G25G20G 4
 -15686433.66549 -12223187.15946  22111378.209    22111379.473
 -20338257.85049 -15847992.94646  21026580.957    21026582.289
   6020944.29748   4691641.98144  24798173.285    24798174.933
  -4305297.82048  -3354776.39545  22948908.189    22948910.313
   -183819.74248                  24979383.733
 -19104154.08049 -14886350.97547  21458963.391    21458963.564
 -24822507.17149 -19342212.47047  20633360.766    20633361.247
   -497824.40648   -387914.84544  25001255.693    25001260.135
 02  1  6  1  1 30.0000000  0  8G 1G22G14G29G13G25G20G 4
 -15755312.83949 -12276859.22146  22098270.132    22098271.630
 -20410814.87649 -15904530.85146  21012773.359    21012775.142
   6109144.64448   4760369.46044  24814958.254    24814962.391
  -4230151.84448  -3296221.12345  22963209.196    22963209.719
   -275712.44548                  24961898.101
 -19045301.76549 -14840492.02547  21470162.542    21470162.967
 -24834975.58249 -19351928.11647  20630987.843    20630988.455
   -532581.64848                  24994641.828
 02  1  6  1  2  0.0000000  0  8G 1G22G14G29G13G25G20G 4
 -15824043.22449 -12330415.35946  22085190.312    22085191.848
 -20482852.92349 -15960664.35846  20999064.640    20999066.674
   6197441.11648   4829171.81344  24831760.787    24831762.626
  -4154816.41948  -3237518.22845  22977544.802    22977545.861
   -367603.10048                  24944411.050
 -18986200.57949 -14794439.14747  21481409.179    21481409.411
 -24846842.32049 -19361174.92647  20628729.533    20628729.999
   -566822.12648   -441679.33544  24988125.507    24988129.118
 02  1  6  1  2 30.0000000  0  8G 1G29G25G14G22G13G20G 4
 -15892652.02649 -12383876.74946  22072135.877    22072136.870
  -4079320.10748  -3178689.96445  22991910.733    22991912.120
 -18926880.22249 -14748215.48647  21492697.277    21492697.583
   6285804.91848   4898026.64244  24848575.930    24848576.871
 -20554397.61549 -16016413.42646  20985450.576    20985452.404
   -459519.04248                  24926919.652
 -24858134.77949 -19369974.24647  20626580.587    20626581.009
   -600572.92648                  24981702.032
 02  1  6  1  3  0.0000000  0  8G 1G29G25G14G22G13G20G 4
 -15961131.56249 -12437237.40546  22059104.641    22059105.804
  -4003656.31048  -3119731.20745  23006309.995    23006311.079
 -18867335.55949 -14701817.04047  21504028.234    21504028.641
   6374242.58048   4966939.00444  24865404.752    24865407.291
 -20625439.34649 -16071770.57746  20971931.796    20971933.823
   -551452.66348                  24909424.986
 -24868845.14249 -19378319.98447  20624542.805    20624543.264
   -633826.25948   -493890.37444  24975375.038    24975381.317
 02  1  6  1  3 30.0000000  0  8G 1G29G25G14G22G13G20G 4
 -16029482.10549 -12490497.56246  22046096.691    22046098.845
  -3927826.44148  -3060643.03645  23020739.201    23020741.215
 -18807568.98249 -14655245.67547  21515401.435    21515401.831
   6462752.49648   5035907.71244  24882248.203    24882249.976
 -20695976.66149 -16126734.67846  20958508.753    20958510.590
   -643404.86448                  24891926.905
 -24878973.74249 -19386212.40547  20622615.175    20622615.785
   -666582.19048   -519414.51644  24969142.050    24969144.805
 02  1  6  1  4  0.0000000  0  8G 1G29G25G14G22G13G20G 4
 -16097699.87249 -12543654.25246  22033116.208    22033117.930
  -3851828.04348  -3001423.55645  23035201.694    23035203.697
 -18747579.17649 -14608500.36547  21526817.116    21526817.435
   6551337.01648   5104934.48144  24899105.214    24899103.941
 -20766004.15249 -16181301.52146  20945183.137    20945185.091
   -735371.52048                  24874427.940
 -24888517.08749 -19393648.78147  20620798.927    20620799.629
   -698837.13948                  24963003.677
 02  1  6  1  4 30.0000000  0  8G 1G29G25G14G22G13G20G 4
 -16165773.98449 -12596698.98946  22020162.742    22020163.302
  -3775651.53548  -2942065.27745  23049698.084    23049698.678
 -18687358.18549 -14561574.91247  21538276.677    21538277.089
   6640005.45248   5174026.66344  24915978.122    24915977.871
 -20835509.43349 -16235461.45547  20931956.845    20931958.698
   -827343.05648                  24856924.483
 -24897464.40349 -19400620.71947  20619096.454    20619096.910
   -730580.48148                  24956963.592
 02  1  6  1  5  0.0000000  0  8G 1G29G25G14G22G13G20G 4
 -16233699.08549 -12649627.60346  22007235.912    22007237.670
  -3699292.67348  -2882564.90745  23064227.539    23064230.573
 -18626902.47649 -14514466.55947  21549780.999    21549781.410
   6728762.30648   5243187.77944  24932868.437    24932869.474
 -20904485.34749 -16289208.89747  20918830.716    20918832.810
   -919314.18248                  24839424.313
 -24905810.38049 -19407124.08147  20617508.434    20617508.934
   -761806.65348   -593615.52044  24951020.542    24951024.703
 02  1  6  1  5 30.0000000  0  8G 1G29G25G14G22G13G20G 4
 -16301484.93249 -12702447.68346  21994336.883    21994338.512
  -3622762.39548  -2822930.96945  23078791.531    23078793.732
 -18566224.33849 -14467184.88647  21561327.776    21561328.319
   6817596.69948   5312409.26644  24949772.616    24949777.128
 -20972939.90549 -16342550.08946  20905804.700    20905806.104
  -1011294.79048                  24821919.613
 -24913564.81349 -19413166.50147  20616032.933    20616033.418
   -792525.49148                  24945176.063
 02  1  6  1  6  0.0000000  0  8G 1G29G25G14G22G13G20G 4
 -16369102.69749 -12755136.80446  21981470.393    21981471.000
  -3546033.41348  -2763142.17645  23093392.621    23093393.387
 -18505297.84749 -14419709.69547  21572921.686    21572922.126
   6906535.47648   5381712.07544  24966697.120    24966697.596
 -21040842.94349 -16395461.52047  20892882.761    20892884.502
  -1103256.43148                  24804419.454
 -24920699.46349 -19418725.97247  20614675.392    20614675.993
   -822708.52648   -641071.47144  24939433.049    24939435.748
 02  1  6  1  6 30.0000000  0  8G 1G29G25G14G22G13G20G 4
 -16436579.00049 -12807715.72046  21968629.212    21968630.443
  -3469133.26048  -2703220.03145  23108025.776    23108025.693
 -18444151.68549 -14372063.32947  21584557.187    21584557.609
   6995550.90748                  24983636.570
 -21108219.45449 -16447962.67747  20880061.396    20880063.276
  -1195225.93348                  24786919.714
 -24927241.23849 -19423823.46047  20613430.445    20613430.933
   -852382.37748   -664193.94144  24933785.221    24933784.097
 02  1  6  1  7  0.0000000  0  8G 1G29G25G14G22G13G20G 4
 -16503917.12849 -12860186.95446  21955815.038    21955816.977
  -3392066.67948  -2643168.19145  23122691.405    23122693.039
 -18382791.83849 -14324250.45847  21596233.829    21596234.188
   7084638.31748                  25000589.775
 -21175071.12249 -16500054.86647  20867340.372    20867342.002
  -1287206.95548                  24769413.628
 -24933193.82549 -19428461.84147  20612297.468    20612298.039
   -881550.51748   -686922.37844  24928234.808    24928236.184
 02  1  6  1  7 30.0000000  0  8G 1G29G25G14G22G13G20G 4
 -16571104.51349 -12912540.70746  21943029.917    21943031.037
  -3314822.52848  -2582977.97445  23137390.017    23137392.075
 -18321208.08449 -14276263.11447  21607953.002    21607953.267
   7173808.70548   5589976.50144  25017557.919    25017559.134
 -21241384.11649 -16551727.30647  20854720.661    20854722.615
  -1379186.76448                  24751912.130
 -24938544.80849 -19432631.44147  20611279.045    20611279.628
   -910200.70348                  24922782.314
 02  1  6  1  8  0.0000000  0  8G 1G29G14G22G13G25G20G 4
 -16638139.94849 -12964776.09046  21930273.648    21930274.350
  -3237400.48248  -2522649.13445  23152122.930    23152124.778
   7263062.19848   5659524.57844  25034542.238    25034544.957
 -21307155.23349 -16602977.50347  20842205.579    20842207.167
  -1471165.11048                  24734408.489
 -18259401.36449 -14228102.03147  21619714.502    21619714.828
 -24943293.15949 -19436331.46147  20610375.505    20610376.153
   -938331.67648   -731167.46344  24917429.670    24917434.382
 02  1  6  1  8 30.0000000  0  8G 1G29G14G22G13G25G20G 4
 -16705022.53149 -13016892.34946  21917546.019    21917546.992
  -3159801.05348  -2462182.09845  23166889.925    23166891.340
   7352398.01448                  25051542.992
 -21372382.25549 -16653803.73047  20829793.067    20829794.651
  -1563141.38848                  24716905.572
 -18197373.50549 -14179768.63747  21631517.816    21631518.317
 -24947438.47949 -19439561.58247  20609586.895    20609587.402
   -965942.93748   -752682.74844  24912176.399    24912175.894
 02  1  6  1  9  0.0000000  0  8G 1G29G14G22G13G25G20G 4
 -16771759.24349 -13068894.96946  21904846.018    21904847.202
  -3082032.71648  -2401583.43745  23181689.160    23181689.854
   7441807.84848                  25068556.822
 -21437070.95149 -16704210.48147  20817482.816    20817484.926
  -1655122.54548                  24699403.985
 -18135134.51449 -14131270.72047  21643361.497    21643361.907
 -24950988.25749 -19442327.64847  20608911.277    20608911.868
   -993041.79448   -773798.75644  24907019.757    24907018.216
 02  1  6  1  9 30.0000000  0  8G 1G29G14G22G13G25G20G 4
 -16838351.06449 -13120784.67446  21892174.873    21892176.307
  -3004097.76448  -2340854.93645  23196519.405    23196519.833
   7531289.18248                  25085584.252
 -21501220.86749 -16754197.40147  20805275.918    20805277.619
  -1747110.49048                  24681897.184
 -18072687.08849 -14082610.38547  21655244.957    21655245.164
 -24953944.11049 -19444630.91347  20608348.725    20608349.380
  -1019629.78848                  24901959.390
 02  1  6  1 10  0.0000000  0  8G 1G29G14G22G13G25G20G 4
 -16904788.02249 -13172553.70046  21879531.763    21879532.867
  -2925987.57248  -2279989.89945  23211383.050    23211386.497
   7620850.73248   5938320.22844  25102627.898    25102629.092
 -21564820.62349 -16803755.62047  20793173.250    20793174.719
  -1839095.23348  -1433058.60244  24664394.297    24664389.487
 -18010023.71349 -14033781.78247  21667169.296    21667169.807
 -24956296.50349 -19446463.95247  20607901.180    20607901.820
  -1045697.02948                  24896997.416
 02  1  6  1 10 30.0000000  0  8G 1G29G14G22G13G25G20G 4
 -16971063.43849 -13224196.85646  21866920.005    21866921.490
  -2847696.69248  -2218984.08045  23226281.131    23226281.596
   7710497.44248                  25119687.393
 -21627862.07449 -16852878.79047  20781176.575    20781178.260
  -1931070.39348                  24646890.801
 -17947140.51249 -13984781.88447  21679135.529    21679135.734
 -24958038.99349 -19447821.74047  20607569.597    20607570.163
  -1071237.33648                  24892138.602
 02  1  6  1 11  0.0000000  0  8G 1G29G14G22G13G25G20G 4
 -17037183.62049 -13275719.05846  21854337.578    21854339.166
  -2769232.78148  -2157843.40245  23241212.661    23241214.600
   7800221.82248                  25136760.593
 -21690350.28549 -16901570.86247  20769285.644    20769287.222
  -2023042.39448  -1576393.80044  24629389.915    24629391.153
 -17884046.31849 -13935617.57646  21691141.995    21691142.241
 -24959178.49749 -19448709.66947  20607352.633    20607353.223
  -1096257.14348   -854226.33644  24887379.692    24887380.097
 02  1  6  1 11 30.0000000  0  8G 1G29G14G22G13G25G20G 4
 -17103149.25049 -13327120.84146  21841785.212    21841786.491
  -2690597.92648  -2096569.52145  23256176.154    23256177.685
   7890021.73448   6148063.28244  25153849.953    25153850.132
 -21752284.53149 -16949831.28447  20757500.074    20757501.493
  -2115012.13348                  24611887.895
 -17820743.88749 -13886291.01246  21703187.869    21703188.424
 -24959716.32849 -19449128.76347  20607250.013    20607250.867
  -1120757.82548   -873317.78944  24882717.295    24882715.848
 02  1  6  1 12  0.0000000  0  8G 1G14G22G29G13G25G20G 4
 -17168963.59349 -13378404.72746  21829260.261    21829261.785
   7979892.14548                  25170951.934
 -21813666.93049 -16997661.69747  20745818.786    20745820.544
  -2611796.87348  -2035166.15145  23271172.096    23271175.306
  -2206983.58248                  24594386.537
 -17757239.19349 -13836806.82846  21715272.674    21715272.793
 -24959656.39149 -19449082.06547  20607261.584    20607262.237
  -1144743.18348   -892007.75344  24878152.585    24878154.097
 02  1  6  1 12 30.0000000  0  8G 1G14G22G29G13G25G20G 4
 -17234605.61449 -13429554.31646  21816769.696    21816770.837
   8069852.88548                  25188070.141
 -21874475.06349 -17045044.62847  20734247.792    20734249.346
  -2532809.72648  -1973617.73845  23286202.733    23286203.884
  -2298936.05448  -1791375.76844  24576889.612    24576891.528
 -17693513.70749 -13787150.60046  21727398.848    21727399.196
 -24958978.21849 -19448553.62447  20607390.841    20607391.423
  -1168192.53548                  24873687.758
 02  1  6  1 13  0.0000000  0  8G 1G14G22G29G13G25G20G 4
 -17300077.30249 -13480571.18546  21804311.159    21804312.136
   8159900.52348                  25205205.799
 -21934709.59549 -17091980.59947  20722785.648    20722787.221
  -2453640.04648  -1911927.15945  23301267.911    23301269.218
  -2390871.57148                  24559393.054
 -17629571.48649 -13737325.48846  21739566.675    21739567.080
 -24957684.45749 -19447545.50147  20607637.282    20607637.769
  -1191108.36748                  24869326.381
 02  1  6  1 13 30.0000000  0  8G 1G14G22G29G13G25G20G 4
 -17365401.96349 -13531473.47846  21791879.711    21791880.951
   8250008.41448                  25222343.746
 -21994392.97449 -17138487.09947  20711428.073    20711429.690
  -2374312.64648  -1850113.63045  23316363.244    23316364.063
  -2482813.80748  -1934656.87244  24541898.503    24541899.779
 -17565438.98449 -13687352.10646  21751770.935    21751771.126
 -24955799.29549 -19446076.54747  20607995.924    20607996.301
  -1213514.66948                  24865063.815
 02  1  6  1 14  0.0000000  0  7G 1G29G22G13G25G20G 4
 -17430560.01849 -13582245.97646  21779480.659    21779482.060
  -2294809.02348  -1788162.80945  23331493.230    23331496.652
 -22053504.07349 -17184547.66947  20700179.710    20700181.473
  -2574743.42548                  24524403.055
 -17501098.88649 -13637216.95946  21764014.452    21764014.521
 -24953303.59049 -19444131.84847  20608470.666    20608471.164
  -1235392.21848                  24860902.809
 02  1  6  1 14 30.0000000  0  7G 1G29G13G22G25G20G 4
 -17495550.41849 -13632887.83746  21767113.478    21767114.125
  -2215129.66748  -1726075.04744  23346654.770    23346655.961
  -2666659.66548  -2077913.18144  24506913.214    24506915.051
 -22112040.88149 -17230160.73747  20689040.698    20689042.059
 -17436552.42349 -13586921.00846  21776296.874    21776297.388
 -24950197.28749 -19441711.35747  20609061.551    20609062.132
  -1256740.44348                  24856841.132
 02  1  6  1 15  0.0000000  0  7G 1G22G29G13G25G20G 4
 -17560390.26749 -13683412.39846  21754775.062    21754775.807
 -22170019.23049 -17275338.64247  20678007.712    20678009.158
  -2135293.06348  -1663864.74744  23361847.499    23361849.393
  -2758580.46048                  24489420.955
 -17371819.13749 -13536479.48646  21788615.493    21788615.877
 -24946498.03749 -19438828.83347  20609765.677    20609766.331
  -1277577.38448   -995514.90844  24852874.984    24852874.862
 02  1  6  1 15 30.0000000  0  7G 1G22G29G13G25G20G 4
 -17625064.50049 -13733807.90446  21742467.813    21742468.459
 -22227422.98249 -17320068.80447  20667083.767    20667085.549
  -2055285.76148  -1601521.43045  23377072.799    23377076.759
  -2850490.65648                  24471930.290
 -17306886.75049 -13485882.81146  21800971.706    21800972.053
 -24942191.72149 -19435473.26647  20610585.417    20610585.902
  -1297888.67248                  24849007.211
 02  1  6  1 16  0.0000000  0  7G 1G22G29G13G25G20G 4
 -17689569.43649 -13784071.49246  21730192.850    21730193.967
 -22284247.58249 -17364347.68447  20656270.395    20656271.762
  -1975105.20748  -1539043.10944  23392329.990    23392331.257
  -2942386.81848                  24454444.548
 -17241753.91149 -13435129.94846  21813366.039    21813366.341
 -24937275.59949 -19431642.52647  20611521.001    20611521.568
  -1317671.21948                  24845241.989
 02  1  6  1 16 30.0000000  0  8G 1G14G22G29G13G25G20G 4
 -17753897.09749 -13834196.93446  21717951.982    21717953.130
         -.27258                  25325540.146
 -22340483.88149 -17408168.15147  20645569.057    20645570.274
  -1894745.12348  -1476424.92544  23407623.011    23407624.112
  -3034261.39648  -2364355.79144  24436960.216    24436960.441
 -17176414.97349 -13384216.48546  21825799.909    21825800.379
 -24931742.40749 -19427330.95347  20612573.908    20612574.501
  -1336917.51648  -1041753.86844  24841581.440    24841581.942
 02  1  6  1 17  0.0000000  0  8G14G 1G22G29G13G25G20G 4
     90620.88548                  25342784.189
 -17818073.11049 -13884204.20546  21705739.763    21705741.005
 -22396156.37249 -17451549.29047  20634974.755    20634976.191
  -1814232.54548  -1413687.87744  23422944.053    23422944.205
  -3126140.13548  -2435949.58444  24419476.127    24419473.268
 -17110898.24149 -13333164.48146  21838266.916    21838267.343
 -24925618.64949 -19422559.20147  20613739.107    20613739.686
  -1355654.00748                  24838017.415
 02  1  6  1 17 30.0000000  0  8G 1G14G22G29G13G25G20G 4
 -17882090.08649 -13934087.55646  21693557.308    21693558.542
    181303.85848                  25360042.028
 -22451256.68649 -17494484.56847  20624489.935    20624491.517
  -1733561.38348  -1350827.30144  23438295.081    23438296.318
  -3218016.14248  -2507541.28144  24401993.413    24401992.410
 -17045198.71549 -13281970.04746  21850768.915    21850769.459
 -24918897.96149 -19417322.30547  20615018.025    20615018.503
  -1373874.21648                  24834550.558
 02  1  6  1 18  0.0000000  0  8G14G 1G22G29G13G25G20G 4
    272068.83848    212001.69244  25377313.632    25377316.711
 -17945926.26949 -13983830.02146  21681409.963    21681410.923
 -22505762.18149 -17536956.35447  20614117.436    20614118.952
  -1652711.64448  -1287827.57045  23453680.581    23453681.896
  -3309867.76348  -2579113.84744  24384514.355    24384514.443
 -16979296.94649 -13230618.01646  21863310.080    21863310.485
 -24911559.47749 -19411604.01447  20616414.448    20616415.020
  -1391556.95348                  24831185.489
 02  1  6  1 18 30.0000000  0  8G 1G14G22G29G13G25G20G 4
 -18009596.49049 -14033443.16246  21669293.965    21669294.540
    362899.51048                  25394597.625
 -22559686.81249 -17578975.51947  20603855.678    20603857.213
  -1571699.52848  -1224701.29645  23469097.084    23469100.242
  -3401709.96648  -2650679.18444  24367037.240    24367036.620
 -16913210.51849 -13179122.09746  21875885.884    21875886.174
 -24903619.16049 -19405416.76347  20617925.401    20617925.901
  -1408718.02648                  24827918.389
 02  1  6  1 19  0.0000000  0  8G14G 1G22G29G13G25G20G 4
    453797.81348                  25411896.283
 -18073097.45749 -14082924.41246  21657209.695    21657210.811
 -22613026.13249 -17620538.60047  20593706.000    20593706.952
  -1490522.99648  -1161446.88845  23484542.955    23484544.244
  -3493539.80348  -2722234.82044  24349562.334    24349560.894
 -16846938.08049 -13127481.23746  21888497.120    21888497.456
 -24895074.29149 -19398758.43147  20619551.702    20619552.308
  -1425354.65248                  24824751.241
 02  1  6  1 19 30.0000000  0  8G 1G14G22G29G13G25G20G 4
 -18136427.27549 -14132272.30046  21645158.864    21645159.839
    544763.91148                  25429206.313
 -22665777.46649 -17661643.50647  20583667.785    20583669.033
  -1409181.70648  -1098064.14145  23500022.671    23500025.200
  -3585355.95948  -2793779.77044  24332089.992    24332090.856
 -16780480.58849 -13075696.18046  21901143.688    21901143.976
 -24885924.44449 -19391628.68847  20621292.871    20621293.331
  -1441466.09848                  24821685.236
 02  1  6  1 20  0.0000000  0  8G 1G14G22G29G13G25G20G 4
 -18199571.82749 -14181475.82446  21633143.314    21633143.749
    635810.33548                  25446531.820
 -22717925.89149 -17702278.61247  20573744.191    20573745.775
  -1327663.34948  -1034543.41844  23515535.406    23515535.862
  -3677144.52948  -2865303.22144  24314623.586    24314624.399
 -16713826.74349 -13023758.11446  21913827.191    21913827.614
 -24876156.51349 -19384017.32047  20623151.311    20623151.827
  -1457039.14848                  24818723.062
 02  1  6  1 20 30.0000000  0  8G 1G14G22G29G13G25G20G 4
 -18262534.01749 -14230537.23246  21621161.049    21621162.143
    726932.37148                  25463873.022
 -22769473.64349 -17742445.66047  20563935.041    20563936.344
  -1245972.24748   -970888.04344  23531080.866    23531080.773
  -3768908.85248  -2936807.80844  24297161.507    24297161.647
 -16646981.78649 -12971671.13746  21926547.590    21926547.817
 -24865774.72149 -19375927.62147  20625127.124    20625127.634
  -1472077.66748  -1147073.20044  24815862.361    24815864.343
 02  1  6  1 21  0.0000000  0  8G 1G14G22G29G13G25G20G 4
 -18325326.78549 -14279466.63346  21609211.611    21609212.801
    818115.69048                  25481224.344
 -22820432.69149 -17782153.97747  20554238.209    20554239.324
  -1164122.88648   -907109.38245  23546655.972    23546656.583
  -3860662.40648  -3008304.13544  24279701.118    24279701.495
 -16579960.63749 -12919446.86446  21939300.817    21939301.332
 -24854793.04149 -19367370.47647  20627217.116    20627217.610
  -1486595.68248                  24813099.970
 02  1  6  1 21 30.0000000  0  8G 1G14G22G29G13G25G20G 4
 -18387944.93149 -14328259.96446  21597296.808    21597297.508
    909363.66448                  25498587.921
 -22870797.16149 -17821398.98747  20544654.229    20544655.315
  -1082111.67648   -843204.62145  23562261.963    23562262.630
  -3952399.96348  -3079787.96044  24262244.229    24262241.527
 -16512761.28449 -12867083.73446  21952088.607    21952088.909
 -24843207.34949 -19358342.67247  20629421.590    20629422.000
  -1500588.90648  -1169289.70544  24810436.985    24810435.001
 02  1  6  1 22  0.0000000  0  8G 1G14G22G29G13G25G20G 4
 -18450398.56949 -14376925.11346  21585411.929    21585412.515
   1000664.81748                  25515962.510
 -22920576.45049 -17860188.00947  20535181.029    20535182.214
   -999950.25248   -779182.79044  23577896.458    23577897.723
  -4044131.56948  -3151267.11544  24244788.327    24244786.443
 -16445396.06049 -12814591.35646  21964908.021    21964908.406
 -24831028.86949 -19348852.95347  20631739.013    20631739.442
  -1514068.43448  -1179793.18144  24807871.597    24807871.289
 02  1  6  1 22 30.0000000  0  7G 1G22G29G13G25G20G 4
 -18512673.06949 -14425450.66546  21573561.047    21573562.052
 -22969755.01649 -17898508.93347  20525822.597    20525823.775
   -917625.33548   -715033.58144  23593562.975    23593564.813
  -4135843.12148  -3222730.56244  24227335.522    24227336.668
 -16377852.58749 -12761960.08346  21977760.847    21977761.180
 -24818244.25649 -19338890.92947  20634171.974    20634172.494
  -1527020.52948  -1189885.69144  24805405.855    24805407.786
 02  1  6  1 23  0.0000000  0  7G 1G25G22G29G13G20G 4
 -18574746.76049 -14473819.75046  21561749.242    21561749.995
 -16310111.71749 -12709174.99646  21990651.809    21990652.185
 -23018310.50649 -17936344.34447  20516582.806    20516583.985
   -835117.01648   -650741.41444  23609264.669    23609264.448
  -4227513.10848  -3294161.63644  24209892.195    24209892.514
 -24804833.11249 -19328440.69147  20636724.017    20636724.544
  -1539424.53048                  24803044.912
 02  1  6  1 23 30.0000000  0  8G 1G25G 6G22G29G13G20G 4
 -18636631.85949 -14522041.86746  21549972.762    21549973.290
 -16242188.39749 -12656247.73146  22003577.342    22003577.198
        -1.00557                  25565366.056
 -23066254.70049 -17973703.42147  20507459.105    20507460.329
   -752439.06048   -586317.11744  23624996.402    23624998.793
  -4319154.24348  -3365570.25144  24192452.529    24192452.158
 -24790809.06149 -19317512.86947  20639392.756    20639393.180
  -1551293.98348                  24800785.835
 02  1  6  1 24  0.0000000  0  8G 1G25G 6G22G29G13G20G 4
 -18698336.35649 -14570123.26046  21538231.080    21538231.552
 -16174093.23349 -12603186.57146  22016535.079    22016535.385
    -16448.54947                  25562224.016
 -23113594.93249 -18010591.87247  20498450.770    20498452.110
   -669601.07048   -521768.14044  23640760.621    23640763.342
  -4410774.97848  -3436962.99144  24175018.491    24175018.817
 -24776181.58849 -19306114.84347  20642176.140    20642176.705
  -1562637.80948  -1217639.32144  24798628.413    24798629.562
 02  1  6  1 24 30.0000000  0  8G 1G25G 6G22G29G13G20G 4
 -18759851.95349 -14618057.45546  21526524.604    21526525.116
 -16105820.16049 -12549986.78346  22029527.247    22029527.115
    -32508.08147                  25559167.738
 -23160322.35949 -18047002.82147  20489558.612    20489560.116
   -586596.46248   -457089.28544  23656556.291    23656559.585
  -4502367.41848  -3508333.71444  24157588.152    24157588.321
 -24760943.64949 -19294241.13547  20645075.566    20645076.224
  -1573449.16048  -1226063.68944  24796570.923    24796567.278
 02  1  6  1 25  0.0000000  0  8G 1G25G 6G22G29G13G20G 4
 -18821179.07649 -14665844.78846  21514854.386    21514855.064
 -16037372.20249 -12496650.71646  22042552.458    22042552.214
    -48114.40047                  25556197.792
 -23206436.80349 -18082936.11847  20480783.398    20480784.785
   -503427.11848   -392282.08644  23672381.848    23672386.710
  -4593931.92548  -3579682.70244  24140165.091    24140163.739
 -24745096.92449 -19281893.04847  20648091.416    20648091.947
  -1583729.59948  -1234074.44444  24794615.599    24794616.103
 02  1  6  1 25 30.0000000  0  7G 1G25G22G29G13G20G 4
 -18882324.16049 -14713490.28346  21503219.159    21503219.808
 -15968758.29249 -12443185.34146  22055609.085    22055609.336
 -23251944.15249 -18118396.35747  20472123.570    20472124.734
   -420101.27648   -327352.94344  23688239.112    23688241.506
  -4685475.18448  -3651015.11044  24122744.375    24122741.973
 -24728649.36049 -19269076.77247  20651221.599    20651221.939
  -1593486.46948  -1241677.20644  24792758.767    24792764.627
 02  1  6  1 26  0.0000000  0  7G 1G25G29G22G13G20G 4
 -18943296.69349 -14761001.32246  21491616.404    21491617.221
 -15899990.33549 -12389599.92546  22068695.403    22068695.431
   -336629.79048   -262310.32044  23704122.760    23704124.308
 -23296853.38349 -18153390.53147  20463577.422    20463578.562
  -4777006.69148  -3722338.36844  24105326.094    24105325.336
 -24711611.80849 -19255800.76647  20654463.811    20654464.272
  -1602730.86248  -1248880.58444  24791000.008    24791000.772
 02  1  6  1 26 30.0000000  0  7G 1G25G29G22G13G20G 4
 -19004067.72449 -14808355.35546  21480051.654    21480052.592
 -15831041.70949 -12335873.73346  22081815.798    22081815.874
   -252985.41648   -197132.99544  23720039.836    23720042.675
 -23341135.15349 -18187895.77647  20455150.960    20455152.129
  -4868498.45248  -3793630.69044  24087917.246    24087914.985
 -24693956.94749 -19242043.74047  20657823.218    20657823.785
  -1611434.69448                  24789343.467
 02  1  6  1 27  0.0000000  0  7G 1G25G22G29G13G20G 4
 -19064640.24649 -14855554.70646  21468525.131    21468526.256
 -15761918.27249 -12282011.32746  22094969.645    22094969.149
 -23384792.09049 -18221914.14247  20446843.555    20446844.813
   -169173.07848   -131824.76544  23735989.018    23735990.970
  -4959953.61448  -3864894.44944  24070512.469    24070512.620
 -24675689.30349 -19227809.21847  20661298.901    20661299.497
  -1619602.56948                  24787787.225
 02  1  6  1 27 30.0000000  0  7G 1G25G22G29G13G20G 4
 -19125008.74049 -14902595.07247  21457037.656    21457038.559
 -15692616.81749 -12228010.19946  22108157.168    22108157.119
 -23427818.18249 -18255440.94147  20438655.781    20438656.933
    -85188.71448    -66382.49644  23751970.760    23751973.828
  -5051366.61348  -3936125.34944  24053118.024    24053117.018
 -24656804.65449 -19213093.91147  20664892.547    20664893.273
  -1627230.14648  -1267970.92844  24786335.630    24786336.595
 02  1  6  1 28  0.0000000  0  7G 1G25G22G29G13G20G 4
 -19185191.68849 -14949490.85546  21445585.168    21445586.062
 -15623158.26349 -12173886.66446  22121374.609    22121374.679
 -23470231.50849 -18288490.25947  20430584.893    20430586.085
     -1052.44448      -821.86144  23767981.941    23767984.481
  -5142756.43748  -4007338.25744  24035726.562    24035727.522
 -24637323.39449 -19197913.71647  20668600.171    20668600.747
  -1634337.43248                  24784982.152
 02  1  6  1 28 30.0000000  0  7G 1G25G22G29G13G20G 4
 -19245215.70449 -14996262.79547  21434162.643    21434163.472
 -15553571.58649 -12119663.28946  22134616.683    22134616.312
 -23512058.43049 -18321082.63747  20422625.333    20422626.437
     83207.26048     64834.96544  23784014.922    23784015.222
  -5234149.63248  -4078553.76444  24018334.645    24018333.558
 -24617273.58249 -19182290.49247  20672415.582    20672416.236
  -1640952.27348                  24783724.084
 02  1  6  1 29  0.0000000  0  8G 1G25G 6G22G29G13G20G 4
 -19305069.79149 -15042902.31247  21422773.264    21422773.904
 -15483848.57149 -12065333.67946  22147884.471    22147884.817
         -.16858                  25535532.435
 -23553287.57949 -18353209.21947  20414779.368    20414780.540
    167599.92848    130595.32144  23800075.920    23800078.964
  -5325535.76148  -4149763.72944  24000944.971    24000945.384
 -24596645.88149 -19166216.96747  20676340.665    20676341.297
  -1647065.15748                  24782560.450
 02  1  6  1 29 30.0000000  0  8G 1G25G 6G22G29G13G20G 4
 -19364703.03849 -15089369.74447  21411424.727    21411425.762
 -15413940.69249 -12010860.01746  22161187.473    22161187.788
    -11533.71548                  25533337.382
 -23593867.68049 -18384830.04347  20407057.562    20407058.663
    252174.62548    196497.62644  23816169.558    23816173.182
  -5416864.04148  -4220928.63644  23983565.065    23983568.110
 -24575391.01849 -19149654.74347  20680385.472    20680385.869
  -1652626.65748                  24781503.362
 02  1  6  1 30  0.0000000  0  8G 1G25G 6G22G29G13G20G 4
 -19424131.76649 -15135677.81447  21400116.026    21400116.745
 -15343866.56749 -11956256.81446  22174522.248    22174522.511
    -22599.50648                  25531231.423
 -23633814.86149 -18415957.68847  20399455.616    20399456.694
    336913.35648    262527.66744  23832294.156    23832297.352
  -5508151.09648  -4292061.46944  23966194.866    23966192.617
 -24553526.94649 -19132617.81147  20684546.149    20684546.703
  -1657654.29948                  24780546.284
 02  1  6  1 30 30.0000000  0  8G 1G25G 6G22G29G13G20G 4
 -19483353.06849 -15181824.26147  21388846.937    21388847.526
 -15273625.74249 -11901523.72246  22187888.563    22187889.004
    -33194.85048                  25529215.264
 -23673126.08849 -18446589.78447  20391974.930    20391976.219
    421817.16748    328686.33244  23848451.728    23848454.422
  -5599394.50548  -4363160.16944  23948830.781    23948830.472
 -24531052.63149 -19115105.36447  20688822.659    20688823.365
  -1662147.00448                  24779691.445
 02  1  6  1 31  0.0000000  0  8G 1G25G 6G22G29G13G20G 4
 -19542372.61249 -15227813.48547  21377615.186    21377615.998
 -15203226.87449 -11846667.47446  22201285.272    22201285.633
    -43325.96448                  25527287.555
 -23711807.06149 -18476730.77347  20384614.531    20384615.561
    506878.74548    394967.96644  23864637.944    23864638.768
  -5690600.13648  -4434229.46344  23931475.443    23931476.624
 -24507975.69149 -19097123.33947  20693214.141    20693214.665
  -1666111.94048                  24778938.299
 02  1  6  1 31 30.0000000  0  8G 1G25G 6G22G29G13G20G 4
 -19601189.86449 -15273645.09147  21366423.209    21366423.983
 -15132671.92849 -11791689.60746  22214711.164    22214711.358
    -52992.52148                  25525448.054
 -23749856.77949 -18506379.87947  20377373.905    20377375.044
    592096.93748    461371.63944  23880855.071    23880856.850
  -5781767.60448  -4505269.07544  23914126.882    23914126.770
 -24484297.10649 -19078672.50147  20697719.985    20697720.461
  -1669549.93548  -1300946.85744  24778283.527    24778283.488
 02  1  6  1 32  0.0000000  0  8G 1G25G 6G22G29G13G20G 4
 -19659808.82149 -15319322.18147  21355268.424    21355269.022
 -15061966.87749 -11736594.77846  22228165.992    22228166.301
    -62198.75448                  25523696.458
 -23787279.21949 -18535540.20047  20370252.458    20370253.648
    677466.02948    527892.90344  23897101.116    23897102.475
  -5872901.14348  -4576282.15644  23896784.213    23896784.662
 -24460022.81849 -19059757.47947  20702339.326    20702340.145
  -1672466.49348                  24777729.734
 02  1  6  1 32 30.0000000  0  8G 1G25G 6G22G29G13G20G 4
 -19718225.19149 -15364841.40447  21344151.871    21344152.751
 -14991110.52149 -11681382.04646  22241649.444    22241649.809
    -70940.90748                  25522032.730
 -23824070.01249 -18564208.32747  20363251.297    20363252.615
    762988.43948    594533.63744  23913374.909    23913375.975
  -5963996.99848  -4647265.95644  23879450.235    23879449.554
 -24435150.52849 -19040376.48047  20707072.323    20707072.845
  -1674859.18048                  24777272.707
 02  1  6  1 33  0.0000000  0  8G 1G25G 6G22G29G13G20G 4
 -19776428.19049 -15410194.36847  21333076.384    21333077.254
 -14920093.99049 -11626044.50746  22255163.665    22255164.033
    -79208.57548                  25520459.173
 -23860218.35349 -18592375.84447  20356372.150    20356373.386
    848673.26548    661300.87844  23929680.354    23929682.574
  -6055044.53048  -4718212.11844  23862123.013    23862124.800
 -24409671.06849 -19020522.36647  20711921.000    20711921.483
  -1676718.72448                  24776920.549
 02  1  6  1 33 30.0000000  0  8G 1G25G 6G22G29G13G20G 4
 -19834422.99649 -15455385.11047  21322039.933    21322040.921
 -14848925.04249 -11570588.20146  22268706.783    22268707.026
    -87007.25148    -67797.32044  25518975.309    25518976.573
 -23895729.23949 -18620046.64447  20349614.991    20349616.007
    934513.52848    728189.26944  23946015.274    23946014.226
  -6146048.80348  -4789124.48144  23844806.849    23844807.404
 -24383591.40449 -19000200.55847  20716883.997    20716884.443
  -1678051.96948  -1307571.15844  24776665.081    24776665.813
 02  1  6  1 34  0.0000000  0  8G 1G25G 6G22G29G13G20G 4
 -19892199.83549 -15500406.00447  21311045.352    21311046.361
 -14777596.86849 -11515007.81546  22282279.890    22282280.218
    -94327.68248                  25517582.236
 -23930592.97549 -18647213.17247  20342980.806    20342981.893
   1020517.21948    795205.08844  23962381.397    23962381.546
  -6237000.51148  -4859995.89744  23827498.806    23827499.379
 -24356903.75349 -18979404.99347  20721962.613    20721963.064
  -1678850.91248                  24776513.165
 02  1  6  1 34 30.0000000  0  8G 1G25G 6G22G29G13G20G 4
 -19949779.47149 -15545273.23947  21300088.623    21300089.436
 -14706132.19249 -11459321.07346  22295879.228    22295879.552
   -101191.10347                  25516276.083
 -23964830.44149 -18673891.70147  20336465.551    20336466.570
   1106661.76048    862330.53644  23978773.547    23978777.190
  -6327920.57448  -4930842.65144  23810197.328    23810198.408
 -24329631.10249 -18958153.58547  20727152.181    20727152.581
  -1679137.79048                  24776457.490
 02  1  6  1 35  0.0000000  0  8G 1G25G 6G22G29G13G20G 4
 -20007147.20949 -15589975.35447  21289172.169    21289172.834
 -14634519.10349 -11403518.68646  22309506.874    22309506.986
   -107583.32847    -83831.61044  25515059.425    25515060.045
 -23998427.02249 -18700070.83847  20330072.531    20330073.418
   1192960.06048    929575.82344  23995196.315    23995199.125
  -6418794.32848  -5001653.33444  23792904.139    23792906.265
 -24301760.64949 -18936436.35547  20732455.865    20732456.295
  -1678899.92448                  24776502.030
 02  1  6  1 35 30.0000000  0  8G 1G25G 6G22G29G13G20G 4
 -20064297.38949 -15634507.93447  21278296.553    21278297.458
 -14562753.94549 -11347597.79846  22323163.194    22323163.384
   -113499.20947                  25513933.667
 -24031377.04949 -18725746.17047  20323802.189    20323803.121
   1279415.90548    996943.88844  24011648.412    24011650.688
  -6509617.13248  -5072424.29644  23775621.431    23775622.664
 -24273288.70049 -18914250.42547  20737873.919    20737874.252
  -1678133.35148                  24776648.529
 02  1  6  1 36  0.0000000  0  8G 1G25G 6G22G29G13G20G 4
 -20121217.70049 -15678861.40347  21267465.002    21267465.839
 -14490827.25849 -11291551.05346  22336850.575    22336851.071
   -118926.88347                  25512901.069
 -24063668.37749 -18750908.22847  20317657.250    20317658.226
   1366039.97948   1064443.02344  24028132.648    24028135.938
  -6600376.45148  -5143145.84045  23758350.968    23758350.660
 -24244205.02049 -18891587.82447  20743408.341    20743408.866
  -1676827.49148                  24776896.638
 02  1  6  1 36 30.0000000  0  8G 1G25G 6G22G29G13G20G 4
 -20177942.36449 -15723062.41947  21256670.792    21256671.554
 -14418775.84149 -11235407.10946  22350560.871    22350561.496
   -123901.42647                  25511954.298
 -24095335.48049 -18775583.87747  20311631.319    20311632.180
   1452796.01048   1132044.96044  24044642.182    24044642.073
  -6691106.67248  -5213844.73444  23741084.502    23741085.626
 -24214545.99749 -18868476.90547  20749052.244    20749052.577
  -1675018.09248  -1305206.99144  24777241.357    24777239.343
 02  1  6  1 37  0.0000000  0  8G 1G25G 6G22G29G13G20G 4
 -20234469.04649 -15767109.16047  21245913.654    21245914.510
 -14346599.36149 -11179165.71546  22364296.350    22364296.826
   -128420.98148                  25511094.609
 -24126376.17949 -18799771.41847  20305724.283    20305725.327
   1539684.45948   1199750.06044  24061175.932    24061179.099
  -6781805.42748  -5284519.00044  23723826.197    23723825.220
 -24184311.46249 -18844917.53547  20754805.373    20754805.921
  -1672704.93548                  24777680.503
 02  1  6  1 37 30.0000000  0  8G 1G25G 6G22G29G13G20G 4
 -20290778.96549 -15810986.99447  21235198.680    21235199.324
 -14274281.95149 -11122814.51046  22378058.048    22378058.309
   -132467.39848                  25510324.462
 -24156771.85349 -18823456.33947  20299940.327    20299941.338
   1626722.39248   1267571.68544  24077739.113    24077743.626
  -6872454.38948  -5355154.54744  23706575.752    23706574.065
 -24153484.54549 -18820896.56947  20760671.673    20760672.058
  -1669871.15648                  24778220.612
 02  1  6  1 38  0.0000000  0  8G 1G25G 6G22G29G13G20G 4
 -20346873.77349 -15854697.20847  21224523.979    21224524.648
 -14201827.60049 -11066356.59246  22391844.941    22391845.467
   -136043.00448                  25509644.248
 -24186524.42849 -18846640.14547  20294278.559    20294279.478
   1713906.45348   1335507.12944  24094329.420    24094334.370
  -6963055.83448  -5425753.07645  23689335.094    23689336.493
 -24122069.20449 -18796417.08747  20766649.952    20766650.337
  -1666520.23948  -1298585.32744  24778859.622    24778856.580
 02  1  6  1 38 30.0000000  0  8G 1G25G 6G22G29G13G20G 4
 -20402747.48749 -15898235.14447  21213891.479    21213892.129
 -14129232.58849 -11009789.08046  22405659.739    22405660.105
   -139142.32948                  25509054.429
 -24215628.21149 -18869318.39747  20288740.133    20288741.225
   1801240.56348   1403559.50344  24110948.243    24110954.816
  -7053603.65448  -5496309.70644  23672103.705    23672105.430
 -24090061.50949 -18771476.03547  20772740.536    20772741.199
  -1662648.10548                  24779595.974
 02  1  6  1 39  0.0000000  0  8G 1G25G 6G22G29G13G20G 4
 -20458392.96649 -15941595.24847  21203302.803    21203303.592
 -14056492.31049 -10953108.35546  22419501.843    22419501.683
   -141759.06748                  25508556.499
 -24244076.51349 -18891485.88547  20283326.566    20283327.442
   1888730.05648   1471733.01044  24127598.489    24127600.501
  -7144090.87348  -5566819.28144  23654884.753    23654883.922
 -24057456.65449 -18746069.65647  20778944.860    20778945.642
  -1658249.51548  -1292140.53144  24780433.413    24780436.451
 02  1  6  1 39 30.0000000  0  8G 1G25G 6G22G29G13G20G 4
 -20513799.42649 -15984769.09347  21192759.221    21192759.881
 -13983598.44349 -10896307.97046  22433372.763    22433373.741
   -143883.25448                  25508152.261
 -24271858.83349 -18913134.42847  20278039.867    20278040.691
   1976383.47148   1540034.17544  24144277.294    24144283.894
  -7234506.96948  -5637273.36344  23637680.058    23637679.047
 -24024246.26949 -18720191.44247  20785265.181    20785265.786
  -1653315.62048                  24781372.343
 02  1  6  1 40  0.0000000  0  8G 1G25G 6G22G29G13G20G 4
 -20568972.79349 -16027761.31547  21182259.823    21182260.481
 -13910560.02449 -10839394.93546  22447271.875    22447272.028
   -145521.66048                  25507840.563
 -24298981.64149 -18934269.06247  20272878.437    20272879.298
   2064193.30848   1608457.22244  24160987.570    24160992.496
  -7324858.37348  -5707676.99744  23620485.084    23620485.974
 -23990438.56249 -18693847.77947  20791698.502    20791699.121
  -1647854.74948                  24782412.754
 02  1  6  1 40 30.0000000  0  8G 1G25G 6G22G29G13G20G 4
 -20623917.32149 -16070575.22447  21171804.180    21171804.941
 -13837383.64049 -10782374.39246  22461196.764    22461197.228
   -146679.28848                  25507620.303
 -24325449.60349 -18954893.42947  20267841.654    20267842.454
   2152153.20948   1676997.23844  24177726.142    24177728.503
  -7415149.40148  -5778033.58244  23603304.815    23603303.088
 -23956040.17549 -18667043.84247  20798243.764    20798244.500
  -1641873.13048                  24783550.525
 02  1  6  1 41  0.0000000  0  8G 1G 6G22G29G13G25G20G 4
 -20678653.11749 -16113226.48447  21161388.390    21161388.998
   -147376.93548   -114840.67444  25507487.458    25507492.233
 -24351283.16449 -18975023.45747  20262925.834    20262926.577
   2240241.36048   1745637.20144  24194488.422    24194492.754
  -7505400.25448  -5848358.89344  23586129.205    23586130.298
 -13764091.24349 -10725263.45346  22475143.651    22475143.853
 -23921073.17449 -18639796.83747  20804898.215    20804898.702
  -1635392.66648                  24784783.864
 02  1  6  1 41 30.0000000  0  8G 1G 6G22G29G13G25G20G 4
 -20733169.81049 -16155706.98947  21151014.052    21151014.848
   -147605.15848                  25507444.087
 -24376472.51349 -18994651.50447  20258132.414    20258133.280
   2328466.19748   1814383.61544  24211277.450    24211278.901
  -7595600.87148  -5918645.05444  23568965.719    23568965.704
 -13690674.96949 -10668055.99146  22489114.435    22489114.854
 -23885529.89049 -18612100.77547  20811662.185    20811662.760
  -1628405.24448  -1268885.22344  24786113.974    24786114.812
 02  1  6  1 42  0.0000000  0  8G 1G 6G22G29G13G25G20G 4
 -20787465.21349 -16198015.06747  21140682.197    21140682.919
   -147362.42248                  25507490.283
 -24401015.97649 -19013776.26247  20253461.825    20253462.606
   2416827.90748   1883236.69444  24228092.598    24228094.869
  -7685748.97448  -5988890.22144  23551810.665    23551810.710
 -13617135.58549 -10610752.59446  22503108.351    22503109.331
 -23849410.45749 -18583955.76947  20818535.317    20818535.955
  -1620910.82348  -1263045.38344  24787539.611    24787542.873
 02  1  6  1 42 30.0000000  0  8G 1G 6G22G29G13G25G20G 4
 -20841526.08449 -16240140.39347  21130394.437    21130395.136
   -146636.31448   -114263.56144  25507628.545    25507628.989
 -24424900.69549 -19032387.71647  20248916.569    20248917.405
   2505337.78148   1952205.22744  24244935.613    24244937.161
  -7775831.56148  -6059084.39844  23534667.957    23534667.662
 -13543462.26049 -10553344.83146  22517128.022    22517128.351
 -23812703.88349 -18555353.25347  20825519.861    20825520.657
  -1612897.83248  -1256801.46744  24789064.686    24789064.169
 02  1  6  1 43  0.0000000  0  8G 1G 6G22G29G13G25G20G 4
 -20895366.38949 -16282093.87247  21120149.109    21120149.935
   -145441.51748                  25507856.009
 -24448141.26049 -19050497.23247  20244494.347    20244494.985
   2593980.09848   2021276.94044  24261803.645    24261805.987
  -7865862.69948  -6129238.42645  23517536.813    23517536.154
 -13469670.91749 -10495845.10546  22531170.138    22531170.919
 -23775426.59549 -18526306.02647  20832613.679    20832614.166
  -1604382.66448  -1250166.32544  24790685.566    24790683.508
 02  1  6  1 43 30.0000000  0  8G 1G 6G22G29G13G25G20G 4
 -20948976.30349 -16323867.82347  21109947.564    21109948.215
   -143769.49948                  25508174.085
 -24470728.66749 -19068097.79547  20240196.053    20240196.803
   2682762.57148   2090457.90244  24278697.522    24278702.081
  -7955833.24748  -6199345.30344  23500414.328    23500414.763
 -13395754.47449 -10438247.90246  22545235.788    22545236.362
 -23737571.46749 -18496808.53947  20839817.272    20839817.839
  -1595357.87848  -1243134.01044  24792403.250    24792403.174
 02  1  6  1 44  0.0000000  0  8G 1G 6G22G29G13G25G20G 4
 -21002352.33949 -16365459.53347  21099790.425    21099791.068
   -141617.64348   -110352.99944  25508583.811    25508584.929
 -24492660.10449 -19085187.21347  20236022.646    20236023.406
   2771686.54548   2159749.12744  24295620.555    24295622.470
  -8045740.01448  -6269402.47445  23483307.035    23483305.529
 -13321711.80749 -10380552.34446  22559325.637    22559326.251
 -23699137.42849 -18466859.95947  20847130.708    20847131.461
  -1585822.21548  -1235703.66844  24794217.908    24794217.472
 02  1  6  1 44 30.0000000  0  8G 1G 6G22G29G13G25G20G 4
 -21055484.02249 -16406860.83547  21089679.872    21089680.486
   -138976.48148                  25509086.467
 -24513925.67649 -19101757.77547  20231975.975    20231976.737
   2860760.79448   2229157.39844  24312569.891    24312574.193
  -8135572.16448  -6339401.48244  23466211.927    23466211.568
 -13247535.17549 -10322752.39746  22573440.986    22573441.372
 -23660116.61749 -18436454.15647  20854556.570    20854557.039
  -1575767.18148  -1227868.55344  24796131.052    24796128.189
 02  1  6  1 45  0.0000000  0  8G 1G 6G22G29G13G25G20G 4
 -21108378.20449 -16448077.07447  21079614.423    21079615.346
   -135853.95148                  25509680.756
 -24534533.11949 -19117815.51147  20228054.713    20228055.422
   2949976.12848   2298675.63844  24329547.330    24329550.199
  -8225336.95748  -6409348.04045  23449130.512    23449128.726
 -13173233.76249 -10264855.21946  22587580.228    22587580.686
 -23620518.48849 -18405598.49347  20862092.171    20862092.675
  -1565202.17148                  24798141.487
 02  1  6  1 45 30.0000000  0  8G 1G 6G22G29G13G25G20G 4
 -21161036.01949 -16489109.13147  21069593.850    21069594.455
   -132252.14248                  25510366.036
 -24554484.26749 -19133361.85047  20224257.774    20224258.484
   3039329.67148                  24346551.808
  -8315035.60348  -6479243.03045  23432061.655    23432059.634
 -13098811.26549 -10206863.67946  22601742.546    22601743.346
 -23580346.69449 -18374295.81847  20869735.912    20869736.734
  -1554130.56348  -1211008.84144  24800248.828    24800246.393
 02  1  6  1 46  0.0000000  0  8G 1G 6G22G29G13G25G20G 4
 -21213455.85549 -16529955.75047  21059618.275    21059619.048
   -128170.60148    -99874.85044  25511142.760    25511145.937
 -24573778.43749 -19148396.25547  20220586.267    20220586.893
   3128820.85948   2438034.76244  24363579.937    24363581.571
  -8404667.02848  -6549085.64545  23415004.469    23415004.826
 -13024268.47349 -10148778.42846  22615927.485    22615928.359
 -23539602.34649 -18342546.99747  20877489.606    20877490.143
  -1542553.08848  -1201987.40144  24802451.878    24802450.376
 02  1  6  1 46 30.0000000  0  8G 1G 6G22G29G13G25G20G 4
 -21265627.13949 -16570608.69447  21049691.010    21049691.777
   -123599.71648                  25512012.590
 -24592405.61249 -19162910.92747  20217041.635    20217042.465
   3218458.28248   2507881.86044  24380638.910    24380640.509
  -8494220.50448  -6618867.54345  23397963.872    23397962.439
 -12949597.09649 -10090592.96746  22630137.278    22630137.697
 -23498277.50749 -18310345.84647  20885353.862    20885354.290
  -1530461.44948  -1192565.35944  24804752.300    24804752.884
 02  1  6  1 47  0.0000000  0  8G 1G 6G22G29G13G25G20G 4
 -21317559.22349 -16611075.25247  21039808.663    21039809.375
   -118549.99948                  25512973.602
 -24610376.15249 -19176913.93547  20213621.901    20213622.686
   3308230.60848                  24397721.833
  -8583705.69148  -6688596.22445  23380934.332    23380934.227
 -12874808.91349 -10032316.49746  22644369.225    22644368.942
 -23456384.12049 -18277701.67047  20893325.563    20893326.223
  -1517867.30548  -1182751.70344  24807148.480    24807148.174
 02  1  6  1 47 30.0000000  0  8G 1G 6G22G29G13G25G20G 4
 -21369244.08149 -16651349.16147  21029972.991    21029973.829
   -113014.63648                  25514026.987
 -24627683.05749 -19190399.82647  20210328.488    20210329.338
   3398143.68948                  24414832.335
  -8673114.68448  -6758265.49645  23363921.658    23363921.597
 -12799898.31549  -9973944.63546  22658624.111    22658624.170
 -23413916.95249 -18244610.39947  20901406.776    20901407.523
  -1504765.32448  -1172542.35744  24809641.824    24809642.734
 02  1  6  1 48  0.0000000  0  8G 1G 6G22G29G13G25G20G 4
 -21420677.45349 -16691427.11347  21020185.461    21020186.285
   -106990.33048    -83370.94144  25515173.416    25515176.599
 -24644322.77949 -19203365.83447  20207162.253    20207163.011
   3488200.04248                  24431968.771
  -8762443.26348  -6827872.15045  23346921.664    23346921.325
 -12724863.78549  -9915476.21146  22672903.183    22672903.789
 -23370874.40249 -18211070.77247  20909597.857    20909598.199
  -1491153.33448  -1161935.58644  24812232.330    24812232.276
 02  1  6  1 48 30.0000000  0  7G 1G22G29G13G25G20G 4
 -21471872.89949 -16731319.66547  21010443.223    21010443.897
 -24660309.91349 -19215823.33147  20204119.896    20204120.540
   3578383.79448                  24449131.598
  -8851705.28948  -6897426.95045  23329936.417    23329936.074
 -12649721.12849  -9856923.52646  22687201.653    22687202.719
 -23327272.85049 -18177095.56147  20917894.684    20917895.086
  -1477047.56748  -1150944.02344  24814916.072    24814916.746
 02  1  6  1 49  0.0000000  0  7G 1G22G29G13G25G20G 4
 -21522829.72349 -16771026.28547  21000746.698    21000747.311
 -24675644.80349 -19227772.59047  20201201.880    20201202.761
   3668693.71048                  24466315.775
  -8940900.08348  -6966929.36145  23312962.641    23312961.639
 -12574472.19449  -9798288.03646  22701521.181    22701520.961
 -23283114.50549 -18142686.48947  20926297.681    20926298.574
  -1462449.59048  -1139568.97144  24817694.268    24817695.465
 02  1  6  1 49 30.0000000  0  7G 1G22G29G13G25G20G 4
 -21573534.43649 -16810536.44847  20991097.893    20991098.668
 -24690314.96749 -19239203.88147  20198410.120    20198410.969
   3759141.24048                  24483528.665
  -9030014.61548  -7036369.19145  23296004.957    23296004.917
 -12499105.91649  -9739561.10446  22715862.788    22715863.317
 -23238388.44849 -18107835.04247  20934808.988    20934809.458
  -1447348.57148  -1127801.87944  24820567.297    24820568.165
 02  1  6  1 50  0.0000000  0  7G 1G22G29G13G25G20G 4
 -21623978.74549 -16849843.69747  20981498.786    20981499.694
 -24704313.09649 -19250111.51047  20195746.466    20195747.188
   3849732.52948                  24500766.874
  -9119040.35348  -7105739.88645  23279063.728    23279066.065
 -12423616.02749  -9680737.86146  22730227.967    22730229.112
 -23193089.21849 -18072536.96547  20943429.174    20943429.771
  -1431738.60948  -1115638.28344  24823536.634    24823535.668
 02  1  6  1 50 30.0000000  0  7G 1G22G29G13G25G20G 4
 -21674159.80449 -16888945.81047  20971949.708    20971950.267
 -24717637.47949 -19260494.14447  20193210.764    20193211.475
   3940468.57948                  24518033.670
  -9207974.66048  -7175039.31345  23262140.070    23262138.864
 -12348002.30349  -9621818.12346  22744616.951    22744617.448
 -23147216.90249 -18036792.32947  20952157.934    20952158.795
  -1415619.35148  -1103077.84744  24826604.181    24826605.674
 02  1  6  1 51  0.0000000  0  7G 1G22G29G13G25G20G 4
 -21724089.15449 -16927851.79547  20962448.247    20962449.123
 -24730300.79049 -19270361.65647  20190800.959    20190801.716
   4031335.36248                  24535325.571
  -9296829.07548  -7244276.49545  23245232.404    23245230.609
 -12272279.04649  -9562813.01946  22759026.543    22759027.529
 -23100785.88449 -18000612.33247  20960993.965    20960994.433
  -1399005.09048  -1090131.62844  24829765.576    24829765.114
 02  1  6  1 51 30.0000000  0  8G27G 1G22G29G13G25G20G 4
         -.45558          .42654  25567346.551    25567346.557
 -21773779.52749 -16966571.56047  20952992.579    20952993.292
 -24742316.80549 -19279724.78147  20188514.450    20188515.308
   4122318.20348                  24552639.022
  -9385616.92448  -7313461.80845  23228336.156    23228335.769
 -12196461.06349  -9503734.12746  22773454.391    22773455.388
 -23053811.67849 -17964009.08147  20969933.137    20969933.752
  -1381911.17848                  24833017.822
 02  1  6  1 52  0.0000000  0  8G27G 1G22G29G13G25G20G 4
    -84683.15748    -65986.12044  25551229.755    25551232.066
 -21823210.04849 -17005088.84247  20943586.354    20943587.220
 -24753665.93149 -19288568.25347  20186354.821    20186355.542
   4213435.96048                  24569979.501
  -9474317.13548  -7382578.81645  23211456.737    23211455.804
 -12120529.76949  -9444566.92746  22787903.820    22787904.237
 -23006276.70249 -17926968.85847  20978978.332    20978979.275
  -1364319.19448                  24836364.358
 02  1  6  1 52 30.0000000  0  8G20G27G 1G22G29G13G25G 4
 -22958184.53349 -17889494.45847  20988130.182    20988130.862
   -169307.63948   -131927.26344  25535127.213    25535134.924
 -21872381.72349 -17043404.43147  20934228.961    20934229.759
 -24764350.26949 -19296893.71147  20184321.681    20184322.440
   4304685.37748                  24587341.564
  -9562930.78148  -7451628.38345  23194594.409    23194592.413
 -12044488.85349  -9385314.30646  22802373.855    22802374.244
  -1346232.84248  -1049010.44144  24839806.551    24839808.228
 02  1  6  1 53  0.0000000  0  8G20G27G 1G22G29G13G25G 4
 -22909537.00749 -17851587.31447  20997387.870    20997388.395
   -253873.50848   -197822.73444  25519034.257    25519035.965
 -21921293.14149 -17081517.21947  20924921.560    20924922.313
 -24774369.85049 -19304701.17747  20182414.845    20182415.677
   4396065.82348                  24604732.849
  -9651456.59448  -7520609.49945  23177748.254    23177747.414
 -11968339.09149  -9325976.88446  22816864.631    22816864.864
  -1327653.26148  -1034532.89244  24843342.441    24843344.751
 02  1  6  1 53 30.0000000  0  8G20G27G 1G22G29G13G25G 4
 -22860344.48749 -17813255.50447  21006748.328    21006749.283
   -338389.17648   -263679.09044  25502952.826    25502953.989
 -21969951.76949 -17119433.01947  20915662.201    20915663.035
 -24783733.35049 -19311997.41347  20180633.104    20180633.933
   4487567.79448                  24622144.778
  -9739902.19849  -7589528.12845  23160918.015    23160917.250
 -11892090.89049  -9266562.74846  22831374.733    22831375.731
  -1308590.70748                  24846970.081
 02  1  6  1 54  0.0000000  0  8G20G27G 1G22G29G13G25G 4
 -22810609.69849 -17774501.14247  21016212.450    21016213.209
   -422855.56048   -329497.08644  25486879.436    25486881.185
 -22018357.29049 -17157151.58747  20906451.020    20906451.883
 -24792441.94549 -19318783.33547  20178976.082    20178976.988
   4579189.35948                  24639580.357
  -9828267.49848  -7658384.18845  23144102.274    23144101.717
 -11815746.09949  -9207073.35546  22845902.004    22845902.455
  -1289047.60148  -1004450.58744  24850688.471    24850689.510
 02  1  6  1 54 30.0000000  0  8G20G27G 1G22G29G13G25G 4
 -22760328.23949 -17735320.81247  21025781.369    21025781.955
   -507266.35848   -395271.71944  25470815.609    25470818.712
 -22066502.15349 -17194667.05847  20897289.295    20897289.947
 -24800489.24249 -19325053.96047  20177444.565    20177445.247
   4670935.82348                  24657039.764
  -9916544.88949  -7727171.73045  23127303.906    23127301.761
 -11739299.19949  -9147504.38546  22860449.280    22860449.570
  -1269019.11248   -988844.02044  24854499.985    24854503.131
 02  1  6  1 55  0.0000000  0  8G20G27G 1G22G29G13G25G 4
 -22709499.81149 -17695714.26947  21035453.013    21035454.072
   -591618.85148   -461000.92244  25454765.015    25454767.676
 -22114383.04949 -17231976.84147  20888177.769    20888178.513
 -24807873.23049 -19330807.71947  20176039.530    20176040.330
   4762808.69048                  24674521.613
 -10004731.22449  -7795888.33545  23110522.608    23110522.077
 -11662749.49349  -9087855.32246  22875016.993    22875018.506
  -1248504.85748   -972858.92744  24858405.098    24858407.754
 02  1  6  1 55 30.0000000  0  8G20G27G 1G22G29G13G25G 4
 -22658112.27149 -17655672.07147  21045232.004    21045232.611
   -675899.30948   -526674.00044  25438725.486    25438729.621
 -22161984.95749 -17269069.23747  20879119.374    20879120.232
 -24814580.36049 -19336034.06147  20174763.206    20174763.972
   4854820.49848                  24692031.422
 -10092811.56049  -7864522.34145  23093761.040    23093760.478
 -11586083.96449  -9028116.01646  22889605.265    22889606.617
  -1227492.18848   -956485.46544  24862403.995    24862403.450
 02  1  6  1 56  0.0000000  0  8G20G27G 1G22G29G13G25G 4
 -22606177.45049 -17615203.40947  21055115.562    21055116.233
   -760117.23848   -592298.37544  25422700.190    25422704.697
 -22209316.31649 -17305950.80347  20870112.425    20870113.425
 -24820620.51749 -19340740.68247  20173613.679    20173614.597
   4946960.89548                  24709564.865
 -10180793.91849  -7933079.97345  23077019.882    23077017.566
 -11509313.64849  -8968295.05246  22904214.285    22904214.468
  -1205992.43448   -939732.45544  24866495.178    24866495.587
 02  1  6  1 56 30.0000000  0  8G20G27G 1G22G29G13G25G 4
 -22553699.96349 -17574311.88747  21065100.951    21065101.989
   -844275.06148                  25406685.614
 -22256378.53249 -17342622.65347  20861156.686    20861157.675
 -24825996.55349 -19344929.80947  20172590.597    20172591.484
   5039226.06248                  24727122.503
 -10268680.60348  -8001563.12345  23060293.237    23060292.198
 -11432442.55649  -8908395.56146  22918842.615    22918843.621
  -1184009.85348   -922603.20144  24870678.605    24870676.558
 02  1  6  1 57  0.0000000  0  8G20G27G 1G22G29G13G25G 4
 -22500682.86749 -17532999.89547  21075190.061    21075190.829
   -928374.09148   -723407.57644  25390682.125    25390685.986
 -22303171.87349 -17379084.99547  20852252.377    20852253.247
 -24830710.21949 -19348602.80547  20171693.661    20171694.598
   5131613.83948                  24744703.678
 -10356471.45149  -8069971.53345  23043589.218    23043586.135
 -11355473.37849  -8848419.64746  22933489.332    22933490.708
  -1161547.43348   -905100.09544  24874953.436    24874952.892
 02  1  6  1 57 30.0000000  0  8G20G27G 1G22G29G13G25G 4
 -22447122.10149 -17491264.26247  21085382.614    21085383.116
  -1012408.01648   -788888.44944  25374690.723    25374693.907
 -22349688.90949 -17415332.03547  20843400.679    20843401.529
 -24834755.55849 -19351755.02447  20170923.913    20170924.974
   5224129.32348                  24762308.340
 -10444158.98849  -8138299.44445  23026902.137    23026901.856
 -11278401.06449  -8788363.35846  22948155.625    22948155.920
  -1138600.81548   -887219.62544  24879319.859    24879318.987
 02  1  6  1 58  0.0000000  0  7G20G27G 1G22G29G13G25
 -22393023.30849 -17449109.39047  21095676.783    21095677.772
  -1096380.46448   -854321.48344  25358711.113    25358713.346
 -22395931.72349 -17451365.39447  20834600.547    20834601.588
 -24838136.77149 -19354389.74247  20170280.610    20170281.423
   5316767.95848                  24779936.755
 -10531745.97549  -8206548.99445  23010234.661    23010233.973
 -11201230.34749  -8728230.40545  22962840.984    22962841.628
 02  1  6  1 58 30.0000000  0  8G20G27G 1G22G29G13G25G 3
 -22338380.26849 -17406530.43247  21106075.157    21106075.938
  -1180283.09448   -919700.10444  25342745.355    25342747.326
 -22441891.12549 -17487177.91847  20825855.070    20825855.710
 -24840845.86349 -19356500.73247  20169764.837    20169765.803
   5409536.91548                  24797590.515
 -10619222.98249  -8274712.89645  22993588.753    22993586.808
 -11123953.81549  -8668014.99046  22977546.197    22977546.731
          .01058                  25246672.555
 02  1  6  1 59  0.0000000  0  8G20G13G27G 1G22G29G25G 3
 -22283227.68949 -17363554.42946  21116570.759    21116571.043
 -10706621.28749  -8342815.43045  22976956.735    22976955.763
  -1264148.22648   -985049.56144  25326786.302    25326791.740
 -22487598.36449 -17522793.94647  20817157.248    20817158.233
 -24842915.79749 -19358113.67547  20169371.132    20169372.101
   5502402.77848                  24815263.264
 -11046605.50148  -8607743.65746  22992264.848    22992265.803
    -89255.91148                  25229687.699
 02  1  6  1 59 30.0000000  0  8G20G13G27G 1G22G29G25G 3
 -22227541.05449 -17320162.27146  21127167.220    21127167.820
 -10793913.43049  -8410835.27745  22960346.363    22960346.227
  -1347949.50948  -1050349.19544  25310838.426    25310842.934
 -22533025.94249 -17558192.06847  20808512.648    20808513.496
 -24844320.58849 -19359208.32647  20169103.840    20169104.817
   5595390.82647                  24832957.797
 -10969159.95449  -8547396.56245  23007002.802    23007003.390
   -178582.72848                  25212688.827
 02  1  6  2  0  0.0000000  0  7G20G13G25G27G 1G22G 3
 -22171319.37449 -17276353.20246  21137865.937    21137866.532
 -10881094.69849  -8478768.71945  22943755.522    22943754.304
 -10891615.16848  -8486972.13845  23021758.808    23021759.456
  -1431683.73148  -1115596.60344  25294905.788    25294906.102
 -22578169.46449 -17593368.84247  20799922.316    20799922.993
 -24845057.61449 -19359782.64347  20168963.375    20168964.513
   -267974.55848                  25195678.235
 02  1  6  2  0 30.0000000  0  7G20G13G27G 1G22G25G 3
 -22114556.35549 -17232122.31746  21148667.536    21148668.288
 -10968156.15849  -8546608.78645  22927188.837    22927188.235
  -1515342.29848  -1180785.06944  25278985.107    25278989.255
 -22623019.27949 -17628316.75447  20791387.610    20791388.224
 -24845119.00049 -19359830.48647  20168951.785    20168952.799
 -10813964.20048  -8426464.97245  23036535.051    23036536.836
   -357420.78248                  25178657.292
 02  1  6  2  1  0.0000000  0  7G20G13G25G27G 1G22G 3
 -22057275.40449 -17187487.84546  21159567.938    21159568.886
 -11055117.57749  -8614370.91045  22910639.750    22910639.104
 -10736229.19648  -8365892.32145  23051328.353    23051328.834
  -1598946.39348  -1245931.09844  25263076.584    25263077.245
 -22667595.40049 -17663051.39847  20782905.097    20782905.586
 -24844526.45649 -19359368.77547  20169064.381    20169065.682
   -446940.39548                  25161621.488
 02  1  6  2  1 30.0000000  0  8G20G13G25G27G 1G22G 4G 3
 -21999479.50249 -17142452.11646  21170565.536    21170566.514
 -11141978.46549  -8682054.69845  22894111.104    22894110.748
 -10658412.19448  -8305255.78145  23066136.355    23066137.322
  -1682496.76048  -1311035.24944  25247176.671    25247181.375
 -22711897.59549 -17697572.59647  20774474.924    20774475.363
 -24843281.53349 -19358398.71747  20169301.299    20169302.410
         -.72258         -.39754  24917498.513    24917498.002
   -536531.84448                  25144572.581
 02  1  6  2  2  0.0000000  0  7G20G13G25G27G 1G22G 4
 -21941154.06849 -17097003.75746  21181664.931    21181665.802
 -11228720.85149  -8749646.16145  22877605.067    22877604.028
 -10580497.32348  -8244542.98945  23080962.809    23080964.061
  -1765976.49148  -1376084.36244  25231291.275    25231297.144
 -22755907.67949 -17731866.17747  20766099.611    20766100.221
 -24841367.93649 -19356907.61447  20169665.617    20169666.712
     27191.63448     21188.53144  24922673.793    24922675.632
 02  1  6  2  2 30.0000000  0  8G20G13G25G27G 1G22G 4G 3
 -21882304.66849 -17051147.12246  21192863.429    21192864.434
 -11315347.14549  -8817147.14045  22861119.879    22861119.492
 -10502489.21648  -8183757.53245  23095807.848    23095809.325
  -1849388.92548  -1441081.09144  25215417.884    25215421.459
 -22799628.00249 -17765933.97347  20757779.895    20757780.515
 -24838789.79449 -19354898.68647  20170156.082    20170157.246
     54852.07948                  24927937.874
         -.85458          .00454  25110444.111    25110454.288
 02  1  6  2  3  0.0000000  0  8G20G13G25G27G 1G22G 4G 3
 -21822937.95449 -17004887.38446  21204160.786    21204161.668
 -11401860.30749  -8884559.98945  22844658.119    22844656.891
 -10424393.52748  -8122903.83945  23110668.756    23110669.587
  -1932738.28348  -1506028.65144  25199557.486    25199561.016
 -22843061.54349 -17799778.29947  20749514.898    20749515.526
 -24835552.26949 -19352375.95347  20170772.402    20170773.551
     82973.99048     64655.48244  24933288.546    24933290.249
    -89752.38048                  25093364.942
 02  1  6  2  3 30.0000000  0  8G20G13G25G27G 1G22G 4G 3
 -21763048.04849 -16958219.96046  21215557.088    21215558.000
 -11488251.28849  -8951877.61745  22828217.346    22828217.394
 -10346203.32948  -8061976.51945  23125547.723    23125549.008
  -2016016.58348  -1570920.88644  25183710.468    25183714.019
 -22886199.15049 -17833392.03147  20741306.013    20741306.822
 -24831647.80949 -19349333.52947  20171515.198    20171516.317
    111563.45148                  24938728.718
   -179548.52648                  25076277.858
 02  1  6  2  4  0.0000000  0  8G20G13G25G27G 1G22G 4G 3
 -21702659.78849 -16911164.20946  21227048.970    21227049.949
 -11574541.29249  -9019116.55345  22811797.160    22811796.352
 -10267942.03348  -8000993.78145  23140440.778    23140441.103
  -2099246.32448  -1635775.20744  25167872.111    25167875.113
 -22929062.17349 -17866791.80747  20733149.492    20733150.182
 -24827099.71449 -19345789.57347  20172380.898    20172382.155
    140596.20248    109555.76544  24944254.070    24944252.837
   -269409.33648                  25059177.548
 02  1  6  2  4 30.0000000  0  8G20G13G25G27G 1G22G 4G 3
 -21641765.03049 -16863713.78246  21238636.992    21238637.632
 -11660718.49549  -9086267.60545  22795398.398    22795397.784
 -10189600.32548  -7939948.38845  23155348.924    23155349.234
  -2182416.95948  -1700583.51544  25152045.691    25152048.873
 -22971638.79649 -17899968.41147  20725047.680    20725048.434
 -24821898.27749 -19341736.51447  20173370.238    20173371.554
    170081.05248    132530.99844  24949864.369    24949863.780
   -359321.74048                  25042065.832
 02  1  6  2  5  0.0000000  0  8G20G13G25G27G 1G22G 4G 3
 -21580362.66149 -16815867.81346  21250321.085    21250322.181
 -11746778.36349  -9153327.24246  22779021.550    22779020.349
 -10111176.17648  -7878838.76345  23170272.523    23170273.513
  -2265525.11548  -1765343.17444  25136230.857    25136234.753
 -23013924.56649 -17932918.37547  20717001.181    20717001.887
 -24816040.97049 -19337172.39347  20174484.873    20174486.099
    200019.20448    155859.44044  24955561.298    24955564.871
   -449279.80948                  25024948.610
 02  1  6  2  5 30.0000000  0  8G20G13G25G27G 1G22G 4G 3
 -21518446.45249 -16767621.45646  21262103.833    21262104.403
 -11832711.33549  -9220287.98745  22762669.187    22762669.015
 -10032662.24648  -7817659.19145  23185213.625    23185214.004
  -2348562.41748  -1830047.58944  25120429.095    25120432.230
 -23055909.72949 -17965634.10747  20709011.609    20709012.226
 -24809520.10249 -19332091.21147  20175725.793    20175727.261
    230417.28148                  24961345.339
   -539272.66048                  25007822.044
 02  1  6  2  6  0.0000000  0  7G20G13G25G27G 1G22G 4
 -21456009.88249 -16718969.62446  21273984.868    21273985.962
 -11918507.18049  -9287141.88445  22746342.696    22746341.212
  -9954050.48048  -7756403.37645  23200172.282    23200174.133
  -2431519.69148  -1894689.64544  25104642.784    25104644.415
 -23097584.14049 -17998107.69047  20701080.911    20701081.652
 -24802327.58949 -19326486.66747  20177094.636    20177096.046
    261281.87948                  24967218.037
 02  1  6  2  6 30.0000000  0  8G20G13G25G27G 1G22G 4G 3
 -21393075.43549 -16669929.84746  21285960.866    21285961.918
 -12004184.83949  -9353903.69445  22730038.963    22730038.585
  -9875362.29548  -7695088.01745  23215146.675    23215148.038
  -2514417.04748  -1959285.03945  25088868.206    25088873.618
 -23138966.75049 -18030353.88947  20693206.036    20693206.776
 -24794484.41949 -19320375.12147  20178587.442    20178588.875
    292591.21348    227993.51144  24973176.908    24973176.881
          .23658                  24973556.699
 02  1  6  2  7  0.0000000  0  8G20G13G25G27G 1G22G 4G 3
 -21329653.20949 -16620509.97446  21298030.164    21298031.347
 -12089750.54349  -9420578.27746  22713755.647    22713755.858
  -9796605.97048  -7633719.56845  23230134.057    23230134.994
  -2597261.98248  -2023839.61544  25073103.461    25073106.956
 -23180063.84049 -18062377.60847  20685385.494    20685386.356
 -24785999.06049 -19313763.16747  20180201.366    20180202.787
    324335.45948    252729.29444  24979218.639    24979217.705
    -90102.87948                  24956410.317
 02  1  6  2  7 30.0000000  0  8G20G13G25G27G 1G22G 4G 3
 -21265721.01449 -16570692.72146  21310195.657    21310196.709
 -12175178.71749  -9487145.68646  22697500.355    22697498.688
  -9717758.39648  -7572280.00945  23245137.391    23245139.587
  -2680030.23448  -2088334.40945  25057353.204    25057356.383
 -23220850.01349 -18094159.05847  20677624.376    20677625.101
 -24776848.25549 -19306632.68347  20181943.015    20181944.610
    356536.86948    277821.28444  24985345.731    24985347.770
   -180224.90148                  24939261.180
 02  1  6  2  8  0.0000000  0  8G20G13G25G27G 1G22G 4G 3
 -21201279.19449 -16520478.35546  21322458.414    21322459.801
 -12260465.71349  -9553603.07645  22681270.146    22681269.881
  -9638818.93348  -7510768.85345  23260159.955    23260161.380
  -2762719.46248  -2152767.58244  25041617.904    25041621.412
 -23261321.87349 -18125695.58947  20669922.958    20669923.608
 -24767030.62449 -19298982.59647  20183811.292    20183812.812
    389195.60748    303269.74144  24991560.769    24991562.051
   -270361.04648                  24922108.810
 02  1  6  2  8 30.0000000  0  8G20G13G25G27G 1G22G 4G 3
 -21136349.02449 -16469883.46146  21334814.745    21334815.952
 -12345629.56749  -9619964.50545  22665063.447    22665062.877
  -9559807.30948  -7449201.47745  23275195.137    23275195.794
  -2845348.56148  -2217153.90244  25025894.395    25025898.187
 -23301497.00549 -18157000.90747  20662277.886    20662278.439
 -24756566.08749 -19290828.42747  20185802.924    20185804.381
    422290.67448    329058.09244  24997858.825    24997859.429
   -360527.68548                  24904949.272
 02  1  6  2  9  0.0000000  0  8G20G13G25G27G 1G22G 4G 3
 -21070913.59449 -16418894.86446  21347266.628    21347267.891
 -12430649.33849  -9686213.69746  22648886.226    22648884.636
  -9480704.84948  -7387563.32845  23290247.273    23290249.378
  -2927898.08848  -2281478.19645  25010185.530    25010188.330
 -23341354.77249 -18188058.92447  20654693.370    20654693.891
 -24745436.26149 -19282155.85347  20187920.997    20187922.380
    455839.40248    355199.94444  25004242.971    25004241.774
   -450702.69048                  24887790.354
 02  1  6  2  9 30.0000000  0  8G20G13G25G27G 1G22G 4G 3
 -21004991.76449 -16367527.26146  21359811.022    21359812.323
 -12515539.75749  -9752362.09345  22632730.379    22632730.271
  -9401529.15448  -7325868.09145  23305315.310    23305316.087
  -3010384.53848  -2345753.33845  24994488.742    24994491.694
 -23380910.40849 -18218881.51647  20647166.079    20647166.641
 -24733658.57549 -19272978.45147  20190162.271    20190163.651
    489823.40348    381680.95944  25010709.002    25010710.121
   -540899.96448                  24870626.358
 02  1  6  2 10  0.0000000  0  8G20G13G25G27G 1G22G 4G 3
 -20938590.21349 -16315785.84946  21372447.243    21372448.256
 -12600304.38049  -9818412.43046  22616601.567    22616600.372
  -9322285.52448  -7264119.92845  23320394.340    23320396.394
  -3092812.19048  -2409982.66444  24978803.534    24978805.753
 -23420167.10349 -18249471.16547  20639695.852    20639696.418
 -24721238.53049 -19263300.51147  20192525.692    20192526.978
    524236.07248                  25017256.702
   -631121.32048                  24853457.466
 02  1  6  2 10 30.0000000  0  8G20G13G25G27G 1G22G 4G 3
 -20871698.56349 -16263662.53146  21385176.064    21385177.516
 -12684928.95949  -9884353.65346  22600497.421    22600495.579
  -9242962.47948  -7202309.89645  23335488.833    23335489.920
  -3175168.15648  -2474156.15244  24963131.138    24963133.954
 -23459110.62049 -18279816.78347  20632285.211    20632285.689
 -24708164.26249 -19253112.78847  20195013.774    20195015.016
    559088.24248                  25023888.772
   -721351.20348                  24836287.221
 02  1  6  2 11  0.0000000  0  8G20G13G25G27G 1G22G 4G 3
 -20804323.82649 -16211162.79246  21397997.012    21397998.081
 -12769416.33649  -9950187.95446  22584419.884    22584419.296
  -9163565.09848  -7140441.93645  23350598.309    23350598.624
  -3257456.70948  -2538277.06744  24947472.432    24947475.249
 -23497744.14249 -18309920.84747  20624933.473    20624934.090
 -24694441.08149 -19242419.41647  20197625.190    20197626.406
    594373.46248                  25030604.221
   -811591.48148                  24819115.465
 02  1  6  2 11 30.0000000  0  8G20G13G25G27G 1G22G 4G 3
 -20736461.24849 -16158282.92246  21410910.965    21410911.907
 -12853758.01949 -10015908.73146  22568370.581    22568370.145
  -9084087.28348  -7078511.29845  23365721.887    23365723.436
  -3339670.59148  -2602339.76744  24931827.402    24931828.882
 -23536059.19749 -18339776.75447  20617642.135    20617642.689
 -24680062.97649 -19231215.71547  20200361.102    20200362.466
    630096.58548    490984.77144  25037402.718    25037400.902
   -901832.25248                  24801942.599
 02  1  6  2 12  0.0000000  0  8G20G13G25G27G 1G22G 4G 3
 -20668115.41849 -16105026.49546  21423916.903    21423918.470
 -12937954.83149 -10081516.63146  22552347.823    22552346.498
  -9004532.14448  -7016520.42745  23380860.559    23380862.056
  -3421811.92048  -2666345.97544  24916196.702    24916201.358
 -23574056.77749 -18369385.27947  20610411.738    20610412.371
 -24665033.42949 -19219504.39847  20203221.046    20203222.354
    666253.30448    519158.82044  25044283.250    25044284.860
   -992073.08148                  24784769.384
 02  1  6  2 12 30.0000000  0  8G20G13G25G27G 1G22G 4G 3
 -20599300.39849 -16051404.46746  21437011.522    21437012.966
 -13022016.86149 -10147019.51646  22536352.092    22536351.086
  -8924911.82748  -6954478.74645  23396012.839    23396014.199
  -3503892.27148  -2730304.66144  24900576.976    24900580.237
 -23611747.18649 -18398754.45247  20603239.401    20603240.014
 -24649364.93949 -19207295.20147  20206202.456    20206203.644
    702829.93848                  25051243.150
  -1082322.65048                  24767596.816
 02  1  6  2 13  0.0000000  0  8G20G13G25G27G 1G22G 4G 3
 -20530016.84049 -15997417.33246  21450196.216    21450197.123
 -13105940.89449 -10212414.86046  22520381.462    22520380.248
  -8845225.85348  -6892385.92245  23411175.535    23411177.545
  -3585909.66048  -2794214.30444  24884969.931    24884973.193
 -23649127.17949 -18427881.74547  20596126.182    20596127.023
 -24633056.96749 -19194587.70947  20209305.887    20209307.047
    739826.10848    576488.32844  25058282.695    25058286.458
  -1172576.37548                  24750421.951
 02  1  6  2 13 30.0000000  0  8G20G13G25G27G 1G22G 4G 3
 -20460263.39149 -15943064.05646  21463469.810    21463470.923
 -13189721.77049 -10277698.65946  22504438.400    22504437.069
  -8765471.39648  -6830239.73245  23426352.948    23426355.190
  -3667860.35948  -2858071.96544  24869374.913    24869379.118
 -23686191.98249 -18456763.43447  20589073.103    20589073.765
 -24616106.92949 -19181379.90747  20212531.606    20212532.944
    777243.36248    605644.53244  25065402.155    25065402.603
  -1262827.90548                  24733247.784
 02  1  6  2 14  0.0000000  0  8G20G13G25G27G 1G22G 4G 3
 -20390032.19649 -15888338.51146  21476834.677    21476835.922
 -13273347.50949 -10342861.56746  22488525.317    22488523.746
  -8685638.55448  -6768032.46345  23441544.815    23441546.907
  -3749733.55248  -2921869.23244  24853795.436    24853796.414
 -23722929.43549 -18485390.04647  20582082.332    20582083.169
 -24598505.23249 -19167664.32047  20215881.131    20215882.271
    815090.39348                  25072604.611
  -1353063.73648                  24716075.920
 02  1  6  2 14 30.0000000  0  8G20G13G25G27G 1G22G 4G 3
 -20319325.06549 -15833242.10846  21490289.923    21490291.113
 -13356815.79849 -10407901.78546  22472641.168    22472641.165
  -8605727.97148  -6705764.62945  23456750.693    23456752.782
  -3831528.35848  -2985605.42344  24838229.893    24838232.241
 -23759337.48949 -18513759.98347  20575153.750    20575154.618
 -24580252.48549 -19153441.42247  20219354.837    20219356.008
    853365.80848                  25079888.916
  -1443280.58648                  24698907.915
 02  1  6  2 15  0.0000000  0  8G13G25G20G27G 1G22G 4G 3
 -13440142.60749 -10472831.75546  22456786.148    22456784.642
  -8525757.63748  -6643450.22745  23471969.926    23471971.386
 -20248161.82849 -15777790.29246  21503831.873    21503832.675
  -3913262.17148  -3049294.06144  24822676.456    24822681.158
 -23795432.38449 -18541885.90147  20568285.202    20568286.125
 -24561367.48949 -19138725.86447  20222948.324    20222949.548
    892049.64348                  25087250.694
  -1533492.78648                  24681741.363
 02  1  6  2 15 30.0000000  0  8G13G25G20G27G 1G22G 4G 3
 -13523303.12649 -10537632.15146  22440959.978    22440959.117
  -8445705.28748  -6581071.91745  23487202.267    23487204.117
 -20176521.67549 -15721966.85546  21517464.421    21517465.631
  -3994911.54748  -3112916.92444  24807140.522    24807143.892
 -23831189.44249 -18569748.56647  20561480.810    20561481.777
 -24541828.02649 -19123500.33247  20226666.643    20226668.029
    931162.97348    725582.03844  25094694.359    25094694.686
  -1623674.45848                  24664580.412
 02  1  6  2 16  0.0000000  0  8G13G25G27G 1G22G 4G20G 3
 -13606313.81749 -10602315.82346  22425163.494    22425163.177
  -8365589.35648  -6518644.06745  23502448.291    23502450.724
  -4076494.41848  -3176487.96244  24791613.889    24791615.610
 -23866625.12249 -18597360.81047  20554737.613    20554738.579
 -24521653.30649 -19107779.79547  20230505.843    20230507.000
    970685.92448    756379.19744  25102214.311    25102213.695
 -20104425.09349 -15665787.77246  21531184.101    21531185.013
  -1713840.85948  -1335457.68244  24647422.192    24647426.599
 02  1  6  2 16 30.0000000  0  8G13G25G27G 1G22G 4G20G 3
 -13689178.18149 -10666885.47246  22409395.582    22409394.936
  -8285416.11248  -6456171.56845  23517705.292    23517706.393
  -4158015.43648  -3240010.81744  24776102.226    24776103.173
 -23901743.43149 -18624725.76147  20548054.832    20548055.823
 -24500849.79749 -19091569.29647  20234464.583    20234465.815
   1010610.98548                  25109811.330
 -20031879.89149 -15609259.11446  21544989.045    21544990.323
  -1803994.16548                  24630266.250
 02  1  6  2 17  0.0000000  0  8G13G25G27G 1G22G 4G20G 3
 -13771884.20049 -10731331.73346  22393656.489    22393655.272
  -8205175.74648  -6393646.77745  23532973.636    23532976.827
  -4239464.27648  -3303477.37044  24760601.649    24760604.865
 -23936532.35549 -18651834.04247  20541434.937    20541435.955
 -24479408.17649 -19074861.56647  20238544.869    20238546.221
   1050946.50848                  25117486.180
 -19958877.85449 -15552374.47746  21558880.652    21558881.708
  -1894120.95348                  24613115.703
 02  1  6  2 17 30.0000000  0  8G13G25G27G 1G22G 4G20G 3
 -13854431.34049 -10795654.18546  22377949.560    22377948.129
  -8124869.91148  -6331070.95445  23548256.582    23548258.654
  -4320841.82448  -3366888.43244  24745116.386    24745119.456
 -23970991.61849 -18678685.44547  20534877.564    20534878.351
 -24457330.80049 -19057658.44447  20242745.896    20242747.261
   1091689.16848                  25125240.135
 -19885422.74049 -15495136.78246  21572859.150    21572860.155
  -1984219.83448                  24595970.632
 02  1  6  2 18  0.0000000  0  8G13G25G27G 1G22G 4G20G 3
 -13936816.64749 -10859850.53646  22362270.997    22362270.284
  -8044498.42348  -6268443.98245  23563550.433    23563553.273
  -4402146.29148  -3430242.51144  24729644.786    24729648.799
 -24005118.40249 -18705277.77147  20528383.449    20528384.243
 -24434617.76449 -19039960.00447  20247067.997    20247069.439
   1132838.27448                  25133070.335
 -19811515.61249 -15437546.88046  21586922.975    21586924.535
  -2074286.45448  -1616323.41244  24578831.738    24578836.447
 02  1  6  2 18 30.0000000  0  8G13G27G 1G22G 4G25G20G 3
 -14019037.73749 -10923918.93346  22346625.068    22346624.012
  -4483376.63948  -3493538.81444  24714187.540    24714188.860
 -24038910.30549 -18731609.15547  20521953.236    20521953.877
 -24411269.14549 -19021766.30347  20251511.070    20251512.422
   1174392.69348                  25140978.433
  -7964060.62048  -6205765.33645  23578856.671    23578858.404
 -19737158.12549 -15379606.06446  21601072.577    21601073.758
  -2164316.97848                  24561698.228
 02  1  6  2 19  0.0000000  0  8G13G27G 1G22G 4G25G20G 3
 -14101095.47949 -10987860.04946  22331010.740    22331009.746
  -4564535.43448  -3556779.35444  24698743.272    24698747.610
 -24072368.73949 -18757680.69147  20515586.297    20515587.173
 -24387289.27049 -19003080.71547  20256074.507    20256076.031
   1216347.20748                  25148962.554
  -7883560.28548  -6143037.97245  23594176.645    23594179.823
 -19662355.52049 -15321318.40146  21615307.325    21615308.562
  -2254311.02848                  24544572.970
 02  1  6  2 19 30.0000000  0  8G13G27G 1G22G 4G25G20G 3
 -14182987.67849 -11051672.15546  22315425.442    22315425.113
  -4645622.01048  -3619963.56844  24683311.928    24683316.098
 -24105491.72149 -18783490.83947  20509282.968    20509283.801
 -24362678.72549 -18983903.69547  20260757.612    20260758.909
   1258700.41948                  25157022.558
  -7802997.57748  -6080262.01645  23609506.920    23609510.076
 -19587109.83349 -15262685.46946  21629626.316    21629627.868
  -2344265.24748                  24527454.967
 02  1  6  2 20  0.0000000  0  8G13G27G 1G22G 4G25G20G 3
 -14264705.07749 -11115348.03246  22299876.974    22299875.944
  -4726628.46848  -3683085.45644  24667899.498    24667904.292
 -24138270.27249 -18809032.60247  20503045.446    20503046.357
 -24337431.33049 -18964230.43147  20265562.024    20265563.353
   1301457.40348                  25165157.972
  -7722365.76848  -6017432.19245  23624850.271    23624853.556
 -19511416.06449 -15203703.38746  21644030.264    21644031.736
  -2434168.85648                  24510346.874
 02  1  6  2 20 30.0000000  0  8G13G27G 1G22G 4G25G20G 3
 -14346241.59449 -11178882.97946  22284360.494    22284359.020
  -4807550.12447                  24652500.230
 -24170698.41849 -18834301.32447  20496874.578    20496875.449
 -24311544.05649 -18944058.56047  20270488.219    20270489.549
   1344620.67548                  25173370.450
  -7641660.80848  -5954545.35645  23640208.926    23640211.724
 -19435272.11049 -15144370.50346  21658520.199    21658521.490
  -2524014.64848                  24493249.198
 02  1  6  2 21  0.0000000  0  7G13G 1G22G 4G25G20G 3
 -14427607.02949 -11242284.63546  22268876.321    22268876.026
 -24202786.37949 -18859304.95947  20490768.290    20490769.240
 -24285029.95349 -18923398.25147  20275533.797    20275535.192
   1388176.28647                  25181658.236
  -7560895.18948  -5891611.30245  23655578.130    23655581.164
 -19358692.18849 -15084697.91446  21673092.823    21673094.415
  -2613811.36448                  24476162.312
 02  1  6  2 21 30.0000000  0  8G13G27G 1G22G 4G25G20G 3
 -14508816.38949 -11305564.66346  22253423.923    22253423.211
        -1.01058                  24621738.508
 -24234549.12649 -18884055.18447  20484723.937    20484724.976
 -24257906.81949 -18902263.37447  20280695.316    20280696.693
   1432105.57848                  25190019.653
  -7480085.80148  -5828643.11945  23670955.608    23670957.179
 -19281695.54949 -15024700.62246  21687744.982    21687746.165
  -2703572.31748                  24459079.672
 02  1  6  2 22  0.0000000  0  8G13G27G 1G22G 4G25G20G 3
 -14589846.91649 -11368705.33946  22238003.308    22238002.848
    -81056.81747                  24606377.114
 -24265964.34749 -18908534.60847  20478746.110    20478747.166
 -24230155.34349 -18880638.88047  20285976.368    20285977.630
   1476427.02348                  25198455.215
  -7399212.67648  -5765625.26745  23686345.361    23686345.749
 -19204263.68849 -14964364.19446  21702479.785    21702481.369
  -2793274.16648                  24442011.049
 02  1  6  2 22 30.0000000  0  8G13G27G 1G22G 4G25G20G 3
 -14670696.38249 -11431704.94246  22222618.618    22222617.760
   -162441.06447                  24591032.249
 -24297029.89949 -18932741.56347  20472834.740    20472835.795
 -24201776.37849 -18858525.43347  20291376.626    20291377.977
   1521139.07548                  25206962.654
  -7318275.96348  -5702557.85645  23701747.943    23701749.733
 -19126398.63549 -14903690.20746  21717297.226    21717298.141
  -2882913.00048                  24424953.518
 02  1  6  2 23  0.0000000  0  7G13G 1G22G 4G25G20G 3
 -14751350.89849 -11494552.63046  22207270.503    22207270.094
 -24327732.50349 -18956665.70247  20466992.086    20466993.160
 -24172759.29549 -18835914.75547  20296898.202    20296899.704
   1566251.44847                  25215545.015
  -7237264.15448  -5639431.99145  23717163.621    23717167.441
 -19048090.97849 -14842671.33846  21732198.465    21732200.260
  -2972473.54248                  24407909.128
 02  1  6  2 23 30.0000000  0  7G13G27G 1G22G25G20G 3
 -14831836.33149 -11557268.55946  22191954.465    22191954.237
         -.30658        -2.26556  24560394.806    24560394.388
 -24358098.32849 -18980327.41147  20461213.816    20461214.858
 -24143133.05549 -18812829.41247  20302535.789    20302537.124
  -7156205.09448  -5576269.24245  23732589.174    23732590.718
 -18969370.95749 -14781331.13246  21747178.484    21747180.539
  -3061980.56048                  24390877.739
 02  1  6  2 24  0.0000000  0  7G13G27G 1G22G25G20G 3
 -14912138.83149 -11619841.94346  22176673.965    22176673.178
    -80403.02748    -62661.26444  24545093.127    24545090.981
 -24388113.90949 -19003716.21047  20455502.167    20455503.076
 -24112887.35049 -18789261.36847  20308291.467    20308292.819
  -7075087.65348  -5513061.02645  23748025.224    23748027.231
 -18890229.07049 -14719662.20346  21762239.082    21762240.298
  -3151418.73948                  24373858.051
 02  1  6  2 24 30.0000000  0  7G13G27G 1G22G25G20G 3
 -14992283.14949 -11682292.07546  22161422.265    22161421.814
   -160755.74048                  24529803.685
 -24417804.11749 -19026851.47647  20449851.987    20449853.117
 -24082050.04449 -18765232.34047  20314159.607    20314160.938
  -6993939.21148  -5449828.66145  23763466.920    23763470.310
 -18810694.43649 -14657687.24146  21777373.752    21777375.084
  -3240811.88448  -2525302.70444  24356846.383    24356852.131
 02  1  6  2 25  0.0000000  0  7G13G27G 1G22G25G20G 3
 -15072233.12649 -11744590.78746  22146208.699    22146208.244
   -241023.81048                  24514528.117
 -24447133.01549 -19049705.19947  20444270.787    20444272.133
 -24050588.21649 -18740716.67247  20320146.589    20320148.000
  -6912725.62648  -5386545.54044  23778922.041    23778924.151
 -18730735.04249 -14595381.30846  21792589.483    21792591.097
  -3330122.27748                  24339852.161
 02  1  6  2 25 30.0000000  0  7G13G27G 1G22G25G20G 3
 -15152011.56249 -11806755.81646  22131027.145    22131026.460
   -321231.82248   -250320.91144  24499265.475    24499267.218
 -24476123.84349 -19072295.49347  20438754.191    20438755.480
 -24018528.18549 -18715734.87447  20326247.759    20326248.950
  -6831472.29848  -5323231.40844  23794383.777    23794386.191
 -18650378.32449 -14532765.75246  21807881.072    21807883.051
  -3419371.62248                  24322868.130
 02  1  6  2 26  0.0000000  0  7G13G27G 1G22G25G20G 3
 -15231590.29649 -11868765.22746  22115883.781    22115883.568
   -401352.69548   -312752.70744  24484019.627    24484024.251
 -24504748.41549 -19094600.38947  20433307.245    20433308.313
 -23985844.91949 -18690267.43747  20332467.423    20332468.786
  -6750153.14048  -5259865.98344  23809857.657    23809862.480
 -18569600.23749 -14469821.88046  21823252.625    21823253.832
  -3508530.07148  -2733914.20844  24305902.048    24305907.432
 02  1  6  2 26 30.0000000  0  7G13G27G 1G22G25G20G 3
 -15310968.96849 -11930618.74946  22100779.334    22100778.111
   -481387.96048   -375117.83444  24468789.717    24468791.813
 -24533007.08949 -19116620.17447  20427930.099    20427931.133
 -23952541.66249 -18664316.89247  20338804.666    20338805.828
  -6668770.48248  -5196450.95545  23825345.807    23825348.320
 -18488405.27849 -14406553.16746  21838703.410    21838705.315
  -3597596.65348  -2803316.77144  24288953.268    24288956.384
 02  1  6  2 27  0.0000000  0  7G13G27G 1G22G25G20G 3
 -15390150.79549 -11992318.90346  22085710.608    22085710.178
   -561342.55048   -437420.04344  24453573.988    24453577.920
 -24560903.77749 -19138357.89047  20422621.785    20422622.837
 -23918625.31049 -18637888.61347  20345258.762    20345260.119
  -6587330.40348  -5132991.56645  23840842.910    23840847.457
 -18406801.38049 -14342965.79646  21854232.236    21854234.154
  -3686573.54448                  24272020.689
 02  1  6  2 27 30.0000000  0  7G13G27G 1G22G25G20G 3
 -15469151.82749 -12053878.16446  22070677.696    22070676.840
   -641233.61548   -499672.73344  24438371.906    24438375.273
 -24588454.35449 -19159825.90647  20417378.902    20417379.900
 -23884114.97749 -18610997.49247  20351826.073    20351827.288
  -6505850.38248  -5069500.82744  23856347.526    23856349.776
 -18324808.41049 -14279075.27146  21869834.867    21869836.783
  -3775474.92348  -2941923.18244  24255103.503    24255109.252
 02  1  6  2 28  0.0000000  0  7G13G20G27G 1G22G25G 3
 -15547949.91949 -12115279.30646  22055683.005    22055682.227
 -18242409.39249 -14214868.34146  21885515.233    21885516.669
   -721041.12648   -561860.33044  24423184.661    24423187.764
 -24615637.59749 -19181007.69147  20412206.122    20412207.169
 -23848992.55849 -18583629.42247  20358509.843    20358511.222
  -6424311.68048  -5005964.33544  23871865.132    23871867.216
  -3864278.03448                  24238204.962
 02  1  6  2 28 30.0000000  0  7G13G20G27G 1G22G25G 3
 -15626544.35849 -12176521.75746  22040726.310    22040726.172
 -18159607.70849 -14150347.64746  21901271.844    21901273.474
   -800765.64148   -623983.33244  24408013.643    24408014.695
 -24642452.80549 -19201902.69147  20407103.226    20407104.312
 -23813260.36049 -18555786.20047  20365309.279    20365310.653
  -6342715.35348  -4942382.96445  23887392.171    23887395.113
  -3952980.52348  -3080239.13744  24221325.383    24221329.151
 02  1  6  2 29  0.0000000  0  7G13G27G 1G22G25G20G 3
 -15704927.56549 -12237599.61346  22025811.274    22025810.572
   -880401.25648   -686037.03044  24392859.457    24392863.652
 -24668892.94749 -19222505.43747  20402071.697    20402072.889
 -23776914.53049 -18527464.82647  20372225.625    20372227.123
  -6261056.12348  -4878752.60245  23902930.692    23902934.457
 -18076400.29149 -14085510.80546  21917106.271    21917108.161
  -4041573.56548  -3149272.65544  24204466.550    24204473.886
 02  1  6  2 29 30.0000000  0  7G13G27G 1G22G25G20G 3
 -15783119.93249 -12298528.76046  22010931.604    22010931.061
   -959969.89148   -748038.54144  24377718.446    24377720.612
 -24694978.78449 -19242832.10647  20397107.680    20397108.870
 -23739978.98949 -18498683.93747  20379254.280    20379255.695
  -6179356.71248  -4815090.89545  23918479.074    23918482.148
 -17992812.18049 -14020377.29946  21933012.116    21933013.798
  -4130076.15548  -3218235.70144  24187625.178    24187629.571
 02  1  6  2 30  0.0000000  0  7G13G20G27G 1G22G25G 3
 -15861099.78649 -12359292.32346  21996092.238    21996091.864
 -17908826.23749 -13954933.80146  21948994.813    21948996.441
  -1039451.52148   -809972.24245  24362592.884    24362596.304
 -24720689.07149 -19262866.13947  20392215.195    20392216.327
 -23702435.69649 -18469429.47547  20386398.666    20386399.944
  -6097598.14648  -4751383.12545  23934036.848    23934041.711
  -4218465.58248  -3287110.51844  24170805.710    24170808.939
 02  1  6  2 30 30.0000000  0  7G13G20G27G 1G22G25G 3
 -15938879.27149 -12419899.74946  21981291.707    21981291.050
 -17824459.14049 -13889193.30346  21965049.109    21965051.335
  -1118859.98648   -871848.91844  24347482.496    24347484.762
 -24746036.20449 -19282617.19447  20387392.074    20387393.138
 -23664300.38049 -18439713.69447  20393655.497    20393656.817
  -6015794.88148  -4687640.53945  23949603.257    23949607.360
  -4306752.52348  -3355905.45444  24154004.681    24154007.647
 02  1  6  2 31  0.0000000  0  7G13G27G 1G22G25G20G 3
 -16016457.14849 -12480350.07046  21966528.898    21966528.541
  -1198195.73548   -933668.93444  24332385.330    24332386.602
 -24771019.57449 -19302084.79247  20382637.955    20382639.010
 -23625575.58549 -18409538.58147  20401024.244    20401025.909
  -5933948.05348  -4623863.98345  23965179.334    23965181.114
 -17739714.44849 -13823158.55946  21981175.559    21981177.173
  -4394934.78648                  24137224.740
 02  1  6  2 31 30.0000000  0  7G13G20G27G 1G22G25G 3
 -16093832.11449 -12540642.27846  21951805.107    21951804.786
 -17654595.30349 -13756832.05146  21997373.095    21997375.005
  -1277458.88648   -995432.36844  24317301.612    24317304.725
 -24795638.29649 -19321268.24947  20377953.215    20377954.343
 -23586263.52449 -18378905.85747  20408505.204    20408506.710
  -5852058.63048  -4560054.23445  23980761.136    23980764.498
  -4483009.84248  -3493248.78944  24120464.169    24120468.117
 02  1  6  2 32  0.0000000  0  7G13G20G27G 1G22G25G 3
 -16171003.17949 -12600775.61846  21937119.910    21937119.588
 -17569105.63149 -13690216.81646  22013641.623    22013644.022
  -1356650.33948  -1057139.94344  24302232.725    24302235.756
 -24819892.17749 -19340167.42147  20373338.054    20373338.942
 -23546367.24649 -18347817.89847  20416097.442    20416098.933
  -5770128.30348  -4496212.64945  23996352.942    23996355.987
  -4570975.52948  -3561793.43644  24103724.471    24103731.264
 02  1  6  2 32 30.0000000  0  7G13G27G 1G22G25G20G 3
 -16247946.64649 -12660731.59546  21922478.078    21922478.354
  -1435747.68348  -1118774.16744  24287180.246    24287183.342
 -24843757.34549 -19358763.69647  20368796.687    20368797.741
 -23505866.32949 -18316258.78947  20423804.315    20423805.749
  -5688135.75248  -4432322.56445  24011956.413    24011959.426
 -17483225.81149 -13623297.58546  22029983.541    22029984.943
  -4658806.76848  -3630233.30244  24087011.470    24087014.147
 02  1  6  2 33  0.0000000  0  7G13G20G27G 1G22G25G 3
 -16324668.37449 -12720514.78746  21907878.780    21907878.241
 -17396966.70949 -13556082.79346  22046398.601    22046400.831
  -1514758.62548  -1180341.07944  24272144.856    24272147.896
 -24867240.45549 -19377062.26647  20364328.160    20364329.077
 -23464770.65649 -18284236.23447  20431624.436    20431625.912
  -5606089.09648  -4368390.29845  24027568.520    24027573.929
  -4746508.42348  -3698572.18544  24070320.910    24070327.190
 02  1  6  2 33 30.0000000  0  7G13G27G 1G22G25G20G 3
 -16401174.24849 -12780129.78046  21893319.665    21893319.081
  -1593690.80848  -1241846.65244  24257124.363    24257127.166
 -24890347.86049 -19395068.07847  20359930.704    20359931.588
 -23423089.85249 -18251757.73647  20439556.080    20439557.576
  -5523996.59548  -4304422.32745  24043190.890    24043193.522
 -17310339.04849 -13488580.81846  22062883.302    22062885.486
  -4834085.19448  -3766813.84844  24053657.274    24053663.798
 02  1  6  2 34  0.0000000  0  7G13G20G27G 1G22G25G 3
 -16477455.82049 -12839569.99646  21878804.160    21878803.292
 -17223338.82449 -13420788.52646  22079438.931    22079441.160
  -1672537.43448  -1303285.56344  24242120.352    24242122.577
 -24913071.57849 -19412774.91447  20355606.498    20355607.479
 -23380819.29149 -18218819.68247  20447600.008    20447601.548
  -5441852.25848  -4240413.94345  24058822.889    24058825.848
  -4921527.30348  -3834950.49944  24037016.832    24037025.024
 02  1  6  2 34 30.0000000  0  8G13G20G27G 1G22G 2G25G 3
 -16553528.45749 -12898847.41346  21864328.029    21864327.573
 -17135986.46349 -13352721.84646  22096061.839    22096063.440
  -1751315.68648  -1364671.18044  24227129.158    24227131.545
 -24935427.78849 -19430195.38147  20351352.158    20351353.232
 -23337978.58249 -18185437.35847  20455752.498    20455753.952
         -.30158                  24881073.800
  -5359674.31248  -4176379.40745  24074460.679    24074464.983
  -5008849.38248  -3902993.62644  24020399.987    24020407.299
 02  1  6  2 35  0.0000000  0  8G13G20G27G 1G22G 2G25G 3
 -16629386.56849 -12957957.66846  21849892.343    21849892.186
 -17048280.47549 -13284379.61046  22112751.422    22112754.112
  -1830021.13248  -1426000.00944  24212151.769    24212153.930
 -24957410.87749 -19447325.10447  20347168.907    20347170.043
 -23294565.14749 -18151608.75247  20464013.672    20464015.252
    -99120.17248                  24862211.885
  -5277458.79348  -4112315.56745  24090105.540    24090108.763
  -5096043.87348  -3970937.39444  24003807.916    24003812.273
 02  1  6  2 35 30.0000000  0  8G13G20G27G 1G22G 2G25G 3
 -16705020.86449 -13016893.52246  21835500.123    21835499.691
 -16960216.35149 -13215758.31046  22129509.500    22129511.677
  -1908646.48048  -1487266.46344  24197190.836    24197191.901
 -24979012.28649 -19464157.41547  20343058.445    20343059.427
 -23250574.09249 -18117330.05447  20472384.982    20472386.759
   -198153.04448                  24843366.790
  -5195199.35948  -4048217.53845  24105759.739    24105762.321
  -5183100.42148  -4038773.69044  23987240.982    23987244.548
 02  1  6  2 36  0.0000000  0  8G13G20G27G 1G22G 2G25G 3
 -16780427.81049 -13075652.21546  21821150.037    21821149.691
 -16871795.93049 -13146859.37546  22146335.391    22146337.556
  -1987190.16748  -1548469.32744  24182242.912    24182245.501
 -25000229.28549 -19480690.18347  20339021.146    20339022.136
 -23206005.75349 -18082601.52347  20480866.192    20480868.010
   -297095.66347                  24824537.933
  -5112894.85048  -3984084.37244  24121421.088    24121426.266
  -5270014.69148  -4106499.03144  23970701.721    23970707.469
 02  1  6  2 36 30.0000000  0  8G13G20G27G 1G22G 2G25G 3
 -16855613.25049 -13134238.31346  21806843.514    21806843.069
 -16783029.22149 -13077690.60446  22163227.373    22163229.668
  -2065659.30648  -1609613.99444  24167311.395    24167312.936
 -25021068.01449 -19496928.19747  20335055.672    20335056.720
 -23160869.85849 -18047430.73747  20489455.192    20489457.086
   -395953.72748                  24805726.398
  -5030553.24548  -3919922.30145  24137090.937    24137094.656
  -5356791.22648  -4174117.11644  23954188.908    23954193.634
 02  1  6  2 37  0.0000000  0  8G13G20G27G 1G22G 2G25G 3
 -16930569.21249 -13192645.59646  21792579.545    21792579.302
 -16693913.23949 -13008249.68746  22180185.652    22180187.956
  -2144047.79148  -1670695.85044  24152394.073    24152396.616
 -25041521.15349 -19512865.75247  20331163.597    20331164.684
 -23115162.30949 -18011814.51247  20498152.853    20498154.768
   -494719.73448                  24786931.588
  -4948169.38248  -3855727.32145  24152768.225    24152771.348
  -5443420.70548  -4241620.58344  23937702.860    23937708.889
 02  1  6  2 37 30.0000000  0  8G13G20G27G 1G22G 2G25G 3
 -17005298.58249 -13250876.30146  21778358.879    21778358.346
 -16604455.55449 -12938542.50746  22197208.981    22197211.277
  -2222360.34448  -1731718.58644  24137492.157    24137493.273
 -25061592.05949 -19528505.46247  20327344.212    20327345.287
 -23068890.12249 -17975758.30547  20506958.282    20506960.225
   -593396.68847                  24768153.422
  -4865748.38048  -3791503.38045  24168452.028    24168455.083
  -5529905.09148  -4309010.99844  23921245.776    23921252.795
 02  1  6  2 38  0.0000000  0  8G13G20G27G 1G22G 2G25G 3
 -17079792.26449 -13308923.36846  21764183.795    21764182.824
 -16514651.96749 -12868565.78846  22214298.350    22214301.115
  -2300589.33248  -1792676.18944  24122605.549    24122608.136
 -25081272.38449 -19543840.82547  20323599.317    20323600.325
 -23022048.25049 -17939258.19247  20515872.074    20515873.806
   -691975.81548                  24749395.717
  -4783283.35948  -3727245.16945  24184145.248    24184149.797
  -5616233.79848  -4376280.13144  23904817.928    23904823.383
 02  1  6  2 38 30.0000000  0  8G13G20G27G 1G22G 2G25G 3
 -17154048.15149 -13366785.12746  21750053.294    21750053.084
 -16424504.88149 -12798321.40146  22231452.423    22231454.581
  -2378734.36948  -1853568.41344  24107734.620    24107737.200
 -25100560.35149 -19558870.45247  20319929.141    20319930.212
 -22974638.14749 -17902315.30247  20524893.916    20524895.862
   -790454.94747                  24730654.615
  -4700774.51048  -3662952.81245  24199846.261    24199849.288
  -5702403.26248                  23888420.528
 02  1  6  2 39  0.0000000  0  8G13G20G27G 1G22G 2G25G 3
 -17228050.11049 -13424449.03546  21735970.779    21735971.094
 -16334003.40349 -12727800.87946  22248674.428    22248676.592
  -2456781.31948  -1914384.22844  24092882.994    24092884.935
 -25119440.66549 -19573582.42747  20316336.335    20316337.390
 -22926648.21849 -17864920.59947  20534026.355    20534028.246
   -888818.32448                  24711937.186
  -4618208.38048  -3598615.78545  24215558.179    24215561.675
  -5788396.78448  -4510433.05344  23872056.318    23872062.146
 02  1  6  2 39 30.0000000  0  8G13G20G27G 1G22G 2G25G 3
 -17301811.60749 -13481925.56246  21721934.708    21721934.476
 -16243165.46349 -12657018.17446  22265960.181    22265963.196
  -2534745.18248  -1975135.25744  24078047.108    24078051.038
 -25137927.18349 -19587987.55147  20312818.465    20312819.661
 -22878095.82749 -17827087.61347  20543265.707    20543267.691
   -987079.31148                  24693238.783
  -4535600.79648  -3534246.46745  24231278.839    24231280.343
  -5874226.38448  -4577313.23344  23855724.008    23855728.971
 02  1  6  2 40  0.0000000  0  8G13G20G27G 1G22G 2G25G 3
 -17375334.75049 -13539216.35546  21707943.945    21707943.429
 -16151998.08349 -12585978.76446  22283309.362    22283311.372
  -2612629.83748  -2035824.58945  24063225.854    24063228.920
 -25156022.84649 -19602088.11047  20309375.067    20309376.315
 -22828987.07749 -17788821.10547  20552611.082    20552612.973
  -1085240.58148                  24674559.524
  -4452956.43848  -3469848.51245  24247004.721    24247007.522
  -5959893.06148  -4644066.49644  23839422.105    23839425.483
 02  1  6  2 40 30.0000000  0  8G13G20G27G 1G22G 2G25G 3
 -17448625.71249 -13596326.23146  21693996.986    21693996.741
 -16060512.44249 -12514691.35845  22300718.413    22300720.188
  -2690443.22248  -2096458.40944  24048419.032    24048423.696
 -25173734.52049 -19615889.46147  20306004.495    20306005.807
 -22779332.36149 -17750129.17247  20562059.854    20562061.718
  -1183308.65448                  24655897.388
  -4370283.89948  -3405428.58645  24262737.341    24262740.425
  -6045401.86748  -4710696.68344  23823150.048    23823153.653
 02  1  6  2 41  0.0000000  0  8G13G20G27G 1G22G 2G25G 3
 -17521662.58649 -13653238.11446  21680098.564    21680098.071
 -15968691.27049 -12443142.49545  22318191.687    22318193.420
  -2768164.78248  -2157020.67244  24033629.650    24033631.556
 -25191040.46649 -19629374.65847  20302711.306    20302712.707
 -22729113.56849 -17710997.69847  20571616.418    20571618.092
  -1281261.32648                  24637258.148
  -4287563.50948  -3340971.35945  24278479.380    24278482.370
  -6130729.31548  -4777185.57244  23806913.139    23806920.095
 02  1  6  2 41 30.0000000  0  8G13G20G27G 1G22G 2G25G 3
 -17594455.19349 -13709959.67146  21666246.494    21666246.130
 -15876549.54149 -12371343.85045  22335725.541    22335728.624
  -2845806.67048  -2217520.85744  24018854.334    24018856.352
 -25207951.90049 -19642552.44047  20299493.138    20299494.397
 -22678345.38349 -17671438.12447  20581277.002    20581278.941
  -1379109.26848                  24618637.680
  -4204808.02848  -3276486.84145  24294225.776    24294232.435
  -6215884.76548  -4843540.40344  23790708.348    23790714.167
 02  1  6  2 42  0.0000000  0  8G13G20G27G 1G22G 2G25G 3
 -17667002.66749 -13766490.22246  21652441.076    21652440.782
 -15784090.68349 -12299298.09145  22353319.727    22353322.853
  -2923369.01448  -2277959.02245  24004095.030    24004098.105
 -25224467.80849 -19655422.02447  20296350.339    20296351.747
 -22627030.22249 -17631452.33847  20591042.282    20591044.191
  -1476851.19248                  24600037.771
  -4122017.77748  -3211975.21945  24309981.843    24309985.842
  -6300865.41848  -4909759.02644  23774537.418    23774541.690
 02  1  6  2 42 30.0000000  0  8G13G20G27G 1G22G 2G25G 3
 -17739305.45249 -13822830.10346  21638682.339    21638682.342
 -15691320.66949 -12227009.85145  22370973.168    22370976.337
  -3000854.71848  -2338337.44345  23989349.904    23989350.957
 -25240589.99249 -19667984.80847  20293282.352    20293283.674
 -22575173.30649 -17591044.40547  20600910.480    20600912.300
  -1574488.35348                  24581459.391
  -4039196.31948  -3147439.24745  24325742.771    24325745.907
  -6385671.25048  -4975841.38545  23758399.734    23758404.128
 02  1  6  2 43  0.0000000  0  8G13G20G27G 1G22G 2G25G 3
 -17811355.21449 -13878972.81746  21624971.934    21624971.614
 -15598235.81549 -12154476.31445  22388687.276    22388689.359
  -3078256.92048  -2398650.83845  23974620.979    23974624.167
 -25256310.50549 -19680234.60347  20290291.025    20290292.497
 -22522770.40449 -17550211.02747  20610882.386    20610884.243
  -1672012.64048                  24562900.342
  -3956337.88548  -3082874.49545  24341508.804    24341512.588
  -6470292.52748  -5041779.92744  23742296.675    23742302.050
 02  1  6  2 43 30.0000000  0  8G13G20G27G 1G22G 2G25G 3
 -17883150.92149 -13934917.57646  21611309.801    21611309.367
 -15504839.94448 -12081700.43545  22406459.816    22406461.485
  -3155576.16348  -2458899.59745  23959908.150    23959912.887
 -25271628.97649 -19692171.12047  20287375.951    20287377.393
 -22469824.57349 -17508954.59247  20620957.129    20620959.160
  -1769423.17848                  24544363.697
  -3873443.78348  -3018281.92745  24357284.542    24357288.571
  -6554727.11448  -5107572.97644  23726228.673    23726234.527
 02  1  6  2 44  0.0000000  0  8G13G20G27G 1G22G 2G25G 3
 -17954688.29849 -13990661.03746  21597696.377    21597696.446
 -15411133.76648 -12008682.72445  22424291.488    22424293.021
  -3232810.16448  -2519081.95045  23945209.771    23945212.033
 -25286541.98849 -19703791.69547  20284538.188    20284539.593
 -22416335.73749 -17467275.03647  20631136.051    20631138.037
  -1866715.95348                  24525850.127
  -3790512.16348  -2953660.14645  24373065.447    24373068.919
  -6638969.58548  -5173216.35445  23710198.636    23710203.598
 02  1  6  2 44 30.0000000  0  8G13G20G27G 1G22G 2G25G 3
 -18025960.90649 -14046198.17946  21584134.056    21584133.670
 -15317115.65748 -11935421.96345  22442182.824    22442185.233
  -3309954.23048  -2579194.23545  23930531.194    23930533.194
 -25301044.00749 -19715092.01847  20281778.619    20281780.141
 -22362301.95549 -17425170.84747  20641418.544    20641420.580
  -1963885.06848                  24507358.817
  -3707539.00548  -2889006.00745  24388854.908    24388860.131
  -6723012.31448  -5238704.07445  23694205.574    23694208.931
 02  1  6  2 45  0.0000000  0  8G13G20G27G 1G22G 2G25G 3
 -18096977.86449 -14101536.11646  21570619.444    21570619.443
 -15222799.60748 -11861929.03045  22460130.364    22460133.558
  -3387019.02948  -2639244.78845  23915865.209    23915868.296
 -25315144.33849 -19726079.33747  20279095.540    20279097.036
 -22307736.43649 -17382652.31447  20651801.915    20651803.794
  -2060939.78048                  24488890.046
  -3624535.37548  -2824328.09445  24404650.323    24404654.601
  -6806863.39148  -5304042.44845  23678248.361    23678254.900
 02  1  6  2 45 30.0000000  0  8G13G20G27G 1G22G 2G25G 3
 -18167730.49049 -14156668.08346  21557156.355    21557156.113
 -15128181.94548 -11788201.08745  22478135.884    22478138.077
  -3463997.83248  -2699228.26745  23901216.610    23901218.445
 -25328835.27949 -19736747.65447  20276490.306    20276491.820
 -22252634.75649 -17339715.99647  20662287.473    20662289.462
  -2157871.68348                  24470444.797
  -3541495.37348  -2759621.86545  24420452.682    24420458.513
  -6890513.02648  -5369223.83745  23662330.591    23662334.020
 02  1  6  2 46  0.0000000  0  8G13G20G27G 1G22G 2G25G 3
 -18238217.71649 -14211593.24746  21543742.787    21543742.837
 -15033266.64648 -11714241.21845  22496197.831    22496200.514
  -3540891.32748  -2759145.30744  23886585.462    23886586.479
 -25342116.57549 -19747096.77047  20273963.007    20273964.393
 -22197000.23149 -17296364.47447  20672874.399    20672876.387
  -2254680.04448                  24452022.540
  -3458420.30848  -2694888.29044  24436260.576    24436265.902
  -6973958.98948  -5434246.53845  23646451.875    23646455.614
 02  1  6  2 46 30.0000000  0  8G13G20G27G 1G22G 2G25G 3
 -18308433.00149 -14266306.50646  21530381.427    21530381.439
 -14938052.10248 -11640048.16845  22514316.025    22514319.486
  -3617694.69348  -2818992.12645  23871969.118    23871971.784
 -25354982.33349 -19757122.08547  20271514.764    20271516.171
 -22140830.57349 -17252595.96747  20683563.210    20683565.207
  -2351358.89548                  24433625.019
  -3375306.00748  -2630124.21544  24452077.759    24452081.344
  -7057193.55348  -5499104.52545  23630612.755    23630617.861
 02  1  6  2 47  0.0000000  0  7G13G20G27G 1G22G 2G25
 -18378390.05149 -14320818.54246  21517069.560    21517069.049
 -14842556.85548 -11565636.39845  22532488.220    22532491.642
  -3694423.34848  -2878780.71645  23857369.270    23857370.961
 -25367446.88049 -19766834.77047  20269142.814    20269144.447
 -22084143.78149 -17208424.49947  20694350.137    20694352.352
  -2447922.07948                  24415249.802
  -3292168.31248  -2565341.85045  24467898.325    24467904.187
 02  1  6  2 47 30.0000000  0  7G13G20G27G 1G22G 2G25
 -18448073.35749 -14375117.27346  21503808.319    21503808.359
 -14746770.34648 -11490997.67045  22550716.058    22550718.315
  -3771063.75948  -2938500.56544  23842783.248    23842786.900
 -25379495.61549 -19776223.44147  20266850.131    20266851.469
 -22026928.77849 -17163841.44047  20705238.184    20705240.102
  -2544354.33448  -1982613.62044  24396900.016    24396901.860
  -3208994.65448  -2500531.47045  24483725.802    24483732.908
 02  1  6  2 48  0.0000000  0  7G13G20G27G 1G22G 2G25
 -18517488.99949 -14429207.42546  21490599.240    21490599.430
 -14650703.58548 -11416140.57945  22568997.293    22569000.352
  -3847623.69548  -2998157.69945  23828216.078    23828218.529
 -25391135.63049 -19785293.62947  20264635.165    20264636.577
 -21969196.04749 -17118854.95647  20716224.266    20716226.449
  -2640662.30048                  24378573.043
  -3125793.51248  -2435699.68145  24499559.027    24499565.918
 02  1  6  2 48 30.0000000  0  7G13G20G27G 1G22G 2G25
 -18586625.92749 -14483080.40246  21477443.599    21477442.991
 -14554350.76848 -11341060.56445  22587333.108    22587336.048
  -3924094.21148  -3057745.17545  23813663.046    23813667.036
 -25402356.68849 -19794037.35747  20262499.901    20262501.517
 -21910939.05349 -17073459.95947  20727310.257    20727312.307
  -2736835.22648                  24360271.643
  -3042555.97748  -2370839.54944  24515398.658    24515403.218
 02  1  6  2 49  0.0000000  0  7G13G20G27G 1G22G 2G25
 -18655484.72349 -14536736.64946  21464339.943    21464339.554
 -14457717.45148 -11265761.97945  22605720.989    22605724.290
  -4000477.60648  -3117264.75445  23799128.444    23799130.059
 -25413160.03249 -19802455.59647  20260443.918    20260445.359
 -21852162.66549 -17027660.23947  20738495.043    20738497.238
  -2832874.21848  -2207434.58444  24341996.167    24341997.392
  -2959285.28548  -2305953.52945  24531244.973    24531250.915
 02  1  6  2 49 30.0000000  0  7G13G20G27G 1G22G 2G25
 -18724073.76849 -14590182.70446  21451287.672    21451287.222
 -14360816.65748 -11190254.99845  22624161.838    22624164.895
  -4076783.68448  -3176724.06644  23784607.606    23784609.714
 -25423554.64649 -19810555.34047  20258465.861    20258467.314
 -21792879.54749 -16981465.66547  20749776.391    20749778.541
  -2928787.67148                  24323745.071
  -2875991.93948  -2241049.93045  24547094.745    24547100.587
 02  1  6  2 50  0.0000000  0  8G13G20G27G 1G22G 2G25G31
 -18792379.91249 -14643408.31646  21438289.569    21438289.259
 -14263640.61548 -11114533.55945  22642653.364    22642656.033
  -4153001.49148  -3236114.62845  23770104.080    23770106.869
 -25433528.55849 -19818327.26647  20256567.960    20256569.474
 -21733081.14749 -16934869.57447  20761155.573    20761157.891
  -3024562.95048  -2356802.41744  24305519.259    24305525.826
  -2792665.34748  -2176120.40444  24562952.082    24562957.307
         -.73858                  25163275.930
 02  1  6  2 50 30.0000000  0  8G13G20G27G 1G22G 2G25G31
 -18860407.54149 -14696416.90546  21425344.308    21425343.975
 -14166198.36348 -11038604.64145  22661196.144    22661197.973
  -4229136.85748  -3295440.93344  23755615.865    23755618.122
 -25443086.95249 -19825775.41447  20254749.210    20254750.536
 -21672776.21749 -16887878.78247  20772631.380    20772633.673
  -3120204.77148  -2431328.53744  24287319.748    24287324.763
  -2709312.16748  -2111170.12944  24578813.693    24578820.877
   -104096.97148    -81113.44944  25143466.256    25143477.177
 02  1  6  2 51  0.0000000  0  7G13G20G27G 1G22G 2G25
 -18928135.83549 -14749192.24146  21412456.133    21412455.793
 -14068474.39648 -10962456.20745  22679792.775    22679796.177
  -4305171.01448  -3354688.33645  23741146.604    23741149.000
 -25452209.89749 -19832884.24747  20253013.193    20253014.728
 -21611948.50049 -16840480.62547  20784206.660    20784208.790
  -3215692.92248                  24269148.002
  -2625914.06648  -2046184.92044  24594683.142    24594691.333
 02  1  6  2 51 30.0000000  0  7G13G20G27G 1G22G 2G25
 -18995577.50349 -14801744.23346  21399622.574    21399622.228
 -13970486.28748 -10886101.95545  22698439.081    22698442.168
  -4381118.36448  -3413868.09545  23726694.690    23726696.307
 -25460910.96549 -19839664.34647  20251357.467    20251358.863
 -21550615.08349 -16792688.41447  20795877.795    20795880.036
  -3311040.29548  -2580031.59344  24251005.095    24251010.062
  -2542485.82348  -1981176.19944  24610560.353    24610567.489
 02  1  6  2 52  0.0000000  0  8G13G27G 1G22G 2G25G20G31
 -19062730.15549 -14854071.01546  21386843.744    21386843.673
  -4456978.11648  -3472979.61545  23712258.850    23712261.847
 -25469188.37849 -19846114.32547  20249782.457    20249783.873
 -21488777.98049 -16744503.72447  20807645.095    20807647.414
  -3406244.75248                  24232888.038
  -2459027.48448  -1916143.99644  24626441.568    24626445.930
 -13872236.45348 -10809543.76645  22717135.845    22717138.978
          .24158                  25083925.878
 02  1  6  2 52 30.0000000  0  8G13G27G 1G22G 2G25G20G31
 -19129594.90349 -14906173.46046  21374119.764    21374119.728
  -4532753.20848  -3532025.14545  23697839.622    23697841.934
 -25477044.27849 -19852235.85347  20248287.424    20248288.703
 -21426442.81049 -16695930.92647  20819506.832    20819509.012
  -3501307.92148                  24214797.742
  -2375542.63748  -1851091.12744  24642328.044    24642334.220
 -13773731.31348 -10732786.65345  22735880.367    22735883.419
   -104502.85748    -81428.80144  25064038.554    25064049.227
 02  1  6  2 53  0.0000000  0  8G13G27G 1G22G 2G25G20G31
 -19196177.04049 -14958055.69246  21361449.490    21361449.566
  -4608451.10148  -3591010.56345  23683434.430    23683435.727
 -25484484.93549 -19858033.81647  20246871.636    20246873.040
 -21363619.55649 -16646977.80747  20831461.921    20831464.307
  -3596235.89348                  24196734.198
  -2292039.30448  -1786023.87644  24658219.117    24658227.556
 -13674981.26848 -10655838.68745  22754672.292    22754673.402
   -209114.22848                  25044132.032
 02  1  6  2 53 30.0000000  0  7G13G27G 1G22G25G20G31
 -19262466.34449 -15009709.73846  21348835.101    21348835.154
  -4684063.19748  -3649929.09945  23669046.482    23669049.616
 -25491500.87349 -19863500.82947  20245536.476    20245537.965
 -21300302.43649 -16597639.85147  20843510.758    20843513.180
  -2208509.67748  -1720936.14244  24674114.019    24674118.183
 -13575980.74148 -10578695.54245  22773510.822    22773515.054
   -313822.61448                  25024206.795
 02  1  6  2 54  0.0000000  0  7G13G27G 1G22G25G20G31
 -19328451.80649 -15061127.02746  21336278.703    21336278.783
  -4759580.37548  -3708773.68445  23654675.398    23654678.434
 -25498082.06249 -19868629.07747  20244283.985    20244285.432
 -21236485.01349 -16547912.05947  20855654.945    20855657.278
  -2124944.90848  -1655821.05444  24690015.893    24690020.450
 -13476724.03848 -10501352.76045  22792399.429    22792401.511
   -418616.38948                  25004264.413
 02  1  6  2 54 30.0000000  0  7G13G27G 1G22G25G20G31
 -19394149.26649 -15112319.89546  21323777.164    21323776.985
  -4835020.33648  -3767558.10245  23640320.688    23640322.172
 -25504245.71249 -19873431.96547  20243111.126    20243112.504
 -21172187.83249 -16497810.42947  20867890.371    20867892.759
  -2041363.46148  -1590692.92944  24705922.372    24705927.366
 -13377232.23848 -10423826.82045  22811332.274    22811335.363
   -523510.87048   -407927.11644  24984302.864    24984312.544
 02  1  6  2 55  0.0000000  0  7G13G27G 1G22G25G20G31
 -19459542.99449 -15163276.09246  21311332.831    21311332.906
  -4910369.14848  -3826271.48545  23625981.691    23625984.840
 -25509976.62949 -19877897.66047  20242020.675    20242022.315
 -21107399.56549 -16447326.13247  20880219.262    20880221.698
  -1957751.82748  -1525541.26144  24721833.313    24721843.738
 -13277494.46348 -10346109.20444  22830311.760    22830313.958
   -628489.24048                  24964326.618
 02  1  6  2 55 30.0000000  0  7G13G27G 1G22G25G20G31
 -19524641.46049 -15214002.21046  21298944.930    21298944.935
  -4985636.90148  -3884921.72745  23611658.763    23611661.622
 -25515284.24249 -19882033.51047  20241010.646    20241012.191
 -21042133.16749 -16396469.27147  20892639.118    20892641.568
  -1874120.70148  -1460374.52144  24737747.345    24737754.732
 -13177524.08948 -10268210.37244  22849335.322    22849338.828
   -733559.15848   -571600.28044  24944331.688    24944340.375
 02  1  6  2 56  0.0000000  0  7G13G27G 1G22G25G20G31
 -19589422.65549 -15264481.10446  21286617.991    21286618.078
  -5060803.24548  -3943492.95845  23597355.234    23597357.400
 -25520147.35749 -19885822.99947  20240085.254    20240086.951
 -20976370.99749 -16345226.09347  20905152.990    20905155.524
  -1790450.41148  -1395177.15844  24753669.945    24753673.586
 -13077304.07948 -10190116.96044  22868406.316    22868409.231
   -838697.84148   -653526.14644  24924325.361    24924333.553
 02  1  6  2 56 30.0000000  0  7G13G27G 1G22G25G20G31
 -19653899.47949 -15314722.82746  21274348.436    21274348.272
  -5135883.19848  -4001996.83745  23583068.180    23583070.602
 -25524580.08349 -19889277.12147  20239241.606    20239243.306
 -20910130.98049 -16293610.56747  20917758.362    20917760.663
  -1706756.56848  -1329961.40344  24769596.412    24769601.431
 -12976852.81548 -10111843.38744  22887521.894    22887525.926
   -943917.70648   -735515.22344  24904301.370    24904311.547
 02  1  6  2 57  0.0000000  0  8G13G27G 1G22G 2G25G20G31
 -19718079.07649 -15364732.94946  21262134.852    21262135.181
  -5210885.62648  -4060440.32645  23568796.168    23568798.095
 -25528590.30749 -19892402.02347  20238478.505    20238480.381
 -20843424.71149 -16241631.72547  20930452.243    20930454.855
         -.53757                  24053248.126
  -1623048.29448  -1264734.47044  24785525.377    24785534.065
 -12876182.17548 -10033398.89044  22906679.081    22906682.631
  -1049225.01148   -817572.39444  24884262.096    24884271.777
 02  1  6  2 57 30.0000000  0  8G13G27G 1G22G 2G25G20G31
 -19781956.21649 -15414507.38447  21249979.927    21249980.087
  -5285807.11448  -4118820.77545  23554538.672    23554540.228
 -25532174.02449 -19895194.58347  20237796.754    20237798.447
 -20776251.44949 -16189289.00547  20943234.970    20943237.329
    -93568.47748                  24035442.765
  -1539322.96448  -1199494.29544  24801458.357    24801468.286
 -12775292.00548  -9954783.33244  22925877.367    22925880.300
  -1154613.74448   -899693.05344  24864206.385    24864217.555
 02  1  6  2 58  0.0000000  0  8G13G27G 1G22G 2G25G20G31
 -19845503.31749 -15464024.64647  21237887.604    21237887.617
  -5360621.98048  -4177118.10945  23540301.515    23540304.432
 -25535304.79749 -19897634.19747  20237200.855    20237202.655
 -20708588.56049 -16136564.75147  20956110.994    20956113.192
   -186958.32848   -145681.50644  24017672.240    24017678.129
  -1455555.38448  -1134221.16744  24817399.441    24817404.887
 -12674159.94948  -9875979.26844  22945122.922    22945125.894
  -1260055.61248   -981855.15344  24844142.146    24844149.422
 02  1  6  2 58 30.0000000  0  8G13G27G 1G22G 2G25G20G31
 -19908720.59349 -15513284.90647  21225857.291    21225857.239
  -5435331.96848  -4235333.69745  23526085.461    23526087.763
 -25537983.72649 -19899721.72347  20236691.118    20236692.910
 -20640440.68649 -16083462.59547  20969079.056    20969081.573
   -280170.50448                  23999932.974
  -1371748.11948  -1068916.99644  24833347.214    24833354.595
 -12572791.27148  -9796990.82944  22964412.152    22964419.172
  -1365550.01248                  24824065.834
 02  1  6  2 59  0.0000000  0  8G22G27G 1G 2G13G25G20G31
 -20571825.22849 -16029996.09847  20982135.888    20982138.528
  -5509951.68648  -4293478.94845  23511885.116    23511887.121
 -25540224.55249 -19901467.87247  20236264.776    20236266.656
   -373218.45148                  23982227.642
 -19971620.79949 -15562298.09947  21213887.861    21213888.121
  -1287916.31048  -1003593.84844  24849300.007    24849308.943
 -12471203.75948  -9717831.89644  22983744.786    22983745.955
  -1471108.87348                  24803978.396
 02  1  6  2 59 30.0000000  0  8G22G13G27G 1G 2G25G20G31
 -20502746.78949 -15976168.83347  20995281.433    20995283.854
 -20034203.86349 -15611064.16847  21201979.085    21201979.077
  -5584482.93548  -4351555.27045  23497703.046    23497704.856
 -25542028.31849 -19902873.45647  20235921.633    20235923.484
   -466102.63748   -363196.33844  23964551.110    23964555.817
  -1204062.37148   -938253.43844  24865257.600    24865267.281
 -12369402.15848  -9638506.11844  23003116.150    23003119.230
  -1576731.28848                  24783879.577
 02  1  6  3  0  0.0000000  0  8G22G13G27G 1G 2G25G20G31
 -20433205.49949 -15921980.90147  21008514.615    21008517.271
 -20096465.51649 -15659579.78447  21190131.061    21190131.340
  -5658923.21348  -4409560.70045  23483537.527    23483539.774
 -25543391.72649 -19903935.90447  20235662.401    20235664.317
   -558819.16148   -435442.89544  23946908.699    23946913.339
  -1120184.15148   -872894.08544  24881219.021    24881225.730
 -12267387.40148  -9559014.20044  23022530.017    23022529.037
  -1682412.29448  -1310962.75444  24763767.859    24763776.546
 02  1  6  3  0 30.0000000  0  8G22G13G27G 1G 2G25G20G31
 -20363207.15049 -15867436.83246  21021834.844    21021837.734
 -20158406.62849 -15707845.62947  21178344.207    21178344.413
  -5733275.35548  -4467497.45645  23469387.986    23469391.054
 -25544316.94649 -19904656.90447  20235486.277    20235488.269
   -651369.28148   -507559.78644  23929296.367    23929303.195
  -1036284.84148   -807518.24744  24897184.530    24897194.707
 -12165165.41248  -9479360.86144  23041981.603    23041987.088
  -1788151.76948  -1393356.77944  24743647.124    24743655.812
 02  1  6  3  1  0.0000000  0  8G22G13G27G 1G 2G25G20G31
 -20292766.85549 -15812548.38246  21035239.492    21035241.935
 -20220037.58749 -15755869.79847  21166616.261    21166616.570
  -5807551.51048  -4525375.03545  23455254.990    23455256.056
 -25544815.45049 -19905045.39947  20235391.309    20235393.319
   -743764.31848   -579555.80744  23911713.805    23911715.694
   -952377.24148   -742136.04444  24913152.320    24913159.993
 -12062751.85048                  23061470.575
  -1893959.43248                  24723511.241
 02  1  6  3  1 30.0000000  0  8G22G13G27G 1G 2G25G20G31
 -20221870.23649 -15757304.36346  21048730.874    21048733.424
 -20281339.50749 -15803637.56947  21154951.251    21154951.302
  -5881734.40548  -4583179.89845  23441137.361    23441140.317
 -25544869.05349 -19905087.21847  20235381.298    20235383.207
   -835985.79048   -651416.60544  23894165.223    23894173.910
   -868445.11448   -676734.67344  24929124.382    24929133.317
 -11960132.64148  -9319595.31044  23080998.557    23081001.820
  -1999815.56248                  24703367.326
 02  1  6  3  2  0.0000000  0  8G22G13G27G 1G 2G25G20G31
 -20150525.23749 -15701710.95346  21062307.057    21062310.195
 -20342315.26749 -15851151.19347  21143347.565    21143347.785
  -5955828.97748  -4640915.92545  23427037.645    23427040.448
 -25544481.97249 -19904785.64547  20235454.963    20235457.082
   -928037.06748                  23876648.197
   -784493.42648                  24945100.167
 -11857316.17248  -9239478.74644  23100563.737    23100567.515
  -2105722.29948  -1640813.51144  24683214.398    24683223.830
 02  1  6  3  2 30.0000000  0  8G22G13G27G 1G 2G25G20G31
 -20078721.65549 -15645760.21046  21075971.100    21075974.079
 -20402950.44349 -15898399.43447  21131808.922    21131809.238
  -6029822.57148  -4698573.27145  23412957.568    23412960.336
 -25543640.80449 -19904130.23947  20235614.963    20235617.062
  -1019904.30848   -794729.57844  23859165.951    23859167.417
   -700509.89248   -545876.58244  24961081.358    24961084.767
 -11754292.73148  -9159200.85444  23120168.780    23120173.185
  -2211664.33248  -1723365.51044  24663054.724    24663062.665
 02  1  6  3  3  0.0000000  0  8G22G13G27G 1G 2G25G20G31
 -20006470.43449 -15589460.65646  21089720.478    21089723.326
 -20463251.14649 -15945387.04647  21120334.422    21120334.583
  -6103723.08148  -4756158.09345  23398894.354    23398896.518
 -25542352.65149 -19903126.53347  20235859.983    20235862.181
  -1111593.93948   -866175.98144  23841718.746    23841723.425
   -616502.89648   -480416.87444  24977067.776    24977076.960
 -11651073.52248  -9078770.47444  23139809.922    23139814.408
  -2317646.72048  -1805948.99344  24642886.559    24642893.176
 02  1  6  3  3 30.0000000  0  8G22G13G27G 1G 2G25G20G31
 -19933771.63149 -15532812.33946  21103554.052    21103557.097
 -20523212.70549 -15992110.38947  21108923.965    21108924.228
  -6177527.59048  -4813668.11345  23384850.333    23384851.404
 -25540614.18649 -19901771.93947  20236190.940    20236193.087
  -1203102.12348   -937481.06144  23824305.459    23824307.104
   -532470.47248   -414937.36744  24993058.757    24993067.196
 -11547659.11148  -8998187.98044  23159489.576    23159492.357
  -2423664.06448  -1888559.79744  24622712.288    24622715.934
 02  1  6  3  4  0.0000000  0  8G22G13G27G 1G 2G25G20G31
 -19860647.63649 -15475832.70546  21117469.062    21117472.126
 -20582852.85049 -16038583.28347  21097575.028    21097575.101
  -6251255.62548  -4871118.52845  23370819.742    23370822.610
 -25538444.36749 -19900081.22647  20236603.865    20236606.003
  -1294447.16448  -1008658.94644  23806922.065    23806926.153
   -448432.68048                  25009050.736
 -11444072.07248                  23179201.842
  -2529733.05648  -1971210.79744  24602527.840    24602534.143
 02  1  6  3  4 30.0000000  0  8G22G13G27G 1G 2G25G20G31
 -19787086.16649 -15418512.17746  21131467.670    21131470.699
 -20642154.50449 -16084792.41447  21086290.095    21086290.449
  -6324891.93548  -4928497.46645  23356807.150    23356810.739
 -25535827.24349 -19898041.96047  20237101.869    20237104.123
  -1385612.44348  -1079696.79444  23789574.576    23789577.113
   -364375.14448                  25025046.783
 -11340300.66648  -8836610.31844  23198949.114    23198952.346
  -2635835.78148  -2053888.19744  24582336.243    24582342.002
 02  1  6  3  5  0.0000000  0  8G22G13G27G 1G 2G25G20G31
 -19713087.84649 -15360851.24846  21145549.020    21145552.252
 -20701113.49849 -16130734.54147  21075070.451    21075070.870
  -6398434.04248  -4985803.00945  23342812.924    23342815.017
 -25532759.73549 -19895651.74847  20237685.559    20237687.810
  -1476594.56748  -1150592.00244  23772260.869    23772265.157
   -280295.65348                  25041046.474
 -11236345.56248  -8755606.43144  23218731.533    23218734.359
  -2741967.02748  -2136587.81444  24562140.498    24562147.527
 02  1  6  3  5 30.0000000  0  8G22G13G27G 1G 2G25G20G31
 -19638652.76549 -15302849.98946  21159713.867    21159716.903
 -20759725.16649 -16176406.02147  21063917.455    21063917.815
  -6471879.29148  -5043033.05245  23328836.565    23328838.622
 -25529238.67549 -19892908.11847  20238355.770    20238358.061
  -1567389.50148  -1221341.24944  23754983.278    23754988.267
   -196191.92048   -152903.31144  25057051.082    25057062.004
 -11132207.31548  -8674459.92044  23238548.519    23238553.032
  -2848121.47448  -2219305.48344  24541938.956    24541949.132
 02  1  6  3  6  0.0000000  0  8G22G13G27G 1G 2G25G20G31
 -19563789.37749 -15244514.98446  21173960.120    21173963.147
 -20817993.47849 -16221809.94547  21052829.103    21052829.414
  -6545233.21548  -5100191.93945  23314877.593    23314881.030
 -25525268.78549 -19889814.75247  20239111.467    20239113.671
  -1658001.33948                  23737739.900
   -112069.97748                  25073059.281
 -11027894.74548  -8593177.59244  23258399.342    23258405.388
  -2954301.69948  -2302043.28544  24521733.898    24521738.979
 02  1  6  3  6 30.0000000  0  8G22G13G27G 1G 2G25G20G31
 -19488499.92449 -15185847.97646  21188287.125    21188290.334
 -20875915.86449 -16266944.31847  21041806.805    21041807.221
  -6618495.06948  -5157279.07245  23300936.843    23300938.698
 -25520848.88149 -19886370.72747  20239952.640    20239954.742
  -1748428.58148  -1362410.58744  23720532.740    23720539.081
    -27929.77848                  25089070.826
 -10923410.56148  -8511761.52244  23278281.323    23278284.211
  -3060504.53148  -2384798.70744  24501524.145    24501534.322
 02  1  6  3  7  0.0000000  0  8G22G13G27G 1G 2G25G20G31
 -19412788.02949 -15126851.79946  21202694.628    21202697.643
 -20933491.31149 -16311808.35347  21030850.668    21030850.992
  -6691665.57648  -5214295.04345  23287012.217    23287015.477
 -25515978.81849 -19882575.93047  20240879.327    20240881.487
  -1838670.44248  -1432728.96544  23703360.123    23703363.672
     56227.55448                  25105085.933
 -10818758.61648  -8430214.70144  23298195.755    23298203.303
  -3166727.71648  -2467569.99544  24481310.789    24481317.921
 02  1  6  3  7 30.0000000  0  8G22G13G27G 1G 2G25G20G31
 -19336656.56249 -15067528.68346  21217181.829    21217185.398
 -20990717.83149 -16356400.49547  21019961.209    21019961.476
  -6764744.53549  -5271239.70045  23273106.830    23273109.594
 -25510658.09449 -19878429.96847  20241891.756    20241893.992
  -1928725.63448  -1502901.82544  23686222.968    23686229.197
    140401.53548                  25121103.618
 -10713942.03648  -8348539.62644  23318141.979    23318143.896
  -3272968.61648  -2550355.06844  24461094.135    24461104.561
 02  1  6  3  8  0.0000000  0  8G22G13G27G 1G 2G25G20G31
 -19260101.86349 -15007875.78546  21231750.093    21231753.263
 -21047587.05749 -16400714.22147  21009139.394    21009139.719
  -6837725.35149  -5328107.87945  23259219.095    23259221.877
 -25504879.37749 -19873927.13447  20242991.604    20242993.734
  -2018586.39948  -1572923.22144  23669123.982    23669128.183
    224598.09848                  25137125.877
 -10608957.55948  -8266733.76544  23338120.153    23338123.343
  -3379217.82048  -2633146.60244  24440875.494    24440885.422
 02  1  6  3  8 30.0000000  0  8G22G13G27G 1G 2G25G20G31
 -19183126.54549 -14947895.12846  21246397.749    21246400.912
 -21104096.70749 -16444747.76447  20998385.423    20998385.831
  -6910607.66348  -5384899.29245  23245348.405    23245350.406
 -25498641.80949 -19869066.75347  20244178.798    20244180.831
  -2108251.05948  -1642791.72544  23652060.351    23652067.516
    308817.40448                  25153152.049
 -10503807.98248  -8184799.17544  23358129.283    23358134.336
  -3485471.91548  -2715941.94044  24420655.785    24420662.522
 02  1  6  3  9  0.0000000  0  8G22G27G 1G 2G13G25G20G31
 -19105744.44649 -14887597.49946  21261123.572    21261126.680
  -6983402.61649  -5441622.67045  23231497.218    23231499.453
 -25491955.88049 -19863856.99847  20245451.061    20245453.153
  -2197729.69348  -1712515.33044  23635033.763    23635037.205
 -21160255.93249 -16488508.25047  20987699.387    20987699.748
    393047.83348                  25169181.581
 -10398507.73248  -8102747.23944  23378167.514    23378169.833
  -3591739.58348  -2798747.81644  24400433.837    24400444.262
 02  1  6  3  9 30.0000000  0  8G22G27G 1G 2G13G25G20G31
 -19027949.91249 -14826978.49946  21275927.472    21275930.636
  -7056101.34949  -5498271.06845  23217662.843    23217665.391
 -25484812.36349 -19858290.68147  20246810.421    20246812.530
  -2287012.05448  -1782085.99144  23618043.465    23618049.470
 -21216054.29149 -16531987.53547  20977081.371    20977081.783
    477297.51848                  25185214.415
 -10293051.04548  -8020573.37344  23398235.439    23398240.135
  -3698009.09948  -2881555.15644  24380211.095    24380218.115
 02  1  6  3 10  0.0000000  0  8G22G27G 1G 2G13G25G20G31
 -18949735.96349 -14766032.68646  21290811.186    21290814.218
  -7128693.76048  -5554836.62445  23203848.306    23203851.212
 -25477200.88549 -19852359.72147  20248258.787    20248260.989
  -2376087.25148  -1851495.22044  23601092.768    23601094.820
 -21271479.96749 -16575176.41847  20966533.656    20966534.243
    561575.76348                  25201252.004
 -10187431.52348                  23418334.328
  -3804267.73148  -2964354.00744  24359991.228    24359997.723
 02  1  6  3 10 30.0000000  0  8G22G27G 1G 2G13G25G20G31
 -18871126.04449 -14704778.32546  21305770.086    21305773.249
  -7201200.41449  -5611335.34945  23190052.195    23190054.219
 -25469141.44349 -19846079.69747  20249792.672    20249794.853
  -2464974.68348  -1920758.15945  23584178.054    23584180.577
 -21326551.89849 -16618089.65547  20956054.066    20956054.551
    645861.88148                  25217291.477
 -10081672.68048  -7855863.34244  23438459.521    23438463.311
  -3910533.33148  -3047158.25344  24339769.200    24339772.433
 02  1  6  3 11  0.0000000  0  8G22G27G 1G 2G13G25G20G31
 -18792115.70849 -14643211.95446  21320805.625    21320808.516
  -7273613.94949  -5667761.54245  23176271.853    23176274.986
 -25460626.21649 -19839444.51647  20251413.033    20251415.304
  -2553665.73648  -1989868.07844  23567301.177    23567305.332
 -21381260.78749 -16660720.00247  20945643.209    20945643.772
    730162.72748                  25233333.205
  -9975770.60348                  23458612.426
  -4016795.77448  -3129960.06444  24319547.899    24319555.454
 02  1  6  3 11 30.0000000  0  8G22G27G 1G 2G13G25G20G31
 -18712697.41749 -14581327.69246  21335918.411    21335921.580
  -7345923.74348  -5724106.87745  23162510.728    23162514.081
 -25451644.01049 -19832445.45647  20253122.341    20253124.547
  -2642148.69448  -2058815.81544  23550463.198    23550467.997
 -21435594.87349 -16703058.29547  20935303.855    20935304.371
    814488.19948                  25249380.368
  -9869717.75048                  23478793.334
  -4123041.51548  -3212748.84444  24299329.899    24299337.140
 02  1  6  3 12  0.0000000  0  8G22G27G 1G 2G13G25G20G31
 -18632865.16749 -14519120.87546  21351110.058    21351113.085
  -7418120.82949  -5780364.40045  23148773.965    23148775.181
 -25442185.57349 -19825075.30647  20254922.332    20254924.553
  -2730413.58348  -2127593.67744  23533667.155    23533672.371
 -21489542.69649 -16745095.59847  20925037.813    20925038.374
    898846.87648                  25265433.025
  -9763508.91548                  23499004.119
  -4229258.90648  -3295515.51344  24279117.012    24279125.699
 02  1  6  3 12 30.0000000  0  8G22G27G 1G 2G13G25G20G31
 -18552654.43149 -14456619.13246  21366373.605    21366376.825
  -7490237.46648  -5836559.21445  23135048.941    23135051.526
 -25432282.81749 -19817358.93347  20256806.832    20256808.942
  -2818491.50748  -2196225.82544  23516905.678    23516915.110
 -21543134.83249 -16786855.74047  20914839.715    20914840.196
    983206.12148                  25281487.167
  -9657179.39948                  23519238.691
  -4335477.53948  -3378283.12744  24258904.683    24258912.378
 02  1  6  3 13  0.0000000  0  8G22G27G 1G 2G13G25G20G31
 -18472054.24649 -14393813.93446  21381711.668    21381714.862
  -7562259.94249  -5892680.66045  23121344.443    23121347.523
 -25421921.46749 -19809285.21847  20258778.765    20258780.660
  -2906367.65748  -2264700.69044  23500184.063    23500188.952
 -21596356.03849 -16828326.85047  20904711.928    20904712.414
   1067579.00448                  25297542.127
  -9550718.57548                  23539496.940
  -4441680.76348  -3461038.74344  24238695.019    24238703.706
 02  1  6  3 13 30.0000000  0  8G22G27G 1G 2G13G25G20G31
 -18391065.22349 -14330705.73946  21397123.426    21397126.569
  -7634185.54349  -5948726.64945  23107658.207    23107660.393
 -25411098.54349 -19800851.83747  20260838.392    20260840.543
  -2994038.50848  -2333015.63545  23483500.690    23483506.301
 -21649202.09449 -16869505.63447  20894655.907    20894656.386
   1151967.31948                  25313601.222
  -9444127.14848  -7359075.70044  23559781.141    23559786.318
  -4547863.15748                  24218489.017
 02  1  6  3 14  0.0000000  0  8G22G27G 1G 2G13G25G20G31
 -18309691.62949 -14267297.88646  21412608.268    21412611.486
  -7706015.62548  -6004698.20645  23093987.482    23093991.261
 -25399814.94249 -19792059.48447  20262985.399    20262987.584
  -3081504.31948  -2401170.78044  23466856.714    23466859.813
 -21701672.50349 -16910391.70847  20884671.009    20884671.540
   1236369.40448                  25329663.317
  -9337410.02648  -7275919.71644  23580089.320    23580097.511
  -4654023.22548  -3626500.08744  24198287.075    24198290.971
 02  1  6  3 14 30.0000000  0  8G22G27G 1G 2G13G25G20G31
 -18227939.52749 -14203595.09146  21428165.683    21428168.761
  -7777753.27149  -6060597.70145  23080337.918    23080340.067
 -25388073.35049 -19782910.25347  20265219.749    20265221.886
  -3168766.96948  -2469167.60444  23450250.941    23450255.541
 -21753768.61149 -16950986.11947  20874757.690    20874758.155
   1320781.63748                  25345725.927
  -9230573.47548  -7192670.67044  23600419.296    23600423.688
  -4760161.14548                  24178089.351
 02  1  6  3 15  0.0000000  0  8G22G27G 1G 2G13G25G20G31
 -18145808.74949 -14139597.22546  21443794.586    21443797.663
  -7849395.17049  -6116422.61545  23066705.232    23066707.644
 -25375870.38449 -19773401.51047  20267542.164    20267544.358
  -3255822.20348  -2537002.81345  23433685.281    23433690.135
 -21805485.44549 -16991284.99347  20864916.038    20864916.636
   1405206.84648                  25361791.780
  -9123617.32248                  23620773.117
  -4866270.87848  -3791887.49544  24157897.701    24157902.939
 02  1  6  3 15 30.0000000  0  8G22G27G 1G 2G13G25G20G31
 -18063305.44149 -14075309.07346  21459494.415    21459497.630
  -7920944.60848  -6172175.46246  23053087.779    23053091.154
 -25363208.88049 -19763535.46747  20269951.594    20269953.725
  -3342672.27448  -2604678.13045  23417157.905    23417163.989
 -21856824.46949 -17031289.46747  20855146.626    20855147.344
   1489641.37848                  25377860.114
  -9016548.16148  -7025898.11344  23641147.244    23641152.211
  -4972353.02248  -3874548.70944  24137710.457    24137716.639
 02  1  6  3 16  0.0000000  0  8G22G27G 1G 2G13G25G20G31
 -17980426.91549 -14010728.54846  21475265.589    21475268.833
  -7992395.76749  -6227851.72246  23039493.414    23039494.123
 -25350082.60749 -19753307.26947  20272449.526    20272451.670
  -3429310.37848  -2672188.25945  23400671.077    23400676.687
 -21907778.36849 -17070993.84547  20845450.615    20845451.204
   1574090.45348                  25393930.168
  -8909363.49348  -6942377.78744  23661545.010    23661549.125
  -5078398.96248  -3957181.71944  24117530.107    24117536.501
 02  1  6  3 16 30.0000000  0  8G22G27G 1G 2G13G25G20G31
 -17897172.00749 -13945854.73746  21491108.726    21491112.192
  -8063744.46549  -6283448.14545  23025915.473    23025917.467
 -25336487.17049 -19742713.48847  20275036.762    20275038.917
  -3515731.24548  -2739529.12245  23384226.178    23384229.898
 -21958341.04949 -17110393.37547  20835829.043    20835829.613
   1658557.67348                  25410003.819
  -8802062.53948  -6858766.84744  23681963.090    23681971.778
  -5184401.66448  -4039780.97944  24097358.512    24097368.689
 02  1  6  3 17  0.0000000  0  8G22G27G 1G 2G13G25G20G31
 -17813548.54749 -13880693.74046  21507021.893    21507025.506
  -8134995.54749  -6338968.49146  23012356.143    23012359.697
 -25322427.14249 -19731757.68847  20277712.226    20277714.562
  -3601938.50648  -2806703.52545  23367820.808    23367825.612
 -22008515.51649 -17149490.40547  20826281.205    20826281.761
   1743037.81448                  25426080.091
  -8694653.37848  -6775071.64844  23702403.352    23702407.101
  -5290362.88848  -4122347.98644  24077194.292    24077202.483
 02  1  6  3 17 30.0000000  0  8G22G27G 1G 2G13G25G20G31
 -17729556.02249 -13815245.15746  21523005.229    21523008.695
  -8206145.34449  -6394409.91945  22998818.109    22998818.751
 -25307898.71349 -19720436.90047  20280476.992    20280479.210
  -3687927.72248  -2873708.01645  23351457.866    23351464.660
 -22058296.78649 -17188281.04847  20816807.755    20816808.431
   1827534.04948   1424019.90844  25442159.722    25442161.690
  -8587135.37348  -6691291.57544  23722862.601    23722870.119
  -5396276.43548  -4204877.80044  24057041.158    24057045.676
 02  1  6  3 18  0.0000000  0  8G22G27G 1G 2G13G25G20G31
 -17645205.40249 -13749517.53646  21539056.662    21539060.271
  -8277201.64949  -6449778.50646  22985296.067    22985298.038
 -25292909.38449 -19708756.97047  20283329.516    20283331.549
  -3773705.62048  -2940547.84545  23335134.398    23335140.248
 -22107690.98549 -17226770.08047  20807408.616    20807409.426
   1912037.55948   1489870.19046  25458239.898    25458244.044
  -8479519.85748  -6607435.55444  23743341.531    23743344.699
  -5502147.28748  -4287374.39444  24036892.611    24036899.289
 02  1  6  3 18 30.0000000  0  7G22G27G 1G 2G13G25G20
 -17560470.35149 -13683490.36346  21555181.124    21555185.083
  -8348135.05749  -6505051.31446  22971797.239    22971800.407
 -25277429.51949 -19696694.80447  20286275.146    20286277.374
  -3859241.98748  -3007199.50845  23318858.042    23318863.670
 -22156666.66749 -17264932.99547  20798088.869    20798089.501
   1996577.56848   1555741.10144  25474327.838    25474330.161
  -8371780.75548  -6523483.22144  23763843.958    23763847.761
 02  1  6  3 19  0.0000000  0  7G22G27G 1G 2G13G25G20
 -17475383.91149 -13617189.37646  21571373.082    21571376.468
  -8418975.79049  -6560251.90246  22958317.608    22958319.729
 -25261488.99149 -19684273.68047  20289308.581    20289310.800
  -3944565.81348  -3073685.54345  23302621.055    23302625.499
 -22205252.86149 -17302792.41147  20788843.317    20788843.946
   2081123.36748                  25490416.640
  -8263951.47848  -6439460.61844  23784363.388    23784370.935
 02  1  6  3 19 30.0000000  0  7G22G27G 1G 2G13G25G20
 -17389945.95349 -13550614.48546  21587631.534    21587635.143
  -8489720.74449  -6615377.89246  22944854.825    22944857.537
 -25245084.44149 -19671490.98147  20292430.340    20292432.508
  -4029673.04748  -3140002.81545  23286425.360    23286430.792
 -22253444.26849 -17340344.20247  20779672.833    20779673.429
   2165677.61848                  25506506.646
  -8156031.88948  -6355367.62144  23804899.989    23804903.199
 02  1  6  3 20  0.0000000  0  7G22G27G 1G 2G13G25G20
 -17304146.77849 -13483758.12846  21603958.475    21603962.358
  -8560356.99049  -6670419.16246  22931413.238    22931416.409
 -25228203.03749 -19658336.71047  20295642.622    20295644.915
  -4114549.89548  -3206140.53445  23270273.974    23270278.927
 -22301226.65049 -17377577.27347  20770579.985    20770580.689
   2250252.43748                  25522600.681
  -8048012.71648  -6271197.06944  23825455.034    23825461.845
 02  1  6  3 20 30.0000000  0  6G22G27G 2G 1G13G20
 -17217986.99449 -13416620.77646  21620354.085    21620357.904
  -8630882.05449  -6725373.78946  22917993.268    22917995.604
  -4199193.04548  -3272096.20545  23254166.761    23254170.722
 -25210842.00149 -19644808.69847  20298946.326    20298948.732
 -22348595.85749 -17414488.38847  20761566.335    20761566.802
  -7939894.63948  -6186949.43844  23846029.981    23846033.560
 02  1  6  3 21  0.0000000  0  6G22G27G 1G 2G13G20
 -17131492.88949 -13349222.91146  21636813.533    21636817.185
  -8701318.99249  -6780259.75346  22904588.869    22904591.962
 -25193024.54849 -19630925.03747  20302337.269    20302339.626
  -4283624.65648  -3337887.02845  23238100.104    23238105.182
 -22395573.46249 -17451094.36547  20752626.872    20752627.271
  -7831704.25248  -6102645.43644  23866617.335    23866628.256
 02  1  6  3 21 30.0000000  0  7G22G27G 1G 2G13G31G20
 -17044667.27449 -13281566.73146  21653336.182    21653340.202
  -8771667.50549  -6835076.80246  22891202.253    22891205.342
 -25174750.17049 -19616685.33347  20305814.792    20305817.134
  -4367843.53148  -3403512.08545  23222073.802    23222078.347
 -22442157.74449 -17487393.85447  20743762.138    20743762.606
         -.47858          .66254  23896198.630    23896206.821
  -7723444.52448  -6018287.48644  23887219.494    23887229.175
 02  1  6  3 22  0.0000000  0  7G22G27G 1G 2G13G31G20
 -16957506.66049 -13213649.52846  21669922.241    21669926.019
  -8841921.28749  -6889820.05146  22877833.913    22877836.234
 -25156012.31049 -19602084.47647  20309380.517    20309382.906
  -4451842.30048  -3468965.62545  23206088.885    23206094.042
 -22488340.35049 -17523380.35047  20734973.922    20734974.466
   -105372.31748    -82107.10044  23876145.852    23876152.848
  -7615112.13348  -5933872.85844  23907833.785    23907839.858
 02  1  6  3 22 30.0000000  0  8G22G27G 1G 2G13G31G20G 8
 -16869994.78749 -13145458.60946  21686575.425    21686579.884
  -8912060.96849  -6944474.36246  22864486.170    22864489.529
 -25136791.45849 -19587107.26047  20313037.988    20313040.396
  -4535600.92348  -3534232.02245  23190150.398    23190155.108
 -22534100.41049 -17559037.58847  20726266.342    20726266.725
   -210655.10048   -164145.50244  23856111.928    23856118.618
  -7506691.10348  -5849389.18344  23928466.226    23928470.564
         -.72958                  25075618.538
 02  1  6  3 23  0.0000000  0  8G22G27G 1G 2G13G31G20G 8
 -16782136.84449 -13076998.03046  21703294.250    21703298.573
  -8982088.54049  -6999041.32746  22851160.485    22851163.423
 -25117089.50649 -19571755.16447  20316787.385    20316789.947
  -4619120.27648  -3599312.02845  23174257.553    23174261.753
 -22579438.30249 -17594365.85447  20717638.675    20717639.163
   -315848.01648   -246113.88244  23836094.101    23836101.309
  -7398186.73848  -5764840.55544  23949114.282    23949117.396
    -93005.83548                  25057919.571
 02  1  6  3 23 30.0000000  0  7G22G27G 1G 2G13G31G20
 -16693937.20449 -13008271.20146  21720078.304    21720082.226
  -9052005.26649  -7053521.93446  22837855.835    22837858.753
 -25096907.73049 -19556029.17347  20320627.822    20320630.235
  -4702400.86348  -3664205.99645  23158408.910    23158415.430
 -22624354.06849 -17629365.19847  20709091.526    20709092.076
   -420949.55148   -328011.06344  23816093.372    23816101.155
  -7289603.58448  -5680230.57744  23969777.006    23969780.880
 02  1  6  3 24  0.0000000  0  8G22G27G 1G 2G13G31G20G 8
 -16605411.13649 -12939290.01046  21736924.315    21736928.331
  -9121823.18149  -7107925.53746  22824569.108    22824572.211
 -25076258.30149 -19539938.77847  20324557.164    20324559.724
  -4785453.96848  -3728922.70845  23142605.233    23142609.575
 -22668857.99649 -17664043.62847  20700622.675    20700623.362
   -525969.01148   -409844.32044  23796109.321    23796116.711
  -7180957.06348  -5595571.20044  23990452.041    23990457.993
         -.59458                  25022540.094
 02  1  6  3 24 30.0000000  0  7G22G27G 1G 2G13G31G20
 -16516562.35949 -12870057.35746  21753831.607    21753836.579
  -9191543.36449  -7162252.99446  22811303.067    22811305.991
 -25055142.05849 -19523484.63547  20328575.505    20328578.159
  -4868279.52248  -3793462.08645  23126843.748    23126848.810
 -22712949.33749 -17698400.56247  20692232.395    20692232.928
   -630904.17948   -491611.91444  23776141.446    23776145.940
  -7072251.20748  -5510865.60544  24011138.357    24011148.533
 02  1  6  3 25  0.0000000  0  8G22G27G 1G 2G13G31G20G 8
 -16427391.54049 -12800573.76246  21770800.309    21770804.547
  -9261163.19349  -7216502.26446  22798054.961    22798058.032
 -25033556.42849 -19506664.73847  20332683.313    20332685.835
  -4950874.13748  -3857821.47945  23111125.984    23111131.023
 -22756624.01249 -17732432.82147  20683921.356    20683921.995
   -735749.85248   -573309.77545  23756189.055    23756195.190
  -6963486.81348  -5426114.36844  24031835.923    24031839.105
         -.29958                  24987177.824
 02  1  6  3 25 30.0000000  0  8G22G27G 1G 2G13G31G20G 8
 -16337918.82049 -12730854.92446  21787827.107    21787830.875
  -9330699.62149  -7270686.53946  22784821.736    22784824.816
 -25011518.58149 -19489492.46147  20336877.014    20336879.626
  -5033254.09148  -3922013.62645  23095450.329    23095454.887
 -22799897.45749 -17766152.43747  20675686.521    20675687.326
   -840520.18148   -654948.92645  23736252.141    23736257.568
  -6854684.37648  -5341333.50144  24052540.307    24052546.742
    -92901.57448                  24969498.223
 02  1  6  3 26  0.0000000  0  8G27G 1G22G 2G13G31G20G 8
  -9400125.42549  -7324784.61246  22771611.502    22771614.376
 -24989001.24349 -19471946.55647  20341161.862    20341164.608
 -16248120.04149 -12660882.01746  21804914.464    21804919.366
  -5115391.35748  -3986016.63945  23079819.415    23079823.082
 -22842741.07549 -17799537.12347  20667533.936    20667534.793
   -945185.02048   -736505.91045  23716335.052    23716340.880
  -6745819.74348  -5256504.20744  24073256.969    24073260.320
   -185769.77448                  24951825.749
 02  1  6  3 26 30.0000000  0  8G27G 1G22G 2G13G31G20G 8
  -9469436.46549  -7378793.26446  22758421.272    22758424.693
 -24966000.27949 -19454023.80247  20345538.683    20345541.544
 -16157994.27549 -12590654.31446  21822065.961    21822070.292
  -5197281.12348  -4049826.82445  23064236.570    23064242.494
 -22885149.26849 -17832582.51147  20659464.025    20659464.579
  -1049737.16148   -817975.10745  23696439.711    23696445.848
  -6636892.04448  -5171625.75244  24093985.017    24093991.907
   -278600.48648                  24934161.282
 02  1  6  3 27  0.0000000  0  8G27G 1G22G 2G13G31G20G 8
  -9538632.97749  -7432712.66946  22745253.606    22745257.211
 -24942516.00749 -19435724.44247  20350007.550    20350010.457
 -16067544.61749 -12520174.21846  21839277.304    21839281.405
  -5278922.79148  -4113443.69045  23048700.685    23048705.388
 -22927120.81349 -17865287.66147  20651477.382    20651478.055
  -1154174.09548   -899354.53045  23676566.259    23676570.687
  -6527904.75548  -5086700.83844  24114725.456    24114732.790
   -371393.86648                  24916502.235
 02  1  6  3 27 30.0000000  0  8G27G 1G22G 2G13G31G20G 8
  -9607739.03949  -7486561.60646  22732103.948    22732106.907
 -24918572.62149 -19417067.33247  20354563.906    20354566.949
 -15976798.28749 -12449462.96946  21856546.141    21856550.988
  -5360339.59248  -4176885.34445  23033207.928    23033211.542
 -22968678.15149 -17897670.05247  20643569.071    20643569.719
  -1258517.13848   -980660.81145  23656710.360    23656716.330
  -6418885.13148  -5001750.78544  24135470.626    24135476.909
   -464174.11648                  24898848.343
 02  1  6  3 28  0.0000000  0  8G27G 1G22G 2G13G31G20G 8
  -9676742.24949  -7540330.38646  22718972.634    22718975.963
 -24894157.76749 -19398042.84447  20359209.909    20359212.902
 -15885746.10549 -12378513.38046  21873873.121    21873877.839
  -5441518.27948  -4240141.45445  23017759.451    23017764.775
 -23009807.11649 -17929718.65047  20635742.310    20635743.084
  -1362750.93148  -1061881.98145  23636875.232    23636881.254
  -6309824.38748  -4916768.62044  24156224.812    24156232.172
   -556928.67648                  24881196.716
 02  1  6  3 28 30.0000000  0  8G27G 1G22G 2G13G31G20G 8
  -9745638.80749  -7594016.05446  22705861.355    22705864.996
 -24869267.76949 -19378648.11247  20363946.605    20363949.477
 -15794387.26249 -12307324.84246  21891257.966    21891263.044
  -5522454.13749  -4303208.34545  23002358.724    23002363.042
 -23050502.37149 -17961429.28547  20627998.292    20627998.942
  -1466868.70948  -1143012.74745  23617062.521    23617068.812
  -6200721.70448  -4831753.82144  24176986.649    24176992.148
   -649653.66248                  24863551.594
 02  1  6  3 29  0.0000000  0  8G27G 1G22G 2G13G31G20G 8
  -9814415.31849  -7647608.16346  22692774.406    22692777.433
 -24843889.50049 -19358872.91147  20368775.945    20368778.821
 -15702711.36449 -12235889.24946  21908703.531    21908708.550
  -5603132.97848  -4366074.96645  22987005.636    22987009.791
 -23090749.18849 -17992790.49147  20620339.678    20620340.258
  -1570854.17548  -1224040.40745  23597274.545    23597279.907
  -6091566.92748  -4746698.42144  24197758.120    24197761.950
   -742335.45548                  24845916.298
 02  1  6  3 29 30.0000000  0  8G27G 1G22G 2G13G31G20G 8
  -9883078.65749  -7701112.07246  22679708.373    22679711.412
 -24818030.20949 -19338722.88647  20373696.953    20373699.809
 -15610728.54349 -12164214.49446  21926207.333    21926211.872
  -5683561.10548  -4428746.23146  22971701.020    22971704.701
 -23130553.36549 -18023806.77747  20612765.634    20612766.242
  -1674711.44548  -1304968.18045  23577511.846    23577517.794
  -5982370.36948  -4661610.47244  24218537.292    24218544.246
   -834981.04048                  24828285.312
 02  1  6  3 30  0.0000000  0  8G27G 1G22G 2G13G31G20G 8
  -9951640.84349  -7754537.17946  22666660.887    22666664.332
 -24791701.84349 -19318207.35147  20378707.067    20378710.144
 -15518453.90349 -12092312.35546  21943766.862    21943771.590
  -5763749.77548  -4491230.89945  22956440.602    22956446.114
 -23169925.19649 -18054486.16647  20605273.296    20605273.833
  -1778449.58248  -1385803.15145  23557770.676    23557776.799
  -5873147.28548  -4576501.87644  24239322.763    24239329.690
   -927602.66148                  24810660.426
 02  1  6  3 30 30.0000000  0  8G27G 1G22G 2G13G31G20G 8
 -10020095.04149  -7807878.11146  22653634.796    22653638.013
 -24764897.77049 -19297321.13547  20383807.817    20383810.761
 -15425883.83249 -12020180.02246  21961382.483    21961387.260
  -5843691.75448  -4553523.34145  22941229.231    22941233.401
 -23208856.53249 -18084822.31647  20597864.703    20597865.270
  -1882059.17548  -1466537.92745  23538054.161    23538059.996
  -5763894.30448  -4491369.92144  24260112.596    24260119.754
  -1020193.18448                  24793040.811
 02  1  6  3 31  0.0000000  0  8G27G 1G22G 2G13G31G20G 8
 -10088446.40349  -7861138.93746  22640627.576    22640630.778
 -24737623.30649 -19276068.38347  20388998.142    20389001.119
 -15333026.35149 -11947823.72746  21979052.896    21979058.247
  -5923391.29648  -4615626.86545  22926062.134    22926067.409
 -23247350.88349 -18114817.96147  20590539.564    20590540.145
  -1985542.25348  -1547174.13345  23518362.199    23518369.261
  -5654619.40448  -4406220.95844  24280907.187    24280916.867
  -1112757.70348                  24775426.570
 02  1  6  3 31 30.0000000  0  8G27G 1G22G 2G13G31G20G 8
 -10156689.86549  -7914315.68746  22627641.175    22627644.425
 -24709873.54249 -19254445.26147  20394278.984    20394281.914
 -15239879.42149 -11875241.90846  21996778.085    21996782.727
  -6002842.54248  -4677536.90646  22910943.363    22910947.892
 -23285401.62949 -18144467.93347  20583298.944    20583299.527
  -2088890.72248  -1627705.43445  23498695.421    23498701.879
  -5545320.88948  -4321053.60644  24301706.801    24301713.947
  -1205291.11848                  24757818.097
 02  1  6  3 32  0.0000000  0  8G27G 1G22G 2G13G31G20G 8
 -10224816.73149  -7967401.60246  22614678.238    22614681.015
 -24681640.24649 -19232445.36647  20399651.404    20399654.419
 -15146437.61949 -11802430.30246  22014559.925    22014565.253
  -6082036.22648  -4739246.24045  22895872.978    22895878.056
 -23322998.97449 -18173764.60847  20576144.538    20576145.089
  -2192093.07748  -1708122.87445  23479057.337    23479062.378
  -5435993.41048  -4235863.62944  24322510.456    24322517.002
  -1297784.94048                  24740217.006
 02  1  6  3 32 30.0000000  0  8G27G 1G22G 2G13G31G20G 8
 -10292823.66549  -8020394.05546  22601736.653    22601739.661
 -24652920.30849 -19210066.27047  20405116.483    20405119.573
 -15052700.58549 -11729388.66746  22032397.608    22032402.459
  -6160968.21049  -4800751.67445  22880853.217    22880857.147
 -23360138.28149 -18202704.37047  20569077.369    20569077.868
  -2295143.02048  -1788421.53945  23459446.771    23459452.995
  -5326636.75748  -4150650.94644  24343321.408    24343328.713
  -1390235.60848                  24722624.380
 02  1  6  3 33  0.0000000  0  8G27G 1G22G 2G13G31G20G 8
 -10360725.87149  -8073304.90046  22588814.925    22588818.086
 -24623729.37549 -19187320.16547  20410671.462    20410674.552
 -14958686.76549 -11656131.34146  22050288.224    22050292.780
  -6239652.97548  -4862064.46046  22865879.522    22865884.344
 -23396833.16549 -18231297.82547  20562094.467    20562095.034
  -2398052.89448  -1868611.05545  23439864.180    23439870.824
  -5217269.41748  -4065429.95144  24364132.451    24364138.283
  -1482658.18248                  24705036.469
 02  1  6  3 33 30.0000000  0  8G27G 1G22G 2G13G31G20G 8
 -10428533.42349  -8126141.99946  22575911.875    22575914.898
 -24594077.63449 -19164214.98447  20416314.316    20416317.344
 -14864409.21149 -11582668.52646  22068228.582    22068234.677
  -6318100.08649  -4923192.05446  22850951.676    22850956.173
 -23433092.48849 -18259551.88847  20555194.145    20555194.809
  -2500830.09648  -1948697.20345  23420306.288    23420312.469
  -5107904.70148  -3980210.99544  24384945.211    24384955.388
  -1575062.94648                  24687453.066
 02  1  6  3 34  0.0000000  0  8G27G 1G22G 2G13G31G20G 8
 -10496247.35849  -8178906.16246  22563026.151    22563029.513
 -24563966.58049 -19140751.89647  20422044.364    20422047.392
 -14769872.06349 -11509003.43146  22086218.625    22086223.493
  -6396310.01949  -4984134.84045  22836068.694    22836073.561
 -23468915.90049 -18287466.27947  20548377.553    20548378.272
  -2603472.49248  -2028678.25645  23400774.013    23400781.325
  -4998547.17748                  24405754.775
  -1667451.00548                  24669871.739
 02  1  6  3 34 30.0000000  0  8G27G 1G22G 2G13G31G20G 8
 -10563847.97249  -8231582.02246  22550162.393    22550165.570
 -24533376.93349 -19116915.87747  20427865.173    20427868.270
 -14675058.95649 -11435123.29046  22104261.316    22104266.130
  -6474262.44449  -5044876.98946  22821235.142    22821239.216
 -23504282.61949 -18315024.81047  20541647.524    20541648.325
  -2705957.78748  -2108536.92645  23381272.051    23381277.657
  -4889180.17848                  24426567.551
  -1759802.49748                  24652298.649
 02  1  6  3 35  0.0000000  0  8G27G 1G22G 2G13G31G20G 8
 -10631333.97549  -8284168.58746  22537320.253    22537323.794
 -24502307.96749 -19092706.36447  20433777.300    20433780.413
 -14579971.53749 -11361029.42046  22122356.053    22122361.894
  -6551955.43649  -5105416.98746  22806450.450    22806455.210
 -23539189.78649 -18342225.24847  20535004.838    20535005.474
  -2808281.66648  -2188269.77045  23361799.637    23361807.350
  -4779805.67048                  24447380.048
  -1852116.00448                  24634731.317
 02  1  6  3 35 30.0000000  0  8G27G 1G22G 2G13G31G20G 8
 -10698699.47249  -8336661.24246  22524501.004    22524503.878
 -24470754.04349 -19068118.96547  20439782.155    20439785.266
 -14484606.98749 -11286719.59546  22140502.963    22140508.146
  -6629382.58849  -5165749.83946  22791716.574    22791721.052
 -23573629.97749 -18369061.81447  20528451.071    20528451.729
  -2910435.58548  -2267870.18945  23342361.133    23342367.994
  -4670421.04748                  24468196.037
  -1944385.98948                  24617172.461
 02  1  6  3 36  0.0000000  0  8G27G 1G22G 2G13G31G20G 8
 -10765943.57249  -8389059.28846  22511704.929    22511708.018
 -24438714.56449 -19043153.21447  20445879.404    20445882.293
 -14388967.53249 -11212195.55746  22158702.888    22158708.264
  -6706542.41449  -5225874.37946  22777033.669    22777038.062
 -23607601.53549 -18395533.21047  20521986.414    20521987.219
  -3012415.77048  -2347335.23245  23322954.420    23322961.674
  -4561028.71448                  24489012.796
  -2036611.41148                  24599623.269
 02  1  6  3 36 30.0000000  0  8G27G 1G22G 2G13G31G20G 8
 -10833074.37449  -8441369.05246  22498930.592    22498933.730
 -24406197.92049 -19017815.64247  20452067.034    20452070.106
 -14293064.39249 -11137466.06446  22176952.878    22176959.024
  -6783442.43649  -5285796.48046  22762400.168    22762405.093
 -23641110.81949 -18421644.38647  20515609.947    20515610.733
  -3114227.19548  -2426668.76045  23303580.480    23303587.013
  -4451639.85448                  24509829.107
  -2128800.24548                  24582080.165
 02  1  6  3 37  0.0000000  0  8G27G 1G22G 2G13G31G20G 8
 -10900099.34649  -8493596.34246  22486176.221    22486179.141
 -24373212.07349 -18992112.45847  20458343.759    20458346.920
 -14196908.19049 -11062539.37746  22195251.082    22195255.907
  -6860089.72249  -5345521.62146  22747814.500    22747819.078
 -23674164.19449 -18447400.31247  20509320.172    20509321.176
  -3215874.49248  -2505874.37745  23284237.716    23284244.007
  -4342265.47348                  24530642.814
  -2220960.06848                  24564542.444
 02  1  6  3 37 30.0000000  0  8G27G 1G22G 2G13G31G20G 8
 -10967007.86549  -8545732.90246  22473443.180    22473446.469
 -24339746.89549 -18966035.76947  20464712.228    20464715.381
 -14100491.18049 -10987409.46446  22213598.582    22213604.718
  -6936472.94849  -5405041.03546  22733279.525    22733283.071
 -23706749.51449 -18472791.51447  20503119.438    20503120.206
  -3317344.41848  -2584941.80645  23264928.235    23264935.230
  -4232897.93448                  24551454.571
  -2313080.09748                  24547013.835
 02  1  6  3 38  0.0000000  0  8G27G 1G22G 2G13G31G20G 8
 -11033814.29849  -8597789.89746  22460731.266    22460734.329
 -24305817.56049 -18939597.39947  20471168.775    20471171.855
 -14003831.07549 -10912090.12346  22231992.559    22231998.707
  -7012606.09449  -5464365.57046  22718791.318    22718796.437
 -23738880.51049 -18497828.70347  20497005.241    20497006.013
  -3418648.57048  -2663880.06845  23245650.839    23245657.589
  -4123555.13948                  24572262.264
  -2405174.92048                  24529486.989
 02  1  6  3 38 30.0000000  0  8G27G 1G22G 2G13G31G20G 8
 -11100508.07649  -8649759.12646  22448039.776    22448042.903
 -24271414.05549 -18912789.55047  20477715.597    20477718.711
 -13906920.37149 -10836575.50346  22250434.427    22250439.934
  -7088477.88549  -5523486.45546  22704353.411    22704358.234
 -23770545.41749 -18522502.70847  20490979.610    20490980.510
  -3519773.32348  -2742678.52645  23226407.392    23226413.307
  -4014229.58948                  24593066.999
  -2497233.84248  -1945897.57244  24511970.614    24511973.127
 02  1  6  3 39  0.0000000  0  8G27G 1G22G 2G13G31G20G 8
 -11167083.97049  -8701636.50446  22435370.455    22435373.649
 -24236531.50349 -18885608.42147  20484353.753    20484356.845
 -13809756.77049 -10760863.83146  22268924.620    22268930.164
  -7164082.32049  -5582398.99846  22689966.265    22689971.336
 -23801737.31449 -18546808.13247  20485044.106    20485044.818
  -3620710.30648  -2821330.69645  23207199.841    23207206.117
  -3904919.06148                  24613867.847
  -2589251.70048  -2017599.92844  24494458.985    24494461.287
 02  1  6  3 39 30.0000000  0  8G27G 1G22G 2G13G31G20G 8
 -11233546.39149  -8753425.45046  22422723.632    22422726.744
 -24201174.93349 -18858057.93047  20491081.882    20491085.037
 -13712347.70949 -10684960.89346  22287460.466    22287466.331
  -7239423.51649  -5641106.40546  22675629.562    22675635.100
 -23832459.33149 -18570747.41547  20479198.049    20479198.676
  -3721461.27748  -2899837.89945  23188027.464    23188034.574
  -3795631.35548  -2957664.03044  24634665.236    24634674.420
  -2681232.67448  -2089273.46344  24476955.792    24476964.231
 02  1  6  3 40  0.0000000  0  8G27G 1G22G 2G13G31G20G 8
 -11299897.19849  -8805127.43446  22410097.588    22410100.638
 -24165346.78349 -18830139.97247  20497899.622    20497902.807
 -13614698.29549 -10608870.66246  22306042.730    22306047.967
  -7314502.93349  -5699609.83546  22661342.797    22661347.433
 -23862712.47449 -18594321.34947  20473441.021    20473441.778
  -3822025.11048  -2978199.30745  23168891.450    23168896.902
  -3686371.50848  -2872526.80044  24655456.454    24655466.135
  -2773178.66948  -2160919.81244  24459459.483    24459465.258
 02  1  6  3 40 30.0000000  0  8G27G 1G22G 2G13G31G20G 8
 -11366129.31249  -8856736.93846  22397493.783    22397496.987
 -24129040.55749 -18801849.48647  20504808.342    20504811.566
 -13516804.43349 -10532589.96046  22324671.969    22324678.695
  -7389313.13549  -5757903.48846  22647106.243    22647111.373
 -23892488.32049 -18617523.36247  20467774.614    20467775.467
  -3922391.92148  -3056407.18845  23149791.775    23149798.027
  -3577135.66948  -2787408.26344  24676243.854    24676254.279
  -2865082.78848  -2232533.32144  24441970.000    24441977.306
 02  1  6  3 41  0.0000000  0  8G27G 1G22G 2G13G31G20G 8
 -11432243.31849  -8908254.39246  22384912.868    22384915.745
 -24092257.46849 -18773187.41947  20511808.083    20511811.297
 -13418669.76149 -10456121.59446  22343346.689    22343353.296
  -7463854.35949  -5815987.55346  22632921.876    22632927.800
 -23921786.50149 -18640353.16247  20462199.458    20462200.273
  -4022559.42148  -3134459.77945  23130730.051    23130736.375
  -3467927.57048  -2702311.35344  24697025.502    24697032.845
  -2956945.46448  -2304114.67644  24424490.865    24424494.013
 02  1  6  3 41 30.0000000  0  8G27G 1G22G 2G13G31G20G 8
 -11498236.54449  -8959677.72946  22372354.744    22372357.950
 -24054995.50249 -18744152.20347  20518899.004    20518902.296
 -13320294.94149 -10379466.12646  22362066.486    22362073.000
  -7538123.33349  -5873859.47046  22618788.874    22618793.832
 -23950603.17849 -18662807.77447  20456716.001    20456716.959
  -4122522.13748  -3212352.80745  23111708.541    23111714.507
  -3358747.83148  -2617236.45644  24717801.929    24717808.276
  -3048764.30548  -2375661.87844  24407016.108    24407026.284
 02  1  6  3 42  0.0000000  0  8G27G 1G22G 2G13G31G20G 8
 -11564105.42749  -9011004.17246  22359820.384    22359823.296
 -24017251.88249 -18714741.67447  20526081.423    20526084.653
 -13221679.26049 -10302622.97746  22380832.738    22380838.899
  -7612115.81049  -5931515.94146  22604708.106    22604714.026
 -23978933.61249 -18684883.49647  20451325.200    20451326.064
  -4222273.65448  -3290081.27745  23092725.534    23092731.853
  -3249596.29048  -2532183.64944  24738573.112    24738581.551
  -3140535.67948  -2447172.07844  24389554.686    24389557.850
 02  1  6  3 42 30.0000000  0  8G27G 1G22G 2G13G31G20G 8
 -11629858.52849  -9062240.38346  22347308.014    22347310.887
 -23979035.58949 -18684962.82447  20533353.711    20533357.037
 -13122834.23248 -10225601.10146  22399641.736    22399649.047
  -7685840.00849  -5988963.37746  22590679.185    22590684.130
 -24006784.67249 -18706585.67447  20446025.394    20446026.292
  -4321819.67048  -3367649.59345  23073783.285    23073789.243
  -3140484.40148  -2447161.65944  24759336.458    24759343.864
  -3232267.91348  -2518651.81344  24372097.102    24372108.023
 02  1  6  3 43  0.0000000  0  8G27G 1G22G 2G13G31G20G 8
 -11695491.58249  -9113383.06546  22334817.990    22334821.241
 -23940343.07549 -18654812.89147  20540716.617    20540720.121
 -13023758.81348 -10148399.70546  22418495.663    22418501.547
  -7759291.31049  -6046198.14646  22576701.710    22576706.695
 -24034151.97449 -18727910.89947  20440817.461    20440818.391
  -4421153.01548  -3445052.23345  23054880.579    23054886.670
  -3031411.16148  -2362169.77244  24780092.743    24780103.664
  -3323956.96548  -2590097.84744  24354649.570    24354655.732
 02  1  6  3 43 30.0000000  0  8G27G 1G22G 2G13G31G20G 8
 -11761009.84049  -9164436.28846  22322350.521    22322354.150
 -23901180.49449 -18624296.67247  20548168.880    20548172.260
 -12924461.32248 -10071025.26946  22437391.474    22437398.565
  -7832474.77949  -6103224.22446  22562775.866    22562780.145
 -24061039.20049 -18748862.04047  20435700.774    20435701.933
  -4520276.37748  -3522291.21845  23036018.153    23036025.548
  -2922385.10948  -2277214.61944  24800839.981    24800847.375
  -3415608.08648  -2661514.36944  24337209.852    24337213.009
 02  1  6  3 44  0.0000000  0  8G27G 1G22G 2G13G31G20G 8
 -11826408.51149  -9215396.32646  22309906.137    22309909.188
 -23861543.81649 -18593411.02847  20555712.025    20555715.431
 -12824940.24048  -9993476.62746  22456329.878    22456336.300
  -7905385.09149  -6160037.45746  22548901.155    22548906.575
 -24087440.89849 -18769434.84847  20430676.761    20430677.895
  -4619181.90048  -3599360.47545  23017196.952    23017203.000
  -2813404.81248                  24821578.196
  -3507216.56448  -2732897.65744  24319776.451    24319784.642
 02  1  6  3 44 30.0000000  0  8G27G 1G22G 2G13G31G20G 8
 -11891693.89449  -9266268.10046  22297482.119    22297485.364
 -23821439.92949 -18562161.32847  20563343.544    20563346.930
 -12725204.72248  -9915760.85445  22475309.132    22475315.788
  -7978028.12949  -6216642.42746  22535078.066    22535082.952
 -24113361.95949 -18789633.13047  20425744.440    20425745.521
  -4717873.02048  -3676262.66945  22998415.858    22998421.815
  -2704479.65548                  24842306.218
  -3598788.64348  -2804252.61544  24302352.179    24302354.375
 02  1  6  3 45  0.0000000  0  8G27G 1G22G 2G13G31G20G 8
 -11956863.73449  -9317049.81846  22285081.026    22285084.501
 -23780867.20149 -18530546.29447  20571064.345    20571067.836
 -12625255.39948  -9837878.51946  22494328.807    22494336.445
  -8050401.16349  -6273036.98846  22521305.581    22521310.468
 -24138799.07549 -18809454.30747  20420903.983    20420905.065
  -4816344.43848  -3752993.65445  22979678.547    22979683.883
  -2595610.46348  -2022585.72944  24863023.488    24863028.513
  -3690321.84948  -2875577.23844  24284932.834    24284939.911
 02  1  6  3 45 30.0000000  0  8G27G 1G22G 2G13G31G20G 8
 -12021917.63849  -9367741.20846  22272702.091    22272705.272
 -23739826.33149 -18498566.47747  20578873.837    20578877.410
 -12525095.32948  -9759831.94945  22513388.925    22513395.970
  -8122503.70149  -6329220.80246  22507585.019    22507589.850
 -24163751.13549 -18828897.52047  20416155.942    20416156.836
  -4914593.43648  -3829551.29945  22960981.174    22960987.771
  -2486800.31548  -1937798.77044  24883729.395    24883735.362
  -3781816.26948  -2946871.67544  24267522.976    24267527.257
 02  1  6  3 46  0.0000000  0  8G27G 1G22G 2G13G31G20G 8
 -12086848.01449  -9418336.33446  22260345.932    22260349.180
 -23698310.54749 -18466216.59747  20586774.265    20586777.701
 -12424719.81048  -9681617.50545  22532490.089    22532497.344
  -8194327.85249  -6385187.69146  22493917.325    22493922.536
 -24188209.56049 -18847956.08947  20411501.734    20411502.687
  -5012609.51548  -3905927.46645  22942330.396    22942336.590
  -2378044.87048  -1853053.71744  24904424.968    24904423.103
  -3873264.20948  -3018129.84344  24250120.117    24250129.301
 02  1  6  3 46 30.0000000  0  8G27G 1G22G 2G13G31G20G 8
 -12151644.67749  -9468827.28146  22248015.477    22248018.887
 -23656310.50749 -18433489.37647  20594766.865    20594770.171
 -12324121.71848  -9603229.60546  22551633.573    22551641.764
  -8265862.98349  -6440929.34746  22480304.384    22480309.507
 -24212162.81749 -18866621.02147  20406943.379    20406944.241
  -5110379.56548  -3982111.90145  22923724.497    22923731.765
  -2269336.79948                  24925111.389
  -3964655.56048  -3089343.91344  24232729.381    24232739.062
 02  1  6  3 47  0.0000000  0  8G27G 1G22G 2G13G31G20G 8
 -12216325.06049  -9519227.61446  22235707.544    22235710.902
 -23613844.45149 -18400399.02747  20602847.855    20602851.331
 -12223321.46148  -9524684.18345  22570815.136    22570821.401
  -8337126.31549  -6496459.22146  22466743.899    22466748.716
 -24235627.76949 -18884905.45947  20402478.196    20402479.192
  -5207918.34248  -4058116.12345  22905164.436    22905169.811
  -2160696.88948  -1683691.96944  24945785.627    24945790.229
  -4056007.65348  -3160527.41244  24215346.407    24215349.479
 02  1  6  3 47 30.0000000  0  8G27G 1G22G 2G13G31G20G 8
 -12280886.20249  -9569535.03246  22223421.589    22223424.842
 -23570910.38949 -18366943.99747  20611018.007    20611021.744
 -12122319.25348  -9445981.39445  22590035.779    22590042.294
  -8408114.76949  -6551774.92246  22453234.598    22453240.574
 -24258600.41749 -18902806.28447  20398106.634    20398107.613
  -5305219.94048  -4133935.52245  22886647.517    22886653.495
  -2052125.46448                  24966445.198
  -4147317.46648  -3231677.92544  24197969.635    24197975.672
 02  1  6  3 48  0.0000000  0  8G27G 1G22G 2G13G31G20G 8
 -12345323.64749  -9619746.07246  22211159.520    22211163.222
 -23527504.64249 -18333121.42247  20619277.904    20619281.524
 -12021113.61448  -9367120.10445  22609294.403    22609302.318
  -8478823.39749  -6606872.56746  22439779.745    22439784.138
 -24281075.38049 -18920319.30747  20393829.918    20393830.926
  -5402277.07448  -4209564.42045  22868178.941    22868185.359
  -1943621.03148  -1514542.34644  24987094.073    24987102.512
  -4238580.85548  -3302792.27644  24180604.109    24180608.983
 02  1  6  3 48 30.0000000  0  8G27G 1G22G 2G13G31G20G 8
 -12409625.83049  -9669851.71746  22198923.452    22198927.139
 -23483616.77049 -18298923.16147  20627629.792    20627633.279
 -11919696.17248  -9288093.73746  22628594.246    22628600.295
  -8549240.58949  -6661743.12846  22426379.533    22426384.505
 -24303040.32749 -18937434.91047  20389650.055    20389651.176
  -5499075.39148  -4284991.64745  22849758.089    22849765.152
  -1835175.50548                  25007729.918
  -4329786.01848  -3373861.17945  24163247.102    24163253.661
 02  1  6  3 49  0.0000000  0  8G27G 1G22G 2G13G31G20G 8
 -12473807.76049  -9719863.65546  22186709.651    22186713.941
 -23439262.76249 -18264361.67647  20636069.798    20636073.521
 -11818084.93448  -9208916.38645  22647929.514    22647937.186
  -8619381.07149  -6716398.05646  22413032.637    22413037.238
 -24324509.51049 -18954164.20747  20385564.542    20385565.746
  -5595627.01348  -4360226.62545  22831385.177    22831391.720
  -1726806.98048                  25028352.641
  -4420948.47948  -3444896.81344  24145899.551    24145903.330
 02  1  6  3 49 30.0000000  0  8G27G 1G22G 2G13G31G20G 8
 -12537858.38449  -9769773.27946  22174521.318    22174524.907
 -23394432.21149 -18229428.85547  20644600.808    20644604.560
 -11716271.76248  -9129581.65345  22667305.298    22667311.337
  -8689233.31449  -6770828.38346  22399739.998    22399744.975
 -24345470.76749 -18970497.71947  20381575.731    20381577.031
  -5691918.22248  -4435258.69145  22813061.826    22813068.000
  -1618507.45248                  25048960.830
  -4512056.76948  -3515890.29945  24128562.975    24128567.799
 02  1  6  3 50  0.0000000  0  8G27G 1G22G 2G13G31G20G 8
 -12601795.60449  -9819594.54546  22162354.744    22162358.249
 -23349144.12449 -18194139.51647  20653219.003    20653222.556
 -11614277.75348  -9050106.04845  22686712.956    22686721.148
  -8758815.03149  -6825047.91446  22386498.938    22386504.348
 -24365941.06849 -18986448.66647  20377680.491    20377681.887
  -5787964.05948  -4510099.54745  22794785.033    22794790.431
  -1510298.04848                  25069553.294
  -4603129.09048  -3586855.71745  24111231.659    24111238.494
 02  1  6  3 50 30.0000000  0  8G27G 1G22G 2G13G31G20G 8
 -12665617.75449  -9869326.13446  22150209.485    22150212.867
 -23303397.89249 -18158493.18047  20661924.536    20661928.112
 -11512104.19048  -8970490.50445  22706157.076    22706163.286
  -8828124.53849  -6879055.33446  22373310.053    22373315.116
 -24385918.48349 -19002015.55547  20373879.101    20373880.573
  -5883760.15948  -4584745.81245  22776555.177    22776561.907
  -1402180.51448                  25090126.499
  -4694163.74848  -3657791.75644  24093908.594    24093914.012
 02  1  6  3 51  0.0000000  0  8G27G 1G22G 2G13G31G20G 8
 -12729300.91549  -9918949.42646  22138091.170    22138094.476
 -23257170.47749 -18122471.90147  20670721.128    20670724.773
 -11409730.07848  -8890718.67945  22725637.671    22725645.582
  -8897137.39349  -6932831.60746  22360177.405    22360182.513
 -24405377.57449 -19017178.55247  20370176.385    20370177.761
  -5979279.50248  -4659176.41745  22758379.162    22758385.320
  -1294133.74548                  25110688.085
  -4785136.92548  -3728679.99244  24076597.144    24076600.677
 02  1  6  3 51 30.0000000  0  8G27G 1G22G 2G13G31G20G 8
 -12792853.69849  -9968471.11146  22125998.108    22126001.154
 -23210471.71649 -18086083.33747  20679607.579    20679611.009
 -11307167.29448  -8810799.86345  22745155.391    22745163.064
  -8965862.35449  -6986383.53846  22347098.972    22347104.322
 -24424326.28249 -19031943.84647  20366570.526    20366572.066
  -6074528.30148  -4733396.20645  22740253.495    22740259.467
  -1186169.80348                  25131232.578
  -4876057.32448  -3799527.06944  24059295.480    24059299.966
 02  1  6  3 52  0.0000000  0  7G27G 1G22G 2G13G31G 8
 -12856281.01049 -10017895.03346  22113928.016    22113931.592
 -23163307.66249 -18049332.21347  20688582.914    20688586.412
 -11204423.84048  -8730740.24545  22764706.954    22764714.322
  -9034304.28149  -7039714.92246  22334075.163    22334080.692
 -24442769.34749 -19046315.12747  20363060.734    20363062.345
  -6169508.82448  -4807406.95445  22722179.201    22722184.555
  -4966929.88948  -3870336.86744  24042002.121    24042009.786
 02  1  6  3 52 30.0000000  0  7G27G 1G22G 2G13G31G 8
 -12919582.29449 -10067220.74946  22101881.788    22101885.446
 -23115678.70249 -18012218.82447  20697646.449    20697650.093
 -11101501.85448  -8650541.52845  22784292.441    22784300.219
  -9102462.29949  -7092825.08046  22321105.197    22321110.487
 -24460704.81249 -19060290.88047  20359648.021    20359649.579
  -6264217.71548  -4881206.05045  22704156.635    22704162.476
  -5057754.11448  -3941109.02844  24024720.342    24024723.751
 02  1  6  3 53  0.0000000  0  7G27G 1G22G 2G13G31G 8
 -12982753.64949 -10116445.23846  22089860.958    22089864.512
 -23067582.26449 -17974741.16647  20706798.996    20706802.446
 -10998400.79948  -8570203.25345  22803912.243    22803920.434
  -9170332.32949  -7145710.82046  22308189.484    22308195.077
 -24478128.47449 -19073867.82347  20356332.313    20356333.894
  -6358648.19048  -4954788.19345  22686186.847    22686194.246
  -5148526.24148  -4011840.61045  24007446.375    24007450.648
 02  1  6  3 53 30.0000000  0  8G27G 1G22G 2G13G31G 3G 8
 -13045796.27149 -10165569.41346  22077864.875    22077868.094
 -23019020.62749 -17936901.01947  20716039.761    20716043.426
 -10895124.70148  -8489728.61045  22823564.803    22823572.994
  -9237915.24649  -7198372.83546  22295329.265    22295334.795
 -24495040.70449 -19087046.24547  20353114.104    20353115.703
  -6452798.75248  -5028152.21746  22668270.477    22668276.468
        -1.04959         -.53356  22090570.888    22090575.840
  -5239247.36348  -4082532.45544  23990182.866    23990188.145
 02  1  6  3 54  0.0000000  0  8G27G 1G22G 2G13G31G 3G 8
 -13108730.24949 -10214608.93746  22065889.179    22065892.339
 -22970014.98549 -17898714.89447  20725365.506    20725369.224
 -10791696.64548  -8409135.56445  22843247.687    22843254.282
  -9305231.33549  -7250826.93246  22282519.345    22282525.023
 -24511460.97849 -19099841.32547  20349989.480    20349990.986
  -6546686.86748  -5101311.74946  22650404.472    22650411.098
    -29609.56749    -23072.12346  22084936.183    22084941.488
  -5329937.65548  -4153200.25445  23972925.160    23972928.788
 02  1  6  3 54 30.0000000  0  8G27G 1G22G 2G13G31G 3G 8
 -13171527.22949 -10263541.69346  22053938.518    22053942.119
 -22920538.31749 -17860161.73647  20734780.780    20734784.419
 -10688091.39648  -8328404.42545  22862962.036    22862970.227
  -9372252.19149  -7303050.99146  22269765.651    22269770.847
 -24527359.97949 -19112230.22047  20346963.944    20346965.311
  -6640281.41948  -5174242.53746  22632594.539    22632599.922
    -58658.90249    -45707.97746  22079409.050    22079414.331
  -5420569.02348  -4223822.18244  23955678.368    23955683.450
 02  1  6  3 55  0.0000000  0  8G27G 1G22G 2G13G31G 3G 8
 -13234187.94649 -10312368.26846  22042014.580    22042018.614
 -22870592.52649 -17821243.02747  20744285.152    20744288.714
 -10584312.66948  -8247538.13645  22882711.179    22882719.074
  -9438978.47849  -7355045.51646  22257068.331    22257073.604
 -24542738.22049 -19124213.32647  20344037.473    20344039.026
  -6733580.37848  -5246942.99346  22614839.474    22614845.386
    -87149.20149    -67908.22346  22073988.039    22073992.912
  -5511142.19948  -4294398.60345  23938443.259    23938447.418
 02  1  6  3 55 30.0000000  0  8G27G 1G22G 2G13G31G 3G 8
 -13296717.32849 -10361092.51246  22030116.682    22030119.943
 -22820183.85349 -17781963.63947  20753877.596    20753881.385
 -10480368.57648  -8166542.97145  22902491.095    22902499.534
  -9505414.97249  -7406814.23746  22244425.662    22244430.917
 -24557599.90249 -19135793.91647  20341209.359    20341210.918
  -6826586.14448  -5319414.98846  22597141.794    22597147.160
   -115084.36749    -89675.90046  22068672.353    22068677.433
  -5601662.23648  -4364933.73745  23921217.466    23921223.212
 02  1  6  3 56  0.0000000  0  8G27G 1G22G 2G13G31G 3G 8
 -13359095.95949 -10409699.28846  22018246.834    22018250.000
 -22769294.06149 -17742309.35247  20763561.885    20763565.679
 -10376242.69148  -8085406.17145  22922305.949    22922314.140
  -9571542.51649  -7458342.21346  22231842.296    22231846.930
 -24571925.02849 -19146956.40747  20338483.589    20338485.006
  -6919276.45548  -5391641.19446  22579502.776    22579508.840
   -142444.23449   -110995.29346  22063465.664    22063470.476
  -5692109.72148  -4435412.38245  23904006.654    23904012.053
 02  1  6  3 56 30.0000000  0  8G27G 1G22G 2G13G31G 3G 8
 -13421338.47249 -10458199.99246  22006400.957    22006405.051
 -22717939.00949 -17702292.52847  20773334.295    20773338.092
 -10271952.46748  -8004141.32745  22942151.841    22942161.521
  -9637375.47649  -7509640.64946  22219314.530    22219319.934
 -24585728.05349 -19157712.06947  20335857.140    20335858.622
  -7011663.06348  -5463630.73446  22561922.399    22561928.249
   -169242.61749   -131877.17346  22058365.817    22058370.933
  -5782499.35748  -4505845.82344  23886804.558    23886808.988
 02  1  6  3 57  0.0000000  0  8G27G 1G22G 2G13G31G 3G 8
 -13483455.58349 -10506602.97946  21994580.878    21994584.857
 -22666130.55049 -17661922.40047  20783192.978    20783197.072
 -10167511.53548  -7922759.03645  22962026.083    22962036.756
  -9702924.43749  -7560717.77146  22206841.045    22206845.982
 -24599018.31049 -19168068.17147  20333328.420    20333329.795
  -7103754.18848  -5535390.03746  22544397.706    22544404.147
   -195489.22849   -152329.10446  22053371.147    22053376.673
  -5872841.77748  -4576242.51745  23869614.239    23869617.551
 02  1  6  3 57 30.0000000  0  8G27G 1G22G 2G13G31G 3G 8
 -13545453.81049 -10554913.32546  21982784.177    21982787.289
 -22613876.57949 -17621205.12047  20793136.931    20793141.045
 -10062929.53848  -7841266.82545  22981928.735    22981936.926
  -9768195.94649  -7611578.70846  22194420.242    22194425.296
 -24611801.98349 -19178029.53247  20330895.718    20330896.984
  -7195553.79648  -5606922.18846  22526929.244    22526935.485
   -221189.90049   -172355.63946  22048480.552    22048486.463
  -5963143.78448  -4646607.76445  23852429.390    23852435.992
 02  1  6  3 58  0.0000000  0  8G27G 1G22G 2G13G31G 3G 8
 -13607310.47449 -10603113.36546  21971012.515    21971016.008
 -22561155.54849 -17580123.89947  20803169.363    20803173.629
  -9958186.69948  -7759649.31745  23001859.053    23001868.485
  -9833167.28149  -7662205.74546  22182056.802    22182061.866
 -24624056.10249 -19187578.25847  20328563.819    20328565.196
  -7287036.27948  -5678207.23446  22509521.132    22509526.577
   -246321.14749   -191938.46146  22043698.292    22043704.460
  -6053382.53848  -4716923.71245  23835258.770    23835261.924
 02  1  6  3 58 30.0000000  0  8G27G 1G22G 2G13G31G 3G 8
 -13669027.47749 -10651204.58046  21959267.679    21959271.394
 -22507970.77549 -17538681.32447  20813290.365    20813294.517
  -9853287.92548  -7677910.25845  23021822.785    23021830.976
  -9897840.30949  -7712600.33646  22169749.709    22169754.880
 -24635782.08849 -19196715.44847  20326332.434    20326333.735
  -7378201.03248  -5749244.69746  22492172.209    22492178.723
   -270884.04849   -211078.41946  22039024.032    22039029.980
  -6143560.14648  -4787192.06345  23818098.275    23818104.977
 02  1  6  3 59  0.0000000  0  8G27G 1G22G 2G13G31G 3G 8
 -13730607.29049 -10699188.88346  21947549.462    21947552.968
 -22454326.26849 -17496880.51447  20823498.178    20823502.716
  -9748238.79148  -7596054.07545  23041811.526    23041820.710
  -9962217.60449  -7762764.48046  22157499.500    22157504.373
 -24646981.83149 -19205442.57947  20324201.207    20324202.573
  -7469048.03748  -5820034.56446  22474884.931    22474891.019
   -294880.74749   -229777.19546  22034457.636    22034463.739
  -6233679.35448  -4857414.81744  23800947.599    23800954.248
 02  1  6  3 59 30.0000000  0  8G27G 1G22G 2G13G31G 3G 8
 -13792054.22749 -10747069.65246  21935856.919    21935860.767
 -22400227.65749 -17454725.86247  20833793.128    20833797.614
  -9643046.54748  -7514086.37645  23061830.634    23061839.570
 -10026303.43849  -7812701.51546  22145304.461    22145309.433
 -24657659.31449 -19213762.75947  20322169.393    20322170.871
  -7559578.64248  -5890577.90446  22457657.359    22457664.143
   -318314.71849   -248037.48946  22029998.433    22030004.815
  -6323744.32748  -4927595.30745  23783810.793    23783813.989
 02  1  6  4  0  0.0000000  0  8G27G 1G22G 2G13G31G 3G 8
 -13853363.21249 -10794842.92646  21924190.484    21924193.838
 -22345671.36449 -17412214.57547  20844174.856    20844179.266
  -9537708.98748  -7432005.41445  23081874.949    23081882.508
 -10090092.85749  -7862407.57246  22133165.596    22133170.700
 -24667808.83049 -19221671.53347  20320237.969    20320239.276
  -7649785.16549  -5960868.69746  22440491.665    22440497.496
   -341180.37849   -265854.94946  22025647.289    22025652.796
  -6413750.22348  -4997729.53545  23766681.925    23766688.352
 02  1  6  4  0 30.0000000  0  8G27G 1G22G 2G13G31G 3G 8
 -13914536.50149 -10842510.45446  21912548.982    21912552.629
 -22290660.87949 -17369349.36847  20854642.919    20854647.408
  -9432231.33348  -7349815.34245  23101947.461    23101956.397
 -10153588.07349  -7911884.38646  22121083.068    22121088.149
 -24677432.26849 -19229170.38247  20318406.785    20318408.407
  -7739667.34949  -6030906.77446  22423387.960    22423393.917
   -363479.39349   -283230.87246  22021404.190    22021410.027
  -6503699.38048  -5067820.15945  23749566.115    23749571.945
 02  1  6  4  1  0.0000000  0  8G27G 1G22G 2G13G31G 3G 8
 -13975574.57749 -10890072.63046  21900933.784    21900937.529
 -22235198.28249 -17326131.87047  20865197.438    20865201.803
  -9326617.10548  -7267518.77545  23122045.251    23122054.932
 -10216789.94349  -7961132.61446  22109055.575    22109060.864
 -24686529.68149 -19236259.34047  20316675.561    20316676.886
  -7829223.00949  -6100690.41446  22406345.934    22406351.899
   -385211.54649   -300165.08346  22017268.583    22017274.396
  -6593592.06348  -5137866.41444  23732458.951    23732466.359
 02  1  6  4  1 30.0000000  0  8G27G 1G22G 2G13G31G 3G 8
 -14036482.15349 -10937533.11846  21889344.052    21889347.248
 -22179289.76049 -17282566.89847  20875836.435    20875840.806
  -9220873.80848  -7185121.69645  23142167.282    23142176.218
 -10279703.18549  -8010155.94046  22097084.326    22097089.053
 -24695105.60949 -19242941.94947  20315043.985    20315045.489
  -7918454.25649  -6170221.26846  22389366.415    22389371.179
   -406380.88149   -316660.74446  22013240.096    22013245.844
  -6683433.38448  -5207872.62545  23715363.369    23715368.433
 02  1  6  4  2  0.0000000  0  8G27G 1G22G 2G13G31G 3G 8
 -14097245.68949 -10984881.37046  21877781.333    21877784.718
 -22122923.28649 -17238645.08447  20886562.704    20886567.182
  -9114991.09748  -7102615.95045  23162317.361    23162324.730
 -10342314.22049  -8058943.77346  22085168.893    22085174.760
 -24703146.33449 -19249207.51947  20313513.508    20313515.184
  -8007345.19149  -6239486.95146  22372450.335    22372456.294
   -426973.82449   -332707.27746  22009321.763    22009327.394
  -6773209.75548  -5277828.25845  23698279.291    23698284.901
 02  1  6  4  2 30.0000000  0  8G27G 1G22G 2G13G31G 3G 8
 -14157873.20549 -11032123.62646  21866243.434    21866247.586
 -22066108.30149 -17194373.78147  20897374.566    20897378.921
  -9008979.76748  -7020009.97845  23182489.353    23182499.282
 -10404631.41349  -8107502.65046  22073311.729    22073316.296
 -24710659.13949 -19255061.72547  20312083.678    20312085.404
  -8095901.20049  -6308491.64846  22355598.469    22355604.999
   -446997.87849   -348310.51546  22005511.126    22005516.868
  -6862929.60248  -5347739.85345  23681206.436    23681213.187
 02  1  6  4  3  0.0000000  0  8G27G 1G22G 2G13G31G 3G 8
 -14218357.05249 -11079253.94446  21854733.671    21854737.599
 -22008838.68649 -17149748.21247  20908272.990    20908277.223
  -8902835.36748  -6937300.32345  23202689.940    23202697.594
 -10466647.18549  -8155826.64046  22061509.148    22061514.725
 -24717635.97949 -19260498.29347  20310756.499    20310758.263
  -8184111.87349  -6377227.26146  22338813.999    22338818.621
   -466444.88449   -363464.10746  22001810.834    22001816.405
  -6952585.00748  -5417601.26145  23664146.323    23664151.771
 02  1  6  4  3 30.0000000  0  8G27G 1G22G 2G13G31G 3G 8
 -14278701.53449 -11126275.66246  21843251.001    21843254.791
 -21951120.47449 -17104773.09247  20919255.731    20919260.364
  -8796565.24948  -6854492.69045  23222911.254    23222921.927
 -10528366.18649  -8203919.38746  22049765.184    22049769.999
 -24724081.29049 -19265520.67847  20309529.733    20309531.440
  -8271979.19349  -6445695.33646  22322091.583    22322097.833
   -485318.74149   -378171.08946  21998218.944    21998225.251
  -7042180.73648  -5487416.14045  23647095.442    23647102.668
 02  1  6  4  4  0.0000000  0  8G27G 1G22G 2G13G31G 3G 8
 -14338902.23849 -11173185.34846  21831795.145    21831799.075
 -21892950.76949 -17059446.15747  20930325.634    20930329.938
  -8690167.73948  -6771585.81145  23243158.994    23243169.667
 -10589783.95449  -8251777.40746  22038077.640    22038082.683
 -24729990.63449 -19270125.43247  20308405.422    20308407.179
  -8359496.00249  -6513890.27046  22305438.326    22305444.035
   -503614.72849   -392427.77546  21994737.392    21994743.192
  -7131712.38648  -5557181.10545  23630059.086    23630064.230
 02  1  6  4  4 30.0000000  0  8G27G 1G22G 2G13G31G 3G 8
 -14398956.61349 -11219981.01546  21820367.545    21820371.200
 -21834328.64649 -17013766.69047  20941481.246    20941485.703
  -8583643.20448  -6688579.90645  23263430.193    23263437.861
 -10650898.09149  -8299398.81746  22026447.626    22026453.097
 -24735361.04949 -19274310.23947  20307383.705    20307385.388
  -8446657.23949  -6581808.15446  22288852.743    22288857.936
   -521329.72849   -406231.75546  21991366.125    21991371.982
  -7221177.35248  -5626894.10945  23613034.201    23613041.154
 02  1  6  4  5  0.0000000  0  8G27G 1G22G 2G13G31G 3G 8
 -14458862.60649 -11266661.06346  21808967.705    21808971.279
 -21775253.70349 -16967734.37947  20952722.347    20952727.060
  -8476992.53448  -6605475.75945  23283725.185    23283734.617
 -10711706.77449  -8346782.20646  22014876.809    22014881.560
 -24740190.11749 -19278073.21847  20306464.688    20306466.402
  -8533458.43249  -6649445.48046  22272334.397    22272340.382
   -538461.38849   -419581.17246  21988105.980    21988111.568
  -7310573.87048  -5696553.76645  23596023.312    23596029.654
 02  1  6  4  5 30.0000000  0  8G27G 1G22G 2G13G31G 3G 8
 -14518619.14449 -11313224.65046  21797596.338    21797600.179
 -21715726.55549 -16921349.70247  20964050.766    20964055.190
  -8370217.76448  -6522274.88345  23304043.795    23304054.220
 -10772209.28949  -8393927.04046  22003363.007    22003368.516
 -24744476.45049 -19281413.28247  20305649.000    20305650.966
  -8619895.94749  -6716799.41946  22255885.681    22255892.043
   -555008.33549   -432474.97346  21984957.257    21984963.241
  -7399900.78548  -5766159.23645  23579025.077    23579030.003
 02  1  6  4  6  0.0000000  0  8G27G 1G22G 2G13G31G 3G 8
 -14578237.07649 -11359680.22946  21786251.634    21786255.753
 -21655759.64449 -16874622.34847  20975461.953    20975466.474
  -8263332.53048  -6438987.93945  23324383.499    23324393.427
 -10832416.90249  -8440842.08246  21991906.066    21991910.632
 -24748231.26949 -19284339.18347  20304934.560    20304936.480
  -8705978.09849  -6783876.44946  22239505.591    22239510.691
   -570981.11149   -444921.35746  21981918.179    21981923.936
  -7489169.17248  -5835719.06445  23562036.971    23562043.564
 02  1  6  4  6 30.0000000  0  8G27G 1G22G 2G13G31G 3G 8
 -14637705.44249 -11406019.26346  21774935.235    21774938.846
 -21595343.69849 -16827545.09947  20986958.640    20986963.338
  -8156328.75748  -6355608.63445  23344746.128    23344754.815
 -10892318.71649  -8487518.83946  21980507.453    21980512.419
 -24751442.92949 -19286841.84747  20304323.458    20304325.262
  -8791691.51849  -6850666.14746  22223193.632    22223200.003
   -586368.63649   -456911.70146  21978989.958    21978995.786
  -7578368.08348  -5905224.74545  23545063.201    23545068.330
 02  1  6  4  7  0.0000000  0  8G27G 1G22G 2G13G31G 3G 8
 -14697030.12549 -11452246.34246  21763646.220    21763649.731
 -21534486.22049 -16780123.80047  20998539.401    20998544.143
  -8049215.42748  -6272143.94245  23365128.761    23365138.689
 -10951920.92249  -8533962.14246  21969165.326    21969170.854
 -24754117.40949 -19288925.92247  20303814.800    20303816.777
  -8877039.76549  -6917171.30346  22206954.077    22206959.292
   -601176.64649   -468450.46646  21976172.582    21976178.252
  -7667503.63548  -5974681.08445  23528101.806    23528107.684
 02  1  6  4  7 30.0000000  0  8G27G 1G22G 2G13G31G 3G 8
 -14756214.99049 -11498364.45447  21752383.615    21752387.410
 -21473192.96649 -16732362.93947  21010203.699    21010208.389
  -7941999.32848  -6188599.20845  23385532.337    23385540.777
 -11011227.70049  -8580175.27146  21957879.589    21957884.418
 -24756258.73149 -19290594.54947  20303407.312    20303409.216
  -8962024.35949  -6983393.09846  22190781.253    22190787.283
   -615409.04749   -479540.70646  21973463.842    21973470.303
  -7756580.00948  -6044091.28045  23511151.026    23511156.697
 02  1  6  4  8  0.0000000  0  8G27G 1G22G 2G13G31G 3G 8
 -14815266.33349 -11544378.56346  21741146.448    21741150.660
 -21411472.04849 -16684268.83547  21021948.697    21021953.463
  -7834689.74048  -6104981.58045  23405951.677    23405962.350
 -11070245.51249  -8626163.17646  21946648.679    21946653.957
 -24757873.07049 -19291852.53847  20303099.955    20303101.938
  -9046649.11849  -7049334.48646  22174677.701    22174683.774
   -629071.68649   -490186.97246  21970864.237    21970869.736
  -7845603.30448  -6113460.15745  23494210.963    23494215.250
 02  1  6  4  8 30.0000000  0  8G27G 1G22G 2G13G31G 3G 8
 -14874156.74249 -11590267.24246  21729940.204    21729943.947
 -21349297.60149 -16635821.33247  21033779.868    21033784.720
  -7727261.89848  -6021271.84345  23426395.600    23426404.040
 -11128947.34849  -8671904.90446  21935478.050    21935483.422
 -24758932.82849 -19292678.38647  20302898.107    20302900.214
  -9130884.01449  -7114972.08446  22158648.835    22158653.793
   -642137.23849   -500367.97646  21968378.234    21968383.526
  -7934546.30248  -6182766.40945  23477284.202    23477290.986
 02  1  6  4  9  0.0000000  0  8G27G 1G22G 2G13G31G 3G 8
 -14932901.96449 -11636042.78246  21718761.705    21718765.171
 -21286687.25849 -16587034.16747  21045694.703    21045699.342
  -7619734.88048  -5937484.77745  23446857.256    23446867.681
 -11187349.33649  -8717412.98846  21924365.353    21924369.923
 -24759453.84649 -19293084.43647  20302798.987    20302800.983
  -9214742.34949  -7180316.26046  22142690.409    22142696.692
   -654621.52549   -510096.04746  21966002.463    21966008.334
  -8023425.04648  -6252022.60745  23460372.754    23460377.461
 02  1  6  4  9 30.0000000  0  8G27G 1G22G 2G13G31G 3G 8
 -14991491.68349 -11681697.15246  21707612.137    21707615.810
 -21223632.39949 -16537900.61947  21057693.294    21057698.305
  -7512100.75948  -5853614.32645  23467339.288    23467349.713
 -11245441.21549  -8762679.40846  21913310.122    21913315.835
 -24759425.69049 -19293062.55647  20302804.603    20302806.726
  -9298211.19749  -7245356.92946  22126807.210    22126813.591
   -666513.80049   -519362.79946  21963739.618    21963744.838
  -8112228.93948  -6321220.51745  23443472.511    23443477.815
 02  1  6  4 10  0.0000000  0  8G27G 1G22G 2G13G31G 3G 8
 -15049927.71349 -11727231.76846  21696492.015    21696495.691
 -21160136.67449 -16488423.53947  21069776.421    21069781.342
  -7404364.43948  -5769664.17345  23487841.504    23487850.688
 -11303225.28149  -8807705.96646  21902314.362    21902319.590
 -24758850.18149 -19292614.16847  20302914.284    20302916.336
  -9381289.94649  -7310093.63246  22110998.057    22111003.763
   -677815.86149   -528169.65846  21961588.560    21961594.494
  -8200960.22048  -6390361.79345  23426588.329    23426596.520
 02  1  6  4 10 30.0000000  0  8G27G 1G22G 2G13G31G 3G 8
 -15108211.71049 -11772647.91046  21685401.544    21685405.085
 -21096203.58449 -16438605.65447  21081942.611    21081947.322
  -7296530.31048                  23508360.736
 -11360703.52849  -8852494.22746  21891376.745    21891381.918
 -24757729.28249 -19291740.79847  20303127.498    20303129.661
  -9463977.93049  -7374525.84146  22095262.719    22095268.412
   -688529.58249   -536518.05846  21959549.954    21959556.158
  -8289620.53448  -6459447.81145  23409716.643    23409722.744
 02  1  6  4 11  0.0000000  0  8G27G 1G22G 2G13G31G 3G 8
 -15166343.49349 -11817945.43347  21674339.612    21674342.966
 -21031834.67749 -16388448.16747  21094191.518    21094196.515
  -7188601.43548  -5601537.64845  23528900.376    23528910.553
 -11417876.19049  -8897044.37146  21880497.295    21880502.297
 -24756062.58449 -19290442.13147  20303445.059    20303447.109
  -9546272.77749  -7438651.70746  22079602.349    22079608.535
   -698654.94149   -544408.00746  21957623.483    21957629.526
  -8378209.86548  -6528478.54545  23392857.941    23392864.216
 02  1  6  4 11 30.0000000  0  8G27G 1G22G 2G13G31G 3G 8
 -15224323.39449 -11863124.60246  21663306.086    21663309.720
 -20967032.10749 -16337952.75047  21106523.290    21106528.271
  -7080580.64748  -5517365.83845  23549455.129    23549466.795
 -11474743.83449  -8941356.83146  21869675.492    21869680.438
 -24753850.42249 -19288718.42947  20303866.005    20303868.040
  -9628172.47049  -7502469.67146  22064017.695    22064023.527
   -708192.08849   -551839.61146  21955808.573    21955814.592
  -8466728.67348  -6597454.32045  23376014.454    23376020.483
 02  1  6  4 12  0.0000000  0  8G27G 1G22G 2G13G31G 3G 8
 -15282147.69149 -11908182.52347  21652302.032    21652305.969
 -20901794.36949 -16287118.24447  21118937.842    21118942.835
  -6972467.33848  -5433121.96845  23570029.366    23570036.962
 -11531303.38749  -8985429.23446  21858912.722    21858917.793
 -24751089.52449 -19286567.14147  20304391.499    20304393.543
  -9709670.94949  -7565975.00146  22048508.712    22048514.591
   -717137.58949   -558810.18746  21954106.750    21954112.176
  -8555173.43448  -6666372.39645  23359183.497    23359189.803
 02  1  6  4 12 30.0000000  0  8G27G 1G22G 2G13G31G 3G 8
 -15339818.38749 -11953120.75747  21641327.921    21641331.556
 -20836125.32549 -16235947.66247  21131433.978    21131439.062
  -6864266.47348                  23590618.824
 -11587557.36249  -9029263.51646  21848207.887    21848213.191
 -24747782.21849 -19283990.07647  20305020.873    20305022.983
  -9790767.96249  -7629167.49646  22033076.507    22033082.871
   -725493.53749   -565321.37746  21952515.951    21952522.169
  -8643546.31248  -6735234.45345  23342366.941    23342373.456
 02  1  6  4 13  0.0000000  0  8G27G 1G22G 2G13G31G 3G 8
 -15397335.48749 -11997939.29947  21630383.121    21630386.478
 -20770026.92549 -16184442.51947  21144012.527    21144017.157
  -6755980.80748  -5264431.63745  23611225.956    23611235.637
 -11643505.88549  -9072859.77746  21837561.150    21837566.220
 -24743928.44649 -19280987.19047  20305754.414    20305756.392
  -9871461.02149  -7692045.23346  22017721.477    22017727.140
   -733260.12349   -571373.32946  21951038.808    21951044.255
  -8731847.48248  -6804040.66745  23325562.705    23325570.138
 02  1  6  4 13 30.0000000  0  8G27G 1G22G 2G13G31G 3G 8
 -15454699.44749 -12042638.51747  21619466.860    21619470.630
 -20703501.59549 -16132604.70647  21156671.703    21156676.607
  -6647613.83448                  23631846.764
 -11699150.22549  -9116219.01246  21826972.428    21826977.670
 -24739529.21749 -19277559.28047  20306591.506    20306593.432
  -9951748.52149  -7754606.95346  22002443.109    22002449.426
   -740437.91149   -576966.48246  21949672.738    21949678.603
  -8820077.44348  -6872791.37445  23308774.487    23308778.545
 02  1  6  4 14  0.0000000  0  8G27G 1G22G 2G13G31G 3G 8
 -15511902.05549 -12087212.00947  21608581.252    21608585.243
 -20636542.95649 -16080429.24847  21169413.593    21169418.567
  -6539160.00448  -5095480.84245  23652485.312    23652495.985
 -11754482.41749  -9159335.01946  21816442.846    21816448.396
 -24734576.15549 -19273699.80847  20307534.044    20307536.081
 -10031619.85749  -7816844.38746  21987244.423    21987250.934
   -747019.20049   -582094.81446  21948420.749    21948426.463
  -8908227.87348  -6941480.09545  23292001.322    23292006.025
 02  1  6  4 14 30.0000000  0  8G27G 1G22G 2G13G31G 3G 8
 -15568947.51249 -12131663.05347  21597726.184    21597730.228
 -20569157.31449 -16027921.05247  21182236.959    21182241.654
  -6430626.56548  -5010909.58845  23673138.596    23673150.014
 -11809507.06449  -9202211.37346  21805972.203    21805977.242
 -24729073.65049 -19269412.19847  20308581.188    20308583.287
 -10111076.91449  -7878759.01446  21972123.901    21972130.345
   -753008.24449   -586761.67646  21947280.672    21947286.586
  -8996303.48448  -7010110.50345  23275238.759    23275245.656
 02  1  6  4 15  0.0000000  0  8G27G 1G22G 2G13G31G 3G 8
 -15625834.87549 -12175990.90347  21586900.975    21586904.881
 -20501345.75049 -15975080.97347  21195140.679    21195145.785
  -6322015.26448                  23693806.876
 -11864223.83949  -9244847.82846  21795560.295    21795565.423
 -24723021.32649 -19264696.15647  20309732.883    20309735.008
 -10190116.34349  -7940348.21946  21957083.194    21957089.188
   -758404.10249   -590966.31046  21946254.167    21946260.114
  -9084303.09748  -7078681.68245  23258494.608    23258499.967
 02  1  6  4 15 30.0000000  0  8G27G 1G22G 2G13G31G 3G 8
 -15682565.27049 -12220196.44347  21576105.559    21576109.407
 -20433111.48049 -15921911.52247  21208125.833    21208130.677
  -6213330.15248                  23714489.488
 -11918634.26749  -9287245.57246  21785206.104    21785211.332
 -24716420.59749 -19259552.78947  20310988.922    20310991.116
 -10268737.26449  -8001611.31846  21942122.287    21942128.498
   -763208.53649   -594710.09846  21945339.833    21945345.193
  -9172228.21748  -7147194.84545  23241762.826    23241768.917
 02  1  6  4 16  0.0000000  0  8G27G 1G22G 2G13G31G 3G 8
 -15739126.45049 -12264270.13147  21565342.229    21565346.249
 -20364444.25349 -15868404.69547  21221192.673    21221197.773
  -6104561.58248  -4756833.62445  23735187.175    23735198.344
 -11972726.41149  -9329395.30046  21774912.801    21774917.956
 -24709259.12849 -19253972.48147  20312351.697    20312353.888
 -10346925.27249  -8062537.07446  21927243.394    21927250.105
   -767409.57249   -597983.69646  21944540.597    21944546.207
  -9260066.44148  -7215640.24545  23225047.255    23225054.484
 02  1  6  4 16 30.0000000  0  8G27G 1G22G 2G13G31G 3G 8
 -15795528.45449 -12308219.77947  21554609.518    21554613.583
 -20295356.32949 -15814570.05747  21234339.691    21234344.866
  -5995722.71948  -4672024.34245  23755898.796    23755909.718
 -12026511.06549  -9371305.43946  21764678.241    21764683.041
 -24701547.82949 -19247963.73447  20313819.025    20313821.154
 -10424688.00149  -8123131.44246  21912445.872    21912452.274
   -771017.77349   -600795.34446  21943853.864    21943860.007
  -9347828.20748  -7284026.10345  23208347.778    23208352.077
 02  1  6  4 17  0.0000000  0  8G27G 1G22G 2G13G31G 3G 8
 -15851770.82249 -12352045.04147  21543906.892    21543910.914
 -20225849.24049 -15760408.79947  21247566.880    21247571.743
  -5886815.80148                  23776623.668
 -12079988.18649  -9412975.93546  21754501.647    21754506.710
 -24693286.42549 -19241526.33547  20315391.106    20315393.243
 -10502022.87449  -8183392.41446  21897730.112    21897735.646
   -774033.12749   -603145.03146  21943280.278    21943286.262
  -9435513.17748  -7352352.09445  23191660.677    23191667.832
 02  1  6  4 17 30.0000000  0  8G27G 1G22G 2G13G31G 3G 8
 -15907850.59649 -12395743.59947  21533235.052    21533239.106
 -20155922.25749 -15705920.35347  21260873.324    21260878.934
  -5777840.97748  -4502246.79844  23797361.099    23797370.779
 -12133155.56449  -9454405.06746  21744383.660    21744388.936
 -24684472.47049 -19234658.37547  20317068.648    20317070.826
 -10578924.79749  -8243316.02546  21883095.370    21883102.163
   -776453.11149   -605030.79346  21942819.521    21942825.696
  -9523118.67448  -7420616.14345  23174990.598    23174997.560
 02  1  6  4 18  0.0000000  0  8G27G 1G22G 2G13G31G 3G 8
 -15963781.36349 -12439326.05147  21522592.053    21522596.045
 -20085590.92649 -15651116.83647  21274256.926    21274262.684
  -5668814.47448                  23818107.754
 -12186027.24849  -9495603.79346  21734322.938    21734327.935
 -24675120.15249 -19227370.91447  20318848.521    20318850.694
 -10655405.13949  -8302911.11546  21868542.326    21868547.459
   -778291.73549   -606463.54646  21942469.588    21942475.555
  -9610658.30948  -7488828.89345  23158332.905    23158338.075
 02  1  6  4 18 30.0000000  0  8G27G 1G22G 2G13G31G 3G 8
 -16019549.69049 -12482781.92447  21511980.123    21511984.072
 -20014844.08749 -15595989.53847  21287719.849    21287724.969
  -5559725.57848  -4332287.15844  23838867.350    23838878.271
 -12238590.57449  -9536562.25346  21724320.532    21724325.427
 -24665215.97649 -19219653.43147  20320733.256    20320735.483
 -10731448.64749  -8362165.81946  21854071.235    21854077.924
   -779536.14649   -607433.27046  21942232.999    21942238.249
  -9698118.60848  -7556979.84445  23141688.873    23141694.826
 02  1  6  4 19  0.0000000  0  8G27G 1G22G 2G13G31G 3G 8
 -16075149.63149 -12526106.58947  21501399.442    21501403.523
 -19943678.07249 -15540535.61347  21301261.742    21301267.355
  -5450571.46548  -4247232.18044  23859638.243    23859649.165
 -12290840.55849  -9577276.55346  21714377.897    21714382.916
 -24654755.18149 -19211502.22047  20322723.954    20322726.288
 -10807047.13349  -8421073.74746  21839685.290    21839691.183
   -780180.80349   -607935.64846  21942110.517    21942116.494
  -9785494.14848  -7625064.71045  23125062.474    23125068.693
 02  1  6  4 19 30.0000000  0  8G27G 1G22G 2G13G31G 3G 8
 -16130589.59049 -12569306.58847  21490849.204    21490853.340
 -19872103.12049 -15484763.03747  21314883.107    21314888.230
  -5341363.06948                  23880420.404
 -12342785.67949  -9617753.29146  21704492.563    21704498.007
 -24643746.05049 -19202923.73247  20324818.949    20324821.215
 -10882206.56749  -8479639.54446  21825383.295    21825389.342
   -780234.31949   -607977.39246  21942100.098    21942106.518
  -9872793.01948  -7693089.86145  23108450.108    23108457.443
 02  1  6  4 20  0.0000000  0  8G27G 1G22G 2G13G31G 3G 8
 -16185866.42749 -12612379.48247  21480330.695    21480334.744
 -19800118.44149 -15428671.19647  21328580.852    21328586.234
  -5232100.15048                  23901212.241
 -12394423.53449  -9657990.60447  21694666.536    21694671.963
 -24632186.12449 -19193916.05647  20327018.880    20327021.072
 -10956921.87249  -8537859.27046  21811165.243    21811171.691
   -779694.74049   -607556.98746  21942202.549    21942208.543
  -9960012.44548  -7761053.07245  23091853.470    23091859.535
 02  1  6  4 20 30.0000000  0  7G27G 1G22G 2G13G31G 8
 -16240950.10349 -12655301.85647  21469848.937    21469852.786
 -19727696.16049 -15372238.36747  21342362.802    21342367.827
  -5122755.33348  -3991791.70844  23922020.261    23922031.430
 -12445724.56649  -9697965.46346  21684904.799    21684909.554
 -24620045.87149 -19184456.17847  20329329.157    20329331.404
 -11031160.76349  -8595707.75246  21797038.335    21797044.361
 -10047122.37448  -7828931.00245  23075276.890    23075282.102
 02  1  6  4 21  0.0000000  0  7G27G 1G22G 2G13G31G 8
 -16295871.07049 -12698097.45247  21459397.829    21459401.913
 -19654869.19649 -15315490.20746  21356220.907    21356226.775
  -5013361.98248                  23942837.125
 -12496720.02049  -9737702.20247  21675199.805    21675205.254
 -24607356.42849 -19174568.36147  20331743.729    20331746.071
 -11104951.80849  -8653207.26146  21782996.085    21783002.630
 -10134153.61948  -7896747.61845  23058714.793    23058720.340
 02  1  6  4 21 30.0000000  0  7G27G 1G22G 2G13G31G 8
 -16350624.60049 -12740762.57647  21448978.666    21448982.260
 -19581635.01549 -15258424.73646  21370157.723    21370162.905
  -4903918.18748                  23963664.461
 -12547405.85349  -9777197.67747  21665555.393    21665560.222
 -24594113.76249 -19164249.46447  20334263.899    20334266.269
 -11178288.34749  -8710352.60446  21769040.095    21769046.440
 -10221101.50348  -7964499.29245  23042169.172    23042175.384
 02  1  6  4 22  0.0000000  0  8G27G 1G22G 2G13G31G28G 8
 -16405220.87749 -12783305.16847  21438589.037    21438592.818
 -19508006.29749 -15201051.83446  21384167.947    21384173.662
  -4794437.07348                  23984497.051
 -12597793.00749  -9816460.41947  21655966.696    21655971.934
 -24580329.13149 -19153508.25347  20336887.046    20336889.388
 -11251178.37149  -8767150.00446  21755170.689    21755176.384
         -.65858                  25385116.145
 -10307976.48348  -8032194.15845  23025637.962    23025644.631
 02  1  6  4 22 30.0000000  0  7G27G 1G22G 2G13G31G 8
 -16459649.06649 -12825716.77947  21428231.785    21428236.041
 -19433974.58349 -15143364.91546  21398256.361    21398261.902
  -4684910.63648                  24005340.098
 -12647871.51949  -9855482.65947  21646436.802    21646442.246
 -24565991.80049 -19142336.36847  20339615.362    20339617.614
 -11323609.37349  -8823589.72446  21741386.467    21741392.871
 -10394767.82148  -8099823.82945  23009122.068    23009128.920
 02  1  6  4 23  0.0000000  0  7G27G 1G22G 2G13G31G 8
 -16513905.61249 -12867994.64247  21417907.063    21417911.132
 -19359538.56449 -15085362.95646  21412420.793    21412426.788
  -4575337.91248  -3565233.85144  24026190.882    24026200.314
 -12697638.35149  -9894262.03347  21636967.146    21636971.996
 -24551098.94349 -19130731.60447  20342449.402    20342451.684
 -11395575.74249  -8879667.39046  21727692.208    21727699.465
 -10481471.96248  -8167385.57645  22992622.330    22992628.797
 02  1  6  4 23 30.0000000  0  7G27G 1G22G 2G13G31G 8
 -16567988.49149 -12910137.18747  21407615.699    21407619.641
 -19284698.62249 -15027046.26046  21426662.861    21426668.241
  -4465719.74648  -3479817.33644  24047050.635    24047062.053
 -12747092.15549  -9932797.49147  21627555.806    21627561.243
 -24535649.41549 -19118693.07647  20345389.342    20345391.680
 -11467073.58949  -8935379.97746  21714086.816    21714092.693
 -10568087.14248  -8234878.00145  22976140.346    22976147.691
 02  1  6  4 24  0.0000000  0  7G27G 1G22G 2G13G31G 8
 -16621887.66649 -12952136.58247  21397359.112    21397363.020
 -19209446.89549 -14968408.68846  21440982.704    21440988.549
  -4356048.87948                  24067920.524
 -12796223.72849  -9971081.85447  21618206.377    21618211.707
 -24519633.96749 -19106213.56947  20348436.925    20348439.328
 -11538090.73949  -8990717.99446  21700572.245    21700578.396
 -10654603.47248  -8302293.39245  22959676.956    22959682.790
 02  1  6  4 24 30.0000000  0  7G27G 1G22G 2G13G31G 8
 -16675605.86349 -12993994.94947  21387136.887    21387140.902
 -19133788.34749 -14909454.11946  21455380.160    21455386.359
  -4246330.95048  -3308865.51844  24088800.130    24088810.059
 -12845036.39749 -10009117.71647  21608917.353    21608923.192
 -24503056.17049 -19093295.86647  20351591.916    20351594.228
 -11608628.11749  -9045682.15946  21687149.558    21687156.233
 -10741023.70948  -8369633.90945  22943231.574    22943238.481
 02  1  6  4 25  0.0000000  0  7G27G 1G22G 2G13G31G 8
 -16729151.07849 -13035718.52347  21376947.492    21376951.707
 -19057733.46349 -14850190.71946  21469852.995    21469858.776
  -4136576.45448                  24109684.353
 -12893539.01149 -10046911.97347  21599688.675    21599693.925
 -24485924.58149 -19079946.64047  20354852.160    20354854.522
 -11678691.85649  -9100277.26546  21673817.139    21673823.135
 -10827356.19648  -8436906.02345  22926802.741    22926809.629
 02  1  6  4 25 30.0000000  0  7G27G 1G22G 2G13G31G 8
 -16782523.73149 -13077307.62747  21366790.912    21366795.100
 -18981285.15049 -14790620.74746  21484401.031    21484407.087
  -4026788.55548  -3137794.02944  24130578.740    24130589.413
 -12941732.99049 -10084465.73047  21590516.927    21590522.787
 -24468240.64349 -19066167.01147  20358217.049    20358219.499
 -11748280.41749  -9154502.10046  21660574.414    21660580.630
 -10913601.40248  -8504110.14045  22910391.002    22910397.729
 02  1  6  4 26  0.0000000  0  8G27G 1G22G 2G13G31G28G 8
 -16835713.11749 -13118753.92847  21356669.237    21356673.508
 -18904435.02849 -14730737.67946  21499025.214    21499030.807
  -3916959.36348                  24151476.268
 -12989608.30649 -10121771.16747  21581406.448    21581411.933
 -24449994.34849 -19051949.18047  20361688.932    20361691.657
 -11817381.29449  -9208346.92246  21647425.534    21647431.045
        -1.15158                  25231445.117
 -10999748.74948  -8571237.97845  22893998.334    22894004.823
 02  1  6  4 26 30.0000000  0  7G27G 1G22G 2G13G31G 8
 -16888722.87949 -13160060.26047  21346582.019    21346586.207
 -18827189.12349 -14670546.21246  21513724.684    21513730.627
  -3807095.22548  -2966604.80944  24172384.904    24172396.321
 -13037169.33849 -10158831.72447  21572356.295    21572361.724
 -24431190.36149 -19037296.78747  20365267.518    20365270.050
 -11885996.27749  -9261813.13746  21634368.314    21634374.233
 -11085801.96248  -8638292.49045  22877622.746    22877628.048
 02  1  6  4 27  0.0000000  0  8G27G 1G22G 2G13G31G28G 8
 -16941557.75249 -13201230.31147  21336527.834    21336532.051
 -18749554.93949 -14610052.18246  21528497.957    21528504.340
  -3697203.92348                  24193295.843
 -13084421.55549 -10195651.63847  21563364.488    21563370.025
 -24411834.20149 -19022214.12547  20368950.831    20368953.383
 -11954128.36749  -9314903.07246  21621403.274    21621409.231
         -.47358                  25193201.123
 -11171765.92048  -8705277.39345  22861264.302    22861271.071
 02  1  6  4 27 30.0000000  0  8G27G 1G22G 2G13G31G28G 8
 -16994228.93249 -13242272.81047  21326504.795    21326509.099
 -18671546.03649 -14549266.16346  21543342.590    21543348.574
  -3587298.96548                  24214208.862
 -13131377.08249 -10232240.36247  21554428.701    21554434.134
 -24391937.95049 -19006710.61247  20372736.843    20372739.541
 -12021786.75649  -9367623.89646  21608528.093    21608534.007
   -100365.40848                  25174102.371
 -11257652.01948  -8772201.63445  22844921.538    22844926.790
 02  1  6  4 28  0.0000000  0  8G27G 1G22G 2G13G31G28G 8
 -17046720.99349 -13283175.73247  21316515.744    21316520.159
 -18593149.63649 -14488178.19546  21558261.200    21558267.327
  -3477367.93648  -2709675.28144  24235131.238    24235140.671
 -13178021.24649 -10268586.46047  21545553.202    21545558.740
 -24371487.23849 -18990775.05247  20376628.640    20376631.271
 -12088954.18249  -9419962.15446  21595746.692    21595752.310
   -200633.64548                  25155031.633
 -11343445.02048  -8839053.33745  22828594.260    22828601.202
 02  1  6  4 28 30.0000000  0  7G27G 1G22G 2G13G31G 8
 -17099027.89349 -13323934.37247  21306562.040    21306566.162
 -18514362.20849 -14426785.53246  21573254.102    21573260.785
  -3367407.45748                  24256053.352
 -13224349.11349 -10304686.09447  21536737.363    21536742.621
 -24350476.93449 -18974403.44647  20380626.923    20380629.406
 -12155623.00049  -9471911.89646  21583060.075    21583066.252
 -11429139.02648  -8905827.89445  22812288.191    22812294.491
 02  1  6  4 29  0.0000000  0  7G27G 1G22G 2G13G31G 8
 -17151132.84549 -13364535.64947  21296646.929    21296651.322
 -18435169.62049 -14365077.15646  21588323.577    21588330.288
  -3257403.68948                  24276989.397
 -13270344.87549 -10340526.94847  21527984.423    21527989.664
 -24328891.59349 -18957583.75647  20384734.389    20384737.032
 -12221775.02249  -9523458.93546  21570471.755    21570478.037
 -11514717.41848  -8972512.37245  22796003.129    22796009.032
 02  1  6  4 29 30.0000000  0  8G27G 1G22G 2G13G31G28G 8
 -17203069.28449 -13405005.61647  21286764.153    21286768.214
 -18355607.93449 -14303081.17446  21603463.851    21603470.200
  -3147392.71448                  24297921.706
 -13316042.74449 -10376135.68247  21519288.464    21519293.906
 -24306765.58349 -18940342.76647  20388944.779    20388947.575
 -12287441.67149  -9574627.76246  21557975.918    21557981.788
          .17758                  25097896.340
 -11600214.03848  -9039133.13145  22779733.251    22779740.967
 02  1  6  4 30  0.0000000  0  8G27G 1G22G 2G13G31G28G 8
 -17254823.58449 -13445333.66447  21276915.844    21276919.765
 -18275665.73949 -14240788.68146  21618676.918    21618683.228
  -3037363.41048                  24318861.350
 -13361429.88549 -10411502.28547  21510651.472    21510656.954
 -24284086.16449 -18922670.54447  20393260.526    20393263.297
 -12352607.51349  -9625406.35546  21545575.077    21545581.355
    -99871.77548                  25078890.253
 -11685614.95649  -9105679.32345  22763483.130    22763489.473
 02  1  6  4 30 30.0000000  0  8G27G 1G22G 2G13G31G28G 8
 -17306383.62049 -13485510.33647  21267104.051    21267108.245
 -18195333.55049 -14178192.29946  21633962.894    21633969.691
  -2927306.31448                  24339804.795
 -13406494.82949 -10446617.82647  21502075.786    21502081.270
 -24260842.16649 -18904558.39447  20397683.941    20397686.653
 -12417258.77349  -9675783.97346  21533272.345    21533277.973
   -199633.23948                  25059906.796
 -11770908.45848  -9172141.79945  22747251.062    22747257.723
 02  1  6  4 31  0.0000000  0  8G27G 1G22G 2G13G31G28G 8
 -17357752.52149 -13525538.07347  21257328.687    21257332.809
 -18114617.17949 -14115296.55646  21649323.395    21649329.613
  -2817227.36148                  24360751.264
 -13451241.69049 -10481485.50747  21493560.579    21493566.416
 -24237038.03949 -18886009.77747  20402213.750    20402216.492
 -12481396.98649  -9725761.82046  21521067.686    21521073.229
   -299287.42048                  25040943.365
 -11856097.39948  -9238522.80045  22731040.329    22731045.741
 02  1  6  4 31 30.0000000  0  8G27G 1G22G 2G13G31G28G 8
 -17408936.72649 -13565421.88947  21247588.838    21247593.033
 -18033525.59149 -14052108.43146  21664754.571    21664760.811
  -2707135.69248                  24381702.876
 -13495678.03249 -10516111.22247  21485104.940    21485110.477
 -24212681.16949 -18867030.45247  20406848.869    20406851.775
 -12545026.70949  -9775343.43146  21508958.793    21508964.724
   -398840.57948                  25021998.261
 -11941188.70448  -9304827.72145  22714848.225    22714854.087
 02  1  6  4 32  0.0000000  0  8G27G 1G22G 2G13G31G28G 8
 -17459934.72249 -13605160.61047  21237883.863    21237888.128
 -17952059.95249 -13988628.83246  21680257.198    21680263.571
  -2597032.39148                  24402653.795
 -13539803.40149 -10550494.62847  21476707.816    21476713.335
 -24187771.45149 -18847620.33747  20411589.113    20411591.916
 -12608144.99949  -9824526.51846  21496948.166    21496953.928
   -498291.09248                  25003073.434
 -12026181.04148  -9371055.51945  22698674.271    22698682.034
 02  1  6  4 32 30.0000000  0  8G27G 1G22G 2G13G31G28G 8
 -17510739.40549 -13644748.69347  21228216.046    21228220.307
 -17870216.07449 -13924854.50846  21695831.611    21695838.794
  -2486913.40148                  24423609.596
 -13583611.75149 -10584631.01047  21468371.614    21468377.124
 -24162303.16649 -18827774.97647  20416435.434    20416438.068
 -12670743.36649  -9873304.47246  21485035.873    21485041.917
   -597631.65948                  24984169.032
 -12111067.53949  -9437200.84946  22682522.485    22682527.208
 02  1  6  4 33  0.0000000  0  8G27G 1G22G 2G13G31G28G 8
 -17561345.42949 -13684181.98147  21218586.236    21218590.480
 -17787991.08549 -13860783.20846  21711478.605    21711485.369
  -2376775.96048  -1852073.83744  24444567.791    24444577.719
 -13627098.67049 -10618516.93047  21460096.670    21460101.798
 -24136271.93349 -18807490.95647  20421389.046    20421391.692
 -12732814.99949  -9921671.97546  21473223.737    21473229.962
   -696856.53148                  24965287.239
 -12195842.87649  -9503259.57445  22666389.229    22666395.750
 02  1  6  4 33 30.0000000  0  8G27G 1G22G 2G13G31G28G 8
 -17611762.64449 -13723468.14047  21208991.870    21208996.488
 -17705397.68249 -13796424.83346  21727195.449    21727202.457
  -2266632.51148                  24465527.924
 -13670275.15549 -10652160.94247  21451880.183    21451885.381
 -24109688.94849 -18786776.99647  20426447.731    20426450.411
 -12794368.12949  -9969635.44146  21461510.987    21461516.831
   -795975.65648                  24946425.531
 -12280517.17749  -9569239.54246  22650276.277    22650284.468
 02  1  6  4 34  0.0000000  0  8G27G 1G22G 2G13G31G28G 8
 -17661990.18749 -13762606.50447  21199433.949    21199438.682
 -17622437.55249 -13731780.69646  21742982.366    21742989.356
  -2156484.85048                  24486488.141
 -13713141.12049 -10685562.99347  21443723.266    21443728.678
 -24082554.62949 -18765633.42847  20431611.125    20431613.935
 -12855400.32649 -10017192.98646  21449897.028    21449903.111
   -894987.77048                  24927583.759
 -12365089.66649  -9635140.19546  22634183.656    22634188.133
 02  1  6  4 34 30.0000000  0  8G27G 1G22G 2G13G31G28G 8
 -17712021.30649 -13801591.79947  21189913.208    21189917.917
 -17539106.84649 -13666847.80946  21758839.899    21758847.390
  -2046328.97648                  24507450.401
 -13755690.88749 -10718718.66247  21435625.901    21435631.409
 -24054863.52149 -18744055.99447  20436880.538    20436883.415
 -12915903.57649 -10064338.36246  21438383.521    21438389.106
   -993886.05848                  24908764.520
 -12449553.64348  -9700956.27545  22618108.539    22618115.802
 02  1  6  4 35  0.0000000  0  8G27G 1G22G 2G13G31G28G 8
 -17761870.71849 -13840435.50647  21180427.078    21180431.688
 -17455422.88749 -13601639.65546  21774764.347    21774771.189
  -1936182.14248                  24528410.714
 -13797940.19749 -10751640.20547  21427586.419    21427591.849
 -24026631.54249 -18722057.10647  20442253.253    20442256.208
 -12975890.94749 -10111081.74546  21426968.037    21426974.340
  -1092685.16248                  24889963.510
 -12533924.04949  -9766699.44146  22602054.877    22602060.795
