     2.10           OBSERVATION DATA    G (GPS)             RINEX VERSION / TYPE
teqc  2004Apr5                          20041208 15:58:03UTCPGM / RUN BY / DATE
OBSERVATION MODE: Permanent                                 COMMENT
CHUM Chumysh (CHUM)                                         MARKER NAME
25601M001                                                   MARKER NUMBER
T136                ROGUE SNR-8000       3.20               REC # / TYPE / VERS
113                 AOAD/M_T        NONE                    ANT # / TYPE
        0.0900        0.0000        0.0000                  ANTENNA: DELTA H/E/N
  1228950.8688  4508079.8916  4327868.4910                  APPROX POSITION XYZ
  74.75109757  42.99850107  716.3249  LonLatAlt  S/W        COMMENT
Linux 2.0.36|Pentium II|gcc -static|Linux|486/DX+           COMMENT
BIT 2 OF LLI FLAGS DATA COLLECTED UNDER A/S CONDITION       COMMENT
Konovalov           IVTAN                                   OBSERVER / AGENCY
     1     1                                                WAVELENGTH FACT L1/2
     5    L1    L2    C1    P2    P1                        # / TYPES OF OBSERV
    30.0000                                                 INTERVAL
    P1 =    P1  TurboRogue; =    Y1  Benchmark              COMMENT
    L1 = L1(P1) TurboRogue; = L1(Y1) Benchmark              COMMENT
    P2 =    P2  TurboRogue; =    Y2  Benchmark              COMMENT
    L2 = L2(P2) TurboRogue; = L2(Y2) Benchmark              COMMENT
 SNR is mapped to RINEX snr flag value [1,4-9]              COMMENT
    SNR:  >=316 >=100 >=31.6 >=10 >=3.2    >0 bad=0         COMMENT
L1 & L2:      9     8     7     6     5     4     1         COMMENT
  2002     1     1     0     0    0.0000000     GPS         TIME OF FIRST OBS
  2002     1     1    23    59   30.0000000     GPS         TIME OF LAST OBS
                                                            END OF HEADER
 02  1  1  0  0  0.0000000  0  8G22G25G21G20G29G 1G11G14
  -3960394.21548  -3086021.78144  24148520.351    24148523.553
 -24367416.44849 -18987591.60147  20454029.924    20454030.191
  -6503193.28548                  24082127.278
 -15553197.66449 -12119372.17346  22295367.483    22295368.834
 -14899564.35549 -11610045.92747  20903134.626    20903135.052
  -3281447.58748  -2556973.01844  24495071.261    24495072.630
 -14522337.59449 -11316109.00746  22570513.682    22570513.112
  -6428797.39949  -5009448.31346  22338326.857    22338326.834
 02  1  1  0  0 30.0000000  0  8G22G25G21G20G29G 1G11G14
  -4074273.99348  -3174759.31944  24126848.239    24126850.653
 -24367923.49949 -18987986.69947  20453933.274    20453933.627
  -6397871.93448  -4985353.61544  24102169.451    24102172.909
 -15638448.72649 -12185801.56046  22279145.928    22279146.005
 -14862434.84249 -11581113.85047  20910200.421    20910200.730
  -3364545.84048  -2621724.93844  24479257.092    24479260.245
 -14473295.47049 -11277894.39846  22579845.751    22579846.388
  -6359295.55149  -4955291.05246  22351552.630    22351552.999
 02  1  1  0  1  0.0000000  0  8G22G25G21G20G29G 1G11G14
  -4188159.25848  -3263501.12544  24105177.229    24105177.984
 -24367968.21049 -18988021.52847  20453924.809    20453924.904
  -6292359.35748                  24122247.936
 -15723436.11249 -12252025.50246  22262972.207    22262972.687
 -14825082.97049 -11552008.50747  20917308.236    20917308.628
  -3447589.57748  -2686434.37144  24463455.454    24463456.876
 -14423808.67949 -11239333.30946  22589261.624    22589262.738
  -6289647.35449  -4901019.75146  22364806.816    22364806.329
 02  1  1  0  1 30.0000000  0  8G22G25G21G20G29G 1G11G14
  -4302047.99748  -3352245.61644  24083503.743    24083507.314
 -24367552.24449 -18987697.38547  20454003.958    20454004.093
  -6186657.92848  -4820771.36544  24142362.317    24142365.409
 -15808158.49149 -12318042.93146  22246850.723    22246851.317
 -14787509.85949 -11522730.76646  20924457.982    20924458.485
  -3530579.36748  -2751101.73544  24447662.379    24447668.673
 -14373880.54449 -11200428.29946  22598764.145    22598764.409
  -6219854.05249  -4846635.38646  22378087.558    22378087.869
 02  1  1  0  2  0.0000000  0  8G22G25G21G20G29G 1G11G14
  -4415933.21048  -3440987.39944  24061833.783    24061835.389
 -24366672.33649 -18987011.73147  20454171.523    20454171.771
  -6080765.36548                  24162512.481
 -15892609.56749 -12383848.95946  22230780.226    22230780.771
 -14749711.89149 -11493277.81046  20931650.716    20931651.101
  -3613511.34348  -2815724.07844  24431881.538    24431883.074
 -14323509.32049 -11161178.03246  22608350.144    22608350.173
  -6149912.41149  -4792135.42246  22391397.186    22391397.605
 02  1  1  0  2 30.0000000  0  8G22G25G21G20G29G 1G11G14
  -4529798.95948  -3529713.97144  24040164.483    24040166.353
 -24365316.10149 -18985954.91847  20454429.302    20454429.603
  -5974670.34448  -4655586.32144  24182702.200    24182705.266
 -15976773.81449 -12449431.49046  22214763.568    22214764.241
 -14711676.18249 -11463639.60346  20938888.914    20938889.308
  -3696371.89548  -2880290.77444  24416114.294    24416115.298
 -14272684.02049 -11121573.93846  22618020.350    22618021.010
  -6079809.77749  -4737510.01146  22404737.165    22404737.165
 02  1  1  0  3  0.0000000  0  8G22G25G21G20G29G 1G11G14
  -4643658.40748  -3618435.62744  24018499.013    24018503.592
 -24363500.89149 -18984540.45747  20454774.512    20454774.560
  -5868390.57648                  24202926.905
 -16060664.87549 -12514801.14146  22198800.403    22198800.733
 -14673419.08949 -11433828.88946  20946168.955    20946169.314
  -3779177.10648  -2944814.29444  24400355.763    24400358.446
 -14221423.10849 -11081630.40546  22627774.728    22627775.076
  -6009563.02649  -4682772.30546  22418104.704    22418105.047
 02  1  1  0  3 30.0000000  0  8G22G25G21G20G29G 1G11G14
  -4757516.99048  -3707156.66544  23996832.247    23996835.224
 -24361235.90649 -18982775.52647  20455205.677    20455205.875
  -5761936.36248  -4489819.65944  24223184.049    24223181.871
 -16144288.92549 -12579962.72246  22182886.965    22182887.503
 -14634949.30249 -11403852.43446  20953489.335    20953489.801
  -3861935.19948  -3009301.11245  24384608.546    24384612.293
 -14169737.47749 -11041355.91846  22637611.758    22637611.821
  -5939181.01249  -4627929.20046  22431498.369    22431498.314
 02  1  1  0  4  0.0000000  0  8G22G25G21G20G29G 1G11G14
  -4871363.50248  -3795868.24544  23975168.459    23975170.845
 -24358513.50549 -18980654.16047  20455723.942    20455723.963
  -5655301.68248                  24243476.581
 -16227635.39549 -12644908.01146  22167025.952    22167027.091
 -14596258.81949 -11373704.01046  20960851.605    20960852.108
  -3944637.61348  -3073744.56544  24368870.629    24368872.839
 -14117621.12749 -11000745.81846  22647528.529    22647529.108
  -5868655.76349  -4572974.47346  22444918.787    22444918.394
 02  1  1  0  4 30.0000000  0  8G22G25G21G20G29G 1G11G14
  -4985196.02748  -3884568.92644  23953505.908    23953509.353
 -24355336.06049 -18978178.22247  20456328.733    20456328.753
  -5548489.36448                  24263801.614
 -16310703.06449 -12709636.05246  22151219.542    22151219.973
 -14557349.16549 -11343384.80946  20968255.783    20968256.392
  -4027285.29648  -3138145.33344  24353143.188    24353146.377
 -14065077.35149 -10959802.65646  22657526.148    22657527.110
  -5797989.20149  -4517909.64046  22458365.557    22458365.903
 02  1  1  0  5  0.0000000  0  8G22G25G21G20G29G 1G11G14
  -5099011.67748  -3973256.47544  23931848.436    23931849.365
 -24351704.44549 -18975348.37947  20457019.697    20457019.845
  -5441500.81248  -4240129.77244  24284161.626    24284160.777
 -16393489.57449 -12774145.00646  22135465.234    22135466.054
 -14518220.56449 -11312894.99446  20975701.829    20975702.786
  -4109878.06448  -3202503.05145  24337426.152    24337427.963
 -14012108.69849 -10918528.39746  22667607.005    22667606.864
  -5727181.83049  -4462735.08546  22471840.099    22471840.276
 02  1  1  0  5 30.0000000  0  8G29G22G25G21G20G 1G11G14
 -14478872.97449 -11282234.53946  20983189.399    20983190.063
  -5212807.07248  -4061928.23144  23910192.615    23910194.635
 -24347619.33349 -18972165.16847  20457796.920    20457797.032
  -5334337.80948                  24304553.898
 -16475992.26849 -12838432.81846  22119765.949    22119766.224
  -4192415.31548  -3266818.31144  24321719.170    24321719.588
 -13958717.53449 -10876924.93246  22677766.901    22677767.490
  -5656234.10149  -4407451.14446  22485341.302    22485341.863
 02  1  1  0  6  0.0000000  0  8G29G22G25G21G20G 1G11G14
 -14439303.22549 -11251400.97146  20990719.469    20990720.035
  -5326575.93548  -4150579.27444  23888544.373    23888545.917
 -24343077.82249 -18968626.31647  20458661.065    20458661.134
  -5226999.22948                  24324979.362
 -16558205.19349 -12902494.82246  22104121.152    22104121.609
  -4274893.22748  -3331086.62445  24306024.784    24306029.049
 -13904902.07349 -10834990.87446  22688007.485    22688007.877
  -5585142.75049  -4352055.30846  22498869.350    22498869.972
 02  1  1  0  6 30.0000000  0  8G29G22G25G21G20G 1G11G14
 -14399512.59949 -11220395.29346  20998291.405    20998292.098
  -5440316.06548  -4239207.94944  23866899.607    23866902.569
 -24338081.99249 -18964733.46047  20459611.682    20459611.805
  -5119487.33348                  24345438.169
 -16640126.99849 -12966329.98146  22088532.306    22088531.998
  -4357312.57348  -3395309.48144  24290340.654    24290343.849
 -13850665.88549 -10792728.99045  22698328.537    22698328.920
  -5513909.17849  -4296548.63646  22512424.534    22512424.816
 02  1  1  0  7  0.0000000  0  8G22G25G21G20G29G 1G11G14
  -5554024.02348  -4327811.52545  23845262.233    23845263.796
 -24332632.20949 -18960486.86547  20460648.676    20460648.862
  -5011803.58648                  24365929.395
 -16721754.81049 -13029936.04146  22072998.256    22072998.721
 -14359500.61849 -11189217.13346  21005905.163    21005906.198
  -4439672.72148  -3459486.21345  24274668.301    24274672.387
 -13796011.16949 -10750140.97146  22708728.871    22708729.835
  -5442533.74749  -4240931.43746  22526007.030    22526007.334
 02  1  1  0  7 30.0000000  0  8G29G22G25G21G20G 1G11G14
 -14319259.38649 -11157860.33347  21013563.057    21013563.914
  -5667688.09348  -4416380.94644  23823632.370    23823634.637
 -24326721.01249 -18955880.72847  20461773.628    20461773.822
  -4903941.44848                  24386455.157
 -16803077.72649 -13093304.50846  22057523.943    22057524.356
  -4521964.97748  -3523610.03445  24259007.789    24259011.230
 -13740931.86149 -10707222.12145  22719210.093    22719211.035
  -5371008.18649  -4185197.26346  22539617.783    22539617.662
 02  1  1  0  8  0.0000000  0  8G29G22G25G21G20G 1G11G14
 -14278799.31449 -11126333.00546  21021262.296    21021262.943
  -5781315.87548  -4504922.03944  23802009.989    23802009.578
 -24320359.71249 -18950923.86547  20462984.288    20462984.350
  -4795912.98848                  24407012.727
 -16884103.57849 -13156441.50146  22042104.964    22042105.393
  -4604199.49548  -3587688.90345  24243360.810    24243360.357
 -13685440.65749 -10663982.30545  22729770.307    22729770.625
  -5299343.61949  -4129354.75646  22553255.066    22553255.507
 02  1  1  0  8 30.0000000  0  8G29G22G25G21G20G 1G11G14
 -14238114.22149 -11094630.34547  21029004.271    21029004.773
  -5894897.92848  -4593427.50944  23780395.484    23780398.640
 -24313542.61449 -18945611.83147  20464281.457    20464281.464
  -4687713.48548                  24427601.675
 -16964823.90849 -13219340.42546  22026744.128    22026744.697
  -4686369.67948  -3651717.66045  24227723.198    24227726.249
 -13629533.67749 -10620418.51345  22740408.301    22740408.770
  -5227534.04849  -4073399.26146  22566920.463    22566920.661
 02  1  1  0  9  0.0000000  0  8G29G22G25G21G20G 1G11G14
 -14197209.87149 -11062756.82847  21036788.312    21036788.873
  -6008436.57848  -4681899.14144  23758790.033    23758792.297
 -24306276.41649 -18939949.85447  20465664.061    20465664.124
  -4579350.38948                  24448223.452
 -17045241.35049 -13282003.33346  22011441.502    22011441.504
  -4768480.57848  -3715700.18145  24212097.657    24212101.766
 -13573218.72149 -10576536.84445  22751125.158    22751126.183
  -5155585.33849  -4017335.35046  22580611.318    22580611.993
 02  1  1  0  9 30.0000000  0  8G22G25G21G20G29G 1G11G14
  -6121927.89348  -4770333.89144  23737192.834    23737193.459
 -24298561.40749 -18933938.14847  20467132.097    20467132.083
  -4470825.19348                  24468873.733
 -17125353.18549 -13344428.10746  21996196.406    21996196.857
 -14156085.65649 -11030711.98847  21044613.914    21044614.645
  -4850531.24848  -3779635.80245  24196484.575    24196485.344
 -13516497.55549 -10532338.65345  22761919.203    22761919.872
  -5083497.33749  -3961162.89846  22594329.271    22594330.200
 02  1  1  0 10  0.0000000  0  8G22G25G21G20G29G 1G11G14
  -6235379.16948  -4858737.46444  23715604.834    23715607.076
 -24290408.89349 -18927585.53147  20468683.601    20468683.553
  -4362149.86948                  24489554.757
 -17205167.11549 -13406620.75846  21981008.570    21981009.025
 -14114752.10949 -10998504.02847  21052479.427    21052480.038
  -4932531.53448  -3843532.15045  24180880.283    24180882.855
 -13459382.72549 -10487833.68845  22772787.154    22772787.787
  -5011280.63949  -3904890.17146  22608071.871    22608072.608
 02  1  1  0 10 30.0000000  0  8G22G25G21G20G29G 1G11G14
  -6348773.53048  -4947096.66844  23694026.181    23694027.503
 -24281806.09349 -18920882.04447  20470320.655    20470320.685
  -4253312.47748                  24510266.173
 -17284666.95349 -13468568.65846  21965879.819    21965880.394
 -14073195.75649 -10966122.45747  21060387.821    21060388.354
  -5014467.60848  -3907378.44645  24165288.429    24165291.872
 -13401863.25049 -10443013.38645  22783732.541    22783732.772
  -4938922.09049  -3848506.90946  22621841.007    22621840.823
 02  1  1  0 11  0.0000000  0  8G22G25G21G20G29G 1G11G14
  -6462110.82648  -5035411.40644  23672458.234    23672460.587
 -24272756.60949 -18913830.49147  20472042.649    20472042.731
  -4144317.61448                  24531006.953
 -17363853.03549 -13530272.07846  21950811.739    21950811.590
 -14031419.53449 -10933569.56347  21068337.486    21068338.074
  -5096342.02348  -3971176.74145  24149708.518    24149708.881
 -13343944.26949 -10397881.78645  22794755.005    22794755.283
  -4866425.15949  -3792015.79446  22635636.639    22635636.924
 02  1  1  0 11 30.0000000  0  8G22G25G21G20G29G 1G11G14
  -6575384.69048  -5123676.70044  23650903.511    23650905.063
 -24263258.36449 -18906429.25447  20473850.162    20473850.335
  -4035163.83248                  24551778.335
 -17442719.77449 -13591726.65446  21935803.155    21935803.972
 -13989420.54949 -10900843.08647  21076329.166    21076329.778
  -5178151.23648  -4034924.23145  24134140.575    24134142.594
 -13285625.09049 -10352438.33145  22805852.898    22805854.189
  -4793786.84049  -3735414.52046  22649459.958    22649460.195
 02  1  1  0 12  0.0000000  0  8G22G25G21G20G29G 1G11G14
  -6688601.67448  -5211897.70344  23629358.567    23629361.200
 -24253321.95149 -18898686.58947  20475741.119    20475741.152
  -3925862.58048                  24572577.774
 -17521274.55049 -13652938.15146  21920855.066    21920855.423
 -13947208.59649 -10867950.66347  21084361.927    21084362.356
  -5259904.66948  -4098628.25645  24118582.674    24118587.601
 -13226918.19849 -10306692.73445  22817023.784    22817024.501
  -4721017.44749  -3678711.11545  22663306.886    22663307.229
 02  1  1  0 12 30.0000000  0  8G22G25G21G20G29G 1G11G14
  -6801766.35248  -5300077.92745  23607824.416    23607827.500
 -24242956.27449 -18890609.43447  20477713.549    20477713.505
  -3816423.66048                  24593402.296
 -17599522.31549 -13713910.41646  21905964.982    21905965.405
 -13904791.59049 -10834898.45647  21092434.114    21092434.648
  -5341609.67348  -4162294.48145  24103035.638    24103035.794
 -13167833.46549 -10260652.75145  22828267.350    22828269.599
  -4648124.99449  -3621911.83946  22677177.703    22677177.807
 02  1  1  0 13  0.0000000  0  8G22G25G21G20G29G 1G11G14
  -6914859.96048  -5388202.77244  23586303.223    23586306.777
 -24232146.69749 -18882186.38247  20479770.414    20479770.476
  -3706833.37048                  24614257.731
 -17677445.18749 -13774629.51146  21891136.145    21891136.517
 -13862154.09049 -10801674.44147  21100547.632    21100548.132
  -5423250.33248  -4225910.60245  24087499.966    24087503.411
 -13108357.72549 -10214308.06545  22839585.971    22839586.906
  -4575094.31249  -3565004.82446  22691075.525    22691075.067
 02  1  1  0 13 30.0000000  0  8G22G25G21G20G29G 1G11G14
  -7027876.83448  -5476267.82045  23564796.051    23564799.377
 -24220891.47349 -18873416.07347  20481912.271    20481912.373
  -3597090.78448                  24635140.626
 -17755038.04149 -13835091.46046  21876371.706    21876372.243
 -13819293.72149 -10768276.75347  21108703.780    21108704.373
  -5504823.89548  -4289474.42145  24071975.880    24071978.872
 -13048490.99549 -10167658.68045  22850977.556    22850978.732
  -4501923.20049  -3507988.38445  22704999.277    22704999.823
 02  1  1  0 14  0.0000000  0  8G22G25G21G20G29G 1G11G14
  -7140810.28548  -5564267.89244  23543306.224    23543308.694
 -24209188.38849 -18864296.78447  20484139.457    20484139.591
  -3487194.46848                  24656053.050
 -17832295.16449 -13895291.79646  21861669.613    21861670.082
 -13776207.27849 -10734702.91247  21116902.137    21116902.797
  -5586326.61748  -4352983.07945  24056467.544    24056470.081
 -12988232.57449 -10120704.09945  22862443.976    22862445.299
  -4428608.72349  -3450860.24945  22718950.787    22718950.302
 02  1  1  0 14 30.0000000  0  8G22G25G21G20G29G 1G11G14
  -7253665.68648  -5652207.12344  23521830.562    23521831.352
 -24197046.70949 -18854835.73247  20486449.913    20486449.971
  -3377154.55948                  24676993.114
 -17909222.30949 -13955235.00546  21847031.049    21847031.020
 -13732903.05849 -10700959.37147  21125142.958    21125143.597
  -5667766.36848  -4416442.67345  24040968.392    24040974.462
 -12927593.10049 -10073452.57845  22873984.783    22873986.255
  -4355159.53749  -3393627.14345  22732927.617    22732928.936
 02  1  1  0 15  0.0000000  0  8G22G25G21G20G29G 1G11G14
  -7366433.19848  -5740077.89744  23500371.053    23500374.461
 -24184461.44449 -18845029.02747  20488844.623    20488844.946
  -3266966.51848                  24697961.800
 -17985810.91749 -14014914.41846  21832456.613    21832457.099
 -13689375.06649 -10667041.45947  21133426.449    21133426.897
  -5749136.50648  -4479847.96445  24025486.675    24025488.952
 -12866568.93949 -10025901.30045  22885596.221    22885596.853
  -4281569.70949  -3336284.44946  22746931.744    22746930.976
 02  1  1  0 15 30.0000000  0  8G22G25G21G20G29G 1G11G14
  -7479124.61248  -5827889.34944  23478927.010    23478930.977
 -24171448.51349 -18834889.07847  20491320.727    20491321.012
  -3156647.33248                  24718954.849
 -18062073.04549 -14074339.43646  21817944.158    21817944.267
 -13645638.17349 -10632960.77647  21141749.123    21141749.667
  -5830451.52248  -4543210.37045  24010011.573    24010014.080
 -12805177.32448  -9978063.70345  22897278.391    22897279.541
  -4207854.63349  -3278844.13246  22760958.900    22760959.329
 02  1  1  0 16  0.0000000  0  8G22G25G21G20G29G 1G11G14
  -7591727.83848  -5915632.08544  23457498.431    23457500.501
 -24158000.14049 -18824409.81847  20493879.944    20493880.225
  -3046189.71048                  24739974.657
 -18137997.39049 -14133501.24746  21803496.784    21803497.329
 -13601683.64749 -10598710.50347  21150113.256    21150113.775
  -5911702.29348  -4606522.71245  23994549.985    23994553.104
 -12743411.92749  -9929934.83245  22909033.041    22909034.057
  -4134005.65149  -3221299.48345  22775012.043    22775012.684
 02  1  1  0 16 30.0000000  0  8G22G25G21G20G29G 1G11G14
  -7704244.16948  -6003307.10345  23436087.457    23436090.666
 -24144121.90349 -18813595.60747  20496521.046    20496521.260
  -2935599.73148                  24761019.000
 -18213586.20849 -14192401.61346  21789112.281    21789112.889
 -13557516.29449 -10564294.38947  21158517.995    21158518.493
  -5992892.86848  -4669788.16245  23979100.041    23979102.813
 -12681279.88048  -9881520.28045  22920855.358    22920856.187
  -4060027.79949  -3163654.42345  22789089.315    22789089.917
 02  1  1  0 17  0.0000000  0  8G22G25G21G20G29G 1G11G14
  -7816668.62048  -6090910.53944  23414694.645    23414694.432
 -24129812.61049 -18802445.50247  20499243.970    20499244.332
  -2824878.03048                  24782089.179
 -18288835.11949 -14251037.11746  21774793.216    21774792.944
 -13513134.13549 -10529710.89447  21166963.838    21166964.313
  -6074021.11648  -4733005.06045  23963662.348    23963663.462
 -12618782.09348  -9832820.73445  22932748.756    22932748.368
  -3985919.76349  -3105907.93845  22803192.132    22803191.700
 02  1  1  0 17 30.0000000  0  8G22G25G21G20G29G 1G11G14
  -7928998.06548  -6178439.96644  23393318.627    23393320.135
 -24115073.58049 -18790960.53847  20502048.819    20502049.156
  -2714026.51148                  24803183.355
 -18363741.53549 -14309405.74246  21760539.319    21760539.526
 -13468537.59249 -10494960.34447  21175450.317    21175450.670
  -6155086.61648  -4796173.04745  23948236.613    23948239.838
 -12555920.95849  -9783838.04245  22944711.734    22944711.327
  -3911681.58149  -3048060.03345  22817319.026    22817318.689
 02  1  1  0 18  0.0000000  0  8G22G25G21G20G29G 1G11G14
  -8041230.08848  -6265893.46245  23371961.827    23371964.224
 -24099906.69349 -18779142.17747  20504934.978    20504935.409
  -2603047.46148  -2028349.91144  24824302.279    24824308.450
 -18438303.83049 -14367506.21746  21746349.462    21746350.522
 -13423727.53649 -10460043.42447  21183977.336    21183977.837
  -6236089.80748  -4859292.43745  23932820.855    23932824.710
 -12492699.61548  -9734574.69845  22956740.492    22956742.529
  -3837314.24549  -2990111.45145  22831469.935    22831470.483
 02  1  1  0 18 30.0000000  0  8G22G25G21G20G29G 1G11G14
  -8153364.75448  -6353271.08844  23350622.497    23350624.505
 -24084316.70249 -18766994.13047  20507901.337    20507901.764
  -2491946.36748                  24845444.130
 -18512522.89149 -14425339.23446  21732226.815    21732227.240
 -13378707.64949 -10424962.99347  21192544.283    21192544.755
  -6317034.01648  -4922365.88245  23917418.675    23917421.709
 -12429124.33849  -9685035.56745  22968840.402    22968840.738
  -3762821.91449  -2932065.50545  22845646.437    22845646.882
 02  1  1  0 19  0.0000000  0  8G22G25G21G20G29G 1G11G14
  -8265389.95248  -6440563.44845  23329305.875    23329307.487
 -24068295.80049 -18754510.30547  20510949.772    20510950.212
  -2380715.80848                  24866611.173
 -18586387.55049 -14482896.10046  21718170.821    21718170.980
 -13333469.16849 -10389712.24047  21201153.082    21201153.331
  -6397909.89448  -4985386.10845  23902027.717    23902032.385
 -12365189.06948  -9635215.85745  22981006.485    22981005.688
  -3688196.28549  -2873915.69045  22859846.779    22859846.545
 02  1  1  0 19 30.0000000  0  8G22G25G21G20G29G 1G11G14
  -8377297.54648  -6527764.12445  23308009.969    23308012.491
 -24051839.83349 -18741687.46647  20514081.391    20514081.834
  -2269352.96148                  24887802.262
 -18659890.37349 -14540171.01446  21704183.080    21704184.112
 -13288006.90649 -10354287.10147  21209804.084    21209804.597
  -6478712.14448  -5048348.96545  23886651.950    23886654.856
 -12300891.36348  -9585113.77445  22993240.578    22993242.271
  -3613432.43349  -2815658.17545  22874073.766    22874074.450
 02  1  1  0 20  0.0000000  0  8G22G25G21G20G29G 1G11G14
  -8489092.33748  -6614876.95245  23286736.388    23286737.702
 -24034958.37849 -18728533.07847  20517294.014    20517294.445
  -2157867.62848                  24909017.887
 -18733036.81749 -14597168.22846  21690264.327    21690264.686
 -13242329.32149 -10318694.18947  21218496.375    21218496.857
  -6559448.41748  -5111260.42645  23871289.652    23871291.902
 -12236241.89848  -9534737.57645  23005544.525    23005545.757
  -3538539.17349  -2757299.79745  22888326.185    22888326.628
 02  1  1  0 20 30.0000000  0  8G22G25G21G20G29G 1G11G14
  -8600764.80848  -6701894.43745  23265485.534    23265485.840
 -24017646.34049 -18715043.16847  20520588.368    20520588.750
  -2046255.97248                  24930256.415
 -18805818.17149 -14653880.95746  21676414.494    21676414.946
 -13196430.37649 -10282928.78547  21227230.819    21227231.185
  -6640112.34648  -5174115.49145  23855938.526    23855943.679
 -12171237.09848  -9484084.52745  23017913.183    23017914.424
  -3463510.44549  -2698835.86745  22902602.809    22902603.382
 02  1  1  0 21  0.0000000  0  8G22G25G21G20G29G 1G11G14
  -8712317.68548  -6788818.75645  23244257.274    23244259.404
 -23999910.54549 -18701223.06547  20523963.396    20523963.717
  -1934525.27048                  24951518.735
 -18878238.02649 -14710312.00646  21662632.962    21662633.329
 -13150315.96849 -10246995.49047  21236005.697    21236006.263
  -6720709.21748  -5236918.29845  23840602.260    23840605.440
 -12105885.47248  -9433161.18945  23030349.845    23030350.640
  -3388352.41349  -2640271.20045  22916904.921    22916905.165
 02  1  1  0 21 30.0000000  0  8G22G25G21G20G29G 1G11G14
  -8823747.38148  -6875647.05645  23223053.612    23223053.825
 -23981752.32249 -18687073.79347  20527418.888    20527419.349
  -1822677.09448                  24972802.915
 -18950293.67249 -14766459.25346  21648921.585    21648922.557
 -13103985.98549 -10210894.20547  21244822.149    21244822.751
  -6801238.37148  -5299668.27745  23825276.974    23825280.162
 -12040189.56448  -9381969.59245  23042851.532    23042852.797
  -3313065.24149  -2581605.88345  22931232.721    22931232.746
 02  1  1  0 22  0.0000000  0  8G22G25G21G20G29G 1G11G14
  -8935054.08148  -6962379.56945  23201872.187    23201875.375
 -23963176.01349 -18672598.73847  20530953.655    20530954.103
  -1710716.91948                  24994108.660
 -19021985.92749 -14822323.33846  21635278.824    21635279.287
 -13057443.93649 -10174627.67847  21253679.080    21253679.443
  -6881702.93948  -5362367.91545  23809965.684    23809970.071
 -11974155.34448  -9330514.38945  23055416.812    23055417.384
  -3237652.69449  -2522842.88645  22945581.863    22945582.278
 02  1  1  0 22 30.0000000  0  8G22G25G21G20G29G 1G11G14
  -9046229.10648  -7049009.46845  23180716.852    23180719.514
 -23944177.37749 -18657794.59847  20534568.831    20534569.205
  -1598641.10748                  25015434.679
 -19093307.03949 -14877898.21846  21621707.217    21621707.333
 -13010684.54649 -10138191.79847  21262576.931    21262577.328
  -6962097.17748  -5425012.76645  23794667.655    23794669.490
 -11907780.01548  -9278793.38345  23068048.445    23068050.116
  -3162109.77249  -2463978.28545  22959958.070    22959958.184
 02  1  1  0 23  0.0000000  0  7G22G25G20G29G 1G11G14
  -9157278.11648  -7135541.14744  23159584.634    23159586.850
 -23924766.60749 -18642669.31147  20538262.641    20538262.927
 -19164263.48049 -14933188.94546  21608203.991    21608204.399
 -12963716.85649 -10101593.60747  21271514.661    21271514.960
  -7042429.38248  -5487609.27345  23779380.958    23779384.138
 -11841075.34848  -9226815.74345  23080741.113    23080742.062
  -3086445.59349  -2405019.20045  22974356.591    22974356.987
 02  1  1  0 23 30.0000000  0  7G22G25G20G29G 1G11G14
  -9268182.99948  -7221960.54645  23138480.361    23138482.324
 -23904929.81849 -18627212.06447  20542037.591    20542037.871
 -19234837.72249 -14988181.84746  21594774.759    21594775.282
 -12916525.95849 -10064821.48247  21280494.609    21280495.341
  -7122684.33948  -5550145.57345  23764108.139    23764112.376
 -11774028.70148  -9174571.63145  23093500.676    23093501.713
  -3010645.85849  -2345954.49745  22988780.279    22988780.900
 02  1  1  0 24  0.0000000  0  8G22G25G30G20G29G 1G11G14
  -9378958.87248  -7308279.44445  23117400.184    23117402.454
 -23884686.96849 -18611438.40847  20545889.776    20545890.075
        -1.07658         -.92255  23721761.482    23721763.098
 -19305045.97149 -15042889.56346  21581414.167    21581414.491
 -12869130.54849 -10027890.01447  21289513.848    21289514.382
  -7202880.23948  -5612635.86845  23748847.339    23748850.988
 -11706661.79348  -9122077.97144  23106320.207    23106322.559
  -2934729.53449  -2286798.94045  23003227.526    23003227.946
 02  1  1  0 24 30.0000000  0  8G22G25G30G20G29G 1G11G14
  -9489580.32948  -7394478.01745  23096349.824    23096351.666
 -23864017.17849 -18595332.07747  20549823.402    20549823.573
     57093.33548     44488.21644  23732625.763    23732626.801
 -19374863.66149 -15097292.94946  21568128.237    21568128.651
 -12821508.81149  -9990782.16647  21298575.968    21298576.346
  -7282994.57148  -5675062.58345  23733602.398    23733605.597
 -11638955.03948  -9069319.50645  23119203.212    23119205.895
  -2858674.51449  -2227535.30045  23017699.940    23017700.753
 02  1  1  0 25  0.0000000  0  8G22G25G30G20G29G 1G11G14
  -9600056.45248  -7480563.31245  23075326.523    23075328.358
 -23842933.51249 -18578903.23947  20553835.636    20553835.900
    114694.20748     89372.01344  23743587.011    23743588.036
 -19444300.57649 -15151399.62746  21554915.053    21554915.269
 -12773673.04749  -9953507.54747  21307678.767    21307679.270
  -7363039.29948  -5737435.07345  23718371.243    23718373.910
 -11570923.41148  -9016307.85444  23132150.774    23132150.781
  -2782493.43749  -2168173.43645  23032196.673    23032196.350
 02  1  1  0 25 30.0000000  0  8G22G25G30G20G29G 1G11G14
  -9710381.93948  -7566531.23045  23054332.672    23054335.864
 -23821436.05649 -18562151.96247  20557926.149    20557926.533
    172801.78348    134650.66245  23754644.741    23754645.819
 -19513352.20149 -15205206.07546  21541774.567    21541774.926
 -12725621.46949  -9916064.77447  21316822.444    21316823.256
  -7443012.13348  -5799751.53745  23703150.963    23703154.985
 -11502567.44048  -8963043.48245  23145157.621    23145159.404
  -2706184.56249  -2108711.98645  23046717.835    23046718.189
 02  1  1  0 26  0.0000000  0  8G22G25G30G20G29G 1G11G14
  -9820565.70648  -7652388.71545  23033364.648    23033367.082
 -23799538.12649 -18545088.62547  20562092.751    20562093.125
    231401.81548    180313.04845  23765795.347    23765796.538
 -19582028.57549 -15258720.12146  21528706.168    21528706.597
 -12677366.42749  -9878463.44747  21326005.267    21326005.844
  -7522924.89148  -5862021.18445  23687945.836    23687948.400
 -11433902.29748  -8909538.20044  23158223.725    23158224.485
  -2629760.80649  -2049161.00845  23061260.932    23061260.828
 02  1  1  0 26 30.0000000  0  8G22G25G30G20G29G 1G11G14
  -9930610.03648  -7738137.56445  23012425.081    23012427.992
 -23777246.15649 -18527718.25547  20566334.869    20566335.057
    290487.18048    226353.61044  23777038.683    23777039.848
 -19650332.60949 -15311944.03146  21515708.038    21515708.400
 -12628913.28549  -9840707.75847  21335225.609    21335226.122
  -7602782.30148  -5924247.70245  23672747.684    23672751.104
 -11364936.12348  -8855798.36944  23171348.163    23171348.656
  -2553228.00949  -1989525.08345  23075824.335    23075824.222
 02  1  1  0 27  0.0000000  0  8G22G25G30G20G29G 1G11G14
 -10040489.39848  -7823757.85245  22991515.420    22991517.253
 -23754539.16049 -18510024.48447  20570655.769    20570656.049
    350078.19848    272788.17245  23788379.511    23788379.999
 -19718239.68249 -15364858.62146  21502786.195    21502786.323
 -12580240.02249  -9802780.54847  21344487.637    21344488.052
  -7682562.17748  -5986413.82545  23657567.137    23657570.732
 -11295649.66448  -8801808.95144  23184532.706    23184531.750
  -2476564.09248  -1929786.98545  23090412.739    23090413.720
 02  1  1  0 27 30.0000000  0  8G22G25G30G20G29G 1G11G14
 -10150194.68848  -7909242.51145  22970638.938    22970641.816
 -23731412.84049 -18492003.96947  20575056.592    20575056.921
    410178.66148    319619.69744  23799815.302    23799816.125
 -19785741.57449 -15417457.48546  21489940.818    21489941.065
 -12531341.16749  -9764677.55447  21353792.950    21353793.548
  -7762258.22648  -6048514.61445  23642401.175    23642404.717
 -11226039.80748  -8747567.51544  23197778.857    23197780.792
  -2399763.91449  -1869942.71545  23105027.936    23105028.453
 02  1  1  0 28  0.0000000  0  8G22G25G30G20G29G 1G11G14
 -10259729.98448  -7994594.68745  22949794.800    22949796.708
 -23707876.26149 -18473663.77247  20579535.368    20579535.604
    470779.31748    366840.99144  23811347.460    23811350.835
 -19852843.48749 -15469744.67846  21477171.404    21477171.606
 -12482223.98549  -9726404.43047  21363139.669    21363140.255
  -7841877.46048  -6110555.54345  23627248.868    23627251.909
 -11156116.79848  -8693082.05944  23211084.838    23211086.867
  -2322834.79849  -1809997.97145  23119667.115    23119665.958
 02  1  1  0 28 30.0000000  0  8G22G25G30G20G29G 1G11G14
 -10369098.92448  -8079817.24445  22928982.846    22928984.867
 -23683937.38649 -18455010.09547  20584090.908    20584090.985
    531871.38148    414445.20244  23822972.595    23822972.658
 -19919549.80549 -15521723.61346  21464478.561    21464478.538
 -12432895.70749  -9687966.81747  21372526.619    21372527.389
  -7921426.25648  -6172541.57445  23612111.387    23612116.046
 -11085890.11848  -8638359.99244  23224448.989    23224450.183
  -2245784.34448  -1749958.67445  23134328.482    23134328.594
 02  1  1  0 29  0.0000000  0  8G22G25G30G20G29G 1G11G14
 -10478296.89848  -8164906.57245  22908202.600    22908206.554
 -23659595.82049 -18436042.63647  20588723.284    20588723.549
    593454.05448    462431.69544  23834692.079    23834691.181
 -19985856.77649 -15573391.36846  21451860.362    21451860.146
 -12383355.26049  -9649363.87846  21381953.912    21381954.474
  -8000903.05648  -6234471.48945  23596987.678    23596992.903
 -11015361.42048  -8583402.59644  23237870.490    23237870.880
  -2168611.66049  -1689824.12945  23149014.885    23149014.313
 02  1  1  0 29 30.0000000  0  8G22G25G30G20G29G 1G11G14
 -10587325.54848  -8249863.96945  22887456.073    22887457.034
 -23634858.05949 -18416766.45247  20593430.624    20593430.673
    655520.46248    510795.14844  23846502.536    23846503.699
 -20051767.04049 -15624750.00546  21439317.645    21439317.760
 -12333607.37049  -9610599.29046  21391420.312    21391421.122
  -8080312.31448  -6296348.80245  23581877.703    23581880.652
 -10944538.37648  -8528215.86544  23251346.524    23251347.232
  -2091321.87648  -1629598.32745  23163722.102    23163722.877
 02  1  1  0 30  0.0000000  0  8G22G25G30G20G29G 1G11G14
 -10696179.23948  -8334685.00645  22866741.786    22866743.684
 -23609722.91249 -18397180.61547  20598213.462    20598213.506
    718071.17848    559535.96044  23858405.447    23858404.714
 -20117275.77349 -15675795.75546  21426851.847    21426852.271
 -12283649.93749  -9571671.42546  21400927.191    21400927.736
  -8159651.22048  -6358171.25545  23566779.774    23566781.768
 -10873421.28148  -8472799.96644  23264880.844    23264880.263
  -2013912.78548  -1569279.57445  23178452.435    23178452.448
 02  1  1  0 30 30.0000000  0  8G22G25G30G20G29G 1G11G14
 -10804857.93548  -8419369.70045  22846060.910    22846063.716
 -23584195.26349 -18377288.93547  20603071.413    20603071.434
    781100.81248    608649.98144  23870399.816    23870399.414
 -20182383.97149 -15726529.39646  21414462.375    21414462.735
 -12233486.37949  -9532582.95046  21410472.813    21410473.213
  -8238922.87448  -6419941.30445  23551692.604    23551699.532
 -10802016.41548  -8417159.84644  23278468.605    23278466.389
  -1936388.23648  -1508870.84645  23193205.611    23193205.836
 02  1  1  0 31  0.0000000  0  8G22G25G30G20G29G 1G11G14
 -10913345.17548  -8503905.22445  22825416.310    22825419.525
 -23558263.20149 -18357082.13247  20608005.871    20608006.095
    844620.38348    658145.74344  23882487.415    23882490.544
 -20247075.87449 -15776938.65846  21402151.614    21402152.003
 -12183103.60749  -9493323.65146  21420060.689    21420061.189
  -8318113.53448  -6481648.27845  23536625.911    23536627.467
 -10730313.35648  -8361287.37444  23292112.566    23292113.164
  -1858735.43948  -1448362.18545  23207981.742    23207981.881
 02  1  1  0 31 30.0000000  0  8G22G25G30G20G29G 1G11G14
 -11021640.74448  -8588291.38945  22804808.491    22804811.524
 -23531931.22149 -18336563.70247  20613016.759    20613016.883
    908624.97548    708019.43844  23894666.724    23894668.910
 -20311352.32749 -15827024.18946  21389920.210    21389920.603
 -12132504.77049  -9453895.98946  21429689.107    21429689.907
  -8397225.82448  -6543294.18245  23521570.235    23521573.511
 -10658318.07748  -8305187.16344  23305813.254    23305814.260
  -1780957.84148  -1387756.28845  23222782.780    23222782.714
 02  1  1  0 32  0.0000000  0  8G22G25G30G20G29G 1G11G14
 -11129735.13648  -8672520.76645  22784238.440    22784240.252
 -23505194.46549 -18315729.86147  20618104.728    20618104.875
    973118.62448    758274.23344  23906939.205    23906942.038
 -20375204.90049 -15876779.42646  21377769.502    21377769.887
 -12081683.95649  -9414295.35646  21439359.789    21439360.350
  -8476253.14848  -6604873.85345  23506532.446    23506536.267
 -10586027.34748  -8248856.77344  23319570.646    23319570.678
  -1703049.72648  -1327048.69545  23237608.393    23237609.277
 02  1  1  0 32 30.0000000  0  8G22G25G30G20G29G 1G11G14
 -11237644.01648  -8756605.62245  22763704.133    22763706.059
 -23478073.06049 -18294596.29047  20623265.809    20623265.869
   1038080.34648    808893.75944  23919301.784    23919302.192
 -20438650.08649 -15926217.22046  21365696.153    21365696.509
 -12030660.16349  -9374536.56046  21449069.428    21449069.943
  -8555214.19748  -6666401.87045  23491506.480    23491508.545
 -10513462.68148  -8192312.88344  23333378.138    23333379.940
  -1625030.17548  -1266254.24845  23252454.363    23252453.322
 02  1  1  0 33  0.0000000  0  8G22G25G30G20G29G 1G11G14
 -11345365.07148  -8840544.10345  22743205.423    22743207.391
 -23450569.55549 -18273164.97847  20628499.460    20628499.416
   1103506.97648    859875.55144  23931751.237    23931752.037
 -20501686.64749 -15975336.60746  21353701.179    21353701.479
 -11979434.58149  -9334620.52546  21458817.411    21458817.921
  -8634109.61348  -6727878.75345  23476493.130    23476496.347
 -10440628.30848  -8135558.87944  23347238.563    23347241.938
  -1546900.80248  -1205374.21845  23267322.880    23267322.403
 02  1  1  0 33 30.0000000  0  8G22G25G30G20G29G 1G11G14
 -11452889.98948  -8924329.74145  22722744.043    22722746.884
 -23422680.36249 -18251433.13247  20633806.407    20633806.353
   1169401.40148    911221.86644  23944290.682    23944293.778
 -20564306.96349 -16024131.64446  21341784.867    21341785.238
 -11928002.26149  -9294543.39946  21468604.552    21468605.020
  -8712933.93648  -6789300.20945  23461493.538    23461496.010
 -10367521.74248  -8078592.75444  23361150.655    23361151.340
  -1468656.75448  -1144404.85645  23282211.401    23282211.450
 02  1  1  0 34  0.0000000  0  8G22G25G30G20G29G 1G11G14
 -11560203.78448  -9007950.86445  22702323.133    22702323.455
 -23394395.50849 -18229392.98147  20639189.272    20639189.161
   1235773.33648    962940.23144  23956920.971    23956922.177
 -20626497.17149 -16072591.53546  21329949.676    21329950.132
 -11876351.63749  -9254296.15946  21478433.426    21478433.998
  -8791674.99648  -6850656.80545  23446509.823    23446512.773
 -10294133.94748  -8021407.50944  23375114.787    23375116.405
  -1390286.49648  -1083337.13845  23297124.940    23297125.318
 02  1  1  0 34 30.0000000  0  8G22G25G30G20G29G 1G11G14
 -11667298.69748  -9091401.44245  22681943.490    22681945.799
 -23365711.59849 -18207041.87747  20644647.529    20644647.457
   1302625.15748   1015032.56644  23969642.392    23969643.399
 -20688250.50849 -16120711.00646  21318198.945    21318199.191
 -11824478.35649  -9213875.41746  21488304.404    21488305.020
  -8870327.84948  -6911944.65245  23431541.769    23431545.446
 -10220463.58848  -7964002.04944  23389134.430    23389134.669
  -1311785.90248  -1022167.85845  23312063.969    23312063.538
 02  1  1  0 35  0.0000000  0  8G22G25G30G20G29G 1G11G14
 -11774186.88948  -9174690.93345  22661604.005    22661605.930
 -23336645.67149 -18184393.10247  20650178.571    20650178.390
   1369939.02648   1067484.92344  23982451.343    23982451.337
 -20749580.34249 -16168500.47046  21306528.420    21306528.741
 -11772398.20149  -9173293.48246  21498215.234    21498215.968
  -8948907.79148  -6973175.68645  23416589.262    23416591.845
 -10146529.27948  -7906390.90044  23403204.132    23403204.648
  -1233171.09648   -960909.58445  23327023.167    23327023.599
 02  1  1  0 35 30.0000000  0  8G22G25G30G20G29G 1G11G14
 -11880857.98348  -9257811.27045  22641304.221    22641307.413
 -23307192.04149 -18161442.21847  20655783.618    20655783.447
   1437719.97248   1120301.25344  23995350.067    23995352.603
 -20810477.21049 -16215952.56147  21294939.426    21294939.942
 -11720104.11649  -9132544.85246  21508166.480    21508166.947
  -9027407.20948  -7034343.96945  23401650.784    23401653.929
 -10072326.55348  -7848570.70344  23417324.778    23417325.322
  -1154435.36048   -899557.07645  23342005.622    23342007.544
 02  1  1  0 36  0.0000000  0  8G22G25G30G20G29G 1G11G14
 -11987307.41648  -9340758.86145  22621047.582    22621050.677
 -23277350.93749 -18138189.40747  20661462.155    20661462.080
   1505966.78348   1173480.59844  24008337.218    24008337.344
 -20870937.55549 -16263064.51047  21283434.544    21283434.912
 -11667594.99049  -9091628.65546  21518158.370    21518158.851
  -9105824.44548  -7095448.22645  23386728.930    23386731.721
  -9997857.30048  -7790542.71544  23431494.757    23431493.847
  -1075577.73548   -838109.59445  23357012.894    23357012.702
 02  1  1  0 36 30.0000000  0  8G22G25G30G20G29G 1G11G14
 -12093536.95448  -9423535.12545  22600833.261    22600834.822
 -23247128.82549 -18114639.70747  20667213.017    20667212.914
   1574672.59548   1227017.57744  24021410.729    24021413.650
 -20930963.95549 -16309838.31347  21272012.098    21272012.426
 -11614875.88349  -9050548.83846  21528190.686    21528191.259
  -9184163.98948  -7156491.93845  23371821.123    23371822.516
  -9923128.93948  -7732312.86044  23445715.165    23445715.445
   -996603.64948   -776571.33745  23372040.409    23372040.917
 02  1  1  0 37  0.0000000  0  8G22G25G30G20G29G 1G11G14
 -12199556.47748  -9506147.72345  22580657.869    22580660.270
 -23216540.17149 -18090804.38647  20673033.914    20673033.895
   1643822.05348   1280900.29144  24034570.792    24034572.350
 -20990567.14349 -16356282.33747  21260670.118    21260670.262
 -11561960.17449  -9009315.82346  21538260.326    21538260.649
  -9262438.45048  -7217484.93945  23356925.685    23356928.119
  -9848157.85148  -7673893.89844  23459981.646    23459982.115
   -917526.50448   -714952.78445  23387088.043    23387088.041
 02  1  1  0 37 30.0000000  0  8G22G25G30G20G29G 1G11G14
 -12305352.01548  -9588585.81445  22560526.471    22560527.626
 -23185575.85649 -18066676.34447  20678926.308    20678926.424
   1713423.36748   1335135.01344  24047813.974    24047818.939
 -21049734.47349 -16402386.73047  21249410.682    21249410.923
 -11508837.30849  -8967921.38446  21548369.014    21548369.575
  -9340636.93548  -7278418.74045  23342044.249    23342047.656
  -9772936.37048  -7615279.73244  23474296.608    23474296.324
   -838336.18248   -653246.04445  23402157.994    23402157.580
 02  1  1  0 38  0.0000000  0  8G22G25G30G20G29G 1G11G14
 -12410914.82748  -9670842.52945  22540438.236    22540439.588
 -23154232.08749 -18042252.61847  20684890.802    20684890.748
   1783479.88148   1389724.51244  24061145.330    24061147.436
 -21108458.23749 -16448145.49347  21238235.791    21238236.137
 -11455502.09949  -8926361.49246  21558518.425    21558519.112
  -9418753.53248  -7339288.73145  23327180.007    23327182.349
  -9697461.76248  -7556468.40244  23488658.121    23488660.124
   -759027.50548   -591447.08945  23417249.586    23417250.402
 02  1  1  0 38 30.0000000  0  8G22G25G30G20G29G 1G11G14
 -12516227.83548  -9752904.59445  22520397.755    22520401.148
 -23122496.25949 -18017523.39447  20690929.615    20690929.615
   1854003.07148   1444677.63544  24074566.168    24074566.161
 -21166722.47649 -16493546.17747  21227148.733    21227149.124
 -11401940.77149  -8884625.39646  21568710.836    21568711.348
  -9496773.87748  -7400083.73145  23312332.718    23312334.166
  -9621723.26848  -7497451.39344  23503071.684    23503072.188
   -679587.02948   -529545.42245  23432366.488    23432367.006
 02  1  1  0 39  0.0000000  0  8G22G25G30G20G29G 1G11G14
 -12621303.86749  -9834782.00445  22500402.808    22500405.446
 -23090386.06249 -17992502.45547  20697040.069    20697040.120
   1924974.58048   1499980.10244  24088071.820    24088073.373
 -21224541.02849 -16538599.57747  21216146.378    21216146.879
 -11348169.52849  -8842725.72446  21578943.515    21578943.480
  -9574713.85948  -7460816.08545  23297501.001    23297503.745
  -9545739.86548                  23517529.523
   -600031.23048   -467553.92945  23447505.631    23447505.310
 02  1  1  0 39 30.0000000  0  8G22G25G30G20G29G 1G11G14
 -12726139.42048  -9916472.02145  22480452.544    22480454.761
 -23057903.11949 -17967191.06347  20703221.267    20703221.391
   1996392.22448   1555630.21844  24101662.635    24101662.335
 -21281911.52749 -16583303.84547  21205228.761    21205229.125
 -11294188.59949  -8800662.65846  21589215.286    21589215.827
  -9652572.81248  -7521485.29045  23282685.249    23282687.670
  -9469514.39848  -7378847.12844  23532035.571    23532035.688
   -520360.32548   -405472.73145  23462666.833    23462666.918
 02  1  1  0 40  0.0000000  0  8G22G25G30G20G29G 1G11G14
 -12830749.48348  -9997986.32245  22460545.833    22460548.155
 -23025066.81149 -17941604.32147  20709469.855    20709469.970
   2068235.40848   1611611.91144  24115332.666    24115332.234
 -21338849.89549 -16627671.38447  21194393.913    21194394.349
 -11240016.24649  -8758450.43546  21599524.113    21599524.619
  -9730368.48748  -7582105.20845  23267881.515    23267884.379
  -9393067.96648                  23546582.443
   -440593.04548   -343316.45145  23477845.668    23477846.302
 02  1  1  0 40 30.0000000  0  8G22G25G30G20G29G 1G11G14
 -12935110.30649 -10079306.40945  22440687.120    22440690.212
 -22991858.29149 -17915727.54247  20715789.319    20715789.474
   2140522.47148   1667939.44644  24129089.209    24129091.215
 -21395333.53449 -16671684.59147  21183645.586    21183646.115
 -11185632.11949  -8716073.19446  21609873.174    21609873.754
  -9808080.18748  -7642659.68245  23253092.855    23253095.822
  -9316383.02648  -7259524.02244  23561174.852    23561178.136
   -360709.11748   -281069.25345  23493047.393    23493047.242
 02  1  1  0 41  0.0000000  0  8G22G25G30G20G29G 1G11G14
 -13039221.05949 -10160431.62745  22420875.400    22420877.678
 -22958281.53549 -17889563.82547  20722178.724    20722178.953
   2213248.60048   1724609.17744  24142928.166    24142929.078
 -21451362.74949 -16715343.70347  21172983.244    21172983.578
 -11131038.89849  -8673533.03546  21620261.709    21620262.296
  -9885709.81648  -7703150.20345  23238319.980    23238323.684
  -9239465.12148  -7199588.02144  23575811.329    23575813.195
   -280711.54148   -218733.49845  23508270.488    23508270.659
 02  1  1  0 41 30.0000000  0  8G22G25G30G20G29G 1G11G14
 -13143075.70649 -10241357.26445  22401112.309    22401114.713
 -22924335.23249 -17863112.15147  20728637.861    20728638.343
   2286413.92348   1781621.13444  24156850.551    24156852.345
 -21506932.50149 -16758644.79347  21162408.618    21162408.883
 -11076233.94949  -8630827.88946  21630691.081    21630691.422
  -9963254.28748  -7763574.37545  23223564.225    23223566.284
  -9162314.19048                  23590492.287
   -200597.80648   -156307.24445  23523515.582    23523516.133
 02  1  1  0 42  0.0000000  0  8G22G25G30G20G29G 1G11G14
 -13246674.02249 -10322083.18345  22381398.212    22381401.281
 -22890024.08949 -17836376.18747  20735167.224    20735167.546
   2360013.29848   1838971.26044  24170856.343    24170858.536
 -21562043.70049 -16801588.56947  21151921.274    21151921.554
 -11021220.49349  -8587960.26446  21641159.447    21641159.850
 -10040716.07348  -7823934.12545  23208823.635    23208825.896
  -9084936.57248                  23605217.486
   -120371.38448    -93793.19445  23538782.268    23538783.596
 02  1  1  0 42 30.0000000  0  8G22G25G30G20G29G 1G11G14
 -13350009.28149 -10402604.11245  22361734.013    22361736.707
 -22855346.30749 -17809354.52847  20741766.602    20741766.753
   2434047.79148   1896660.44144  24184944.751    24184940.320
 -21616690.76349 -16844170.67647  21141522.395    21141522.681
 -10965994.96449  -8544927.39746  21651668.270    21651668.690
 -10118091.17948  -7884226.32245  23194099.956    23194101.759
  -9007331.55447                  23619983.884
    -40029.26648    -31188.96745  23554070.453    23554070.609
 02  1  1  0 43  0.0000000  0  8G22G25G30G20G29G 1G11G14
 -13453068.81549 -10482910.19645  22342122.298    22342124.971
 -22820293.88549 -17782040.93947  20748436.759    20748437.006
   2508524.41348   1954694.19444  24199118.177    24199120.130
 -21670862.12149 -16886382.10847  21131214.097    21131214.342
 -10910548.51749  -8501722.38046  21662219.637    21662220.066
 -10195369.92148  -7944443.42445  23179393.956    23179397.638
  -8929492.91748                  23634798.556
     40437.66648     31512.49945  23569383.092    23569383.551
 02  1  1  0 43 30.0000000  0  8G22G25G30G20G29G 1G11G14
 -13555865.83449 -10563011.72245  22322560.811    22322563.473
 -22784884.78549 -17754449.42047  20755174.946    20755175.338
   2583424.27448   2013057.72944  24213369.590    24213368.028
 -21724571.98949 -16928233.93447  21120993.236    21120993.566
 -10854897.63449  -8458358.05946  21672809.950    21672810.119
 -10272568.16248  -8004597.81045  23164704.187    23164705.300
  -8851439.57448                  23649650.303
    121012.73548     94298.21945  23584716.437    23584716.307
 02  1  1  0 44  0.0000000  0  8G22G25G30G20G29G 1G11G14
 -13658393.48449 -10642903.34645  22303050.617    22303052.684
 -22749117.01149 -17726578.41447  20761981.454    20761981.575
   2658748.62948   2071752.01544  24227704.150    24227704.825
 -21777814.88549 -16969721.88447  21110861.909    21110862.213
 -10799038.85549  -8414831.74746  21683439.080    21683439.636
 -10349681.91148  -8064686.36945  23150028.836    23150031.802
  -8773171.36248                  23664545.689
    201698.91048    157170.53645  23600069.867    23600071.009
 02  1  1  0 44 30.0000000  0  8G22G25G30G20G29G 1G11G14
 -13760646.12349 -10722580.67045  22283592.008    22283594.060
 -22712989.53949 -17698427.12247  20768856.271    20768856.550
   2734497.08148   2130776.80344  24242119.109    24242118.425
 -21830586.13749 -17010842.32447  21100819.735    21100819.781
 -10742970.17049  -8371141.86746  21694108.624    21694109.119
 -10426708.52248  -8124707.00945  23135371.503    23135374.756
  -8694688.99248                  23679479.297
    282498.20448    220130.99345  23615445.780    23615445.113
 02  1  1  0 45  0.0000000  0  8G22G25G30G20G29G 1G11G14
 -13862622.99049 -10802043.10145  22264186.578    22264188.425
 -22676506.49049 -17669998.75547  20775798.601    20775798.937
   2810665.15948   2190128.52444  24256613.448    24256618.981
 -21882886.46449 -17051595.80947  21090866.897    21090867.347
 -10686693.85849  -8327290.20646  21704817.901    21704818.238
 -10503649.74048  -8184661.09845  23120730.309    23120732.409
  -8615997.62448                  23694454.368
    363407.82448    283177.43945  23630843.018    23630843.207
 02  1  1  0 45 30.0000000  0  8G22G25G30G20G29G 1G11G14
 -13964325.22249 -10881291.55846  22244833.168    22244835.132
 -22639674.21449 -17641298.26747  20782807.807    20782807.976
   2887245.94148   2249801.85944  24271186.904    24271187.069
 -21934717.83249 -17091983.87047  21081003.732    21081003.935
 -10630214.75049  -8283280.52146  21715565.938    21715566.050
 -10580509.68148  -8244551.89345  23106103.822    23106105.842
  -8537104.78348                  23709467.698
    444423.06248    346306.14545  23646258.485    23646258.617
 02  1  1  0 46  0.0000000  0  8G22G25G30G20G29G 1G11G14
 -14065741.60049 -10960317.24546  22225534.918    22225536.069
 -22602485.97249 -17612320.40347  20789884.134    20789884.201
   2964244.74448                  24285837.758
 -21986070.24949 -17131998.72147  21071231.848    21071232.165
 -10573524.92249  -8239106.64946  21726353.264    21726353.766
 -10657279.81049  -8304372.68145  23091495.885    23091498.114
  -8458005.45148                  23724519.527
    525551.46948    409523.04145  23661697.535    23661696.990
 02  1  1  0 46 30.0000000  0  8G22G25G30G20G29G 1G11G14
 -14166871.20949 -11039119.49846  22206289.910    22206293.072
 -22564945.76649 -17583068.27847  20797027.988    20797028.181
   3041656.77948   2370121.97744  24300570.558    24300572.201
 -22036944.17849 -17171640.72847  21061550.849    21061550.932
 -10516627.01049  -8194770.62046  21737180.237    21737180.825
 -10733962.16548  -8364125.09445  23076902.492    23076904.715
  -8378705.11148                  23739609.802
    606789.92948    472825.71945  23677157.398    23677155.572
 02  1  1  0 47  0.0000000  0  8G22G25G30G20G29G 1G11G14
 -14267709.09649 -11117694.42646  22187101.565    22187103.069
 -22527053.62749 -17553541.92447  20804238.754    20804238.910
   3119481.42348   2430764.57044  24315379.342    24315379.708
 -22087335.54949 -17210906.71547  21051961.536    21051961.882
 -10459519.41149  -8150271.18946  21748047.661    21748048.042
 -10810554.39448  -8423807.25345  23062327.236    23062329.612
  -8299204.94448                  23754737.819
    688140.18548    536215.49345  23692636.534    23692638.024
 02  1  1  0 47 30.0000000  0  8G22G25G30G20G29G 1G11G14
 -14368255.63349 -11196042.32946  22167968.187    22167969.795
 -22488814.82249 -17523745.44047  20811514.983    20811515.241
   3197712.48048   2491723.78944  24330266.184    24330268.098
 -22137246.25549 -17249798.15747  21042463.944    21042464.357
 -10402205.92349  -8105611.33646  21758954.080    21758954.446
 -10887059.82149  -8483421.77145  23047769.296    23047771.123
  -8219511.56248                  23769904.431
    769597.97548    599689.04745  23708138.262    23708137.470
 02  1  1  0 48  0.0000000  0  8G22G25G30G20G29G 1G11G14
 -14468508.51149 -11274161.39446  22148890.563    22148892.760
 -22450231.32949 -17493680.36647  20818857.195    20818857.382
   3276346.44648   2552997.07844  24345229.791    24345229.313
 -22186674.93449 -17288313.99447  21033057.942    21033058.182
 -10344687.61449  -8060791.88446  21769899.614    21769900.389
 -10963478.75549  -8542968.88446  23033227.096    23033228.737
  -8139628.67648                  23785103.800
    851162.26948    663245.59045  23723659.722    23723658.049
 02  1  1  0 48 30.0000000  0  8G22G25G30G20G29G 1G11G14
 -14568464.16049 -11352048.87546  22129869.437    22129870.587
 -22411304.66649 -17463347.88747  20826264.627    20826264.971
   3355381.32548   2614582.67844  24360268.728    24360271.921
 -22235619.34149 -17326452.47247  21023743.840    21023744.222
 -10286964.52249  -8015812.86246  21780883.582    21780884.097
 -11039810.35249  -8602447.94045  23018702.103    23018704.263
  -8059559.10548                  23800342.357
    932832.96948    726885.06245  23739200.489    23739200.968
 02  1  1  0 49  0.0000000  0  8G22G25G30G20G29G 1G11G14
 -14668103.47049 -11429689.83746  22110908.692    22110910.704
 -22372020.61949 -17432736.93247  20833740.520    20833740.890
   3434830.39548   2676491.02944  24375388.394    24375388.771
 -22284061.64049 -17364199.70047  21014525.901    21014526.309
 -10229020.66449  -7970661.81846  21791910.002    21791910.555
 -11116038.14349  -8661846.13245  23004196.781    23004196.994
  -7979290.05548                  23815616.874
   1014625.35248    790619.34245  23754765.291    23754767.150
 02  1  1  0 49 30.0000000  0  8G22G25G30G20G29G 1G11G14
 -14767428.41149 -11507085.83846  22092007.938    22092009.945
 -22332386.15349 -17401852.92747  20841282.261    20841282.456
   3514685.89748   2738716.10044  24390584.243    24390585.625
 -22332004.96849 -17401558.12547  21005402.681    21005402.837
 -10170861.42649  -7925342.92446  21802977.557    21802977.864
 -11192166.93148  -8721167.16746  22989708.193    22989711.805
  -7898829.61848                  23830928.463
   1096533.96848    854444.18645  23770352.558    23770352.600
 02  1  1  0 50  0.0000000  0  8G22G25G30G20G29G 1G11G14
 -14866451.40349 -11584246.55646  22073164.068    22073165.974
 -22292418.12449 -17370708.99947  20848887.850    20848888.123
   3594929.66748   2801243.64144  24405854.437    24405854.272
 -22379463.17349 -17438538.52847  20996371.570    20996371.678
 -10112502.72749  -7879868.61746  21814082.781    21814083.243
 -11268211.97849  -8780422.94646  22975238.790    22975239.337
  -7818196.39748                  23846270.947
   1178542.80748    918347.14645  23785957.295    23785957.783
 02  1  1  0 50 30.0000000  0  8G22G25G30G20G29G 1G11G14
 -14965161.01649 -11661163.08846  22054380.358    22054383.205
 -22252110.05249 -17339300.10247  20856558.416    20856558.608
   3675567.33748   2864078.23944  24421199.181    24421197.564
 -22426425.91349 -17475132.85547  20987434.833    20987434.927
 -10053936.68649  -7834232.74646  21825227.505    21825227.934
 -11344164.42549  -8839606.59746  22960784.933    22960786.298
  -7737385.12448                  23861648.770
   1260659.67148    982334.27345  23801584.827    23801584.620
 02  1  1  0 51  0.0000000  0  8G22G25G30G20G29G 1G11G14
 -15063552.67449 -11737831.84946  22035656.868    22035658.975
 -22211462.44549 -17307626.63447  20864293.420    20864293.480
   3756597.88448   2927218.88544  24436618.427    24436620.621
 -22472889.82549 -17511338.48647  20978593.013    20978593.174
  -9995161.97949  -7788434.26946  21836411.950    21836412.222
 -11420022.48948  -8898716.67445  22946348.479    22946351.234
  -7656397.70148  -5966029.40744  23877060.554    23877065.627
   1342885.50948   1046406.29045  23817231.296    23817232.530
 02  1  1  0 51 30.0000000  0  7G22G30G25G20G29G 1G14
 -15161624.83249 -11814251.65446  22016995.022    22016996.743
   3838016.80248   2990662.19344  24452112.466    24452113.446
 -22170478.79249 -17275691.31747  20872092.250    20872092.420
 -22518854.89149 -17547155.40647  20969846.278    20969846.494
  -9936180.62049  -7742474.77446  21847636.202    21847636.769
 -11495787.38849  -8957754.16846  22931932.792    22931934.276
   1425218.10248   1110561.48745  23832898.669    23832898.269
 02  1  1  0 52  0.0000000  0  7G22G25G30G20G29G 1G14
 -15259370.92449 -11890417.38046  21998393.615    21998396.159
 -22129156.98349 -17243492.49347  20879955.655    20879955.752
   3919825.09448   3054408.90144  24467679.227    24467677.470
 -22564315.49549 -17582579.24147  20961195.316    20961195.612
  -9876989.28349  -7696351.66646  21858899.748    21858900.563
 -11571455.18348  -9016715.99245  22917531.492    22917533.299
   1507660.62948   1174802.37045  23848587.185    23848586.695
 02  1  1  0 52 30.0000000  0  8G22G25G30G20G29G 1G11G14
 -15356805.67749 -11966340.50646  21979853.167    21979854.544
 -22087516.22849 -17211045.14047  20887879.701    20887879.674
   4002002.21448   3118443.04244  24483317.179    24483319.444
 -22609287.71249 -17617622.50947  20952637.506    20952637.804
  -9817606.03449  -7650079.02146  21870199.752    21870200.161
 -11647043.44449  -9075615.84745  22903149.093    22903149.641
        -1.13057                  23923485.745
   1590194.82148   1239114.65945  23864293.049    23864293.112
 02  1  1  0 53  0.0000000  0  8G22G25G30G20G29G 1G11G14
 -15453922.48549 -12042015.88546  21961371.611    21961374.036
 -22045555.39349 -17178348.37447  20895864.718    20895864.535
   4084548.73448   3182764.97144  24499026.038    24499026.607
 -22653766.51249 -17652281.30447  20944173.189    20944173.471
  -9758027.78149  -7603654.42146  21881537.379    21881537.832
 -11722548.21749  -9134450.64246  22888781.062    22888782.089
     81632.10047                  23939020.500
   1672823.30348   1303500.44645  23880016.904    23880018.040
 02  1  1  0 53 30.0000000  0  8G22G25G30G20G29G 1G11G14
 -15550697.10349 -12117424.61746  21942955.996    21942957.831
 -22003254.73049 -17145386.80847  20903914.233    20903914.223
   4167483.38548   3247389.42144  24514807.800    24514809.749
 -22697728.62549 -17686537.48247  20935807.486    20935807.655
  -9698233.56749  -7557061.53646  21892915.626    21892916.354
 -11797947.93048  -9193203.55745  22874430.719    22874433.772
    163434.74347                  23954585.759
   1755567.00248   1367975.97245  23895761.379    23895762.669
 02  1  1  0 54  0.0000000  0  8G22G25G30G20G29G 1G11G14
 -15647133.62149 -12192569.89846  21924604.970    21924606.490
 -21960623.21249 -17112167.43747  20912026.586    20912026.645
   4250796.16648   3312308.41444  24530661.513    24530661.194
 -22741179.88749 -17720395.59347  20927539.256    20927539.535
  -9638230.99249  -7510306.29446  21904333.716    21904334.662
 -11873249.13149  -9251879.71746  22860103.864    22860104.226
    245396.48047                  23970184.426
   1838418.12948   1432535.24545  23911528.854    23911527.761
 02  1  1  0 54 30.0000000  0  8G22G25G30G20G29G 1G11G14
 -15743219.85149 -12267442.22046  21906320.429    21906322.348
 -21917653.21149 -17078684.30747  20920203.477    20920203.321
   4334493.45548   3377527.04944  24546587.994    24546589.581
 -22784109.16249 -17753846.96547  20919369.906    20919370.119
  -9578011.04049  -7463381.66146  21915793.663    21915793.875
 -11948442.20049  -9310471.62445  22845794.389    22845795.710
    327523.44747                  23985811.356
   1921385.61448   1497185.18445  23927316.371    23927317.319
 02  1  1  0 55  0.0000000  0  8G22G25G30G20G29G 1G11G14
 -15838968.36549 -12342051.40546  21888100.430    21888101.808
 -21874362.17349 -17044951.02547  20928441.668    20928441.787
   4418556.89548   3443031.05844  24562585.280    24562587.328
 -22826530.27549 -17786902.36347  20911297.603    20911297.775
  -9517589.95549  -7416300.30746  21927291.091    21927291.698
 -12023542.72448  -9368991.41145  22831501.643    22831504.769
    409796.63948                  24001468.855
   2004453.07748   1561912.99545  23943123.366    23943123.924
 02  1  1  0 55 30.0000000  0  8G22G25G30G20G29G 1G11G14
 -15934370.60049 -12416390.75946  21869945.021    21869947.472
 -21830746.51849 -17010964.79547  20936741.550    20936741.516
   4502989.28248   3508822.50644  24578651.911    24578651.400
 -22868436.12449 -17819556.25947  20903323.074    20903323.261
  -9456962.33249  -7369058.01046  21938828.014    21938828.551
 -12098544.67249  -9427434.40946  22817231.015    22817231.880
    492218.83448                  24017152.749
   2087625.31348   1626722.47445  23958951.581    23958950.419
 02  1  1  0 56  0.0000000  0  8G22G25G30G20G29G 1G11G14
 -16029425.49149 -12490459.44746  21851857.623    21851859.151
 -21786810.02849 -16976728.56147  20945102.121    20945102.197
   4587785.85948   3574897.76144  24594787.997    24594787.545
 -22909826.96949 -17851808.85147  20895446.458    20895446.740
  -9396130.38449  -7321656.49946  21950404.280    21950404.748
 -12173449.52649  -9485801.73845  22802976.091    22802977.941
    574784.77848                  24032864.989
   2170900.21048   1691611.93445  23974797.512    23974797.472
 02  1  1  0 56 30.0000000  0  8G22G25G30G20G29G 1G11G14
 -16124127.15649 -12564252.90346  21833835.622    21833837.372
 -21742551.59649 -16942241.46847  20953524.059    20953524.027
   4672946.81448   3641256.90544  24610994.228    24610992.213
 -22950698.26849 -17883656.60247  20887668.910    20887669.118
  -9335091.56349  -7274093.80046  21962019.446    21962019.801
 -12248254.02048  -9544090.86946  22788740.649    22788742.883
    657494.09648                  24048603.591
   2254279.94948   1756583.07745  23990664.145    23990663.666
 02  1  1  0 57  0.0000000  0  8G22G25G30G20G29G 1G11G14
 -16218469.30449 -12637766.21646  21815883.544    21815885.443
 -21697969.66249 -16907502.29447  20962007.909    20962008.113
   4758472.36848   3707900.18544  24627269.056    24627269.652
 -22991045.28549 -17915095.82247  20879991.003    20879991.199
  -9273843.20249  -7226367.80846  21973674.570    21973674.931
 -12322954.55949  -9602298.98146  22774526.935    22774528.018
    740346.75748                  24064371.177
   2337767.19248   1821638.01345  24006551.520    24006552.027
 02  1  1  0 57 30.0000000  0  8G22G25G30G20G29G 1G11G14
 -16312439.26649 -12710989.50346  21798000.856    21798002.932
 -21653056.29749 -16872504.86247  20970554.572    20970554.590
   4844369.68048   3774833.14444  24643614.418    24643615.041
 -23030856.49249 -17946117.53047  20872415.347    20872415.641
  -9212375.82749  -7178471.15846  21985371.362    21985372.316
 -12397540.67848  -9660417.93445  22760331.346    22760333.681
    823349.40448                  24080166.388
   2421371.03048   1886783.79345  24022461.148    24022461.705
 02  1  1  0 58  0.0000000  0  8G22G25G30G20G29G 1G11G14
 -16406050.06749 -12783932.93646  21780187.882    21780189.380
 -21607829.37849 -16837263.10047  20979160.901    20979160.892
   4930619.80148   3842040.98844  24660027.770    24660026.900
 -23070146.47849 -17976733.08847  20864938.993    20864939.298
  -9150705.89949  -7130416.67646  21997106.721    21997107.396
 -12472028.35449  -9718460.18946  22746157.979    22746159.680
    906482.79948                  24095984.861
   2505075.02148   1952007.60445  24038388.891    24038389.502
 02  1  1  0 58 30.0000000  0  8G22G25G30G20G29G 1G11G14
 -16499305.17449 -12856599.20146  21762441.734    21762443.579
 -21562297.21549 -16801783.49247  20987825.057    20987825.081
   5017213.28848                  24676505.187
 -23108919.96649 -18006946.18047  20857560.362    20857560.518
  -9088840.20249  -7082209.65946  22008879.570    22008879.962
 -12546423.45649  -9776430.31946  22732002.370    22732002.928
    989737.34048                  24111827.668
   2588871.96948   2017303.83045  24054335.517    24054335.143
 02  1  1  0 59  0.0000000  0  8G22G25G30G20G29G 1G11G14
 -16592194.14349 -12928980.15946  21744765.846    21744767.154
 -21516454.14949 -16766061.62547  20996548.903    20996548.786
   5104154.99048   3977263.23844  24693050.199    24693049.048
 -23147167.89149 -18036749.74447  20850281.886    20850282.247
  -9026771.63449  -7033844.55646  22020690.913    22020691.443
 -12620718.25849  -9834322.28146  22717862.438    22717864.797
   1073117.46548                  24127696.635
   2672768.78448   2082677.89245  24070300.781    24070301.931
 02  1  1  0 59 30.0000000  0  8G22G25G30G20G29G 1G11G14
 -16684713.00349 -13001072.72846  21727159.992    21727161.760
 -21470301.19149 -16730098.27847  21005331.445    21005331.656
   5191443.02848   4045279.84844  24709660.242    24709664.713
 -23184887.85349 -18066141.90747  20843104.098    20843104.286
  -8964499.44449  -6985320.78246  22032540.733    22032541.255
 -12694911.37749  -9892135.02446  22703745.380    22703746.522
   1156620.99148                  24143584.152
   2756766.08548   2148130.26345  24086284.601    24086286.040
 02  1  1  1  0  0.0000000  0  8G22G25G30G20G29G 1G11G14
 -16776863.82749 -13072878.52046  21709623.781    21709626.084
 -21423844.96649 -16693898.61947  21014171.739    21014171.950
   5279069.63948   4113560.23544  24726334.951    24726336.564
 -23222083.38049 -18095125.42147  20836026.006    20836026.100
  -8902029.00149  -6936642.54546  22044428.083    22044428.964
 -12769007.14149  -9949871.91146  22689645.082    22689646.370
   1240239.93048                  24159497.656
   2840858.27748   2213656.53445  24102286.333    24102286.110
 02  1  1  1  0 30.0000000  0  8G22G25G30G20G29G 1G11G14
 -16868640.05049 -13144392.41346  21692160.257    21692161.377
 -21377083.55849 -16657461.15647  21023070.689    21023070.421
   5367035.19148   4182104.85844  24743074.501    24743074.610
 -23258749.36749 -18123696.30647  20829048.691    20829048.642
  -8839357.27249  -6887807.46946  22056354.935    22056355.332
 -12843001.90049 -10007530.07746  22675563.526    22675565.434
   1323974.16748                  24175431.125
   2925048.27048   2279259.06545  24118308.409    24118307.597
 02  1  1  1  1  0.0000000  0  8G22G25G30G20G29G 1G11G14
 -16960032.98849 -13215607.63646  21674767.920    21674769.386
 -21330013.01849 -16620782.81147  21032027.809    21032027.439
   5455342.91448   4250916.03544  24759878.389    24759880.357
 -23294878.44349 -18151848.82247  20822173.301    20822173.500
  -8776478.78849  -6838811.26746  22068319.990    22068320.530
 -12916889.17449 -10065104.49946  22661504.481    22661504.989
   1407826.63348                  24191389.226
   3009341.33548   2344941.87844  24134347.537    24134347.481
 02  1  1  1  1 30.0000000  0  8G22G25G30G20G29G 1G11G14
 -17051043.36549 -13286524.76446  21657449.538    21657451.390
 -21282638.99249 -16583867.98447  21041042.652    21041042.517
   5543986.08148   4319988.59944  24776747.341    24776750.002
 -23330472.79749 -18179584.66847  20815399.849    20815399.963
  -8713397.68549  -6789657.18446  22080323.569    22080324.752
 -12990672.24749 -10122597.72446  22647462.719    22647464.686
   1491790.39648                  24207364.696
   3093733.11448   2410701.59044  24150407.537    24150409.148
 02  1  1  1  2  0.0000000  0  7G22G25G30G20G29G 1G14
 -17141665.38749 -13357139.26246  21640204.551    21640206.433
 -21234960.06249 -16546715.57147  21050115.708    21050115.435
   5632964.99848                  24793679.386
 -23365527.93949 -18206900.34747  20808729.290    20808729.419
  -8650111.30349  -6740343.15946  22092366.954    22092367.492
 -13064347.77549 -10180007.15646  22633443.049    22633444.593
   3178226.13948   2476540.21744  24166486.554    24166487.050
 02  1  1  1  2 30.0000000  0  7G22G25G30G20G29G 1G14
 -17231874.51749 -13427432.05846  21623038.369    21623040.419
 -21186956.79249 -16509310.42347  21059250.285    21059250.149
   5722298.19848   4458933.06244  24810677.796    24810682.363
 -23400021.20749 -18233778.20047  20802165.529    20802165.628
  -8586598.54449  -6690852.72646  22104453.182    22104454.055
 -13137893.99749 -10237315.84046  22619447.855    22619448.949
   3262841.22248   2542473.93744  24182587.555    24182588.177
 02  1  1  1  3  0.0000000  0  8G22G25G30G20G29G 1G 4G14
 -17321696.75549 -13497423.36646  21605945.330    21605946.896
 -21138659.95949 -16471676.52647  21068440.878    21068440.686
   5811953.87048                  24827739.976
 -23433979.72249 -18260239.36347  20795703.412    20795703.464
  -8522888.57549  -6641208.61846  22116576.660    22116577.237
 -13211339.12049 -10294545.75346  22605471.009    22605472.677
        -1.11158                  25316698.590
   3347549.07248   2608479.95344  24198707.760    24198708.062
 02  1  1  1  3 30.0000000  0  8G22G25G30G20G29G 1G 4G14
 -17411137.44749 -13567117.37046  21588925.568    21588927.064
 -21090079.64449 -16433821.72947  21077685.369    21077685.118
   5901920.92848                  24844860.187
 -23467410.52949 -18286289.33247  20789341.499    20789341.568
  -8458990.04649  -6591417.57946  22128736.455    22128736.979
 -13284691.03549 -10351703.03546  22591512.700    22591514.720
    -52831.13548                  25306646.081
   3432340.60248   2674551.14244  24214842.713    24214844.790
 02  1  1  1  4  0.0000000  0  8G22G25G30G20G29G 1G 4G14
 -17500174.95649 -13636497.19946  21571981.879    21571983.441
 -21041198.67449 -16395732.66047  21086987.131    21086987.113
   5992215.37048   4669257.91044  24862042.619    24862044.541
 -23500293.33049 -18311912.28247  20783084.272    20783084.560
  -8394884.49149  -6541465.22746  22140935.185    22140935.742
 -13357930.24649 -10408772.50446  22577576.388    22577578.136
   -105201.80548                  25296680.651
   3517234.30848   2740701.96144  24230997.473    24230998.260
 02  1  1  1  4 30.0000000  0  8G22G25G30G20G29G 1G 4G14
 -17588814.70749 -13705567.09546  21555115.189    21555115.886
 -20992027.25449 -16357417.26847  21096343.961    21096343.896
   6082825.75948                  24879285.397
 -23532635.29849 -18337113.80647  20776930.065    20776929.955
  -8330581.01949  -6491358.67046  22153171.701    22153172.063
 -13431064.86849 -10465760.47746  22563658.572    22563660.381
   -157119.96848                  25286800.218
   3602221.09848   2806925.29744  24247170.361    24247172.487
 02  1  1  1  5  0.0000000  0  8G22G25G30G20G29G 1G 4G14
 -17677043.86749 -13774317.04846  21538324.565    21538326.468
 -20942557.23049 -16318869.19547  21105758.168    21105757.887
   6173759.19848   4810720.68444  24896588.787    24896591.014
 -23564425.03049 -18361885.01647  20770880.746    20770880.514
  -8266069.58449  -6441090.05546  22165447.978    22165447.756
 -13504084.29749 -10522658.67546  22549763.938    22549765.088
   -208574.22948                  25277008.737
   3687310.26248   2873228.42244  24263362.050    24263363.711
 02  1  1  1  5 30.0000000  0  8G22G25G30G20G29G 1G 4G14
 -17764862.06049 -13842746.77546  21521614.287    21521615.649
 -20892792.92949 -16280091.81047  21115227.867    21115227.934
   6265010.58148                  24913953.650
 -23595663.52749 -18386226.69247  20764936.111    20764936.027
  -8201353.22249  -6390661.75746  22177763.179    22177763.517
 -13576990.40449 -10579468.56146  22535890.141    22535891.250
   -259565.16048                  25267306.332
   3772499.14248   2939609.25844  24279573.162    24279574.485
 02  1  1  1  6  0.0000000  0  8G22G25G30G20G29G 1G 4G14
 -17852262.55549 -13910851.02146  21504981.621    21504983.106
 -20842732.45149 -16241083.64747  21124753.724    21124753.906
   6356580.56148   4953178.71644  24931379.316    24931382.932
 -23626345.77349 -18410134.92247  20759097.198    20759097.246
  -8136428.55649  -6340071.14446  22190117.843    22190118.310
 -13649779.13449 -10636186.98646  22522038.622    22522040.559
   -310087.78748                  25257692.502
   3857790.45348   3006069.89344  24295803.734    24295805.435
 02  1  1  1  6 30.0000000  0  8G22G25G30G20G29G 1G 4G14
 -17939242.99049 -13978627.94046  21488430.203    21488431.313
 -20792377.80149 -16201846.25347  21134336.377    21134336.388
   6448465.85548                  24948864.458
 -23656470.78949 -18433608.94947  20753364.604    20753364.571
  -8071296.29049  -6289318.75146  22202511.758    22202512.811
 -13722450.41649 -10692813.88646  22508210.410    22508211.439
   -360141.32648                  25248167.105
   3943183.34948   3072609.62744  24312053.225    24312054.064
 02  1  1  1  7  0.0000000  0  8G22G25G30G20G29G 1G 4G14
 -18025809.45849 -14046082.29446  21471957.026    21471958.840
 -20741739.68849 -16162387.98047  21143972.280    21143972.276
   6540654.65548                  24966407.752
 -23686046.31349 -18456654.80147  20747736.420    20747736.551
  -8005965.85349  -6238411.93646  22214943.970    22214944.317
 -13795012.58749 -10749355.77646  22494401.792    22494402.759
   -409733.45948                  25238729.445
   4028668.52748   3139221.37344  24328320.648    24328320.786
 02  1  1  1  7 30.0000000  0  8G22G25G30G20G29G 1G 4G14
 -18111954.67549 -14113208.39146  21455564.299    21455565.660
 -20690815.66749 -16122706.92347  21153662.525    21153662.803
   6633148.65148   5168686.05644  24984008.642    24984005.484
 -23715066.48749 -18479267.91247  20742214.459    20742214.662
  -7940433.10449  -6187347.49246  22227414.901    22227415.327
 -13867460.68249 -10805808.77446  22480615.053    22480616.789
   -458857.90348                  25229381.868
   4114249.84748   3205907.99144  24344606.345    24344608.930
 02  1  1  1  8  0.0000000  0  8G22G25G30G20G29G 1G 4G14
 -18197688.10049 -14180013.62346  21439249.573    21439251.486
 -20639619.83349 -16082814.06447  21163404.872    21163404.804
   6725932.35648                  25001664.745
 -23743542.53949 -18501457.03147  20736795.628    20736795.541
  -7874710.91949  -6136135.43646  22239920.839    22239922.364
 -13939806.61049 -10862182.15146  22466849.076    22466850.618
   -507526.20948                  25220120.342
   4199914.20348   3272659.28544  24360908.896    24360910.105
 02  1  1  1  8 30.0000000  0  8G22G25G30G20G29G 1G 4G14
 -18282991.71249 -14246483.93446  21423016.933    21423018.649
 -20588138.91249 -16042699.05647  21173201.455    21173201.590
   6819018.30948                  25019378.302
 -23771457.85349 -18523209.21147  20731483.414    20731483.482
  -7808784.36449  -6084764.13246  22252466.501    22252467.406
 -14012034.51549 -10918463.56046  22453103.604    22453104.536
   -555721.80848                  25210948.214
   4285676.31448   3339486.72944  24377227.740    24377227.415
 02  1  1  1  9  0.0000000  0  8G22G25G30G20G29G 1G 4G14
 -18367867.38449 -14312620.78646  21406865.509    21406866.897
 -20536378.92849 -16002366.59947  21183050.653    21183051.017
   6912398.86248                  25037148.373
 -23798816.07749 -18544527.29847  20726277.341    20726277.476
  -7742658.51049  -6033237.52446  22265050.049    22265050.459
 -14084148.71249 -10974656.34646  22439380.778    22439382.355
   -603447.70948                  25201866.803
   4371531.03948   3406386.37744  24393565.431    24393567.372
 02  1  1  1  9 30.0000000  0  8G22G25G30G20G29G 1G 4G14
 -18452310.03549 -14378420.21646  21390796.820    21390798.200
 -20484339.62049 -15961816.48547  21192953.439    21192953.778
   7006073.40148   5459276.51744  25054974.177    25054975.668
 -23825613.52349 -18565408.41447  20721177.852    20721177.995
  -7676331.42649  -5981554.10846  22277671.389    22277671.650
 -14156146.37649 -11030758.32746  22425680.164    22425681.638
   -650700.41048                  25192875.557
   4457480.19948   3473359.55544  24409922.381    24409920.006
 02  1  1  1 10  0.0000000  0  8G22G25G30G20G29G 1G 4G14
 -18536313.04649 -14443877.07146  21374811.663    21374812.738
 -20432019.21949 -15921047.33647  21202909.878    21202910.265
   7100042.74248   5532499.34244  25072856.106    25072855.489
 -23851845.30049 -18585848.75047  20716185.849    20716186.017
  -7609799.80449  -5929711.31846  22290332.197    22290332.725
 -14228023.25749 -11086766.22346  22412002.510    22412003.369
   -697475.34148                  25183973.906
   4543526.63648   3540408.61544  24426295.350    24426297.228
 02  1  1  1 10 30.0000000  0  8G22G25G30G20G29G 1G 4G14
 -18619863.92349 -14508981.61846  21358911.862    21358913.318
 -20379409.82649 -15880052.99847  21212921.066    21212921.394
   7194313.81648   5605957.20244  25090795.223    25090797.126
 -23877500.41249 -18605839.73747  20711303.708    20711303.815
  -7543054.24649  -5877701.83946  22303033.603    22303034.140
 -14299769.04249 -11142671.96746  22398348.760    22398349.340
   -743761.27148                  25175166.112
   4629679.76548   3607540.74044  24442689.978    24442692.006
 02  1  1  1 11  0.0000000  0  8G22G25G30G20G29G 1G 4G14
 -18702975.13649 -14573743.56146  21343096.654    21343097.914
 -20326528.12749 -15838846.47747  21222984.299    21222984.373
   7288868.47648   5679636.04444  25108788.388    25108787.038
 -23902593.03649 -18625392.42447  20706528.763    20706529.027
  -7476110.35249  -5825537.80546  22315772.165    22315772.649
 -14371398.31149 -11198486.92646  22384719.247    22384719.656
   -789572.22448                  25166448.638
   4715923.58948   3674743.56444  24459102.192    24459105.614
 02  1  1  1 11 30.0000000  0  8G22G25G30G20G29G 1G 4G14
 -18785639.97949 -14638157.68846  21327365.784    21327367.047
 -20273371.84449 -15797425.99447  21233099.647    21233099.853
   7383707.67148                  25126835.921
 -23927118.28849 -18644503.00047  20701861.817    20701862.217
  -7408964.56949  -5773216.45846  22328550.265    22328551.468
 -14442906.58449 -11254207.59346  22371110.838    22371111.971
   -834903.08848                  25157822.403
   4802261.43948   3742019.61644  24475531.608    24475530.033
 02  1  1  1 12  0.0000000  0  7G22G25G20G29G 1G 4G14
 -18867855.85849 -14702221.96646  21311720.848    21311722.643
 -20219943.27649 -15755793.33947  21243266.473    21243266.761
 -23951074.97849 -18663170.54247  20697303.292    20697303.610
  -7341617.69449  -5720738.39946  22341365.271    22341366.173
 -14514293.50249 -11309833.69846  22357526.241    22357527.259
   -879752.63648                  25149287.683
   4888692.64848   3809368.39244  24491978.943    24491977.083
 02  1  1  1 12 30.0000000  0  7G22G25G20G29G 1G 4G14
 -18949604.55749 -14765922.22246  21296164.556    21296166.004
 -20166228.42649 -15713937.60347  21253488.575    21253488.624
 -23974446.45949 -18681382.07747  20692855.974    20692856.215
  -7274054.32049  -5668091.64046  22354222.266    22354223.313
 -14585542.89149 -11365352.64746  22343968.477    22343969.031
   -924104.44348                  25140847.072
   4975232.33348   3876801.77144  24508447.980    24508448.857
 02  1  1  1 13  0.0000000  0  7G22G25G20G29G 1G 4G14
 -19030913.10049 -14829279.49046  21280692.236    21280693.309
 -20112258.96649 -15671883.47247  21263758.452    21263758.688
 -23997261.45549 -18699159.98847  20688514.329    20688514.514
  -7206304.73849  -5615299.79746  22367115.212    22367115.683
 -14656683.86849 -11420787.11446  22330429.870    22330430.855
   -967986.77948                  25132496.906
   5061850.02348   3944295.87244  24524929.173    24524932.314
 02  1  1  1 13 30.0000000  0  8G22G25G13G20G29G 1G 4G14
 -19111778.63549 -14892291.56146  21265303.349    21265304.888
 -20058036.93049 -15629632.53447  21274076.426    21274076.646
         -.08257                  25266777.456
 -24019518.98249 -18716503.51047  20684278.620    20684278.977
  -7138369.58149  -5562363.35346  22380042.216    22380043.200
 -14727715.93649 -11476136.72546  22316913.486    22316914.294
  -1011398.95248                  25124235.901
   5148545.14948   4011850.36144  24541427.325    24541431.354
 02  1  1  1 14  0.0000000  0  7G22G25G20G29G 1G 4G14
 -19192181.77649 -14954943.33046  21250003.810    21250005.055
 -20003546.93149 -15587172.79547  21284445.494    21284445.602
 -24041200.96949 -18733398.55647  20680152.696    20680153.001
  -7070231.83849  -5509269.03246  22393008.589    22393009.896
 -14798621.45549 -11531387.72946  22303421.164    22303421.752
  -1054322.73248                  25116067.087
   5235333.97848   4079477.82144  24557943.013    24557946.205
 02  1  1  1 14 30.0000000  0  8G22G25G13G20G29G 1G 4G14
 -19272116.19549 -15017229.85846  21234792.266    21234793.683
 -19948787.27749 -15544502.92947  21294866.038    21294866.235
         -.51857                  25231865.954
 -24062302.93849 -18749841.64147  20676137.365    20676137.650
  -7001888.53149  -5456014.54746  22406013.598    22406014.889
 -14869396.40549 -11586537.00246  22289952.374    22289953.113
  -1096753.65948                  25107993.223
   5322219.35548   4147180.50544  24574477.189    24574477.534
 02  1  1  1 15  0.0000000  0  7G22G25G20G29G 1G 4G14
 -19351591.38449 -15079158.54346  21219668.628    21219670.252
 -19893772.20449 -15501634.03747  21305334.896    21305334.919
 -24082836.16249 -18765841.54847  20672230.315    20672230.606
  -6933352.46949  -5402609.86446  22419056.025    22419056.378
 -14940052.40749 -11641593.58646  22276507.202    22276507.983
  -1138702.66348                  25100010.942
   5409188.67148   4214948.62444  24591026.977    24591033.752
 02  1  1  1 15 30.0000000  0  8G22G25G13G20G29G 1G 4G14
 -19430604.54149 -15140727.20746  21204633.098    21204634.630
 -19838502.83349 -15458566.99347  21315852.348    21315852.256
         -.80157                  25196936.607
 -24102799.42749 -18781397.33247  20668431.028    20668431.329
  -6864623.96949  -5349055.22946  22432135.014    22432134.802
 -15010588.81449 -11696556.97646  22263084.992    22263085.855
  -1180168.47948                  25092119.718
   5496241.58048   4282781.82244  24607592.983    24607596.776
 02  1  1  1 16  0.0000000  0  7G22G25G20G29G 1G 4G14
 -19509144.81549 -15201927.38646  21189687.319    21189688.894
 -19782972.87449 -15415296.90047  21326419.551    21326419.606
 -24122183.45149 -18796501.76147  20664741.997    20664742.317
  -6795694.98349  -5295344.36646  22445251.337    22445251.846
 -15080996.58049 -11751420.12746  22249686.051    22249687.229
  -1221141.95348   -951536.85744  25084322.712    25084323.093
   5583385.90948   4350686.27044  24624175.251    24624179.355
 02  1  1  1 16 30.0000000  0  7G22G25G20G29G 1G 4G14
 -19587192.23649 -15262743.52446  21174835.246    21174837.083
 -19727166.60449 -15371811.49647  21337039.075    21337039.423
 -24140970.21049 -18811140.78947  20661167.216    20661167.396
  -6726548.62149  -5241464.10846  22458409.644    22458410.562
 -15151257.84149 -11806169.11746  22236316.101    22236316.682
  -1261604.66648                  25076622.191
   5670637.93148   4418674.65144  24640780.100    24640778.802
 02  1  1  1 17  0.0000000  0  8G22G25G13G20G29G 1G 4G14
 -19664768.00749 -15323192.14246  21160073.028    21160074.621
 -19671109.92949 -15328130.97147  21347706.498    21347706.580
         -.39157                  25144527.232
 -24159182.44149 -18825332.13247  20657701.825    20657702.077
  -6657209.34149  -5187433.54046  22471604.918    22471605.386
 -15221395.74449 -11860821.99546  22222969.818    22222970.935
  -1301579.31448                  25069015.715
   5757973.23948   4486727.92644  24657399.535    24657401.878
 02  1  1  1 17 30.0000000  0  8G22G25G13G20G29G 1G 4G14
 -19741866.74449 -15383269.05346  21145401.862    21145403.313
 -19614801.81549 -15284254.52147  21358421.279    21358421.622
    -91836.09147                  25127050.455
 -24176816.64649 -18839073.06647  20654345.798    20654346.090
  -6587674.66849  -5133250.71946  22484836.718    22484837.523
 -15291407.20249 -11915376.33146  22209646.075    22209647.616
  -1341062.64048                  25061502.933
   5845394.38848   4554848.03644  24674034.703    24674038.379
 02  1  1  1 18  0.0000000  0  8G22G25G13G20G29G 1G 4G14
 -19818484.84949 -15442971.44746  21130821.449    21130823.317
 -19558242.77149 -15240182.54447  21369183.775    21369184.178
   -183688.46248                  25109572.611
 -24193871.02049 -18852362.18447  20651100.237    20651100.564
  -6517944.03849  -5078915.19346  22498105.161    22498106.659
 -15361290.42949 -11969830.75746  22196348.119    22196349.078
  -1380052.23848                  25054083.661
   5932901.47148   4623035.11844  24690687.386    24690691.929
 02  1  1  1 18 30.0000000  0  8G22G25G13G20G29G 1G 4G14
 -19894618.77649 -15502296.55746  21116334.304    21116335.494
 -19501433.62549 -15195915.68447  21379994.766    21379994.781
   -275555.61348                  25092091.903
 -24210343.36549 -18865197.77547  20647965.680    20647965.835
  -6448016.87449  -5024426.52946  22511412.411    22511413.837
 -15431043.61549 -12024183.86146  22183074.316    22183075.237
  -1418546.44348                  25046757.343
   6020494.75948   4691289.44044  24707355.834    24707356.569
 02  1  1  1 19  0.0000000  0  7G22G25G20G29G 1G 4G14
 -19970256.19649 -15561234.78846  21101940.177    21101941.693
 -19444366.52549 -15151447.82147  21390854.008    21390854.383
 -24226223.31849 -18877571.75947  20644944.180    20644944.444
  -6377883.89249  -4969777.51846  22524758.406    22524759.048
 -15500656.41249 -12078427.56346  22169827.007    22169828.072
  -1456534.59148                  25039528.526
   6108183.69648   4759618.21544  24724042.809    24724043.331
 02  1  1  1 19 30.0000000  0  7G22G25G20G29G 1G 4G14
 -20045402.27049 -15619790.14546  21087640.907    21087642.056
 -19387051.11449 -15106786.46747  21401760.644    21401761.144
 -24241517.84549 -18889489.57047  20642033.734    20642033.833
  -6307553.32449  -4914974.50845  22538141.914    22538142.360
 -15570135.94449 -12132567.42846  22156606.235    22156606.943
  -1494023.33348                  25032395.152
   6195959.75748   4828014.89044  24740746.185    24740747.934
 02  1  1  1 20  0.0000000  0  8G22G25G13G20G29G 1G 4G14
 -20120054.39149 -15677960.60146  21073435.217    21073436.537
 -19329488.66149 -15061932.61347  21412714.718    21412714.842
          .07458                  25039635.873
 -24256226.21549 -18900950.63447  20639235.003    20639235.064
  -6237025.44449  -4860017.77845  22551562.768    22551563.782
 -15639481.28249 -12186602.72746  22143410.530    22143410.965
  -1531011.74548                  25025356.795
   6283822.36248   4896478.98044  24757465.922    24757468.247
 02  1  1  1 20 30.0000000  0  8G22G25G13G20G29G 1G 4G14
 -20194212.14149 -15735745.83546  21059323.177    21059324.448
 -19271683.40349 -15016889.56447  21423714.689    21423714.828
    -91909.57948                  25022146.417
 -24270349.73349 -18911955.96947  20636547.223    20636547.320
  -6166302.81449  -4804909.28946  22565021.274    22565022.261
 -15708694.20149 -12240534.84346  22130238.535    22130239.115
  -1567501.18748                  25018412.163
   6371768.93148   4965008.48944  24774202.574    24774207.277
 02  1  1  1 21  0.0000000  0  8G22G25G13G20G29G 1G 4G14
 -20267868.07749 -15793140.05146  21045306.581    21045307.982
 -19213631.86449 -14971654.60647  21434761.311    21434761.672
   -183827.45548                  25004655.474
 -24283882.49149 -18922500.97447  20633972.200    20633972.409
  -6095380.92449  -4749645.52545  22578516.665    22578517.734
 -15777768.94149 -12294359.29346  22117095.139    22117095.972
  -1603485.75248                  25011565.115
   6459803.64348   5033606.68244  24790954.050    24790954.472
 02  1  1  1 21 30.0000000  0  8G22G25G13G20G29G 1G 4G14
 -20341021.61649 -15850142.78546  21031386.563    21031387.807
 -19155337.55549 -14926230.47847  21445854.637    21445854.447
   -275755.24748                  24987161.850
 -24296825.77249 -18932586.64147  20631509.059    20631509.129
  -6024261.98349  -4694228.20945  22592050.794    22592051.973
 -15846706.53749 -12348076.88446  22103976.859    22103977.726
  -1638966.35548  -1277113.82944  25004814.249    25004816.310
   6547924.30648   5102271.86044  24807723.583    24807726.705
 02  1  1  1 22  0.0000000  0  8G22G25G13G20G29G 1G 4G14
 -20413668.45149 -15906750.69146  21017561.759    21017563.138
 -19096800.91249 -14880617.51647  21456993.850    21456993.975
   -368139.37947                  24969663.687
 -24309176.93349 -18942210.91447  20629158.499    20629158.923
  -5952944.82849  -4638656.45045  22605622.077    22605622.919
 -15915504.68549 -12401685.79546  22090883.656    22090884.965
  -1673940.76648                  24998157.964
   6636131.94448   5171004.83444  24824509.645    24824510.847
 02  1  1  1 22 30.0000000  0  8G22G25G13G20G29G 1G 4G14
 -20485810.16949 -15962964.99846  21003833.233    21003834.849
 -19038027.14349 -14834819.78547  21468178.002    21468178.128
   -460836.22847                  24952166.935
 -24320939.47849 -18951376.52947  20626919.911    20626920.227
  -5881433.97549  -4582933.76245  22619229.313    22619231.148
 -15984166.75449 -12455188.68246  22077818.470    22077819.320
  -1708411.81448  -1331227.03444  24991598.110    24991598.567
   6724422.21248   5239802.17544  24841310.733    24841314.535
 02  1  1  1 23  0.0000000  0  7G25G29G 1G22G20G 4G14
 -18979013.87949 -14788835.43447  21479407.805    21479407.828
  -5809725.28749  -4527056.91845  22632875.772    22632876.820
 -16052687.45049 -12508581.41646  22064780.277    22064781.122
 -20557439.89249 -16018780.34746  20990203.042    20990204.473
 -24332108.32049 -18960079.51647  20624794.670    20624794.795
  -1742374.67348                  24985135.110
   6812798.69848   5308666.61144  24858128.084    24858131.481
 02  1  1  1 23 30.0000000  0  8G25G29G 1G22G13G20G 4G14
 -18919770.16249 -14742671.50547  21490681.506    21490681.597
  -5737826.66549  -4471032.06945  22646557.571    22646558.847
 -16121073.58149 -12561869.28746  22051765.490    22051767.086
 -20628562.39249 -16074200.45746  20976669.151    20976670.582
         -.49858                  24917170.605
 -24342690.18449 -18968325.12347  20622781.162    20622781.474
  -1775835.85748                  24978766.300
   6901253.36448   5377592.03744  24874960.872    24874963.679
 02  1  1  1 24  0.0000000  0  8G25G29G 1G22G13G20G 4G14
 -18860287.63649 -14696321.49647  21502000.592    21502000.859
  -5665728.72748  -4414851.90845  22660276.454    22660277.956
 -16189314.64349 -12615044.11246  22038779.303    22038780.838
 -20699165.60649 -16129215.93246  20963233.366    20963234.951
    -91970.55048                  24899669.085
 -24352674.52149 -18976105.12647  20620880.917    20620881.265
  -1808784.83148  -1409439.66844  24972497.295    24972498.855
   6989795.47048                  24891810.325
 02  1  1  1 24 30.0000000  0  8G25G29G 1G22G13G20G 4G14
 -18800572.17849 -14649789.98347  21513364.049    21513364.359
  -5593435.63648  -4358519.69245  22674034.121    22674035.295
 -16257413.65249 -12668108.26046  22025822.149    22025822.790
 -20769250.87749 -16183827.81346  20949896.784    20949898.396
   -183947.48648                  24882167.330
 -24362064.80249 -18983422.22947  20619094.020    20619094.328
  -1841224.57348  -1434717.39344  24966324.603    24966326.944
   7078420.41548                  24908675.101
 02  1  1  1 25  0.0000000  0  8G25G29G 1G22G13G20G 4G14
 -18740626.31849 -14603078.93547  21524771.412    21524771.767
  -5520948.85648  -4302036.54745  22687827.965    22687829.544
 -16325370.45249 -12721061.59746  22012889.655    22012890.267
 -20838816.72449 -16238034.95346  20936658.963    20936660.637
   -275930.79648                  24864662.911
 -24370861.12849 -18990276.51047  20617420.405    20617420.553
  -1873155.14148  -1459598.32544  24960247.988    24960247.586
   7167126.98548   5584765.33244  24925555.760    24925561.571
 02  1  1  1 25 30.0000000  0  8G25G29G 1G22G13G20G 4G14
 -18680447.95949 -14556186.71947  21536222.951    21536223.348
  -5448265.14148  -4245399.96345  22701658.729    22701660.041
 -16393180.89949 -12773900.87646  21999984.998    21999986.299
 -20907857.05749 -16291832.59546  20923520.720    20923522.109
   -367917.34648                  24847158.306
 -24379059.37649 -18996664.75747  20615860.435    20615860.654
  -1904572.42048                  24954269.925
   7255918.05148                  24942452.592
 02  1  1  1 26  0.0000000  0  8G25G29G 1G22G13G20G 4G14
 -18620039.12649 -14509114.91847  21547718.292    21547718.650
  -5375385.22948  -4188610.49545  22715527.887    22715528.971
 -16460844.70549 -12826625.89946  21987110.316    21987110.951
 -20976369.85449 -16345219.17246  20910483.558    20910484.843
   -459907.07248                  24829654.217
 -24386659.35449 -19002586.81647  20614414.247    20614414.617
  -1935476.02148  -1508160.02444  24948388.640    24948390.132
   7344792.69348   5723205.49144  24959364.673    24959365.319
 02  1  1  1 26 30.0000000  0  8G25G29G 1G22G13G20G 4G14
 -18559402.20049 -14461865.38147  21559257.183    21559257.451
  -5302310.08348  -4131668.86645  22729433.794    22729435.684
 -16528361.41549 -12879236.29646  21974261.607    21974262.127
 -21044353.33549 -16398193.30446  20897546.402    20897547.559
   -551899.49948                  24812146.192
 -24393660.81149 -19008042.49447  20613082.039    20613082.372
  -1965865.75548  -1531840.24744  24942606.408    24942609.165
   7433749.91948   5792522.48044  24976293.126    24976297.843
 02  1  1  1 27  0.0000000  0  8G25G29G 1G22G13G20G 4G14
 -18498539.62149 -14414440.01347  21570838.918    21570839.310
  -5229041.33248  -4074576.40245  22743376.079    22743377.476
 -16595731.29049 -12931732.28946  21961441.061    21961442.314
 -21111805.95649 -16450753.77646  20884710.435    20884712.005
   -643895.33448                  24794642.377
 -24400064.50949 -19013032.39147  20611863.472    20611863.740
  -1995741.99648  -1555120.34844  24936921.591    24936918.654
   7522788.18748                  24993237.344
 02  1  1  1 27 30.0000000  0  8G25G29G 1G22G13G20G 4G14
 -18437454.25149 -14366841.03547  21582463.024    21582463.345
  -5155580.56448  -4017334.33545  22757355.250    22757357.168
 -16662954.90649 -12984114.30546  21948648.929    21948650.065
 -21178726.99149 -16502900.03347  20871976.247    20871977.324
   -735895.58748                  24777133.482
 -24405871.32949 -19017557.18647  20610758.111    20610758.384
  -2025105.68648                  24931332.819
   7611905.34648                  25010195.600
 02  1  1  1 28  0.0000000  0  8G25G29G 1G22G13G20G 4G14
 -18376160.90949 -14319080.00447  21594126.927    21594127.059
  -5081941.18948  -3959953.09245  22771368.383    22771370.303
 -16730044.44449 -13036391.85146  21935882.526    21935882.862
 -21245126.97349 -16554640.26847  20859340.078    20859341.557
   -827912.84948                  24759623.241
 -24411093.75849 -19021626.61247  20609764.117    20609764.361
  -2053969.17348                  24925840.204
   7701088.03248                  25027166.322
 02  1  1  1 28 30.0000000  0  8G25G29G 1G22G13G20G 4G14
 -18314643.33049 -14271144.24647  21605833.338    21605833.757
  -5008105.53748  -3902418.89045  22785419.390    22785420.247
 -16796981.04349 -13088550.22446  21923144.949    21923145.435
 -21310985.41849 -16605958.52247  20846808.140    20846809.564
   -919928.37348                  24742113.743
 -24415713.16049 -19025226.15047  20608885.243    20608885.509
  -2082313.43548                  24920446.170
   7790353.63448   6070394.08944  25044153.970    25044158.043
 02  1  1  1 29  0.0000000  0  8G25G29G 1G22G13G20G 4G14
 -18252896.31649 -14223029.70647  21617583.781    21617583.713
  -4934067.36648  -3844726.88245  22799508.071    22799510.184
 -16863757.04849 -13140583.45346  21910437.378    21910438.584
 -21376293.25849 -16656847.73347  20834380.339    20834381.497
  -1011934.87148                  24724604.135
 -24419722.30449 -19028350.16247  20608122.416    20608122.691
  -2110131.19848  -1644254.70244  24915153.045    24915151.604
   7879708.33548                  25061157.620
 02  1  1  1 29 30.0000000  0  8G25G29G 1G22G13G20G 4G14
 -18190929.66949 -14174744.02247  21629375.398    21629375.727
  -4859835.43348  -3786883.90245  22813634.413    22813636.324
 -16930380.15149 -13192497.54046  21897759.601    21897761.007
 -21441056.72449 -16707312.75947  20822055.883    20822057.481
  -1103940.35048                  24707098.159
 -24423129.23449 -19031004.91447  20607473.920    20607474.129
  -2137430.52248  -1665526.85044  24909959.479    24909957.578
   7969143.26848                  25078176.646
 02  1  1  1 30  0.0000000  0  8G25G29G22G13G20G 1G 4G14
 -18128744.31649 -14126287.92847  21641208.871    21641209.110
  -4785409.24148  -3728889.56945  22827796.815    22827798.193
 -21505272.48449 -16757351.00347  20809836.331    20809837.548
  -1195942.46248                  24689588.075
 -24425932.53649 -19033189.30847  20606940.461    20606940.707
 -16996848.28849 -13244290.87046  21885111.587    21885112.271
  -2164209.80548                  24904863.241
   8058658.63548                  25095210.830
 02  1  1  1 30 30.0000000  0  8G25G29G22G13G20G 1G 4G14
 -18066345.43349 -14077665.44647  21653083.261    21653083.450
  -4710793.01348  -3670747.14945  22841995.948    22841996.402
 -21568942.18949 -16806963.75047  20797720.674    20797721.954
  -1287945.48248                  24672082.305
 -24428135.62749 -19034906.00647  20606521.440    20606521.622
 -17063164.44449 -13295965.77846  21872491.411    21872491.911
  -2190472.27648                  24899864.877
   8148250.26848   6349273.02744  25112260.764    25112262.044
 02  1  1  1 31  0.0000000  0  8G25G29G22G13G20G 1G 4G14
 -18003738.05149 -14028880.49147  21664996.828    21664997.208
  -4635991.00948  -3612459.94545  22856231.285    22856230.857
 -21632067.31349 -16856152.14647  20785707.981    20785709.478
  -1379952.08848                  24654573.173
 -24429742.03949 -19036157.76447  20606215.585    20606215.931
 -17129331.60949 -13347524.58446  21859900.198    21859901.114
  -2216221.37648                  24894963.244
   8237913.77548                  25129322.709
 02  1  1  1 31 30.0000000  0  8G25G29G22G13G20G 1G 4G14
 -17940919.40849 -13979930.91646  21676950.748    21676950.981
  -4560998.83148  -3554024.58345  22870501.382    22870504.043
 -21694640.91549 -16904910.78747  20773800.829    20773802.007
  -1471957.20248                  24637065.596
 -24430746.60549 -19036940.54847  20606024.225    20606024.691
 -17195344.01749 -13398962.80246  21847338.785    21847339.517
  -2241451.53348                  24890163.933
   8327653.41848                  25146400.021
 02  1  1  1 32  0.0000000  0  8G25G29G22G13G20G 1G 4G14
 -17877892.79549 -13930819.28646  21688944.517    21688944.669
  -4485818.61148  -3495442.70945  22884807.613    22884808.794
 -21756662.40849 -16953239.21747  20761998.593    20761999.415
  -1563961.92248                  24619558.165
 -24431150.57249 -19037255.33247  20605947.094    20605947.476
 -17261202.52749 -13450281.09846  21834806.022    21834806.816
  -2266164.35048  -1765838.82844  24885463.141    24885461.507
   8417466.77348                  25163491.958
 02  1  1  1 32 30.0000000  0  8G25G22G13G20G29G 1G 4G14
 -17814655.83749 -13881543.76746  21700977.887    21700978.438
 -21818125.72549 -17001132.70247  20750302.149    20750303.476
  -1655961.68848                  24602048.903
 -24430949.95649 -19037099.01547  20605985.732    20605986.059
  -4410446.79048  -3436711.51345  22899150.573    22899151.650
 -17326902.51549 -13501475.87346  21822303.498    21822304.614
  -2290355.06748  -1784688.72544  24880859.643    24880860.358
   8507357.23548                  25180596.837
 02  1  1  1 33  0.0000000  0  8G25G22G13G20G29G 1G 4G14
 -17751203.21649 -13832100.18646  21713052.574    21713052.846
 -21879021.61749 -17048584.03847  20738714.205    20738715.581
  -1747949.15948                  24584546.055
 -24430137.31249 -19036465.79447  20606140.509    20606140.738
  -4334876.88448  -3377825.97345  22913530.965    22913531.482
 -17392435.82349 -13552540.76846  21809833.762    21809834.362
  -2314016.35648  -1803126.03244  24876356.617    24876355.749
   8597331.36848                  25197718.524
 02  1  1  1 33 30.0000000  0  8G25G22G13G20G29G 1G 4G14
 -17687541.64049 -13782493.78946  21725166.834    21725167.285
 -21939353.29449 -17095595.72647  20727233.837    20727235.144
  -1839928.88648  -1433707.89244  24567041.830    24567042.495
 -24428717.80049 -19035359.68947  20606410.677    20606410.823
  -4259114.59048  -3318790.53245  22927948.317    22927950.555
 -17457807.07049 -13603479.38646  21797393.607    21797394.323
  -2337153.36648                  24871951.407
   8687383.20148                  25214855.606
 02  1  1  1 34  0.0000000  0  8G25G22G13G20G29G 1G 4G14
 -17623669.21649 -13732723.09346  21737321.217    21737321.533
 -21999115.54849 -17142163.70947  20715860.991    20715862.255
  -1931896.78248                  24549541.293
 -24426688.04849 -19033778.07547  20606796.942    20606797.192
  -4183157.23548  -3259603.09645  22942402.457    22942403.839
 -17523012.15549 -13654288.52546  21784985.114    21784985.691
  -2359762.48948                  24867647.880
   8777515.18648                  25232007.531
 02  1  1  1 34 30.0000000  0  8G25G22G13G20G29G 1G 4G14
 -17559594.31149 -13682794.63146  21749514.669    21749514.460
 -22058312.57949 -17188291.26247  20704596.391    20704597.309
  -2023858.56248                  24532041.015
 -24424054.32949 -19031725.83847  20607298.012    20607298.460
  -4107011.50548  -3200268.89445  22956892.560    22956894.018
 -17588056.45449 -13704972.38346  21772608.014    21772608.384
  -2381849.39248                  24863446.386
   8867720.68748                  25249173.254
 02  1  1  1 35  0.0000000  0  8G25G22G13G20G29G 1G 4G14
 -17495318.58949 -13632709.67846  21761745.988    21761746.121
 -22116942.46149 -17233976.87747  20693439.758    20693440.530
  -2115814.36848                  24514541.605
 -24420816.58049 -19029202.92947  20607914.026    20607914.306
  -4030678.34448  -3140788.62445  22971418.478    22971420.008
 -17652939.32149 -13755530.44646  21760261.255    21760261.599
  -2403414.29848  -1872786.61644  24859344.675    24859340.196
   8957998.88948                  25266353.058
 02  1  1  1 35 30.0000000  0  8G22G25G13G20G29G 1G 4G14
 -22175000.90549 -17279217.21847  20682391.430    20682392.708
 -17430841.33249 -13582467.68246  21774015.324    21774015.694
  -2207760.97748                  24497046.038
 -24416972.15149 -19026207.27647  20608645.735    20608646.067
  -3954155.62548  -3081160.66045  22985980.375    22985982.915
 -17717657.33749 -13805960.05846  21747946.016    21747946.515
  -2424454.60648  -1889181.66144  24855341.777    24855337.795
   9048351.32648                  25283547.316
 02  1  1  1 36  0.0000000  0  8G22G25G13G20G29G 1G 4G14
 -22232481.66249 -17324007.42147  20671452.952    20671454.421
 -17366159.84949 -13532066.55646  21786323.987    21786324.712
  -2299693.71148                  24479550.647
 -24412517.01649 -19022735.74947  20609493.744    20609493.995
  -3877439.73648  -3021382.17045  23000579.409    23000579.943
 -17782205.47249 -13856257.29046  21735662.661    21735663.000
  -2444965.49648                  24851437.205
   9138781.49748                  25300755.512
 02  1  1  1 36 30.0000000  0  8G22G25G13G20G29G 1G 4G14
 -22289403.74349 -17368362.28647  20660621.016    20660622.135
 -17301296.53949 -13481523.75546  21798667.149    21798667.472
  -2391632.63748  -1863606.61044  24462055.122    24462055.390
 -24407472.03249 -19018804.60047  20610453.743    20610454.097
  -3800552.08048  -2961469.82545  23015210.360    23015212.332
 -17846603.76649 -13906437.76746  21723408.060    21723408.668
  -2464967.93148  -1920750.48344  24847628.544    24847629.523
   9229267.72448                  25317975.261
 02  1  1  1 37  0.0000000  0  8G22G25G13G20G29G 1G 4G14
 -22345757.99149 -17412274.68247  20649897.249    20649898.030
 -17236245.58349 -13430834.73646  21811045.854    21811046.333
  -2483570.41848  -1935246.21144  24444561.037    24444563.389
 -24401830.10149 -19014408.30547  20611527.334    20611527.567
  -3723486.21148  -2901418.63345  23029875.569    23029876.908
 -17910844.10649 -13956495.16346  21711183.891    21711184.354
  -2484454.77548                  24843919.299
   9319816.85348   7262175.06844  25335206.105    25335202.464
 02  1  1  1 37 30.0000000  0  8G22G25G13G20G29G 1G 4G14
 -22401539.59749 -17455740.86847  20639282.207    20639283.517
 -17171005.87349 -13379998.62446  21823460.980    21823461.170
  -2575503.26248  -2006881.93444  24427064.756    24427064.954
 -24395588.07249 -19009544.39747  20612715.083    20612715.378
  -3646239.62648  -2841226.63645  23044575.115    23044577.431
 -17974922.73449 -14006426.54846  21698989.850    21698990.338
  -2503422.57348                  24840311.910
   9410431.30448   7332782.99544  25352450.103    25352452.232
 02  1  1  1 38  0.0000000  0  8G22G25G13G20G29G 1G 4G14
 -22456727.77249 -17498744.63947  20628780.610    20628781.826
 -17105560.26749 -13329002.07446  21835914.412    21835914.972
  -2667411.68548  -2078498.67744  24409576.452    24409578.694
 -24388727.25549 -19004198.31947  20614020.633    20614020.863
  -3568793.70848  -2780879.29745  23059312.668    23059314.982
 -18038819.69749 -14056216.37946  21686830.473    21686830.967
  -2521852.23648                  24836806.032
   9501129.01348                  25369710.693
 02  1  1  1 38 30.0000000  0  8G22G25G13G20G29G 1G 4G14
 -22511321.27749 -17541285.04147  20618391.714    20618392.923
 -17039911.07549 -13277846.89346  21848406.886    21848407.091
  -2759295.91548  -2150096.63844  24392091.049    24392092.770
 -24381248.36049 -18998370.61947  20615443.856    20615443.881
  -3491149.87248  -2720377.77245  23074088.445    23074090.739
 -18102534.88749 -14105864.57346  21674706.104    21674706.716
  -2539744.54148                  24833401.475
   9591908.70748                  25386985.460
 02  1  1  1 39  0.0000000  0  7G25G13G29G22G20G 1G 4
 -16974068.91049 -13226541.34746  21860936.588    21860937.011
  -2851164.37148  -2221682.34444  24374608.670    24374611.339
  -3413317.88948  -2659729.61645  23088899.303    23088899.424
 -22565327.48949 -17583367.80947  20608114.177    20608115.421
 -24373160.60449 -18992068.48447  20616982.904    20616982.858
 -18166076.56949 -14155377.56546  21662614.367    21662614.991
  -2557108.42248                  24830097.487
 02  1  1  1 39 30.0000000  0  7G22G25G13G20G29G 1G 4
 -22618742.55949 -17624989.94547  20597950.337    20597951.089
 -16908033.23449 -13175085.00646  21873502.913    21873503.444
  -2943014.56148  -2293253.80644  24357130.475    24357129.144
 -24364462.21049 -18985290.53147  20618638.546    20618638.687
  -3335296.18448  -2598933.63345  23103745.338    23103748.231
 -18229441.81949 -14204753.06946  21650556.244    21650557.364
  -2573941.76848                  24826893.169
 02  1  1  1 40  0.0000000  0  8G25G22G13G20G29G 1G 4G14
 -16841808.05749 -13123481.00846  21886104.907    21886105.267
 -22671566.77349 -17666151.67947  20587898.131    20587898.917
  -3034847.89148  -2364812.11144  24339653.903    24339654.468
 -24355155.45149 -18978038.52347  20620409.248    20620409.107
  -3257087.57248  -2537992.03145  23118629.269    23118631.460
 -18292631.90849 -14253992.09746  21638532.643    21638532.987
  -2590246.69648                  24823788.987
         -.71858                  25438893.612
 02  1  1  1 40 30.0000000  0  8G22G25G13G20G29G 1G 4G14
 -22723798.70249 -17706851.89047  20577958.632    20577959.794
 -16775394.93349 -13071730.56646  21898743.313    21898743.687
  -3126664.15848  -2436357.14944  24322182.598    24322185.664
 -24345240.47549 -18970312.57847  20622295.867    20622295.960
  -3178692.72148  -2476905.28545  23133547.371    23133548.456
 -18355646.21749 -14303094.14546  21626540.684    21626541.150
  -2606023.60748                  24820786.610
     91065.30348                  25456223.431
 02  1  1  1 41  0.0000000  0  8G22G25G13G20G29G 1G 4G14
 -22775439.38249 -17747091.37247  20568131.860    20568132.683
 -16708798.39849 -13019837.20946  21911416.059    21911416.685
  -3218465.45248  -2507890.47444  24304713.296    24304714.478
 -24334720.70249 -18962115.36547  20624298.086    20624298.241
  -3100115.07748  -2415676.12245  23148499.717    23148500.806
 -18418486.68849 -14352060.73246  21614581.468    21614582.429
  -2621275.08748  -2042547.96944  24817885.437    24817888.598
    182197.53148                  25473566.875
 02  1  1  1 41 30.0000000  0  8G22G25G13G20G29G 1G 4G14
 -22826482.93149 -17786865.56347  20558418.769    20558419.629
 -16642015.81649 -12967798.86946  21924124.484    21924125.213
  -3310246.96448                  24287247.794
 -24323592.06649 -18953443.71847  20626415.814    20626415.912
  -3021351.07548  -2354301.74145  23163488.121    23163489.379
 -18481148.29949 -14400887.95546  21602658.410    21602658.823
  -2635997.28848  -2054019.78244  24815084.767    24815086.180
    273399.47548                  25490920.738
 02  1  1  1 42  0.0000000  0  8G22G25G13G20G29G 1G 4G14
 -22876934.33049 -17826178.34547  20548818.437    20548819.080
 -16575055.55049 -12915622.07346  21936866.142    21936866.574
  -3402014.44148  -2650915.35944  24269784.479    24269784.694
 -24311861.65249 -18944303.14947  20628647.814    20628647.853
  -2942408.15048  -2292787.94445  23178511.068    23178512.105
 -18543636.74849 -14449580.24846  21590767.662    21590768.117
  -2650196.76948  -2065084.28744  24812382.852    24812382.290
    364663.85948                  25508288.856
 02  1  1  1 42 30.0000000  0  8G22G25G13G20G29G 1G 4G14
 -22926785.95949 -17865023.77647  20539331.682    20539332.431
 -16507913.23749 -12863303.43246  21949643.133    21949643.040
  -3493761.23648  -2722406.21844  24252325.883    24252331.194
 -24299523.53949 -18934689.05047  20630995.720    20630995.822
  -2863280.80148  -2231130.44245  23193568.675    23193570.294
 -18605944.93449 -14498132.07246  21578909.857    21578910.475
  -2663867.60048  -2075736.87444  24809781.518    24809779.622
    455996.10348                  25525669.443
 02  1  1  1 43  0.0000000  0  8G22G25G13G20G29G 1G 4G14
 -22976039.33149 -17903403.03647  20529958.675    20529959.589
 -16440593.14849 -12810846.25846  21962453.913    21962454.215
  -3585490.72948  -2793883.54844  24234869.710    24234866.992
 -24286581.13349 -18924604.07847  20633458.758    20633458.880
  -2783972.57448  -2169332.00645  23208660.214    23208662.840
 -18668075.23749 -14546545.29046  21567087.103    21567087.629
  -2677013.12048                  24807279.356
    547392.17048                  25543062.085
 02  1  1  1 43 30.0000000  0  8G22G25G13G20G29G 1G 4G14
 -23024688.53849 -17941311.52047  20520701.173    20520702.174
 -16373092.68549 -12758248.54546  21975298.591    21975299.198
  -3677197.73548  -2865343.38744  24217419.102    24217419.078
 -24273030.66149 -18914045.28547  20636037.385    20636037.623
  -2704480.11048  -2107390.01245  23223787.373    23223790.416
 -18730022.40949 -14594815.80946  21555299.264    21555299.585
  -2689629.06248                  24804878.012
    638855.78548                  25560467.087
 02  1  1  1 44  0.0000000  0  7G25G22G13G20G29G 1G 4
 -16305419.83649 -12705516.49846  21988176.755    21988176.976
 -23072738.30249 -17978752.90647  20511557.718    20511558.665
  -3768887.49448  -2936789.87744  24199970.877    24199969.137
 -24258878.72949 -18903017.81847  20638730.405    20638730.685
  -2624810.08548  -2045309.65045  23238948.287    23238951.168
 -18791791.75349 -14642947.76246  21543544.760    21543545.497
  -2701722.05648  -2105233.77444  24802575.801    24802577.356
 02  1  1  1 44 30.0000000  0  7G25G13G29G 1G22G20G 4
 -16237554.51449 -12652634.48846  22001091.344    22001091.656
  -3860537.51548  -3008205.30244  24182530.022    24182529.368
  -2544941.49348  -1983074.58045  23254147.155    23254148.469
 -18853360.47949 -14690923.39246  21531828.926    21531829.302
 -23120165.38949 -18015709.09247  20502532.642    20502533.764
 -24244104.12849 -18891505.15647  20641541.748    20641542.024
  -2713270.22248                  24800377.975
 02  1  1  1 45  0.0000000  0  7G25G13G29G 1G22G20G 4
 -16169509.10549 -12599612.14446  22014039.603    22014040.087
  -3952158.32148  -3079598.00344  24165095.385    24165094.666
  -2464885.78348  -1920693.70345  23269380.934    23269383.105
 -18914738.56749 -14738750.47546  21520148.482    21520148.878
 -23166978.97149 -18052187.21747  20493624.098    20493625.348
 -24228717.86649 -18879515.88247  20644469.491    20644469.749
  -2724284.82248                  24798282.947
 02  1  1  1 45 30.0000000  0  7G25G13G29G 1G22G20G 4
 -16101311.97949 -12546471.57046  22027017.343    22027017.509
  -4043776.10948  -3150988.34144  24147660.594    24147661.592
  -2384670.27548  -1858188.33045  23284645.636    23284647.826
 -18975951.87649 -14786449.15046  21508500.336    21508500.806
 -23213204.39049 -18088207.03347  20484827.849    20484828.882
 -24212747.36049 -18867071.35447  20647509.022    20647509.055
  -2734792.90248  -2131003.10244  24796282.735    24796279.186
 02  1  1  1 46  0.0000000  0  7G25G13G29G 1G22G20G 4
 -16032949.72149 -12493202.32046  22040026.301    22040026.609
  -4135375.34048  -3222364.25644  24130230.762    24130228.883
  -2304281.21448  -1795547.68345  23299944.231    23299945.139
 -19036984.99749 -14834007.42046  21496886.077    21496886.502
 -23258825.64249 -18123756.07347  20476146.385    20476147.144
 -24196178.53949 -18854160.60447  20650662.182    20650662.220
  -2744780.06348                  24794383.841
 02  1  1  1 46 30.0000000  0  7G25G13G29G 1G22G20G 4
 -15964415.93649 -12439799.44646  22053067.643    22053068.007
  -4226947.25948  -3293718.88844  24112803.321    24112806.032
  -2223711.01148  -1732765.88945  23315274.876    23315277.025
 -19097828.78949 -14881418.16546  21485307.805    21485308.256
 -23303832.92549 -18158826.69247  20467581.645    20467582.676
 -24179003.64949 -18840777.59447  20653930.345    20653930.532
  -2754238.40148  -2146155.40344  24792583.966    24792585.563
 02  1  1  1 47  0.0000000  0  7G25G13G29G22G20G 1G 4
 -15895708.92349 -12386261.57346  22066142.358    22066142.507
  -4318488.06648  -3365049.25644  24095385.389    24095385.006
  -2142957.23048  -1669841.09445  23330642.504    23330644.568
 -23348222.09049 -18193415.66947  20459134.638    20459135.711
 -24161220.36049 -18826920.50747  20657314.439    20657314.588
 -19158479.30449 -14928678.30846  21473766.028    21473766.786
  -2763165.37248                  24790886.033
 02  1  1  1 47 30.0000000  0  7G25G13G29G 1G22G20G 4
 -15826841.97349 -12332599.06046  22079247.168    22079247.539
  -4410008.41048  -3436363.73244  24077968.932    24077969.384
  -2062031.90848  -1606782.57944  23346042.172    23346045.500
 -19218946.72749 -14975795.77546  21462259.864    21462260.285
 -23392002.89549 -18227530.59847  20450803.845    20450805.025
 -24142840.41349 -18812598.49647  20660811.468    20660811.790
  -2771572.31648  -2159662.30644  24789285.513    24789284.073
 02  1  1  1 48  0.0000000  0  7G25G13G29G22G20G 1G 4
 -15757806.10649 -12278804.94146  22092384.674    22092384.984
  -4501498.22748  -3507654.36044  24060558.561    24060559.786
  -1980925.69648  -1543583.17444  23361476.104    23361477.205
 -23435164.01749 -18261162.67047  20442590.442    20442591.604
 -24123854.40549 -18797804.22647  20664424.319    20664424.676
 -19279220.10149 -15022762.03446  21450790.328    21450790.878
  -2779449.75348                  24787785.683
 02  1  1  1 48 30.0000000  0  7G25G22G13G20G29G 1G 4
 -15688631.28249 -12224902.54246  22105548.051    22105548.570
 -23477731.99349 -18294332.52447  20434490.049    20434491.167
  -4592984.25048  -3578942.10844  24043150.065    24043147.914
 -24104290.96149 -18782560.00247  20668147.768    20668147.990
  -1899667.27448  -1480265.13845  23376939.579    23376944.040
 -19339326.56849 -15069598.23547  21439352.118    21439352.767
  -2786826.15448                  24786380.946
 02  1  1  1 49  0.0000000  0  7G25G22G13G20G29G 1G 4
 -15619277.10549 -12170860.39246  22118745.591    22118745.953
 -23519663.85649 -18327006.71547  20426510.708    20426511.754
  -4684423.97848  -3650193.74244  24025748.100    24025750.903
 -24084108.92549 -18766833.75947  20671988.134    20671988.412
  -1818215.47748  -1416796.43645  23392439.866    23392443.439
 -19399223.34349 -15116271.04147  21427954.362    21427954.859
  -2793659.83348                  24785079.184
 02  1  1  1 49 30.0000000  0  8G25G22G13G20G29G 1G 4G 6
 -15549765.87049 -12116695.86546  22131973.534    22131973.952
 -23560978.96749 -18359200.31647  20418648.333    20418649.334
  -4775837.78048  -3721425.15444  24008353.207    24008351.264
 -24063329.77449 -18750642.24047  20675942.039    20675942.274
  -1736591.89448  -1353193.87545  23407972.256    23407975.987
 -19458930.24249 -15162795.89647  21416592.513    21416593.141
  -2799972.25848  -2181791.88744  24783878.920    24783879.289
          .09557                  25531039.513
 02  1  1  1 50  0.0000000  0  8G25G22G13G20G29G 1G 4G 6
 -15480070.33349 -12062387.71746  22145235.868    22145236.174
 -23601647.76449 -18390890.30847  20410909.521    20410910.589
  -4867196.15348  -3792613.42444  23990968.435    23990969.868
 -24041925.66049 -18733963.73147  20680015.452    20680015.805
  -1654768.56048  -1289435.65845  23423543.179    23423546.322
 -19518417.75549 -15209149.80347  21405271.830    21405272.391
  -2805735.38448  -2186283.17844  24782781.426    24782782.784
    -11780.88547                  25528797.748
 02  1  1  1 50 30.0000000  0  8G25G 1G22G13G20G29G 4G 6
 -15410189.51749 -12007935.19046  22158533.893    22158534.267
 -19577682.19049 -15255329.88247  21393995.085    21393995.507
 -23641666.29449 -18422073.59347  20403294.496    20403295.563
  -4958495.56648  -3863755.76344  23973594.633    23973592.674
 -24019894.82549 -18716796.87547  20684207.593    20684207.863
  -1572743.63648  -1225520.35345  23439152.514    23439155.001
  -2810946.87548                  24781790.661
    -23076.56047                  25526647.955
 02  1  1  1 51  0.0000000  0  8G25G 1G22G13G20G29G 4G 6
 -15340146.82349 -11953356.52946  22171862.813    22171863.468
 -19636744.30749 -15301352.31047  21382755.262    21382755.825
 -23681054.98349 -18452766.09447  20395798.804    20395799.884
  -5049756.99648  -3934868.43844  23956228.639    23956229.803
 -23997259.56349 -18699159.03347  20688514.809    20688515.220
  -1490539.55048  -1161465.43444  23454794.918    23454798.092
  -2815629.11148                  24780900.629
    -33907.82847                  25524587.268
 02  1  1  1 51 30.0000000  0  8G25G 1G22G13G20G29G 4G 6
 -15269949.55049 -11898657.42546  22185220.713    22185221.263
 -19695609.26649 -15347221.10647  21371553.825    21371554.243
 -23719818.73449 -18482971.62847  20388422.722    20388423.934
  -5140986.57048  -4005956.31044  23938866.805    23938869.418
 -23974026.86849 -18681055.66247  20692935.869    20692936.278
  -1408162.92348  -1097276.11844  23470470.425    23470472.166
  -2819788.64348                  24780108.625
    -44280.13748                  25522613.875
 02  1  1  1 52  0.0000000  0  8G25G 1G22G13G20G29G 4G 6
 -15199592.72949 -11843833.99946  22198609.581    22198610.204
 -19754269.28649 -15392930.21147  21360391.660    21360392.108
 -23757949.72049 -18512684.09247  20381166.568    20381167.788
  -5232176.35148  -4077013.18744  23921515.267    23921516.786
 -23950190.66849 -18662482.02247  20697471.945    20697472.313
  -1325607.70648  -1032947.61945  23486181.649    23486183.635
  -2823419.30648  -2200063.36044  24779418.518    24779420.676
    -54186.16648                  25520728.969
 02  1  1  1 52 30.0000000  0  8G25G 1G22G13G20G29G 4G 6
 -15129091.47549 -11788898.04046  22212025.256    22212025.870
 -19812736.98549 -15438489.45747  21349265.163    21349265.797
 -23795460.49649 -18541913.28547  20374028.621    20374029.785
  -5323339.22748  -4148049.08344  23904165.898    23904170.548
 -23925765.54749 -18643449.49247  20702119.769    20702120.017
  -1242888.58848   -968491.39345  23501922.854    23501924.950
  -2826535.11148                  24778825.899
    -63638.78648    -49588.19444  25518929.987    25518931.558
 02  1  1  1 53  0.0000000  0  8G25G 1G22G13G20G29G 4G 6
 -15058442.34649 -11733846.84946  22225469.570    22225470.260
 -19871006.37049 -15483894.17447  21338176.873    21338177.393
 -23832344.80749 -18570654.33347  20367009.174    20367010.552
  -5414469.43848  -4219059.51444  23886825.685    23886825.441
 -23900747.19649 -18623954.69947  20706880.613    20706880.974
  -1160001.02148   -903903.94544  23517694.266    23517699.735
  -2829131.57348  -2204514.44944  24778331.972    24778331.827
    -72632.41548                  25517218.901
 02  1  1  1 53 30.0000000  0  8G25G 1G22G13G20G29G 4G 6
 -14987641.32349 -11678677.26046  22238942.380    22238943.103
 -19929071.57449 -15529139.79647  21327127.418    21327127.966
 -23868596.73349 -18598902.60747  20360110.917    20360112.193
  -5505561.20548  -4290040.02244  23869490.380    23869490.042
 -23875131.58149 -18603994.50247  20711755.309    20711755.673
  -1076940.57348   -839181.79245  23533502.028    23533503.510
  -2831204.46148  -2206129.65344  24777937.073    24777938.598
    -81161.35248                  25515595.840
 02  1  1  1 54  0.0000000  0  8G 1G25G22G13G20G29G 4G 6
 -19986933.93249 -15574227.35147  21316116.056    21316116.676
 -14916692.78649 -11623392.76746  22252443.629    22252444.231
 -23904217.59049 -18626659.13547  20353332.674    20353333.780
  -5596615.80048  -4360991.49144  23852163.800    23852166.555
 -23848921.98549 -18583571.47147  20716743.195    20716743.384
   -993710.79448   -774327.68045  23549339.683    23549344.007
  -2832756.95748                  24777641.996
    -89227.49648                  25514060.740
 02  1  1  1 54 30.0000000  0  8G 1G25G22G13G20G29G 4G 6
 -20044578.57149 -15619145.25447  21305147.176    21305147.757
 -14845584.03649 -11567983.43146  22265975.344    22265975.889
 -23939192.49149 -18653912.32347  20346676.993    20346677.962
  -5687618.63348  -4431902.67344  23834846.477    23834848.640
 -23822105.64149 -18562675.64747  20721846.289    20721846.627
   -910298.23048   -709331.17145  23565212.906    23565216.217
  -2833775.66248                  24777447.779
    -96816.33048                  25512617.104
 02  1  1  1 55  0.0000000  0  8G 1G25G22G13G20G29G 4G 6
 -20102004.45549 -15663892.69847  21294219.771    21294220.242
 -14774316.96749 -11512450.70746  22279537.036    22279537.482
 -23973520.45049 -18680661.39247  20340144.863    20340145.880
  -5778569.98548  -4502773.71544  23817538.576    23817537.926
 -23794683.30749 -18541307.62447  20727064.211    20727064.576
   -826703.80348   -644192.89445  23581120.928    23581123.217
  -2834261.27148                  24777354.838
   -103927.38848    -80982.37744  25511263.642    25511263.096
 02  1  1  1 55 30.0000000  0  8G 1G25G22G13G20G29G 4G 6
 -20159238.80249 -15708490.90047  21283328.296    21283328.872
 -14702920.95549 -11456817.52946  22293123.235    22293124.205
 -24007228.92749 -18706927.74447  20333730.481    20333731.365
  -5869496.49348  -4573625.45644  23800236.485    23800235.364
 -23766684.44449 -18519490.35847  20732392.412    20732392.553
   -742956.60248   -578935.60145  23597057.093    23597061.367
  -2834242.88848                  24777358.981
   -110588.49447                  25509996.037
 02  1  1  1 56  0.0000000  0  8G 1G25G22G13G20G29G 4G 6
 -20216269.07649 -15752930.08047  21272475.748    21272476.379
 -14631385.86349 -11401075.99046  22306736.141    22306736.835
 -24040305.48249 -18732701.70147  20327436.306    20327437.326
  -5960386.23248  -4644448.51344  23782939.424    23782939.272
 -23738098.47349 -18497215.61047  20737832.134    20737832.409
   -659045.81848   -513550.88444  23613025.310    23613030.450
  -2833709.89848                  24777459.063
   -116787.57647                  25508816.162
 02  1  1  1 56 30.0000000  0  8G 1G25G22G13G20G29G 4G 6
 -20273073.95049 -15797193.62347  21261666.286    21261666.742
 -14559693.11449 -11345211.58946  22320378.710    22320379.337
 -24072728.73549 -18757966.59947  20321266.392    20321267.460
  -6051217.74548  -4715226.19444  23765655.675    23765655.071
 -23708906.25349 -18474468.45647  20743387.289    20743387.740
   -574951.85048   -448023.34945  23629028.057    23629032.518
  -2832642.55248                  24777662.403
   -122503.86647    -95458.81544  25507728.907    25507733.407
 02  1  1  1 57  0.0000000  0  8G 1G25G22G13G20G29G 4G 6
 -20329661.96249 -15841288.18947  21250897.519    21250898.118
 -14487853.59149 -11289232.82746  22334049.671    22334050.257
 -24104507.44749 -18782729.24147  20315219.259    20315220.305
  -6142000.10548  -4785965.66344  23748379.903    23748381.765
 -23679117.98849 -18451256.85247  20749055.664    20749056.079
   -490684.97148   -382361.13645  23645063.257    23645066.419
  -2831051.21948                  24777964.053
   -127746.49547                  25506731.067
 02  1  1  1 57 30.0000000  0  8G 1G25G22G13G20G29G 4G 6
 -20386028.96549 -15885210.53947  21240171.444    21240172.267
 -14415865.75949 -11233138.50346  22347747.991    22347748.845
 -24135637.76749 -18806986.65047  20309294.913    20309295.911
  -6232729.51248  -4856663.80844  23731114.743    23731114.595
 -23648732.03249 -18427579.52647  20754837.760    20754838.143
   -406243.09148   -316562.57845  23661133.127    23661136.529
  -2828933.61948                  24778365.756
   -132511.94147                  25505824.370
 02  1  1  1 58  0.0000000  0  8G 1G25G22G13G20G29G 4G 6
 -20442181.78449 -15928965.99347  21229486.165    21229486.749
 -14343738.68949 -11176935.67646  22361473.479    22361474.527
 -24166126.79549 -18830744.34547  20303492.889    20303493.912
  -6323412.60848  -4927325.87944  23713858.787    23713856.990
 -23617757.28149 -18403443.39647  20760732.209    20760732.485
   -321634.82448   -250634.33844  23677233.209    23677238.780
  -2826298.52048                  24778868.836
   -136807.73947                  25505007.003
 02  1  1  1 58 30.0000000  0  8G 1G25G22G13G20G29G 4G 6
 -20498116.84749 -15972551.76747  21218841.814    21218842.284
 -14271471.63849 -11120623.77346  22375226.190    22375226.824
 -24195971.17349 -18853999.72647  20297813.841    20297814.883
  -6414046.20248  -4997949.40444  23696610.928    23696613.746
 -23586192.30149 -18378847.34547  20766738.855    20766739.117
   -236858.44448   -184575.14144  23693366.197    23693369.897
  -2823144.09248  -2199849.75444  24779468.874    24779469.180
   -140630.85547                  25504279.512
 02  1  1  1 59  0.0000000  0  8G 1G25G22G13G20G29G 4G 6
 -20553832.92549 -16015966.90247  21208239.574    21208240.049
 -14199065.65549 -11064203.63246  22389004.018    22389005.716
 -24225170.03049 -18876752.11847  20292257.595    20292258.611
  -6504629.21348  -5068533.50445  23679374.213    23679373.891
 -23554038.19849 -18353792.23847  20772857.343    20772857.767
   -151914.33648   -118385.24444  23709530.298    23709533.600
  -2819471.08248                  24780168.520
   -143980.63947                  25503642.033
 02  1  1  1 59 30.0000000  0  8G 1G25G22G13G20G29G 4G 6
 -20609315.48349 -16059200.08047  21197681.669    21197682.300
 -14126508.67249 -11007665.82746  22402811.323    22402812.149
 -24253708.95149 -18898990.26147  20286826.737    20286827.786
  -6595147.59548  -5139067.18344  23662147.805    23662147.255
 -23521282.35449 -18328268.23947  20779090.557    20779091.086
    -66789.78448    -52054.68844  23725729.176    23725734.488
  -2815266.84048                  24780967.753
   -146843.22547                  25503097.223
 02  1  1  2  0  0.0000000  0  8G 1G25G22G13G20G29G 4G 6
 -20664573.70049 -16102258.44547  21187166.220    21187166.710
 -14053812.35149 -10951019.43846  22416645.208    22416646.165
 -24281597.55049 -18920721.64847  20281519.886    20281520.941
  -6685610.55348  -5209557.75344  23644935.083    23644932.282
 -23487936.50649 -18302284.50147  20785436.759    20785437.003
     18504.04548     14407.70944  23741960.095    23741964.975
  -2810542.54848                  24781867.881
   -149228.68147                  25502643.264
 02  1  1  2  0 30.0000000  0  8G 1G25G22G13G20G29G 4G 6
 -20719605.51149 -16145140.38447  21176693.857    21176694.411
 -13980976.67649 -10894264.46946  22430505.074    22430506.557
 -24308834.25449 -18941945.07547  20276336.979    20276337.902
  -6776016.29448  -5280003.72444  23627729.471    23627729.193
 -23454000.74749 -18275841.09147  20791894.307    20791894.641
    103967.26848     81002.10544  23758223.745    23758227.231
  -2805298.21248                  24782865.147
   -151135.59148                  25502280.349
 02  1  1  2  1  0.0000000  0  8G 1G25G22G13G20G29G 4G 6
 -20774422.37849 -16187854.84347  21166262.551    21166263.249
 -13908015.69749 -10837411.85746  22444389.461    22444390.088
 -24335430.79649 -18962669.68047  20271275.479    20271276.458
  -6866376.30348  -5350414.07944  23610535.546    23610534.341
 -23419488.94949 -18248948.82147  20798461.332    20798461.737
    189586.70248    147718.21344  23774516.050    23774523.609
  -2799547.06748                  24783960.317
   -152576.07748                  25502006.028
 02  1  1  2  1 30.0000000  0  8G 1G22G25G13G20G29G 4G 6
 -20829026.75549 -16230403.72547  21155871.708    21155872.490
 -24361390.23849 -18982897.83647  20266335.744    20266336.765
 -13834935.08249 -10780466.02446  22458296.385    22458297.738
  -6956693.36748  -5420790.95444  23593348.741    23593349.307
 -23384405.86949 -18221611.39947  20805137.723    20805138.302
    275357.82448    214552.54144  23790838.246    23790842.504
  -2793293.96148                  24785150.445
   -153553.44148                  25501820.154
 02  1  1  2  2  0.0000000  0  8G 1G22G25G13G20G29G 4G 6
 -20883423.00749 -16272790.42747  21145520.540    21145521.116
 -24386717.44449 -19002633.33947  20261516.255    20261517.147
 -13761741.26949 -10723432.00746  22472224.414    22472225.774
  -7046972.21948  -5491138.06844  23576168.560    23576168.420
 -23348758.24949 -18193834.06847  20811921.778    20811922.195
    361274.47448    281500.21844  23807187.233    23807192.506
  -2786545.09048  -2171331.02644  24786435.224    24786436.379
   -154073.02148                  25501721.210
 02  1  1  2  2 30.0000000  0  8G 1G22G25G13G20G29G 4G 6
 -20937564.90749 -16314978.93647  21135217.807    21135218.385
 -24411366.66949 -19021840.55547  20256825.602    20256826.704
 -13688390.65049 -10666275.79246  22486182.825    22486183.682
  -7137166.78748  -5561419.51744  23559006.606    23559005.480
 -23312502.40249 -18165582.80547  20818820.790    20818821.287
    447380.88448    348595.79044  23823574.384    23823580.936
  -2779256.53548                  24787822.698
   -154089.38648   -120071.96444  25501718.598    25501720.487
 02  1  1  2  3  0.0000000  0  8G 1G22G25G13G20G29G 4G 6
 -20991470.20149 -16356983.07947  21124959.789    21124960.420
 -24435356.21949 -19040533.74047  20252260.331    20252261.382
 -13614902.98449 -10609012.77846  22500167.236    22500168.529
  -7227294.99248  -5631649.25344  23541853.782    23541855.438
 -23275658.36249 -18136873.20447  20825831.595    20825832.169
    533657.53048    415823.98444  23839992.795    23839996.082
  -2771447.96948                  24789308.546
   -153687.56047                  25501818.001
 02  1  1  2  3 30.0000000  0  8G 1G22G25G13G20G29G 4G 6
 -21045150.38949 -16398811.81647  21114745.152    21114745.603
 -24458697.98249 -19058722.14847  20247818.936    20247819.916
 -13541292.24649 -10551653.87946  22514174.917    22514176.060
  -7317368.34248  -5701836.25744  23524714.617    23524715.116
 -23238240.08549 -18107716.14847  20832951.999    20832952.498
    620091.08248    483174.42544  23856440.174    23856444.403
  -2763133.14548  -2153087.92444  24790891.147    24790888.024
   -153499.93347                  25501983.401
 02  1  1  2  4  0.0000000  0  7G 1G22G25G13G20G29G 4
 -21098593.90249 -16440456.12747  21104574.908    21104575.735
 -24481381.25249 -19076397.44747  20243502.378    20243503.310
 -13467549.49349 -10494192.10646  22528207.801    22528209.316
  -7407375.57948  -5771971.71144  23507586.516    23507586.544
 -23200238.49849 -18078104.57147  20840183.463    20840183.812
    706691.01748    550654.52644  23872919.845    23872925.293
  -2754302.69048  -2146207.09144  24792571.900    24792569.989
 02  1  1  2  4 30.0000000  0  8G 1G22G25G13G20G29G 4G 6
 -21151800.87149 -16481916.12847  21094450.302    21094450.854
 -24503406.92849 -19093560.34047  20239311.014    20239312.104
 -13393677.64449 -10436629.74646  22542265.164    22542266.189
  -7497317.12548  -5842056.01544  23490471.319    23490472.209
 -23161656.34549 -18048040.59647  20847525.323    20847526.030
    793455.25948    618262.64444  23889431.191    23889436.499
  -2744959.11748  -2138926.40144  24794349.906    24794352.401
         -.40058                  25502620.169
 02  1  1  2  5  0.0000000  0  8G 1G22G25G13G20G29G 4G 6
 -21204792.51449 -16523208.33547  21084366.037    21084366.874
 -24524796.79649 -19110227.80647  20235240.784    20235241.716
 -13319700.27049 -10378985.15546  22556342.714    22556344.141
  -7587214.39748  -5912105.79945  23473364.992    23473364.418
 -23122517.39549 -18017542.75047  20854973.809    20854974.360
    880360.54448    685980.68244  23905969.494    23905974.997
  -2735125.54648  -2131263.85444  24796221.348    24796218.622
      2364.50048                  25503070.143
 02  1  1  2  5 30.0000000  0  8G 1G22G25G13G20G29G 4G 6
 -21257542.59749 -16564312.31747  21074328.107    21074328.744
 -24545525.30449 -19126379.93147  20231296.461    20231297.547
 -13245593.25649 -10321239.54846  22570444.654    22570446.235
  -7677041.25148  -5982100.71845  23456270.559    23456269.258
 -23082797.98549 -17986592.60547  20862532.329    20862532.815
    967431.12548    753827.47644  23922537.718    23922544.192
  -2724778.29348                  24798190.213
      5214.34348                  25503612.423
 02  1  1  2  6  0.0000000  0  8G 1G22G25G13G20G29G 4G 6
 -21310032.76549 -16605213.76847  21064339.190    21064340.168
 -24565574.69549 -19142002.87147  20227480.979    20227482.045
 -13171340.78149 -10263380.60346  22584574.753    22584575.898
  -7766779.31648  -6052026.46244  23439194.893    23439192.590
 -23042482.37749 -17955177.89747  20870203.499    20870204.195
   1054683.64748    821816.09644  23939142.102    23939149.586
  -2713901.08148  -2114725.28444  24800259.750    24800258.722
      8566.48548                  25504250.296
 02  1  1  2  6 30.0000000  0  8G 1G22G25G13G20G29G 4G 6
 -21362276.82149 -16645923.45147  21054397.934    21054398.525
 -24584959.63149 -19157108.04247  20223792.096    20223793.305
 -13096958.75549 -10205420.69946  22598729.340    22598731.149
  -7856442.23848  -6121893.61745  23422131.536    23422133.707
 -23001586.78949 -17923311.25547  20877986.022    20877986.607
   1142102.32548    889934.10944  23955777.698    23955785.889
  -2702509.73948  -2105848.93944  24802427.745    24802426.730
     12406.20248                  25504981.028
 02  1  1  2  7  0.0000000  0  8G 1G22G25G13G20G29G 4G 6
 -21414283.92449 -16686448.49547  21044501.626    21044502.189
 -24603690.38149 -19171703.45947  20220228.008    20220229.074
 -13022459.66149 -10147369.57846  22612906.153    22612907.670
  -7946040.36548  -6191710.31845  23405082.335    23405080.830
 -22960123.23449 -17891002.03847  20885876.530    20885876.961
   1229675.77248    958172.77444  23972442.834    23972446.706
  -2690616.61048                  24804691.670
     16722.98648                  25505802.514
 02  1  1  2  7 30.0000000  0  8G 1G22G25G13G20G29G 4G 6
 -21466048.54849 -16726784.59247  21034650.719    21034651.636
 -24621762.09149 -19185785.34547  20216788.871    20216790.050
 -12947839.98549 -10089224.51246  22627106.379    22627107.678
  -8035567.90048  -6261472.01945  23388045.289    23388044.817
 -22918088.71749 -17858247.92747  20893875.212    20893875.749
   1317407.87448   1026535.02844  23989137.787    23989142.930
  -2678217.75348  -2086920.16944  24807051.043    24807049.905
     21521.57348                  25506715.835
 02  1  1  2  8  0.0000000  0  8G 1G22G25G13G20G29G 4G 6
 -21517586.81449 -16766944.30447  21024843.139    21024844.140
 -24639191.61549 -19199366.82747  20213472.172    20213473.364
 -12873118.13549 -10030999.83046  22641325.346    22641326.597
  -8125041.01748  -6331191.29245  23371019.384    23371017.644
 -22875502.16449 -17825063.65247  20901979.199    20901979.711
   1405280.26448   1095006.60744  24005860.371    24005864.965
  -2665331.86048  -2076879.19244  24809502.185    24809504.647
     26784.43248                  25507717.312
 02  1  1  2  8 30.0000000  0  8G 1G22G25G13G20G29G 4G 6
 -21568897.49549 -16806926.68347  21015078.997    21015079.967
 -24655978.85849 -19212447.82547  20210277.874    20210278.990
 -12798295.43949  -9972696.56246  22655563.458    22655564.781
  -8214458.62448  -6400867.34845  23354004.160    23354001.990
 -22832365.27249 -17791450.54447  20910188.345    20910188.815
   1493292.11248   1163586.88644  24022607.603    24022615.794
  -2651960.38248  -2066459.88244  24812046.096    24812049.310
     32511.70548                  25508807.351
 02  1  1  2  9  0.0000000  0  7G 1G22G25G13G20G29G 4
 -21619960.65749 -16846716.18347  21005362.191    21005362.961
 -24672104.94949 -19225013.63547  20207209.300    20207210.429
 -12723354.49949  -9914301.14646  22669825.217    22669825.802
  -8303801.27548  -6470484.96345  23337001.570    23337002.006
 -22788660.78349 -17757395.15147  20918504.702    20918505.482
   1581461.21548   1232289.68444  24039386.960    24039391.352
  -2638085.79948  -2055648.51844  24814686.169    24814686.531
 02  1  1  2  9 30.0000000  0  7G 1G22G25G13G20G29G 4
 -21670754.63049 -16886295.92747  20995696.468    20995697.314
 -24687549.12049 -19237048.09147  20204270.061    20204271.226
 -12648275.92749  -9855798.51146  22684111.366    22684113.157
  -8393047.15848  -6540027.22645  23320019.554    23320018.024
 -22744369.68249 -17722882.66547  20926932.755    20926933.414
   1669807.30148   1301130.34244  24056197.679    24056204.884
  -2623688.88248                  24817425.721
 02  1  1  2 10  0.0000000  0  7G22G25G13G20G29G 1G 4
 -24702323.51349 -19248560.64147  20201458.867    20201459.957
 -12573073.30449  -9797199.19646  22698422.364    22698423.373
  -8482207.24548  -6609502.59845  23303051.948    23303051.862
 -22699506.01249 -17687924.01447  20935470.493    20935470.966
   1758317.15848   1370098.60044  24073041.550    24073051.231
 -21721290.68549 -16925674.69747  20986079.864    20986080.732
  -2608783.07448                  24820261.891
 02  1  1  2 10 30.0000000  0  7G22G25G13G20G29G 1G 4
 -24716433.47749 -19259555.45647  20198773.762    20198774.935
 -12497753.48049  -9738508.56546  22712755.239    22712757.102
  -8571286.62048  -6678915.04545  23286101.756    23286101.525
 -22654077.06349 -17652524.88947  20944115.370    20944116.113
   1846984.60548   1439189.70944  24089915.267    24089921.246
 -21771573.22749 -16964855.92747  20976511.432    20976512.333
  -2593375.32548  -2020809.16444  24823193.353    24823200.488
 02  1  1  2 11  0.0000000  0  8G22G25G13G20G29G 1G 4G27
 -24729879.94049 -19270033.26547  20196214.862    20196216.033
 -12422318.76849  -9679728.41246  22727109.577    22727111.614
  -8660285.07248  -6748264.47245  23269165.005    23269165.187
 -22608085.16549 -17616687.10047  20952866.898    20952868.067
   1935807.62948   1508401.99944  24106816.826    24106822.203
 -21821601.92949 -17003839.36147  20966991.276    20966991.934
  -2577467.87048                  24826219.316
         -.71658         -.92054  25604464.859    25604467.922
 02  1  1  2 11 30.0000000  0  8G22G25G13G20G29G 1G 4G27
 -24742667.98649 -19279998.02047  20193781.411    20193782.719
 -12346775.59049  -9620863.75046  22741485.531    22741487.512
  -8749206.39448  -6817553.82345  23252244.660    23252242.577
 -22561537.36049 -17580416.13647  20961725.207    20961725.790
   2024780.17948   1577730.78844  24123749.457    24123759.882
 -21871380.74549 -17042628.07747  20957518.606    20957519.358
  -2561067.38648  -1995634.14644  24829339.867    24829340.588
    -84829.90548    -66101.51144  25588321.155    25588324.200
 02  1  1  2 12  0.0000000  0  8G22G25G13G20G29G 1G 4G27
 -24754791.45349 -19289444.91647  20191474.593    20191475.827
 -12271118.90949  -9561910.63746  22755882.921    22755884.629
  -8838043.91348  -6886777.82945  23235339.836    23235338.203
 -22514429.43949 -17543708.72447  20970689.831    20970690.317
   2113907.58448   1647180.29944  24140709.017    24140716.709
 -21920902.12649 -17081216.19247  20948095.456    20948096.304
  -2544168.96048  -1982466.53544  24832556.088    24832559.117
   -169601.19448   -132156.98144  25572191.724    25572193.532
 02  1  1  2 12 30.0000000  0  8G22G25G13G20G29G 1G 4G27
 -24766246.91949 -19298371.28447  20189294.738    20189296.137
 -12195346.45449  -9502867.31646  22770301.504    22770304.329
  -8926792.92748  -6955932.90645  23218450.638    23218450.503
 -22466759.60149 -17506563.45647  20979760.769    20979761.645
   2203192.25848   1716752.28644  24157700.115    24157704.650
 -21970161.87949 -17119600.45347  20938721.440    20938722.369
  -2526770.76548  -1968909.55144  24835866.126    24835871.410
   -254311.21948   -198164.67844  25556069.645    25556070.735
 02  1  1  2 13  0.0000000  0  8G20G22G25G13G29G 1G 4G27
 -22418535.00549 -17468985.90847  20988937.723    20988938.695
 -24777040.04449 -19306781.54447  20187240.790    20187242.117
 -12119465.18249  -9443739.20146  22784741.679    22784743.579
  -9015457.63148  -7025022.27845  23201578.708    23201578.071
   2292627.71748   1786441.82144  24174719.063    24174726.873
 -22019164.30349 -17157784.18947  20929396.396    20929397.364
  -2508879.86348                  24839270.474
   -338965.29548   -264128.87244  25539961.541    25539964.021
 02  1  1  2 13 30.0000000  0  8G20G22G25G13G29G 1G 4G27
 -22369763.47949 -17430982.17947  20998219.067    20998219.429
 -24787176.53849 -19314680.14747  20185311.734    20185313.165
 -12043482.07349  -9384531.72746  22799201.174    22799202.856
  -9104043.06248  -7094049.89545  23184721.235    23184719.652
   2382207.34048   1856243.61444  24191766.032    24191775.713
 -22067913.87949 -17195770.90447  20920119.920    20920120.788
  -2490503.45348  -1940649.29444  24842767.881    24842769.433
   -423568.96248   -330053.73844  25523861.467    25523862.142
 02  1  1  2 14  0.0000000  0  8G20G22G25G13G29G 1G 4G27
 -22320440.07449 -17392548.41647  21007604.235    21007605.260
 -24796649.85849 -19322062.00247  20183509.128    20183510.497
 -11967391.70249  -9325240.69146  22813680.094    22813682.289
  -9192541.19548  -7163009.48445  23167880.454    23167879.365
   2471937.03148                  24208841.295
 -22116402.70249 -17233554.43547  20910892.755    20910893.772
  -2471636.21848                  24846359.123
   -508115.42048   -395933.95444  25507773.456    25507775.769
 02  1  1  2 14 30.0000000  0  8G20G22G25G13G29G 1G 4G27
 -22270562.68849 -17353682.98747  21017095.888    21017096.583
 -24805456.13549 -19328924.07447  20181833.537    20181834.949
 -11891191.18449  -9265863.82146  22828181.506    22828183.830
  -9280947.36649  -7231897.39245  23151058.002    23151057.067
   2561819.51148   1996200.19244  24225946.493    24225954.685
 -22164625.74249 -17271130.86447  20901716.443    20901717.429
  -2452275.87348  -1910861.59944  24850043.194    24850045.600
   -592600.80348   -461766.72544  25491696.523    25491697.830
 02  1  1  2 15  0.0000000  0  8G20G22G25G13G29G 1G 4G27
 -22220156.15249 -17314405.23447  21026688.601    21026689.165
 -24813618.48849 -19335284.39047  20180280.158    20180281.519
 -11814904.53449  -9206419.83946  22842698.023    22842699.921
  -9369283.38248  -7300730.63245  23134247.327    23134245.611
   2651831.20548   2066338.69444  24243074.697    24243084.129
 -22212604.74449 -17308517.14047  20892586.133    20892587.146
  -2432446.78448  -1895410.38544  24853816.643    24853818.533
   -677047.83248   -527569.55444  25475626.199    25475629.009
 02  1  1  2 15 30.0000000  0  8G20G22G25G13G29G 1G 4G27
 -22169196.69949 -17274696.63347  21036385.016    21036385.919
 -24821111.74149 -19341123.33247  20178854.433    20178855.817
 -11738507.66449  -9146889.97246  22857235.711    22857237.070
  -9457522.28249  -7369488.23945  23117457.041    23117456.315
   2741996.73048   2136597.05144  24260234.007    24260241.117
 -22260312.81549 -17345692.29547  20883507.580    20883508.648
  -2412124.98748  -1879575.32344  24857685.560    24857686.386
   -761430.83448   -593322.47244  25459569.140    25459570.890
 02  1  1  2 16  0.0000000  0  8G20G22G25G13G29G 1G 4G27
 -22117684.07749 -17234556.99647  21046187.923    21046188.820
 -24827933.74049 -19346439.21747  20177556.422    20177557.814
 -11661999.72649  -9087273.57446  22871795.349    22871797.327
  -9545660.92548  -7438167.66745  23100683.357    23100683.825
   2832317.00148                  24277420.984
 -22307746.76649 -17382653.85147  20874481.207    20874482.385
  -2391309.78348  -1863355.65144  24861646.907    24861646.467
   -845747.41148   -659023.68044  25443523.946    25443522.004
 02  1  1  2 16 30.0000000  0  8G20G22G25G13G29G 1G 4G27
 -22065625.74349 -17193992.12747  21056095.055    21056095.776
 -24834090.03449 -19351236.36547  20176384.755    20176386.146
 -11585387.18149  -9027575.65646  22886373.634    22886376.804
  -9633703.61849  -7506772.40345  23083931.606    23083930.511
   2922785.99148                  24294636.677
 -22354910.54949 -17419404.88847  20865506.021    20865507.282
  -2370008.35948  -1846757.13844  24865700.278    24865699.913
   -930002.96648   -724677.29244  25427489.497    25427489.908
 02  1  1  2 17  0.0000000  0  8G20G22G25G13G29G 1G 4G27
 -22013028.79749 -17153007.56247  21066103.164    21066104.342
 -24839586.25049 -19355519.17347  20175338.690    20175340.185
 -11508676.30749  -8967801.12946  22900972.044    22900974.091
  -9721654.43949  -7575305.51845  23067193.437    23067192.884
   3013397.58748   2348078.30344  24311880.296    24311884.159
 -22401808.21149 -17455948.56147  20856581.852    20856583.054
  -2348227.48248                  24869845.351
  -1014202.38548   -790287.20944  25411468.470    25411470.905
 02  1  1  2 17 30.0000000  0  8G20G22G25G13G29G 1G 4G27
 -21959886.44549 -17111598.01447  21076216.212    21076216.860
 -24844413.76449 -19359280.92047  20174420.078    20174421.578
 -11431859.43749  -8907943.99146  22915589.645    22915592.419
  -9809503.42649  -7643759.28145  23050476.417    23050475.771
   3104159.38848   2418801.83444  24329151.635    24329154.462
 -22448429.90449 -17492277.19347  20847710.415    20847711.593
  -2325959.85848  -1812433.71344  24874082.313    24874079.123
  -1098336.91248   -855846.49944  25395457.316    25395457.672
 02  1  1  2 18  0.0000000  0  8G20G22G25G13G29G 1G 4G27
 -21906209.37449 -17069771.79647  21086430.759    21086431.343
 -24848581.79149 -19362528.77547  20173627.014    20173628.641
 -11354946.76849  -8848012.23546  22930225.629    22930228.991
  -9897258.21349  -7712139.65245  23033778.569    23033777.598
   3195061.70648                  24346450.489
 -22494783.10149 -17528396.60747  20838889.527    20838890.556
  -2303215.83648  -1794711.11044  24878410.239    24878409.575
  -1182415.24348   -921362.10144  25379458.273    25379459.069
 02  1  1  2 18 30.0000000  0  7G20G22G25G13G29G 1G27
 -21852001.46349 -17027531.93947  21096745.847    21096746.765
 -24852092.46449 -19365264.40847  20172959.275    20172960.763
 -11277941.14049  -8788008.04346  22944879.203    22944881.517
  -9984919.56849  -7780447.21745  23017095.564    23017095.359
   3286101.99148                  24363774.838
 -22540868.37949 -17564307.25247  20830119.626    20830120.805
  -1266438.78248   -986834.92444  25363468.482    25363471.935
 02  1  1  2 19  0.0000000  0  7G20G22G25G13G29G 1G27
 -21797252.09849 -16984870.16247  21107164.570    21107165.578
 -24854933.66149 -19367478.36947  20172418.350    20172419.838
 -11200831.13449  -8727922.50246  22959553.431    22959555.271
 -10072473.58549  -7848671.15745  23000436.028    23000433.614
   3377291.59148   2631630.44144  24381128.080    24381134.584
 -22586672.02349 -17599998.44747  20821403.806    20821404.780
  -1350395.05048  -1052255.34744  25347492.562    25347495.932
 02  1  1  2 19 30.0000000  0  8G20G22G25G13G29G 1G 3G27
 -21741977.74849 -16941799.30947  21117683.243    21117683.818
 -24857120.10849 -19369182.13447  20172002.276    20172003.839
 -11123632.40449  -8667767.83946  22974243.892    22974247.429
 -10159933.55749  -7916821.81545  22983791.806    22983791.612
   3468615.15648                  24398507.268
 -22632207.34849 -17635480.56247  20812738.519    20812739.697
        -1.21758                  25229884.017
  -1434298.44048  -1117634.62444  25331526.208    25331525.616
 02  1  1  2 20  0.0000000  0  8G20G22G25G13G29G 1G 3G27
 -21686175.18649 -16898316.86446  21128301.912    21128302.716
 -24858646.84249 -19370371.83747  20171712.010    20171713.615
 -11046340.52348  -8607540.59646  22988951.457    22988954.991
 -10247292.82149  -7984893.95545  22967168.541    22967168.128
   3560077.16748                  24415912.883
 -22677467.65149 -17670748.37447  20804126.177    20804127.260
    -89338.08548                  25212884.144
  -1518143.61048  -1182968.49744  25315570.211    25315574.435
 02  1  1  2 20 30.0000000  0  8G20G22G25G13G29G 1G 3G27
 -21629835.69349 -16854416.03946  21139023.037    21139024.041
 -24859503.69749 -19371039.55847  20171548.934    20171550.504
 -10968946.12948  -8547233.49645  23003679.797    23003682.366
 -10334539.78249  -8052878.63145  22950565.831    22950565.689
   3651687.31648   2845443.76344  24433345.387    24433354.323
 -22722441.05649 -17705792.62647  20795567.944    20795568.961
   -178737.95848                  25195871.675
  -1601919.43648  -1248248.32444  25299628.965    25299633.162
 02  1  1  2 21  0.0000000  0  8G20G22G25G13G29G 1G 3G27
 -21572959.14749 -16810096.74146  21149846.262    21149847.233
 -24859688.89049 -19371183.90347  20171513.623    20171515.363
 -10891447.89548  -8486845.46845  23018427.595    23018430.296
 -10421670.81249  -8120772.96245  22933985.053    22933984.491
   3743446.85948                  24450807.396
 -22767124.05049 -17740610.58747  20787065.076    20787066.104
   -268195.63548                  25178849.013
  -1685623.85448  -1313472.55044  25283700.129    25283702.020
 02  1  1  2 21 30.0000000  0  8G20G22G25G13G29G 1G 3G27
 -21515562.67649 -16765372.29346  21160768.622    21160769.709
 -24859217.98449 -19370817.00447  20171603.226    20171604.930
 -10813861.91448  -8426389.06945  23033191.084    23033194.359
 -10508699.78849  -8188587.77945  22917424.417    22917423.498
   3835339.88048                  24468294.142
 -22811530.36349 -17775212.95447  20778615.136    20778616.039
   -357724.24148                  25161811.652
  -1769271.65448  -1378652.61044  25267782.553    25267786.840
 02  1  1  2 22  0.0000000  0  8G20G22G25G13G29G 1G 3G27
 -21457634.68049 -16720233.67946  21171791.526    21171792.800
 -24858077.60249 -19369928.43447  20171820.004    20171821.782
 -10736175.88148  -8365854.69645  23047975.318    23047978.043
 -10595611.58949  -8256311.30145  22900884.680    22900883.871
   3927379.22648                  24485809.914
 -22855644.84249 -17809587.91447  20770220.202    20770221.185
   -447307.12648                  25144764.339
  -1852848.71348  -1443777.54444  25251878.864    25251879.900
 02  1  1  2 22 30.0000000  0  7G20G22G25G13G29G 1G27
 -21399184.54749 -16674688.19946  21182914.640    21182915.935
 -24856275.61249 -19368524.32247  20172163.111    20172164.864
 -10658398.03148  -8305248.79545  23062775.923    23062778.315
 -10682412.24049  -8323948.19445  22884368.372    22884367.833
   4019556.60848   3132093.04144  24503350.557    24503358.749
 -22899473.54849 -17843740.19747  20761879.659    20761880.709
  -1936362.38148  -1508853.10544  25235986.062    25235988.021
 02  1  1  2 23  0.0000000  0  8G20G22G25G13G29G 1G 3G27
 -21340217.21149 -16628739.70246  21194135.666    21194137.033
 -24853815.46049 -19366607.36047  20172631.384    20172633.190
 -10580532.18248  -8244574.32345  23077592.730    23077596.463
 -10769103.25849  -8391499.66945  22867870.593    22867870.057
   4111868.27848   3204023.70544  24520916.909    24520924.764
 -22943017.97349 -17877670.96147  20753593.612    20753594.798
          .25958                  25110636.276
  -2019815.24448  -1573881.26844  25220105.698    25220107.881
 02  1  1  2 23 30.0000000  0  8G20G22G25G13G29G 1G 3G27
 -21280746.30349 -16582398.81846  21205452.638    21205454.101
 -24850709.31649 -19364187.03147  20173222.916    20173224.810
 -10502590.78048  -8183841.00145  23092425.964    23092428.780
 -10855695.14349  -8458973.88145  22851393.812    22851392.863
   4204301.70048   3276049.24344  24538507.428    24538512.278
 -22986288.36249 -17911388.18947  20745359.442    20745360.746
    -89769.10548                  25093553.536
  -2103218.86148  -1638871.07944  25204234.261    25204240.433
 02  1  1  2 24  0.0000000  0  8G20G22G25G13G29G 1G 3G27
 -21220752.80749 -16535650.72146  21216868.955    21216870.395
 -24846936.57049 -19361247.27947  20173940.213    20173942.162
 -10424553.63148  -8123033.03945  23107275.356    23107279.107
 -10942165.11149  -8526353.12545  22834938.515    22834938.120
   4296877.06648   3348185.32144  24556123.627    24556135.045
 -23029262.42849 -17944874.52447  20737181.723    20737182.945
   -179583.07448                  25076462.682
  -2186551.72548  -1703805.71944  25188377.340    25188377.033
 02  1  1  2 24 30.0000000  0  8G20G22G25G13G29G 1G 3G27
 -21160232.31649 -16488491.97546  21228385.705    21228387.500
 -24842491.21149 -19357783.41047  20174786.279    20174788.255
 -10346414.73148  -8062145.80945  23122144.619    23122148.620
 -11028505.67149  -8593631.51945  22818508.604    22818508.905
   4389599.97848                  24573769.380
 -23071932.11349 -17978123.67947  20729062.232    20729063.336
   -269432.12448                  25059364.029
  -2269807.12748  -1768680.04344  25172534.019    25172537.520
 02  1  1  2 25  0.0000000  0  8G20G22G25G13G29G 1G 3G27
 -21099196.23749 -16440931.46946  21240000.746    21240002.286
 -24837383.09849 -19353803.11147  20175757.985    20175760.087
 -10268185.19948  -8001187.94845  23137032.382    23137034.439
 -11114724.39749  -8660814.98145  22802101.825    22802100.507
   4482460.28748                  24591440.193
 -23114305.49949 -18011141.95147  20720999.074    20721000.189
   -359322.96248                  25042258.391
  -2352994.31248  -1833501.22444  25156703.923    25156704.937
 02  1  1  2 25 30.0000000  0  8G20G22G25G13G29G 1G 3G27
 -21037653.23749 -16392975.96846  21251711.838    21251713.275
 -24831619.37449 -19349311.95047  20176854.941    20176857.087
 -10189872.20748  -7940165.05445  23151934.359    23151936.851
 -11200826.45249  -8727907.53445  22785717.179    22785716.603
   4575450.69748                  24609136.595
 -23156387.70849 -18043933.33147  20712991.212    20712992.292
   -449259.43448                  25025145.034
  -2436119.46448  -1898274.01744  25140886.334    25140886.411
 02  1  1  2 26  0.0000000  0  8G20G25G22G13G29G 1G 3G27
 -20975612.30849 -16344632.46646  21263518.410    21263519.477
 -10111483.48248  -7879083.16545  23166851.638    23166854.787
 -24825207.46849 -19344315.70747  20178075.269    20178077.306
 -11286817.05149  -8794913.23445  22769353.610    22769353.504
   4668563.47848                  24626855.201
 -23198184.05449 -18076501.96047  20705037.444    20705038.578
   -539245.61348                  25008019.280
  -2519189.06248  -1963003.56844  25125077.887    25125079.787
 02  1  1  2 26 30.0000000  0  8G20G25G22G13G29G 1G 3G27
 -20913062.27649 -16295892.26546  21275420.895    21275422.556
 -10033006.77348  -7817932.73045  23181786.090    23181789.697
 -24818134.65649 -19338804.47347  20179421.616    20179423.703
 -11372681.85349  -8861820.90445  22753014.432    22753013.091
   4761810.99448                  24644600.119
 -23239679.92549 -18108836.45347  20697140.811    20697142.122
   -629265.42448                  24990890.140
  -2602189.60748  -2027679.26444  25109283.797    25109286.780
 02  1  1  2 27  0.0000000  0  8G20G25G22G13G29G 1G 3G27
 -20850010.32249 -16246760.95546  21287419.632    21287420.911
  -9954447.95348  -7756718.29745  23196734.837    23196737.708
 -24810406.80949 -19332782.82247  20180892.111    20180894.113
 -11458424.23949  -8928633.19545  22736697.865    22736697.461
   4855187.36648   3783229.05844  24662370.007    24662379.191
 -23280878.80949 -18140939.53147  20689300.921    20689302.119
   -719321.41048                  24973753.257
  -2685126.00448  -2092305.04045  25093501.482    25093503.824
 02  1  1  2 27 30.0000000  0  8G20G25G22G13G29G 1G 3G27
 -20786463.95049 -16197244.39046  21299512.059    21299513.326
  -9875812.97248  -7695444.52745  23211698.485    23211701.297
 -24802030.05249 -19326255.53347  20182486.012    20182488.118
 -11544048.21049  -8995353.20245  22720404.331    22720404.329
   4948686.24248                  24680162.174
 -23321784.76149 -18172814.35347  20681517.060    20681518.439
   -809416.44748                  24956608.393
  -2768003.42048  -2156884.83444  25077730.654    25077732.335
 02  1  1  2 28  0.0000000  0  8G20G25G22G13G29G 1G 3G27
 -20722420.27549 -16147340.30946  21311698.910    21311700.403
  -9797097.56548  -7634108.08945  23226678.644    23226681.191
 -24792999.86549 -19319219.07747  20184204.310    20184206.627
 -11629547.10949  -9061975.75145  22704134.441    22704133.202
   5042312.04748                  24697978.972
 -23362391.21349 -18204455.79447  20673790.248    20673791.328
   -899542.36748                  24939459.223
  -2850816.53048  -2221414.53345  25061971.534    25061972.804
 02  1  1  2 28 30.0000000  0  8G20G25G22G13G29G 1G 3G27
 -20657878.33149 -16097047.97746  21323981.009    21323982.574
  -9718299.56448  -7572707.28845  23241672.315    23241675.670
 -24783313.85449 -19311671.59147  20186047.186    20186049.530
 -11714916.20949  -9128497.18045  22687889.923    22687888.279
   5136066.84348                  24715819.615
 -23402693.66449 -18235860.35847  20666120.970    20666121.920
   -989692.94948                  24922303.540
  -2933561.81048  -2285891.40445  25046225.648    25046228.872
 02  1  1  2 29  0.0000000  0  8G20G25G13G22G29G 1G 3G27
 -20592842.81049 -16046371.04546  21336357.138    21336358.714
  -9639422.13148  -7511244.60545  23256683.189    23256686.383
 -11800156.34649  -9194918.10945  22671667.855    22671667.612
 -24772975.14449 -19303615.50647  20188014.738    20188016.868
   5229947.51348                  24733685.311
 -23442693.05949 -18267028.77147  20658509.413    20658510.481
  -1079867.93148                  24905143.182
  -3016241.36348  -2350317.01545  25030492.679    25030493.143
 02  1  1  2 29 30.0000000  0  8G20G25G13G22G29G 1G 3G27
 -20527308.40449 -15995305.37246  21348828.102    21348829.726
  -9560458.93648  -7449715.10045  23271709.971    23271713.953
 -11885258.94049  -9261231.85945  22655474.823    22655473.184
 -24761976.98849 -19295045.56847  20190107.879    20190109.974
   5323960.64448                  24751575.398
 -23482380.47749 -18297954.08247  20650957.066    20650958.131
  -1170056.92748                  24887981.505
  -3098847.59748  -2414685.52845  25014773.056    25014776.192
 02  1  1  2 30  0.0000000  0  8G20G25G13G22G29G 1G 3G27
 -20461289.51849 -15943862.18746  21361390.872    21361392.525
  -9481423.15248  -7388129.03745  23286748.870    23286751.928
 -11970234.26749  -9327446.44645  22639303.853    22639303.560
 -24750332.62949 -19285972.10047  20192324.309    20192326.323
   5418093.14048                  24769489.354
 -23521766.72149 -18328644.71747  20643462.084    20643463.193
  -1260269.41548                  24870814.354
  -3181392.29148  -2479006.06844  24999065.341    24999067.579
 02  1  1  2 30 30.0000000  0  8G20G25G13G22G29G 1G 3G27
 -20394783.13549 -15892039.12846  21374047.292    21374048.656
  -9402310.01148  -7326482.68945  23301804.970    23301807.767
 -12055075.43249  -9393556.48546  22623159.072    22623158.909
 -24738037.34049 -19276391.40947  20194663.704    20194665.704
   5512349.37648                  24787425.237
 -23560844.93249 -18359095.32147  20636025.941    20636027.066
  -1350497.23948                  24853644.648
  -3263869.94148  -2543274.40144  24983370.289    24983371.505
 02  1  1  2 31  0.0000000  0  8G20G25G13G22G29G 1G 3G27
 -20327790.62549 -15839837.27346  21386795.217    21386796.823
  -9323119.54548  -7264776.08845  23316874.148    23316878.438
 -12139780.59049  -9459560.55746  22607040.817    22607040.266
 -24725091.30149 -19266303.64247  20197127.465    20197129.377
   5606729.33948                  24805386.647
 -23599612.88749 -18389304.17447  20628648.785    20628649.909
  -1440736.91848                  24836472.414
  -3346279.41948  -2607489.59644  24967688.056    24967689.502
 02  1  1  2 31 30.0000000  0  8G20G25G13G22G29G 1G 3G27
 -20260302.77249 -15787249.43846  21399637.691    21399639.459
  -9243840.86148  -7203000.77645  23331960.544    23331965.246
 -12224336.43149  -9525448.26345  22590949.231    22590949.166
 -24711483.82849 -19255700.46847  20199716.926    20199718.911
   5701243.58348                  24823371.692
 -23638057.55649 -18419261.11847  20621332.841    20621333.903
  -1530973.95548                  24819301.543
  -3428609.02448  -2671642.57544  24952021.281    24952022.312
 02  1  1  2 32  0.0000000  0  8G20G25G13G22G29G 1G 3G27
 -20192335.94449 -15734288.37946  21412571.542    21412573.326
  -9164489.04648  -7141168.47245  23347061.220    23347064.338
 -12308755.31549  -9591229.27146  22574886.416    22574886.098
 -24697229.80649 -19244593.48947  20202429.247    20202431.237
   5795877.14048                  24841380.629
 -23676191.66549 -18448976.06047  20614076.021    20614077.196
  -1621219.79248                  24802127.540
  -3510872.54648  -2735744.06844  24936366.986    24936367.154
 02  1  1  2 32 30.0000000  0  8G20G25G13G22G29G 1G 3G27
 -20123892.82149 -15680956.17746  21425595.756    21425597.813
  -9085064.86448  -7079279.76045  23362175.371    23362179.693
 -12393035.54849  -9656902.22446  22558847.588    22558847.590
 -24682330.57049 -19232983.74447  20205264.472    20205266.578
   5890628.91148                  24859411.754
 -23714014.00649 -18478448.06247  20606879.102    20606880.197
  -1711471.69248                  24784952.638
  -3593070.13348  -2799794.17644  24920725.346    24920726.554
 02  1  1  2 33  0.0000000  0  8G20G25G13G22G29G 1G 3G27
 -20054973.66249 -15627253.04146  21438710.724    21438712.470
  -9005567.45248  -7017334.02945  23377302.451    23377307.761
 -12477174.51749  -9722465.12146  22542836.440    22542835.060
 -24666785.41449 -19220870.68947  20208222.684    20208224.827
   5985499.90448                  24877465.309
 -23751521.35149 -18507674.62647  20599741.500    20599742.677
  -1801724.91648                  24767779.296
  -3675199.68848  -2863791.24544  24905096.781    24905099.923
 02  1  1  2 33 30.0000000  0  8G20G25G13G22G29G 1G 3G27
 -19985571.91749 -15573173.86146  21451917.717    21451919.551
  -8925988.82748  -6955324.99645  23392447.525    23392450.126
 -12561161.64049  -9787909.67946  22526855.248    22526854.732
 -24650586.12249 -19208247.92347  20211305.326    20211307.409
   6080498.03548                  24895544.823
 -23788703.17549 -18536647.52947  20592666.067    20592667.518
  -1891967.62248                  24750606.097
  -3757251.90648  -2927728.05344  24889483.010    24889486.343
 02  1  1  2 34  0.0000000  0  8G20G25G13G22G29G 1G 3G27
 -19915702.54149 -15518730.29546  21465213.403    21465215.492
  -8846342.20348  -6893262.97245  23407602.825    23407607.034
 -12645007.48349  -9853244.14846  22510898.553    22510898.120
 -24633746.18049 -19195125.94847  20214509.894    20214511.975
   6175610.09348                  24913643.604
 -23825570.55049 -18565375.40647  20585650.731    20585652.175
  -1982209.38448                  24733434.185
  -3839238.94048  -2991614.07444  24873881.275    24873884.562
 02  1  1  2 34 30.0000000  0  8G20G25G13G22G29G 1G 3G27
 -19845367.66549 -15463924.00146  21478598.034    21478599.662
  -8766627.64848  -6831148.02245  23422772.159    23422777.603
 -12728710.22449  -9918467.11746  22494971.594    22494970.018
 -24616266.32649 -19181505.33847  20217836.437    20217838.564
   6270835.21448                  24931765.526
 -23862121.78549 -18593856.94147  20578695.126    20578696.706
  -2072447.13048                  24716261.931
  -3921160.49748  -3055449.06244  24858292.291    24858291.822
 02  1  1  2 35  0.0000000  0  8G20G25G13G22G29G 1G 3G27
 -19774564.19249 -15408752.55846  21492071.535    21492073.128
  -8686840.95048  -6768976.82745  23437955.959    23437959.881
 -12812262.83849  -9983573.10846  22479071.223    22479071.282
 -24598142.48449 -19167382.92247  20221285.480    20221287.627
   6366178.00248                  24949908.073
 -23898350.07549 -18622086.82747  20571800.918    20571802.600
  -2162672.70848                  24699092.798
  -4003010.82048  -3119228.59644  24842716.844    24842718.739
 02  1  1  2 35 30.0000000  0  8G20G25G13G22G29G 1G 3G27
 -19703292.22949 -15353216.06746  21505634.397    21505635.875
  -8606980.59548  -6706748.27245  23453151.949    23453157.079
 -12895661.38849 -10048559.03946  22463201.968    22463201.414
 -24579373.25349 -19152757.60547  20224857.182    20224859.282
   6461639.91748                  24968075.503
 -23934251.59949 -18650062.08947  20564969.105    20564970.699
  -2252880.68148                  24681926.964
  -4084787.41648  -3182950.64844  24827153.924    24827157.455
 02  1  1  2 36  0.0000000  0  8G13G25G20G22G29G 1G 3G27
 -12978905.34749 -10113424.51846  22447361.204    22447359.883
  -8527048.09048  -6644463.51045  23468363.841    23468366.361
 -19631555.11249 -15297317.11646  21519285.229    21519287.263
 -24559960.98849 -19137631.22447  20228551.420    20228553.551
   6557218.81348                  24986263.587
 -23969825.96149 -18677782.42747  20558199.633    20558201.292
  -2343069.24948  -1825767.26944  24664764.616    24664771.660
  -4166491.17648  -3246615.97244  24811608.985    24811609.613
 02  1  1  2 36 30.0000000  0  8G13G25G22G20G29G 1G 3G27
 -13061997.76249 -10178171.91046  22431548.329    22431548.150
  -8447048.97148  -6582126.81745  23483586.887    23483592.735
 -24539911.25549 -19122008.11247  20232366.751    20232368.835
 -19559359.99749 -15241061.28346  21533023.595    21533025.204
   6652909.23348                  25004472.838
 -24005076.37349 -18705250.33847  20551491.457    20551493.233
  -2433240.08948                  24647606.068
  -4248126.44348  -3310227.87344  24796071.536    24796077.613
 02  1  1  2 37  0.0000000  0  8G13G25G22G20G29G 1G 3G27
 -13144927.56449 -10242792.58246  22415768.463    22415768.408
  -8366974.58748  -6519731.51845  23498824.604    23498828.596
 -24519215.88549 -19105881.91247  20236304.916    20236307.101
 -19486699.86049 -15184443.10646  21546850.403    21546852.093
   6748719.64948                  25022705.950
 -24039992.10549 -18732457.46047  20544847.510    20544849.150
  -2523381.05148                  24630452.804
  -4329683.60748  -3373778.96244  24780553.825    24780556.791
 02  1  1  2 37 30.0000000  0  8G13G25G22G20G29G 1G 3G27
 -13227704.70049 -10307294.30246  22400015.498    22400015.133
  -8286837.25848  -6457287.11645  23514075.300    23514079.375
 -24497887.46349 -19089262.41947  20240363.604    20240365.902
 -19413588.96549 -15127473.68246  21560762.964    21560764.571
   6844637.64748                  25040958.730
 -24074583.06049 -18759411.50347  20538265.339    20538266.991
  -2613500.71048                  24613303.593
  -4411173.74548  -3437277.80544  24765045.941    24765048.670
 02  1  1  2 38  0.0000000  0  8G13G25G22G20G29G 1G 3G27
 -13310320.77149 -10371670.51846  22384295.146    22384294.450
  -8206631.10048  -6394789.12345  23529336.997    23529344.617
 -24475920.59049 -19072145.43147  20244543.702    20244545.949
 -19340022.91049 -15070149.58846  21574762.543    21574764.037
   6940668.99648                  25059233.809
 -24108841.08149 -18786106.12447  20531746.114    20531747.767
  -2703589.33348                  24596160.673
  -4492589.99848  -3500719.05444  24749552.540    24749557.672
 02  1  1  2 38 30.0000000  0  8G13G25G22G20G29G 1G 3G27
 -13392784.00649 -10435927.64646  22368603.280    22368602.924
  -8126366.51548  -6332245.58845  23544611.578    23544615.615
 -24453326.53249 -19054539.73247  20248843.215    20248845.459
 -19266013.83249 -15012480.28146  21588845.741    21588847.873
   7036802.83248                  25077527.136
 -24142774.53849 -18812547.83847  20525288.866    20525290.454
  -2793653.66948                  24579022.400
  -4573942.01648  -3564110.29144  24734071.690    24734071.310
 02  1  1  2 39  0.0000000  0  8G13G22G25G20G29G 1G 3G27
 -13475085.05949 -10500058.38346  22352940.435    22352940.680
 -24430098.77449 -19036440.24447  20253263.317    20253265.723
  -8046036.48248  -6269651.03345  23559898.905    23559903.231
 -19191556.68849 -14954461.83846  21603014.365    21603016.349
   7133045.92648                  25095842.714
 -24176374.47749 -18838729.66447  20518895.295    20518896.936
  -2883683.64648                  24561888.862
  -4655222.11948  -3627445.47444  24718605.222    24718608.310
 02  1  1  2 39 30.0000000  0  8G13G22G25G20G29G 1G 3G27
 -13557225.10649 -10564063.68246  22337311.447    22337309.969
 -24406241.51949 -19017850.24047  20257803.418    20257805.737
  -7965644.59948  -6207008.32245  23575195.816    23575199.722
 -19116656.96249 -14896098.51846  21617267.883    21617269.982
   7229394.28748                  25114177.845
 -24209642.43349 -18864652.80647  20512564.417    20512565.939
  -2973678.56548                  24544764.568
  -4736432.87048                  24703151.868
 02  1  1  2 40  0.0000000  0  8G13G22G25G20G29G 1G 3G27
 -13639196.91149 -10627937.89046  22321711.073    22321711.266
 -24381750.50449 -18998766.39647  20262463.822    20262466.236
  -7885186.04748  -6144313.65745  23590507.394    23590514.084
 -19041311.55949 -14837387.91846  21631605.607    21631607.792
   7325852.76448                  25132532.296
 -24242571.15749 -18890311.60747  20506298.264    20506299.921
  -3063630.15248                  24527646.896
  -4817568.31248  -3753949.09744  24687710.346    24687714.269
 02  1  1  2 40 30.0000000  0  8G13G22G25G20G29G 1G 3G27
 -13721000.90549 -10691681.32246  22306144.900    22306145.042
 -24356628.96549 -18979191.23347  20267244.284    20267246.734
  -7804663.54748  -6081569.13745  23605831.187    23605834.466
 -18965524.92349 -14778333.50446  21646027.449    21646029.606
   7422418.42548                  25150909.981
 -24275161.23349 -18915706.53447  20500096.655    20500098.271
  -3153537.42748                  24510538.230
  -4898630.29148  -3817114.34744  24672287.594    24672286.408
 02  1  1  2 41  0.0000000  0  8G13G22G25G20G29G 1G 3G27
 -13802627.12949 -10755286.23546  22290613.341    22290612.668
 -24330870.19549 -18959119.52447  20272146.069    20272148.437
  -7724069.51348  -6018768.90345  23621166.579    23621172.541
 -18889291.45049 -14718930.90946  21660534.149    21660536.135
   7519098.51148                  25169308.023
 -24307403.09849 -18940830.12747  20493961.088    20493962.776
  -3243389.36448                  24493439.455
  -4979610.30848  -3880215.72644  24656875.958    24656879.351
 02  1  1  2 41 30.0000000  0  8G13G22G25G20G29G 1G 3G27
 -13884077.22449 -10818753.92346  22275111.833    22275111.848
 -24304478.97049 -18938554.99847  20277168.194    20277170.686
  -7643408.03748  -5955916.11145  23636517.431    23636523.954
 -18812617.15149 -14659184.81646  21675125.007    21675127.003
   7615888.79648                  25187726.259
 -24339298.67549 -18965683.88747  20487891.563    20487893.484
  -3333186.34848                  24476352.520
  -5060511.58648                  24641480.308
 02  1  1  2 42  0.0000000  0  8G13G22G25G20G29G 1G 3G27
 -13965351.42249 -10882084.52446  22259647.211    22259647.091
 -24277458.61249 -18917500.24247  20282310.057    20282312.382
  -7562681.87948  -5893012.93145  23651879.225    23651885.227
 -18735506.64149 -14599098.81346  21689798.801    21689800.686
   7712786.04548                  25206167.013
 -24370848.65449 -18990268.34947  20481887.748    20481889.534
  -3422927.51948                  24459274.636
  -5141335.83148                  24626100.280
 02  1  1  2 42 30.0000000  0  7G13G22G25G20G 1G 3G27
 -14046457.48949 -10945284.12146  22244213.086    22244212.783
 -24249820.00149 -18895963.72947  20287569.770    20287572.179
  -7481901.20948  -5830067.30045  23667251.408    23667256.859
 -18657971.54949 -14538681.97546  21704553.151    21704555.596
 -24402060.83549 -19014589.58947  20475948.777    20475950.652
  -3512619.07948                  24442207.227
  -5222092.29748                  24610733.257
 02  1  1  2 43  0.0000000  0  7G13G22G25G20G 1G 3G27
 -14127383.40849 -11008343.34546  22228812.742    22228813.213
 -24221554.40649 -18873938.65847  20292948.547    20292950.937
  -7401056.39648  -5767071.66845  23682636.297    23682640.389
 -18580004.61949 -14477928.64146  21719390.164    21719392.341
 -24432923.57549 -19038638.53347  20470075.670    20470077.387
  -3602247.98448                  24425151.677
  -5302770.60548                  24595380.437
 02  1  1  2 43 30.0000000  0  8G13G22G25G20G 4G 1G 3G27
 -14208139.66149 -11071270.35846  22213446.315    22213445.922
 -24192675.24249 -18851435.48447  20298443.943    20298446.366
  -7320159.84248  -5704035.71345  23698030.272    23698036.571
 -18501620.48849 -14416850.21646  21734305.898    21734308.045
          .14358                  25212893.252
 -24463447.51849 -19062423.48747  20464267.102    20464268.842
  -3691823.02448                  24408104.864
  -5383382.62548  -4194839.11145  24580039.536    24580039.439
 02  1  1  2 44  0.0000000  0  8G13G22G25G20G 4G 1G 3G27
 -14288728.24949 -11134066.72446  22198110.054    22198110.873
 -24163187.97249 -18828458.46647  20304055.064    20304057.593
  -7239216.07848  -5640963.00445  23713433.394    23713440.256
 -18422825.34649 -14355451.52546  21749300.252    21749302.472
     45304.51747                  25221512.693
 -24493635.00049 -19085946.25847  20458522.902    20458524.702
  -3781345.17748                  24391070.760
  -5463931.77248  -4257599.23046  24564713.977    24564714.463
 02  1  1  2 44 30.0000000  0  8G13G22G25G20G 4G 1G 3G27
 -14369132.98149 -11196719.82046  22182810.354    22182810.199
 -24133079.61249 -18804997.48347  20309784.765    20309787.143
  -7158211.79648  -5577843.13545  23728849.248    23728852.411
 -18343607.41649 -14293723.38546  21764375.544    21764377.291
     90991.47348                  25230208.997
 -24523470.19549 -19109194.52347  20452845.359    20452847.229
  -3870797.14048                  24374048.065
  -5544403.63148  -4320311.29345  24549398.587    24549398.237
 02  1  1  2 45  0.0000000  0  7G13G22G25G20G 4G 1G27
 -14449358.30049 -11259233.11946  22167543.543    22167543.969
 -24102357.98349 -18781058.62247  20315630.872    20315633.460
  -7077153.88248  -5514681.46145  23744273.978    23744280.465
 -18263975.63049 -14231672.76446  21779528.459    21779530.603
    137052.40248                  25238975.639
 -24552957.90149 -19132172.01647  20447233.773    20447235.585
  -5624804.04448                  24534100.129
 02  1  1  2 45 30.0000000  0  7G13G22G25G20G 4G 1G27
 -14529391.53449 -11321596.74046  22152313.249    22152313.673
 -24071013.50849 -18756634.42747  20321595.477    20321597.976
  -6996031.39348  -5451469.49245  23759710.397    23759718.588
 -18183921.73349 -14169293.22546  21794762.404    21794764.654
    183496.26548                  25247811.861
 -24582085.70449 -19154869.05847  20441691.074    20441693.032
  -5705121.80948  -4445549.25944  24518815.860    24518818.516
 02  1  1  2 46  0.0000000  0  7G13G22G25G20G 4G 1G27
 -14609237.50649 -11383814.43746  22137119.868    22137120.275
 -24039054.49249 -18731731.37147  20327677.309    20327679.651
  -6914851.68948  -5388212.94244  23775159.350    23775167.007
 -18103454.88749 -14106591.90746  21810074.869    21810077.312
    230313.99747                  25256720.549
 -24610858.85649 -19177289.75447  20436215.701    20436217.562
  -5785363.41648                  24503546.085
 02  1  1  2 46 30.0000000  0  8G13G22G25G20G 4G 1G 3G27
 -14688896.13349 -11445886.16046  22121960.762    22121961.312
 -24006484.33949 -18706352.11047  20333875.611    20333877.911
  -6833617.42348  -5324913.77844  23790618.251    23790619.469
 -18022579.68249 -14043572.38846  21825465.024    21825467.245
    277501.30848                  25265700.863
 -24639277.68949 -19199434.35447  20430808.031    20430809.933
         -.48958                  24306102.314
  -5865530.41648  -4570543.07144  24488291.213    24488295.704
 02  1  1  2 47  0.0000000  0  8G13G22G25G20G 4G 1G 3G27
 -14768374.19449 -11507817.17446  22106837.422    22106837.080
 -23973313.02849 -18680504.40947  20340187.829    20340190.243
  -6752337.43348  -5261579.26845  23806084.343    23806088.751
 -17941307.06449 -13980243.20646  21840930.397    21840933.366
    325047.43248                  25274748.560
 -24667349.02049 -19221308.17547  20425466.695    20425468.447
    -89074.68748                  24289151.626
  -5945630.85148  -4632959.07544  24473050.190    24473054.069
 02  1  1  2 47 30.0000000  0  8G13G22G25G20G 4G 1G 3G27
 -14847648.29249 -11569589.26446  22091752.080    22091751.597
 -23939520.71949 -18654172.81147  20346618.267    20346620.750
  -6670991.10248  -5198192.83845  23821565.414    23821573.605
 -17859618.20149 -13916589.68046  21856475.572    21856478.117
    372971.85448                  25283869.263
 -24695050.06549 -19242893.45747  20420195.418    20420197.173
   -178051.15848                  24272219.448
  -6025643.15248  -4695306.41044  24457823.299    24457828.587
 02  1  1  2 48  0.0000000  0  8G13G22G25G20G 4G 1G 3G27
 -14926729.94649 -11631211.39446  22076702.656    22076702.788
 -23905122.20649 -18627368.84847  20353164.317    20353166.725
  -6589592.33748  -5134765.57045  23837055.598    23837065.278
 -17777528.99349 -13852624.18846  21872096.564    21872099.133
    421258.86548                  25293058.120
 -24722392.62649 -19264199.40547  20414992.231    20414994.025
   -266939.87948                  24255304.803
  -6105580.20348  -4757595.06144  24442611.830    24442614.976
 02  1  1  2 48 30.0000000  0  8G13G22G25G20G 4G 1G 3G27
 -15005612.97849 -11692678.75246  22061692.517    22061691.972
 -23870115.18649 -18600090.72247  20359826.070    20359828.276
  -6508137.06848  -5071294.33244  23852554.670    23852564.847
 -17695037.97449 -13788345.60446  21887794.569    21887797.079
    469910.12747                  25302313.439
 -24749371.17249 -19285221.70747  20409858.250    20409860.116
   -355733.55048   -277194.53944  24238408.001    24238415.294
  -6185437.67048  -4819821.69344  24427415.973    24427417.899
 02  1  1  2 49  0.0000000  0  8G13G22G25G20G 4G 1G 3G27
 -15084296.35749 -11753990.54146  22046719.073    22046719.485
 -23834502.06949 -18572340.31747  20366602.903    20366605.462
  -6426626.74648  -5007780.17945  23868067.413    23868073.813
 -17612148.57949 -13723756.59946  21903568.052    21903570.295
    518922.67947                  25311641.137
 -24775984.81549 -19305959.66147  20404793.789    20404795.615
   -444429.91648                  24221529.251
  -6265216.14948  -4881986.80244  24412234.789    24412236.388
 02  1  1  2 49 30.0000000  0  8G13G22G25G20G 4G 1G 3G27
 -15162777.00949 -11815144.35846  22031784.703    22031785.215
 -23798283.05649 -18544117.78947  20373495.123    20373497.619
  -6345060.65748  -4944222.56945  23883589.206    23883595.706
 -17528862.19249 -13658858.24546  21919417.065    21919419.617
    568295.24048                  25321037.379
 -24802230.96449 -19326411.25647  20399799.338    20399801.132
   -533024.34348                  24204669.787
  -6344914.00448  -4944089.08544  24397068.119    24397071.059
 02  1  1  2 50  0.0000000  0  8G13G22G25G20G 4G 1G 3G27
 -15241060.93049 -11876144.87646  22016888.529    22016888.567
 -23761468.04749 -18515430.84747  20380500.992    20380503.492
  -6263447.38648  -4880628.20445  23899118.670    23899130.088
 -17445189.36549 -13593658.78446  21935339.436    21935342.331
    618017.72947                  25330498.011
 -24828116.04449 -19346581.50047  20394873.418    20394875.250
   -621522.16848                  24187829.388
  -6424538.89748  -5006134.52144  24381916.348    24381919.642
 02  1  1  2 50 30.0000000  0  7G13G22G25G20G 1G 3G27
 -15319141.79849 -11936987.17446  22002029.525    22002030.103
 -23724054.07149 -18486277.17247  20387620.806    20387623.191
  -6181782.68848  -4816993.76845  23914660.555    23914667.377
 -17361128.45449 -13528156.91246  21951336.143    21951338.354
 -24853633.99049 -19366465.66347  20390017.836    20390019.599
   -709915.51448                  24171008.998
  -6504085.90748  -5068119.27944  24366779.624    24366782.593
 02  1  1  2 51  0.0000000  0  7G22G25G13G20G 1G 3G27
 -23686031.79249 -18456649.49047  20394856.064    20394858.787
  -6100056.01748  -4753311.04345  23930212.912    23930220.126
 -15397006.53649 -11997661.06146  21987212.817    21987212.556
 -17276670.91049 -13462345.98446  21967408.057    21967410.329
 -24878772.32149 -19386054.02547  20385234.295    20385236.141
   -798190.18748   -621965.36844  24154210.273    24154221.194
  -6583543.68948  -5130034.46144  24351658.799    24351661.598
 02  1  1  2 51 30.0000000  0  7G13G22G25G20G 1G 3G27
 -15474669.35049 -12058177.59746  21972434.102    21972433.985
 -23647419.01049 -18426561.67647  20402203.575    20402206.169
  -6018284.30048  -4689593.24445  23945772.826    23945783.251
 -17191835.52149 -13396240.62546  21983551.445    21983554.558
 -24903545.75649 -19405358.05347  20380520.103    20380521.920
   -886359.33848                  24137433.111
  -6662928.26648  -5191892.62944  24336553.066    24336554.099
 02  1  1  2 52  0.0000000  0  7G13G20G22G25G 1G 3G27
 -15552137.98549 -12118542.83046  21957691.893    21957692.620
 -17106634.75149 -13329850.55946  21999764.787    21999767.026
 -23608227.28449 -18396022.74447  20409661.564    20409664.209
  -5936477.48548  -4625848.09045  23961341.764    23961349.012
 -24927962.47249 -19424384.12247  20375873.855    20375875.687
   -974429.31648                  24120672.839
  -6742248.88648  -5253700.96744  24321458.824    24321458.717
 02  1  1  2 52 30.0000000  0  8G13G20G22G25G 4G 1G 3G27
 -15629401.46349 -12178748.19346  21942989.888    21942990.270
 -17021062.09749 -13263170.71346  22016048.887    22016051.581
 -23568449.17749 -18365026.88847  20417231.220    20417233.964
  -5854626.77048  -4562068.70845  23976916.955    23976923.611
         -.25758                  25378803.611
 -24952011.72249 -19443123.84947  20371297.570    20371299.342
  -1062388.03348                  24103935.001
  -6821496.11148  -5315452.10344  24306378.177    24306377.376
 02  1  1  2 53  0.0000000  0  8G13G20G22G25G 4G 1G 3G27
 -15706447.79849 -12238784.36046  21928328.119    21928328.614
 -16935109.97349 -13196195.18046  22032404.692    22032407.430
 -23528076.47649 -18333567.71347  20424914.088    20424916.728
  -5772722.52948  -4498247.63045  23992503.242    23992511.681
     51788.86747                  25388656.855
 -24975682.00149 -19461568.27247  20366793.281    20366795.085
  -1150222.10148   -896275.47544  24087221.301    24087229.492
  -6900659.66348  -5377138.07444  24291314.259    24291317.405
 02  1  1  2 53 30.0000000  0  7G13G20G22G25G 1G 3G27
 -15783277.63949 -12298651.82046  21913708.357    21913708.739
 -16848784.06449 -13128928.38446  22048832.701    22048835.656
 -23487113.67249 -18301648.71847  20432708.777    20432711.698
  -5690768.35248  -4434387.65345  24008099.452    24008107.062
 -24998974.48449 -19479718.30647  20362360.936    20362362.628
  -1237931.06848                  24070528.994
  -6979741.79448  -5438760.54744  24276265.391    24276267.470
 02  1  1  2 54  0.0000000  0  7G13G20G22G25G 1G 3G27
 -15859880.89549 -12358342.72146  21899130.649    21899131.191
 -16762078.89249 -13061366.05946  22065331.804    22065334.955
 -23445554.17149 -18269264.77147  20440617.272    20440619.994
  -5608756.21848  -4370482.53445  24023705.431    24023715.112
 -25021879.52249 -19497566.44247  20358002.063    20358003.914
  -1325503.45848  -1032858.04344  24053866.629    24053873.262
  -7058734.01648  -5500313.03344  24261233.538    24261234.285
 02  1  1  2 54 30.0000000  0  7G13G22G25G20G 1G 3G27
 -15936269.83749 -12417866.63646  21884594.555    21884594.891
 -23403414.20249 -18236428.50947  20448636.316    20448639.090
  -5526700.74548  -4306543.63545  24039320.684    24039327.982
 -16675011.09649 -12993521.17046  22081900.669    22081903.876
 -25044409.89649 -19515122.63547  20353714.615    20353716.400
  -1412950.40548                  24037224.694
  -7137650.26048  -5561806.28244  24246215.572    24246218.667
 02  1  1  2 55  0.0000000  0  7G13G20G22G25G 1G 3G27
 -16012436.72649 -12477217.52046  21870100.890    21870100.986
 -16587578.01949 -12925391.65346  22098538.875    22098542.039
 -23360689.99149 -18203137.00147  20456766.772    20456769.497
  -5444596.59048  -4242566.81545  24054945.454    24054951.679
 -25066558.45449 -19532381.31347  20349499.822    20349501.739
  -1500263.08148                  24020609.784
  -7216484.51648  -5623235.68244  24231214.862    24231216.018
 02  1  1  2 55 30.0000000  0  7G13G20G22G25G 1G 3G27
 -16088381.31749 -12536395.18546  21855648.574    21855649.130
 -16499784.06249 -12856980.92446  22115245.311    22115248.369
 -23317385.14849 -18169393.05247  20465007.305    20465010.248
  -5362446.27748  -4178554.03345  24070577.840    24070585.727
 -25088325.60049 -19549342.78447  20345357.701    20345359.702
  -1587439.93748                  24004020.659
  -7295238.39948  -5684602.40144  24216227.744    24216229.502
 02  1  1  2 56  0.0000000  0  7G13G20G22G25G 1G 3G27
 -16164098.15349 -12595395.37446  21841240.853    21841241.039
 -16411628.68749 -12788288.57746  22132020.961    22132024.139
 -23273498.12849 -18135195.46247  20473358.807    20473361.857
  -5280246.58948  -4114502.78745  24086220.597    24086228.417
 -25109706.50149 -19566003.28547  20341289.244    20341291.158
  -1674474.46748                  23987458.205
  -7373908.10548  -5745903.57044  24201258.907    24201260.406
 02  1  1  2 56 30.0000000  0  7G13G20G22G25G 1G 3G27
 -16239603.75249 -12654230.97646  21826872.002    21826872.385
 -16323132.89349 -12719330.95746  22148860.927    22148864.156
 -23229049.18849 -18100560.00947  20481817.166    20481820.283
  -5198016.17648  -4050427.62245  24101868.817    24101877.505
 -25130717.98049 -19582375.92047  20337291.143    20337293.080
  -1761381.83748  -1372502.71644  23970919.645    23970930.070
  -7452511.72348  -5807153.20644  24186299.710    24186302.540
 02  1  1  2 57  0.0000000  0  7G13G20G22G25G 1G 3G27
 -16314876.47249 -12712885.11646  21812548.402    21812548.385
 -16234279.46249 -12650094.66546  22165769.410    22165772.517
 -23184020.49049 -18065472.80547  20490385.858    20490388.986
  -5115735.99148  -3986313.66545  24117526.174    24117536.351
 -25151338.99649 -19598444.30347  20333367.119    20333369.025
  -1848139.06948  -1440105.61744  23954410.830    23954420.759
  -7531029.10748  -5868335.70344  24171359.047    24171361.436
 02  1  1  2 57 30.0000000  0  7G13G20G22G25G 1G 3G27
 -16389930.30849 -12771368.69146  21798266.452    21798266.785
 -16145087.55749 -12580594.65046  22182742.488    22182745.488
 -23138430.06449 -18029947.88147  20499061.332    20499064.513
  -5033422.30248  -3922173.58945  24133190.670    24133199.109
 -25171584.23549 -19614219.87647  20329514.456    20329516.343
  -1934759.17148                  23937926.003
  -7609476.00748  -5929463.24444  24156430.302    24156434.719
 02  1  1  2 58  0.0000000  0  7G13G20G22G25G 1G 3G27
 -16464758.57949 -12829676.50146  21784026.769    21784027.193
 -16055555.19149 -12510829.31146  22199779.644    22199783.591
 -23092275.26049 -17993983.18647  20507844.313    20507847.475
  -4951070.99648  -3858004.19845  24148862.252    24148869.401
 -25191447.43549 -19629697.75047  20325734.637    20325736.596
  -2021234.47248  -1574984.87144  23921470.955    23921480.883
  -7687847.58548  -5990532.06544  24141516.947    24141520.693
 02  1  1  2 58 30.0000000  0  7G13G22G25G20G 1G 3G27
 -16539345.20549 -12887796.01446  21769833.648    21769833.459
 -23045544.13849 -17957569.41147  20516737.055    20516740.218
  -4868668.32048                  24164542.201
 -15965670.98649 -12440789.82446  22216884.526    22216887.951
 -25210913.21349 -19644865.94847  20322030.633    20322032.612
  -2107547.81848                  23905045.703
  -7766129.38548  -6051530.95144  24126620.905    24126625.457
 02  1  1  2 59  0.0000000  0  7G13G20G22G25G 1G 3G27
 -16613693.91349 -12945730.14446  21755685.900    21755686.085
 -15875443.63349 -12370482.94546  22234054.003    22234057.031
 -22998244.39549 -17920712.55347  20525738.050    20525741.208
  -4786220.60248  -3729550.28545  24180232.869    24180242.302
 -25229985.88049 -19659727.82347  20318401.440    20318403.352
  -2193701.30148                  23888651.241
  -7844327.07248  -6112464.27544  24111739.506    24111740.924
 02  1  1  2 59 30.0000000  0  7G13G22G25G20G 1G 3G27
 -16687803.57249 -13003477.98746  21741582.921    21741583.526
 -22950378.79849 -17883414.77247  20534846.920    20534850.004
  -4703729.18148  -3665271.73445  24195930.510    24195940.687
 -15784876.78749 -12299911.52545  22251288.378    22251291.687
 -25248664.85549 -19674282.92947  20314846.952    20314848.918
  -2279692.89248                  23872287.490
  -7922441.05448  -6173332.40345  24096875.741    24096879.008
 02  1  1  3  0  0.0000000  0  7G13G20G22G25G 1G 3G27
 -16761676.10449 -13061041.05746  21727525.424    21727525.672
 -15693977.20049 -12229080.85445  22268585.970    22268590.446
 -22901953.37349 -17845680.76247  20544062.020    20544065.196
  -4621198.23548  -3600962.39545  24211635.724    24211645.156
 -25266952.61049 -19688533.18847  20311366.909    20311368.977
  -2365523.36248  -1843261.44044  23855954.550    23855965.472
  -8000475.01448  -6234138.14645  24082026.154    24082030.428
 02  1  1  3  0 30.0000000  0  7G13G20G22G25G 1G 3G27
 -16835308.54149 -13118417.04446  21713514.314    21713514.499
 -15602746.71549 -12157992.31845  22285947.301    22285950.424
 -22852969.21849 -17807511.37947  20553383.748    20553386.995
  -4538627.37148  -3536621.94445  24227349.966    24227358.653
 -25284846.86549 -19702476.82047  20307961.910    20307963.991
  -2451188.44648  -1910013.36944  23839653.464    23839661.655
  -8078427.57348  -6294880.47344  24067192.948    24067195.246
 02  1  1  3  1  0.0000000  0  7G13G20G22G25G 1G 3G27
 -16908706.42849 -13175610.26246  21699546.830    21699547.363
 -15511195.60449 -12086653.94945  22303368.472    22303371.659
 -22803435.91749 -17768914.08647  20562809.414    20562812.620
  -4456023.96948                  24243067.851
 -25302353.71449 -19716118.58047  20304630.328    20304632.539
  -2536692.46748  -1976639.80344  23823382.156    23823392.829
  -8156306.06548  -6355565.08844  24052372.342    24052375.381
 02  1  1  3  1 30.0000000  0  7G13G20G22G25G 1G 3G27
 -16981848.33449 -13232604.00546  21685628.332    21685628.949
 -15419307.40849 -12015052.92845  22320854.751    22320858.063
 -22753336.20849 -17729875.43847  20572343.545    20572346.608
  -4373369.54748  -3407850.59945  24258797.886    24258807.318
 -25319452.37449 -19729442.27447  20301376.512    20301378.723
  -2622012.80048  -2043123.11044  23807146.536    23807156.713
  -8234090.78448  -6416176.65945  24037571.553    24037574.029
 02  1  1  3  2  0.0000000  0  7G13G22G25G20G 1G 3G27
 -17054735.21449 -13289399.03546  21671758.601    21671759.072
 -22702674.93949 -17690399.20747  20581983.617    20581986.746
  -4290667.40548  -3343407.86445  24274536.602    24274545.289
 -15327087.50049 -11943193.41845  22338403.575    22338407.155
 -25336144.28349 -19742449.01647  20298200.223    20298202.474
  -2707149.09948  -2109462.98044  23790945.519    23790957.185
  -8311784.23948  -6476717.05744  24022786.605    24022789.484
 02  1  1  3  2 30.0000000  0  7G13G20G22G25G 1G 3G27
 -17127375.01849 -13346001.53546  21657935.474    21657935.809
 -15234549.20449 -11871085.82345  22356013.122    22356016.515
 -22651464.57749 -17650495.11447  20591728.900    20591732.070
  -4207927.83648                  24290279.367
 -25352438.47349 -19755145.84447  20295099.467    20295101.827
  -2792108.63748  -2175665.11844  23774778.354    23774786.793
  -8389396.50148  -6537194.19645  24008017.584    24008022.063
 02  1  1  3  3  0.0000000  0  7G13G22G25G20G 1G 3G27
 -17199778.78549 -13402420.11046  21644157.770    21644158.286
 -22599720.30449 -17610174.98847  20601575.805    20601578.894
  -4125164.38948  -3214445.52845  24306030.511    24306040.439
 -15141708.54648 -11798742.63645  22373679.617    22373683.186
 -25368346.69849 -19767541.92347  20292072.299    20292074.545
  -2876901.13148  -2241737.15944  23758643.128    23758649.758
  -8466940.31848  -6597618.04745  23993262.263    23993265.463
 02  1  1  3  3 30.0000000  0  7G13G22G25G20G 1G 3G27
 -17271928.25649 -13458640.53246  21630427.774    21630428.546
 -22547428.02549 -17569427.84147  20611526.880    20611530.031
  -4042361.24048  -3149924.06545  24321788.529    24321799.947
 -15048551.86648 -11726153.18145  22391407.734    22391412.891
 -25383851.12449 -19779623.35347  20289122.011    20289124.278
  -2961507.02248  -2307663.74645  23742543.137    23742553.810
  -8544399.05548  -6657975.58645  23978521.800    23978524.889
 02  1  1  3  4  0.0000000  0  7G13G20G22G25G 1G 3G27
 -17343830.29349 -13514668.14746  21616746.017    21616746.248
 -14955090.81348 -11653326.57445  22409192.891    22409196.580
 -22494598.61049 -17528262.15347  20621579.343    20621582.581
  -3959527.32348                  24337550.397
 -25398959.31949 -19791396.03247  20286247.043    20286249.272
  -3045932.03748                  23726476.935
  -8621781.27648  -6718273.48945  23963797.993    23963799.596
 02  1  1  3  4 30.0000000  0  7G13G20G22G25G 1G 3G27
 -17415491.04349 -13570507.75646  21603108.716    21603109.580
 -14861336.53548 -11580271.46445  22427033.429    22427037.850
 -22441242.61349 -17486686.14747  20631732.788    20631736.002
  -3876671.19248  -3020815.98845  24353318.922    24353329.843
 -25413678.12449 -19802865.28747  20283446.275    20283448.512
  -3130181.13748  -2439097.99144  23710445.956    23710453.702
  -8699094.88048  -6778517.92445  23949084.075    23949086.504
 02  1  1  3  5  0.0000000  0  8G13G20G22G25G 2G 1G 3G27
 -17486886.60849 -13626140.71946  21589523.348    21589523.942
 -14767270.18148 -11506973.19445  22444934.339    22444937.731
 -22387340.26549 -17444684.40947  20641990.475    20641993.682
  -3793771.35748                  24369094.107
         -.67858                  24850782.391
 -25427984.37349 -19814013.07047  20280724.018    20280726.286
  -3214229.54348  -2504590.20145  23694451.719    23694461.896
  -8776317.75348  -6838691.69144  23934390.018    23934390.431
 02  1  1  3  5 30.0000000  0  8G13G20G22G25G 2G 1G 3G27
 -17558009.34449 -13681561.09846  21575988.556    21575989.154
 -14672889.15648 -11433429.71145  22462894.425    22462897.897
 -22332888.42749 -17402254.50247  20652352.237    20652355.453
  -3710822.77448                  24384878.456
    -98245.21447                  24832085.734
 -25441871.31649 -19824834.12547  20278081.452    20278083.623
  -3298068.49348                  23678497.097
  -8853444.14648  -6898790.27645  23919713.455    23919716.674
 02  1  1  3  6  0.0000000  0  8G13G20G22G25G 2G 1G 3G27
 -17628861.13549 -13736770.34746  21562506.163    21562506.746
 -14578199.95648 -11359646.09745  22480913.401    22480916.627
 -22277893.05249 -17359401.05647  20662817.741    20662820.921
  -3627829.83348                  24400672.397
   -196385.04948                  24813410.866
 -25455341.27649 -19835330.25847  20275518.344    20275520.489
  -3381698.54948  -2635085.42045  23662582.612    23662592.540
  -8930477.68948  -6958816.47644  23905053.463    23905057.044
 02  1  1  3  6 30.0000000  0  8G13G20G22G25G 2G 1G 3G27
 -17699446.89449 -13791772.29746  21549074.465    21549075.337
 -14483212.53548 -11285630.12145  22498988.597    22498991.938
 -22222363.52349 -17316131.38747  20673384.530    20673387.756
  -3544799.88348                  24416473.109
   -294425.45548                  24794754.476
 -25468400.18249 -19845506.08547  20273033.276    20273035.544
  -3465123.68748  -2700091.96945  23646708.273    23646716.103
  -9007425.18148  -7018775.71245  23890412.921    23890413.497
 02  1  1  3  7  0.0000000  0  7G13G22G25G20G 1G 3G27
 -17769776.26449 -13846574.46346  21535690.785    21535691.679
 -22166313.54249 -17272456.17547  20684050.782    20684054.000
  -3461744.95048                  24432277.174
 -14387941.49048 -11211393.10945  22517118.276    22517121.782
 -25481058.38249 -19855369.68047  20270624.604    20270626.964
  -3548352.30948  -2764945.38945  23630870.051    23630880.476
  -9084297.97848  -7078676.64245  23875782.604    23875787.223
 02  1  1  3  7 30.0000000  0  6G13G20G25G27G22G 1
 -17839838.89149 -13901168.78446  21522359.230    21522359.780
 -14292381.50448 -11136930.94445  22535302.347    22535306.202
  -3378657.21348  -2632756.39645  24448089.830    24448101.248
  -9161087.47948  -7138512.74545  23861171.720    23861173.951
 -22109737.23249 -17228370.83547  20694816.581    20694819.866
 -25493306.28849 -19864913.56647  20268293.848    20268296.170
 02  1  1  3  8  0.0000000  0  6G13G20G22G25G 1G27
 -17909624.11349 -13955546.94846  21509079.051    21509079.657
 -14196526.98848 -11062239.31445  22553543.715    22553546.972
 -22052628.41849 -17183870.56247  20705684.515    20705687.733
  -3295528.10448                  24463908.813
 -25505134.08849 -19874130.10047  20266043.266    20266045.533
  -9237784.63148  -7198276.86344  23846575.254    23846578.239
 02  1  1  3  8 30.0000000  0  8G13G20G22G25G 2G 1G31G27
 -17979149.56649 -14009722.69346  21495848.315    21495849.404
 -14100400.30548 -10987335.58745  22571836.010    22571840.488
 -21995008.84749 -17138972.29447  20716649.233    20716652.663
  -3212377.54248                  24479731.891
         -.33457                  24720313.077
 -25516560.01349 -19883033.47847  20263868.937    20263871.303
         -.86058                  25237002.602
  -9314408.83748  -7257984.10745  23831995.151    23831996.389
 02  1  1  3  9  0.0000000  0  7G13G20G22G25G 2G 1G27
 -18048397.11549 -14063681.88646  21482671.831    21482672.329
 -14003988.40348 -10912209.63245  22590183.063    22590186.539
 -21936865.07849 -17093665.56247  20727713.596    20727717.045
  -3129190.40448                  24495562.441
    -97540.26848                  24701751.789
 -25527566.85249 -19891610.29747  20261774.445    20261776.704
  -9390943.89048  -7317621.90545  23817430.977    23817434.184
 02  1  1  3  9 30.0000000  0  7G13G20G22G25G 2G 1G27
 -18117359.62849 -14117418.97746  21469548.816    21469549.420
 -13907289.23848 -10836859.81145  22608583.773    22608588.222
 -21878194.26749 -17047948.14847  20738878.228    20738881.724
  -3045961.51548                  24511401.675
   -194964.00647                  24683212.354
 -25538148.44949 -19899855.76447  20259760.747    20259763.130
  -9467384.61948  -7377186.18144  23802884.433    23802885.892
 02  1  1  3 10  0.0000000  0  8G13G20G22G25G 2G 1G31G27
 -18186049.58949 -14170943.68946  21456476.907    21456477.523
 -13810320.15948 -10761299.69045  22627037.260    22627041.252
 -21819013.24049 -17001833.16447  20750140.410    20750143.611
  -2962705.82348                  24527244.039
   -292284.23147                  24664692.214
 -25548318.04849 -19907780.19447  20257825.372    20257827.756
         -.72558                  25177768.935
  -9543745.12548  -7436687.95045  23788353.861    23788356.470
 02  1  1  3 10 30.0000000  0  8G13G20G22G25G 2G 1G31G27
 -18254460.51649 -14224250.97046  21443459.171    21443459.795
 -13713079.55548 -10685527.98445  22645542.077    22645545.644
 -21759319.75949 -16955318.85847  20761499.431    20761503.009
  -2879419.24348                  24543093.585
   -389494.66948                  24646194.682
 -25558069.76749 -19915379.00447  20255969.913    20255972.282
   -103993.09348                  25157979.625
  -9620020.60048  -7496123.44745  23773838.790    23773843.446
 02  1  1  3 11  0.0000000  0  7G13G20G22G25G 2G 1G27
 -18322587.01449 -14277336.61546  21430494.914    21430495.502
 -13615567.22448 -10609544.54345  22664097.509    22664101.720
 -21699113.09749 -16908404.67947  20772956.608    20772959.927
  -2796098.55248  -2178818.41144  24558949.945    24558961.363
   -486590.28548                  24627718.005
 -25567399.21749 -19922648.77047  20254194.752    20254197.167
  -9696207.41648  -7555489.86544  23759341.100    23759345.320
 02  1  1  3 11 30.0000000  0  7G13G20G22G25G 2G 1G27
 -18390430.83249 -14330201.98846  21417584.878    21417585.448
 -13517789.78248 -10533354.51845  22682704.641    22682707.839
 -21638399.50749 -16861095.49147  20784510.242    20784513.475
  -2712748.11948                  24574810.925
   -583573.42848                  24609262.966
 -25576309.09349 -19929591.59447  20252499.280    20252501.661
  -9772309.12648  -7614789.98145  23744858.978    23744862.068
 02  1  1  3 12  0.0000000  0  7G13G20G22G25G 2G 1G27
 -18457984.31849 -14382841.13546  21404729.879    21404730.368
 -13419744.51748 -10456955.80845  22701361.943    22701366.081
 -21577175.78849 -16813388.79747  20796160.697    20796164.345
  -2629362.54048                  24590678.341
   -680436.58548                  24590829.862
 -25584792.48349 -19936202.09347  20250885.023    20250887.342
  -9848319.93748  -7674019.27945  23730395.317    23730398.822
 02  1  1  3 12 30.0000000  0  7G13G22G25G20G 2G 1G27
 -18525265.10349 -14435267.78746  21391926.940    21391927.568
 -21515463.90049 -16765301.71647  20807904.051    20807907.529
  -2545962.08948  -1983908.51244  24606550.318    24606560.494
 -13321454.29148 -10380366.20345  22720065.841    22720069.474
   -777197.87748                  24572417.093
 -25592867.95749 -19942494.73547  20249348.274    20249350.677
  -9924259.36648  -7733192.91345  23715944.414    23715948.213
 02  1  1  3 13  0.0000000  0  8G13G22G25G20G 2G 1G31G27
 -18592257.74449 -14487469.90946  21379178.612    21379179.464
 -21453253.00149 -16716825.79647  20819742.209    20819745.750
  -2462533.77848                  24622425.822
 -13222908.71848 -10303577.63845  22738818.776    22738822.190
   -873842.32948                  24554027.482
 -25600521.00049 -19948458.20547  20247892.121    20247894.571
         -.75658                  25058726.010
 -10000113.74248  -7792300.29945  23701509.983    23701513.173
 02  1  1  3 13 30.0000000  0  8G13G22G25G20G 2G 1G31G27
 -18658963.55349 -14539448.52846  21366484.680    21366485.690
 -21390548.86449 -16667965.53347  20831674.682    20831678.468
  -2379081.06948                  24638307.085
 -13124114.11948 -10226595.03145  22757618.886    22757622.995
   -970371.56648                  24535656.978
 -25607753.77549 -19954094.20147  20246515.779    20246518.224
   -104634.04348                  25038816.120
 -10075886.18548  -7851343.82045  23687090.169    23687093.808
 02  1  1  3 14  0.0000000  0  8G13G22G25G20G 2G 1G31G27
 -18725362.23149 -14591187.81846  21353849.760    21353850.798
 -21327335.94749 -16618708.81947  20843703.618    20843707.457
  -2295586.73348                  24654196.693
 -13025055.19448 -10149406.43645  22776468.473    22776472.878
  -1066766.12148                  24517314.343
 -25614547.09949 -19959387.76447  20245222.850    20245225.366
   -209348.99448                  25018889.641
 -10151558.45948  -7910309.29345  23672691.188    23672693.606
 02  1  1  3 14 30.0000000  0  8G13G22G25G20G 2G 1G31G27
 -18791457.04249 -14642690.32846  21341272.305    21341273.759
 -21263621.78349 -16569061.52647  20855828.245    20855831.987
  -2212055.40548                  24670092.175
 -12925740.26548 -10072018.40445  22795368.320    22795372.424
  -1163029.14048                  24498997.043
 -25620904.98449 -19964342.02647  20244012.904    20244015.524
   -314147.87748                  24998946.147
 -10227135.26048  -7969200.34045  23658308.169    23658314.029
 02  1  1  3 15  0.0000000  0  6G13G20G27G31G22G 1
 -18857249.13549 -14693956.95546  21328752.886    21328753.618
 -12826175.27748  -9994435.46744  22814315.233    22814320.931
 -10302619.50448  -8028019.30245  23643945.635    23643948.796
   -419031.20648                  24978988.195
 -21199412.07849 -16519028.09647  20868047.173    20868050.881
 -25626829.44849 -19968958.55447  20242885.747    20242888.432
 02  1  1  3 15 30.0000000  0  6G13G22G20G 1G31G27
 -18922730.20049 -14744981.21746  21316292.060    21316292.969
 -21134703.34749 -16468605.81647  20880360.870    20880364.864
 -12726357.46748  -9916655.58044  22833310.327    22833317.331
 -25632313.37449 -19973231.80747  20241842.351    20241844.968
   -523990.03548                  24959015.134
 -10378004.92348  -8086761.26745  23629599.806    23629603.241
 02  1  1  3 16  0.0000000  0  8G13G22G 3G20G 2G 1G31G27
 -18987926.54649 -14795783.62646  21303885.083    21303886.219
 -21069526.37849 -16417818.67947  20892763.751    20892767.521
         -.03958          .04355  23353168.681    23353177.121
 -12626317.85448  -9838702.79644  22852346.550    22852352.369
         -.74758                  24444189.359
 -25637383.87549 -19977182.91047  20240877.460    20240880.231
   -629049.71448                  24939022.854
 -10453319.54748  -8145448.03445  23615267.767    23615271.694
 02  1  1  3 16 30.0000000  0  8G13G22G 3G20G 2G 1G31G27
 -19052827.85349 -14846356.12446  21291535.368    21291536.640
 -21003875.08549 -16366661.93547  20905256.301    20905260.448
    -78730.97048    -61348.61245  23338186.537    23338196.963
 -12526051.16048  -9760573.11744  22871426.870    22871432.453
    -95764.79748                  24425966.114
 -25642031.54749 -19980804.53347  20239992.829    20239995.491
   -734199.02848                  24919014.910
 -10528554.70848  -8204072.90145  23600951.286    23600953.505
 02  1  1  3 17  0.0000000  0  8G13G22G 3G20G 2G 1G31G27
 -19117436.97949 -14896700.94446  21279240.941    21279241.504
 -20937756.96349 -16315141.43547  20917838.485    20917842.525
   -157208.03648   -122499.42245  23323252.355    23323263.773
 -12425565.05748  -9682272.47444  22890548.370    22890551.797
   -191411.09748   -149151.68944  24407765.642    24407775.074
 -25646260.03949 -19984099.52547  20239188.162    20239190.945
   -839440.12348                  24898988.182
 -10603715.17948  -8262639.56845  23586648.901    23586652.826
 02  1  1  3 17 30.0000000  0  8G13G22G 3G20G 2G 1G31G27
 -19181733.20149 -14946801.94546  21267004.981    21267005.884
 -20871156.37649 -16263244.98947  20930512.465    20930516.550
   -235409.87648   -183435.78245  23308371.002    23308379.194
 -12324844.24548  -9603788.92844  22909716.220    22909721.530
   -286919.92248                  24389591.075
 -25650050.01249 -19987052.81247  20238467.112    20238470.141
   -944751.72648                  24878947.614
 -10678782.34048  -8321133.50745  23572363.869    23572366.680
 02  1  1  3 18  0.0000000  0  8G13G22G 3G20G 2G 1G31G27
 -19245714.00449 -14996657.16046  21254830.079    21254831.021
 -20804075.23949 -16210974.08947  20943277.701    20943281.815
   -313332.85448   -244154.87045  23293542.407    23293553.577
 -12223891.47548  -9525124.66244  22928925.607    22928929.508
   -382288.98048                  24371442.529
 -25653399.76849 -19989663.07447  20237829.807    20237832.729
  -1050130.56648                  24858894.651
 -10753755.34548  -8379554.10145  23558097.270    23558099.584
 02  1  1  3 18 30.0000000  0  8G13G22G 3G20G 2G 1G31G27
 -19309375.20749 -15046263.33747  21242716.596    21242717.775
 -20736513.83649 -16158328.96247  20956134.370    20956138.303
   -390971.70948   -304652.56045  23278768.418    23278777.851
 -12122707.24348  -9446279.98044  22948182.051    22948191.980
   -477514.66448                  24353322.651
 -25656306.16149 -19991927.85847  20237276.629    20237279.593
  -1155571.53548                  24838830.600
 -10828631.76048  -8437899.44245  23543848.217    23543851.346
 02  1  1  3 19  0.0000000  0  8G13G22G 3G20G 2G 1G31G27
 -19372726.48749 -15095628.01547  21230660.476    21230661.211
 -20668486.17949 -16105320.51947  20969079.802    20969083.785
   -468334.65748   -364935.27345  23264046.531    23264056.956
 -12021306.11448  -9367266.33844  22967476.675    22967484.326
   -572606.79548                  24335226.690
 -25658779.58449 -19993855.26347  20236806.166    20236809.255
  -1261083.34148                  24818752.333
 -10903422.76648  -8496178.21145  23529617.108    23529619.912
 02  1  1  3 19 30.0000000  0  8G22G 3G13G20G 2G 1G31G27
 -20599988.40749 -16051945.75647  20982114.036    20982118.353
   -545412.27648   -424995.61945  23249379.341    23249388.773
 -19435758.63349 -15144744.01247  21218666.048    21218667.077
 -11919684.41648  -9288080.83544  22986816.813    22986822.741
   -667557.20048                  24317158.498
 -25660812.49049 -19995439.41347  20236419.304    20236422.351
  -1366656.36948                  24798662.424
 -10978121.41548  -8554384.99645  23515401.906    23515405.497
 02  1  1  3 20  0.0000000  0  8G22G13G 3G20G 2G 1G31G27
 -20531026.94549 -15998209.67547  20995237.443    20995241.704
 -19498473.91249 -15193613.11147  21206731.937    21206732.957
   -622205.41648   -484834.32145  23234765.524    23234776.694
 -11817849.12948  -9208728.88344  23006193.906    23006204.828
   -762368.10348                  24299115.918
 -25662407.70949 -19996682.50547  20236116.045    20236119.095
  -1472291.38548                  24778562.025
 -11052731.54048  -8612522.86345  23501204.265    23501206.329
 02  1  1  3 20 30.0000000  0  8G22G13G 3G20G 2G 1G31G27
 -20461595.56149 -15944107.42147  21008449.851    21008453.833
 -19560861.39149 -15242226.77847  21194860.140    21194861.238
   -698702.00548   -544441.94345  23220209.125    23220219.054
 -11715794.55148  -9129206.08244  23025615.463    23025621.628
   -857029.44148                  24281103.289
 -25663555.66149 -19997577.07247  20235897.586    20235900.694
  -1577977.08848                  24758448.635
 -11127244.02848  -8670584.62645  23487025.949    23487028.608
 02  1  1  3 21  0.0000000  0  8G22G13G 3G20G 2G 1G31G27
 -20391705.23849 -15889647.55346  21021749.371    21021753.561
 -19622927.34449 -15290589.91347  21183049.404    21183050.553
   -774907.33648   -603822.63645  23205707.678    23205717.607
 -11613532.14448  -9049521.32244  23045075.448    23045083.169
   -951547.81848   -741466.68944  24263117.060    24263127.734
 -25664263.78149 -19998128.91947  20235762.679    20235765.814
  -1683718.64748                  24738328.264
 -11201667.01748  -8728576.61445  23472862.303    23472865.960
 02  1  1  3 21 30.0000000  0  8G22G13G 3G20G 2G 1G31G27
 -20321356.03449 -15834830.11846  21035136.742    21035140.522
 -19684667.06549 -15338698.84347  21171300.778    21171301.788
   -850815.84848   -662972.02445  23191262.357    23191273.030
 -11511062.07648  -8969674.75544  23064574.390    23064578.023
  -1045918.88848                  24245158.297
 -25664528.32849 -19998335.12447  20235712.369    20235715.452
  -1789510.67048                  24718195.651
 -11275997.67148  -8786496.65445  23458718.834    23458721.038
 02  1  1  3 22  0.0000000  0  8G22G13G 3G20G 2G 1G31G27
 -20250554.26649 -15779660.03146  21048610.189    21048614.224
 -19746082.40949 -15386555.01647  21159614.129    21159615.154
   -926428.13148   -721890.59745  23176873.961    23176883.641
 -11408391.16748  -8889671.68444  23084113.268    23084116.881
  -1140145.18048                  24227229.028
 -25664352.06249 -19998197.83647  20235746.024    20235749.155
  -1895353.93748                  24698054.776
 -11350239.50448  -8844347.50445  23444591.029    23444594.397
 02  1  1  3 22 30.0000000  0  8G22G13G 3G20G 2G 1G31G27
 -20179300.03549 -15724137.37346  21062169.199    21062173.705
 -19807168.40749 -15434154.55647  21147989.840    21147991.134
  -1001738.49248   -780573.89945  23162542.971    23162552.651
 -11305519.84948                  23103688.307
  -1234222.48347                  24209325.301
 -25663731.48449 -19997714.32747  20235864.077    20235867.194
  -2001243.12248                  24677904.716
 -11424389.64248  -8902126.90345  23430479.621    23430482.946
 02  1  1  3 23  0.0000000  0  8G22G13G 3G20G 2G 1G31G27
 -20107595.98049 -15668264.21246  21075814.011    21075818.708
 -19867923.27149 -15481496.07047  21136428.187    21136429.644
  -1076744.29448   -839019.91945  23148269.584    23148280.754
 -11202451.44448  -8729199.59744  23123302.288    23123307.976
  -1328149.49247                  24191451.605
 -25662665.78449 -19996883.97647  20236066.691    20236069.866
  -2107175.37648                  24657746.837
 -11498448.00748  -8959834.80945  23416387.772    23416390.523
 02  1  1  3 23 30.0000000  0  7G22G13G 3G20G 1G31G27
 -20035444.74849 -15612042.59446  21089544.542    21089548.702
 -19928344.90449 -15528577.92347  21124930.608    21124931.952
  -1151442.51348   -897226.23345  23134055.074    23134065.747
 -11099188.74648                  23142951.300
 -25661153.85749 -19995705.91547  20236354.365    20236357.525
  -2213147.61248                  24637580.883
 -11572414.06948  -9017470.78945  23402312.190    23402314.568
 02  1  1  3 24  0.0000000  0  8G22G 3G13G20G 2G 1G31G27
 -19962855.68149 -15555479.80746  21103357.457    21103361.937
  -1225836.74648   -955195.68145  23119898.332    23119906.523
 -19988438.22949 -15575403.95447  21113495.293    21113496.453
 -10995741.51348                  23162637.541
         -.37757                  24155789.243
 -25659201.71949 -19994184.83947  20236726.031    20236729.220
  -2319163.74248                  24617406.898
 -11646294.39148  -9075039.91145  23388253.330    23388257.107
 02  1  1  3 24 30.0000000  0  7G22G 3G13G20G 1G31G27
 -19889836.09149 -15498581.54946  21117252.472    21117257.051
  -1299928.70148  -1012929.60145  23105798.608    23105809.530
 -20048205.61349 -15621975.99747  21102121.795    21102122.902
 -10892117.28648  -8487381.56744  23182356.570    23182364.167
 -25656812.82849 -19992323.43947  20237180.739    20237184.006
  -2425225.27348                  24597223.060
 -11720093.30448  -9132545.65045  23374209.998    23374213.149
 02  1  1  3 25  0.0000000  0  8G22G 3G13G20G 2G 1G31G27
 -19816366.54049 -15441332.66946  21131233.568    21131238.213
  -1373693.42248  -1070408.50645  23091762.422    23091771.109
 -20107622.89249 -15668275.23147  21090815.288    21090816.810
 -10788296.99948  -8406482.94344  23202113.583    23202117.772
         -.53357                  24120241.968
 -25653964.42949 -19990103.97847  20237722.699    20237725.973
  -2531307.65748                  24577036.173
 -11793788.58148  -9189970.67945  23360186.220    23360188.581
 02  1  1  3 25 30.0000000  0  8G22G13G 3G20G 2G 1G31G27
 -19742470.63049 -15383751.56246  21145295.455    21145300.217
 -20166708.78549 -15714316.24147  21079571.339    21079572.659
  -1447148.60648  -1127646.25845  23077783.441    23077794.859
 -10684304.79848  -8325450.28944  23221902.914    23221908.616
    -93169.76547                  24102512.981
 -25650676.43849 -19987541.98247  20238348.297    20238351.514
  -2637428.27748                  24556841.274
 -11867400.72648  -9247330.83545  23346178.362    23346182.304
 02  1  1  3 26  0.0000000  0  8G22G13G 3G20G 2G 1G31G27
 -19668143.50949 -15325834.45246  21159439.599    21159444.264
 -20225453.91849 -15760091.72047  21068392.766    21068393.962
  -1520283.53648  -1184634.44345  23063866.087    23063875.271
 -10580135.91448  -8244279.98544  23241725.963    23241735.892
   -186181.96047                  24084814.049
 -25646940.45149 -19984630.89847  20239059.642    20239062.930
  -2743577.02448                  24536641.285
 -11940921.99948  -9304620.17745  23332187.716    23332191.767
 02  1  1  3 26 30.0000000  0  8G22G13G 3G20G 2G 1G31G27
 -19593386.16849 -15267582.10146  21173665.913    21173670.423
 -20283854.48449 -15805598.70047  21057279.529    21057280.833
  -1593093.78348  -1241369.62245  23050011.394    23050020.330
 -10475791.97248  -8162973.27244  23261582.707    23261588.608
   -279034.05947                  24067144.798
 -25642754.04249 -19981368.83347  20239856.557    20239859.736
  -2849749.26048                  24516437.327
 -12014350.61848  -9361837.31645  23318214.552    23318218.549
 02  1  1  3 27  0.0000000  0  8G22G13G 3G20G 2G 1G31G27
 -19518192.64649 -15208989.87746  21187974.726    21187979.736
 -20341899.74049 -15850828.81647  21046233.731    21046235.123
  -1665567.92848  -1297842.91645  23036219.576    23036229.009
 -10371267.19148  -8081525.67144  23281472.194    23281483.115
   -371715.83048                  24049508.859
 -25638107.70849 -19977748.38647  20240740.765    20240743.895
  -2955933.28248                  24496231.171
 -12087677.69948  -9418975.36045  23304261.506    23304265.779
 02  1  1  3 27 30.0000000  0  8G22G13G 3G20G 2G 1G31G27
 -19442578.62049 -15150069.99146  21202363.704    21202368.073
 -20399600.83149 -15895790.75647  21035253.561    21035255.159
  -1737715.91948  -1354062.06445  23022490.687    23022499.374
 -10266577.48948  -7999949.51744  23301394.291    23301399.683
   -464238.69748                  24031903.128
 -25633013.67549 -19973779.08147  20241709.925    20241713.129
  -3062139.04748                  24476020.552
 -12160915.71848  -9476044.02545  23290324.011    23290328.375
 02  1  1  3 28  0.0000000  0  8G22G 3G13G20G 2G 1G31G27
 -19366540.20849 -15090819.41046  21216832.969    21216838.006
  -1809528.42848  -1410019.81245  23008824.708    23008835.381
 -20456949.03849 -15940477.71947  21024340.884    21024342.280
 -10161719.50148  -7918242.26744  23321348.335    23321360.002
   -556594.94748                  24014327.682
 -25627464.56749 -19969455.17347  20242765.984    20242769.244
  -3168357.20248                  24455807.938
 -12234057.96049  -9533038.05145  23276406.378    23276409.988
 02  1  1  3 28 30.0000000  0  8G22G 3G13G20G 2G 1G31G27
 -19290085.41149 -15031244.38446  21231382.310    21231387.236
  -1881007.57548  -1465717.79045  22995222.335    22995231.271
 -20513947.63849 -15984892.26247  21013494.862    21013495.983
 -10056701.48748                  23341332.668
   -648788.17548                  23996783.634
 -25621464.64649 -19964779.98147  20243907.983    20243911.172
  -3274589.76048                  24435591.443
 -12307109.39349  -9589961.29745  23262505.935    23262509.059
 02  1  1  3 29  0.0000000  0  8G22G 3G13G20G 2G 1G31G27
 -19213211.46549 -14971342.75146  21246010.652    21246015.836
  -1952144.80948  -1521149.35245  22981685.536    22981695.216
 -20570589.20949 -16029028.60647  21002715.713    21002717.015
  -9951521.12948                  23361348.093
   -740811.72148                  23979272.318
 -25615007.81649 -19959748.75847  20245136.864    20245140.096
  -3380828.53748                  24415374.770
 -12380064.51848  -9646809.48345  23248620.964    23248624.476
 02  1  1  3 29 30.0000000  0  8G22G 3G13G20G 2G 1G31G27
 -19135924.98849 -14911119.65346  21260718.410    21260723.549
  -2022941.00148  -1576315.17045  22968213.803    22968223.731
 -20626875.38449 -16072888.01847  20992005.125    20992006.337
  -9846185.12148  -7672372.19544  23381393.104    23381399.175
   -832667.63748   -648830.88744  23961792.476    23961795.944
 -25608097.18349 -19954363.92447  20246451.863    20246455.087
  -3487074.36848                  24395156.705
 -12452926.90749  -9703585.43745  23234756.395    23234760.216
 02  1  1  3 30  0.0000000  0  8G22G 3G13G20G 2G 1G31G27
 -19058229.80649 -14850578.09646  21275503.215    21275508.353
  -2093394.55648  -1631214.00745  22954807.765    22954816.204
 -20682805.32449 -16116469.85147  20981362.449    20981363.828
  -9740697.52248                  23401466.835
   -924356.05448                  23944344.683
 -25600733.03249 -19948625.69847  20247853.182    20247856.363
  -3593325.55948                  24374937.645
 -12525697.24849  -9760289.65045  23220909.472    23220913.314
 02  1  1  3 30 30.0000000  0  8G22G 3G13G20G 2G 1G31G27
 -18980127.56649 -14789719.34946  21290365.877    21290370.510
  -2163501.47348  -1685842.73045  22941465.608    22941475.288
 -20738375.97749 -16159771.71447  20970787.198    20970788.789
  -9635060.36548  -7507859.96644  23421569.237    23421574.229
  -1015874.34548                  23926929.573
 -25592913.63849 -19942532.73147  20249341.094    20249344.296
  -3699577.71348                  24354718.242
 -12598374.16848  -9816921.07645  23207078.259    23207082.398
 02  1  1  3 31  0.0000000  0  8G22G 3G13G20G 2G 1G31G27
 -18901622.17349 -14728546.44746  21305304.943    21305309.966
  -2233260.12948  -1740200.08845  22928191.486    22928201.415
 -20793586.67749 -16202793.09247  20960280.843    20960282.454
  -9529277.93248                  23441699.277
  -1107222.02448                  23909545.263
 -25584639.42749 -19936085.35947  20250915.932    20250919.125
  -3805828.94948                  24334499.631
 -12670958.68349  -9873480.49145  23193266.959    23193270.508
 02  1  1  3 31 30.0000000  0  8G22G 3G13G20G 2G 1G31G27
 -18822700.09949 -14667048.86346  21320323.346    21320328.135
  -2302651.30649  -1794271.10645  22914987.342    22914995.782
 -20848418.88149 -16245519.54347  20949846.891    20949848.489
  -9423337.08348                  23461858.990
  -1198381.59448                  23892200.048
 -25575893.38549 -19929270.32947  20252580.229    20252583.357
  -3912059.93048                  24314283.349
 -12743434.28349  -9929955.03845  23179475.658    23179478.848
 02  1  1  3 32  0.0000000  0  8G22G 3G13G20G 2G 1G31G27
 -18743368.01849 -14605231.78446  21335419.931    21335424.886
  -2371676.17048  -1848056.66845  22901851.545    22901861.721
 -20902874.60949 -16287952.63847  20939484.166    20939485.762
  -9317244.65548                  23482048.139
  -1289355.47648                  23874886.617
 -25566678.78249 -19922090.19047  20254333.776    20254336.971
  -4018271.66848                  24294072.239
 -12815804.72848  -9986347.66345  23165702.364    23165707.442
 02  1  1  3 32 30.0000000  0  8G22G 3G13G20G 2G 1G31G27
 -18663640.67749 -14543106.71646  21350591.590    21350596.512
  -2440343.66848  -1901563.77645  22888784.213    22888794.142
 -20956963.88749 -16330100.18947  20929191.454    20929193.052
  -9211015.67248                  23502262.224
  -1380154.34348                  23857609.754
 -25557006.77449 -19914553.63547  20256174.514    20256177.722
  -4124472.93848                  24273862.181
 -12888081.56649 -10042667.30745  23151950.392    23151954.133
 02  1  1  3 33  0.0000000  0  8G22G 3G13G20G 2G 1G31G27
 -18583514.57849 -14480670.92146  21365839.164    21365844.092
  -2508644.73949  -1954785.35145  22875787.754    22875796.194
 -21010678.40349 -16371955.71447  20918969.954    20918971.699
  -9104646.92548  -7094552.22344  23522504.861    23522510.171
  -1470770.66948  -1146054.59344  23840365.167    23840366.128
 -25546870.58349 -19906655.37347  20258103.293    20258106.456
  -4230654.69848                  24253656.379
 -12960258.31949 -10098908.97145  23138214.569    23138218.200
 02  1  1  3 33 30.0000000  0  8G22G 3G13G20G 2G 1G31G27
 -18503001.74349 -14417933.77746  21381160.392    21381165.426
  -2576585.83548  -2007726.43645  22862858.603    22862867.043
 -21064025.28049 -16413524.76547  20908818.286    20908819.963
  -8998150.54348                  23542770.200
  -1561212.11148                  23823154.406
 -25536278.88349 -19898402.17147  20260119.074    20260122.273
  -4336823.21448                  24233453.538
 -13032344.21649 -10155079.82345  23124496.961    23124501.938
 02  1  1  3 34  0.0000000  0  8G22G 3G13G20G 2G 1G31G27
 -18422106.26249 -14354898.46546  21396554.534    21396559.379
  -2644165.39648  -2060385.77845  22849998.006    22850007.686
 -21117004.09349 -16454807.01247  20898737.054    20898738.737
  -8891531.02048  -6928488.54844  23563059.337    23563065.276
  -1651478.63348                  23805978.072
 -25525232.31349 -19889794.52147  20262221.253    20262224.378
  -4442976.67248                  24213252.777
 -13104340.17249 -10211180.61746  23110798.180    23110801.399
 02  1  1  3 34 30.0000000  0  8G22G 3G13G20G 2G 1G31G27
 -18340824.97749 -14291562.52546  21412021.849    21412026.367
  -2711374.94348  -2112756.78945  22837208.649    22837216.840
 -21169606.86349 -16495796.23747  20888727.100    20888728.461
  -8784785.42948                  23583373.873
  -1741562.96748  -1357060.87544  23788834.522    23788843.210
 -25513724.23349 -19880827.25847  20264411.013    20264414.185
  -4549106.05548                  24193056.583
 -13176239.89848 -10267206.40845  23097114.289    23097119.474
 02  1  1  3 35  0.0000000  0  8G22G 3G13G20G 2G 1G31G27
 -18259176.66149 -14227940.59246  21427559.238    21427564.370
  -2778227.31648  -2164849.49845  22824487.299    22824496.731
 -21221847.73349 -16536503.45947  20878786.181    20878787.973
  -8677932.79148  -6762049.02744  23603705.818    23603712.310
  -1831479.70448  -1427125.79244  23771724.815    23771731.136
 -25501770.09749 -19871512.42047  20266685.925    20266689.140
  -4655224.37148  -3627442.17344  24172863.124    24172872.804
 -13248059.11349 -10323169.44245  23083448.316    23083452.384
 02  1  1  3 35 30.0000000  0  8G22G 3G13G20G 2G 1G31G27
 -18177139.81649 -14164015.90646  21443170.472    21443175.593
  -2844695.83648  -2216643.10245  22811838.261    22811847.693
 -21273700.28549 -16576908.09247  20868918.771    20868920.530
  -8570951.90348  -6678687.65544  23624065.238    23624074.670
  -1921203.39748  -1497040.29844  23754650.790    23754658.981
 -25489345.10149 -19861830.67847  20269050.462    20269053.637
  -4761304.29448                  24152676.505
 -13319773.28749 -10379050.61445  23069802.724    23069805.654
 02  1  1  3 36  0.0000000  0  8G22G 3G13G20G 2G 1G31G27
 -18094733.72849 -14099803.50846  21458851.638    21458856.772
  -2910794.06948  -2268148.14645  22799260.503    22799268.942
 -21325179.10049 -16617021.49947  20859122.494    20859124.284
  -8463862.39548  -6595241.64844  23644443.951    23644455.617
  -2010749.10648  -1566816.07344  23737610.252    23737621.670
 -25476465.21749 -19851794.46847  20271501.512    20271504.675
  -4867359.16348                  24132495.241
 -13391398.76548 -10434862.66845  23056170.395    23056174.875
 02  1  1  3 36 30.0000000  0  8G22G 3G13G20G 2G 1G31G27
 -18011942.90949 -14035291.31946  21474606.417    21474611.649
  -2976500.93548  -2319348.24045  22786756.374    22786765.806
 -21376264.00749 -16656827.97147  20849401.702    20849403.390
  -8356648.96848                  23664845.844
  -2100097.52148  -1636438.15644  23720608.012    23720615.410
 -25463111.51949 -19841389.05947  20274042.817    20274046.013
  -4973367.55448                  24112322.216
 -13462917.09349 -10490591.24945  23042562.848    23042566.414
 02  1  1  3 37  0.0000000  0  8G22G 3G13G20G 2G 1G31G27
 -17928773.60649 -13970484.20546  21490432.944    21490438.200
  -3041817.20949  -2370243.97845  22774327.695    22774337.127
 -21426956.72349 -16696328.84447  20839755.360    20839757.236
  -8249317.81148  -6428064.76544  23685271.178    23685280.362
  -2189250.63548  -1705908.03144  23703642.758    23703649.543
 -25449286.92449 -19830616.72647  20276673.639    20276676.806
  -5079329.83148                  24092157.681
 -13534331.27949 -10546238.68446  23028973.431    23028976.816
 02  1  1  3 37 30.0000000  0  8G22G 3G13G20G 2G 1G31G27
 -17845233.12049 -13905387.86546  21506330.631    21506335.550
  -3106744.64348  -2420836.73745  22761972.094    22761980.782
 -21477259.61549 -16735525.96047  20830183.150    20830184.881
  -8141876.80548  -6344344.82044  23705716.526    23705723.261
  -2278211.58448  -1775228.16644  23686713.603    23686718.474
 -25434995.37449 -19819480.52647  20279393.044    20279396.215
  -5185247.33248  -4040446.41844  24072002.397    24072013.815
 -13605645.73549 -10601808.41246  23015401.303    23015405.847
 02  1  1  3 38  0.0000000  0  8G22G 3G13G20G 2G 1G31G27
 -17761324.15149 -13840004.39746  21522297.931    21522303.335
  -3171280.31848  -2471124.22146  22749690.720    22749701.145
 -21527170.56449 -16774417.66247  20820685.125    20820686.908
  -8034328.72248  -6260541.52144  23726182.342    23726188.066
  -2366978.93548  -1844397.43944  23669822.314    23669831.250
 -25420236.20549 -19807979.94347  20282201.821    20282205.039
  -5291116.91548  -4122942.09744  24051856.869    24051867.294
 -13676860.06449 -10657300.11946  23001851.017    23001854.181
 02  1  1  3 38 30.0000000  0  7G22G13G20G 2G 1G31G27
 -17677053.66149 -13774339.23346  21538334.272    21538339.312
 -21576691.83849 -16813005.72347  20811261.668    20811263.629
  -7926680.98648                  23746667.020
  -2455555.49448  -1913418.07345  23652966.608    23652972.597
 -25405013.28249 -19796117.99747  20285098.857    20285102.058
  -5396939.80048                  24031718.689
 -13747978.24749 -10712716.92446  22988317.761    22988320.977
 02  1  1  3 39  0.0000000  0  7G22G13G20G 2G 1G31G27
 -17592407.99649 -13708381.72446  21554441.617    21554447.556
 -21625805.12849 -16851275.87347  20801915.767    20801917.659
  -7818920.03648  -6092691.31544  23767174.127    23767184.303
  -2543923.77848  -1982276.35744  23636150.206    23636157.902
 -25389309.65349 -19783881.47847  20288087.018    20288090.215
  -5502696.37948                  24011594.225
 -13818983.57949 -10768045.77846  22974805.031    22974808.886
 02  1  1  3 39 30.0000000  0  7G22G13G20G 2G 1G31G27
 -17507403.97949 -13642144.98346  21570617.654    21570622.779
 -21674522.31949 -16889237.37347  20792645.113    20792646.950
  -7711062.62448                  23787698.777
  -2632096.24348  -2050982.09444  23619372.474    23619379.292
 -25373138.89649 -19771280.96347  20291164.276    20291167.486
  -5608397.49048                  23991478.487
 -13889889.63949 -10823297.27646  22961312.596    22961316.956
 02  1  1  3 40  0.0000000  0  7G22G13G20G 2G 1G31G27
 -17422049.95249 -13575635.50846  21586860.279    21586866.186
 -21722847.19449 -16926893.17147  20783449.547    20783451.356
  -7603117.45348  -5924534.20344  23808240.271    23808250.696
  -2720077.06048  -2119538.49844  23602628.770    23602637.210
 -25356506.00849 -19758320.34947  20294329.441    20294332.656
  -5714045.61748                  23971375.650
 -13960701.70149 -10878475.52846  22947837.252    22947841.277
 02  1  1  3 40 30.0000000  0  7G22G13G20G 2G 1G31G27
 -17336338.59249 -13508847.59546  21603170.586    21603176.544
 -21770768.07649 -16964234.16747  20774330.221    20774332.177
  -7495077.44448  -5840347.54944  23828799.541    23828810.215
  -2807855.07848  -2187936.89244  23585926.094    23585933.697
 -25339400.52249 -19744991.48247  20297584.249    20297587.607
  -5819627.51548                  23951282.217
 -14031409.31149 -10933572.39646  22934382.004    22934385.447
 02  1  1  3 41  0.0000000  0  7G22G13G20G 2G 1G31G27
 -17250285.77549 -13441793.61946  21619545.912    21619551.405
 -21818295.58549 -17001268.63347  20765286.307    20765288.081
  -7386958.99848  -5756099.79644  23849374.373    23849385.791
  -2895442.25048  -2256186.64045  23569258.578    23569265.170
 -25321835.16449 -19731304.27147  20300927.175    20300930.390
  -5925153.32948                  23931202.185
 -14102025.41849 -10988597.95746  22920944.667    22920947.918
 02  1  1  3 41 30.0000000  0  7G22G13G20G 2G 1G31G27
 -17163893.95349 -13374475.47646  21635985.861    21635991.879
 -21865427.45249 -17037994.81547  20756317.467    20756319.205
  -7278764.44148  -5671792.70744  23869963.141    23869972.821
  -2982836.98848  -2324286.40844  23552627.718    23552635.504
 -25303809.01249 -19717258.00147  20304357.694    20304360.910
  -6030619.45648                  23911132.466
 -14172549.27749 -11043551.64946  22907523.967    22907528.370
 02  1  1  3 42  0.0000000  0  7G22G13G20G 2G 1G31G27
 -17077154.61749 -13306886.55146  21652492.440    21652497.864
 -21912150.87449 -17074402.72447  20747426.433    20747428.281
  -7170485.74348  -5587420.12644  23890568.922    23890578.106
  -3070026.77248  -2392226.48044  23536035.737    23536043.205
 -25285310.43749 -19702843.60647  20307877.816    20307881.031
  -6136011.33448                  23891076.308
 -14242969.36949 -11098424.48746  22894123.253    22894127.823
 02  1  1  3 42 30.0000000  0  8G22G 8G13G20G 2G 1G31G27
 -16990082.36449 -13239038.21946  21669061.267    21669067.147
         -.98058                  25084723.908
 -21958475.74849 -17110500.07347  20738611.139    20738612.540
  -7062137.55948  -5502993.38244  23911186.152    23911194.839
  -3157022.16348  -2460015.12144  23519481.489    23519490.176
 -25266350.89749 -19688070.02147  20311485.674    20311489.083
  -6241337.79948                  23871033.501
 -14313297.30149 -11153225.52446  22880741.147    22880745.019
 02  1  1  3 43  0.0000000  0  8G22G 8G13G20G 2G 1G31G27
 -16902669.58349 -13170924.54146  21685695.765    21685701.752
    -93057.44848                  25067016.983
 -22004389.74149 -17146277.25647  20729874.181    20729875.730
  -6953712.27548  -5418506.57544  23931819.959    23931831.129
  -3243811.35948  -2527643.02944  23502965.922    23502976.595
 -25246919.61049 -19672928.84447  20315183.389    20315186.680
  -6346585.23848                  23851005.661
 -14383522.39649 -11207946.42846  22867377.069    22867381.432
 02  1  1  3 43 30.0000000  0  8G22G 8G13G20G 2G 1G31G27
 -16814916.04549 -13102545.34646  21702394.843    21702400.645
   -186085.06148                  25049313.458
 -22049887.65549 -17181730.21247  20721216.200    20721217.939
  -6845210.09648                  23952467.398
  -3330390.03848  -2595106.91544  23486489.814    23486500.984
 -25227013.20949 -19657417.45247  20318971.498    20318974.797
  -6451747.60748                  23830993.845
 -14453641.34449 -11262584.61946  22854033.584    22854038.386
 02  1  1  3 44  0.0000000  0  7G22G13G20G 2G 1G31G27
 -16726826.11349 -13033904.02246  21719157.904    21719163.945
 -22094969.48749 -17216858.95947  20712637.363    20712638.829
  -6736635.71048  -5249356.86744  23973128.953    23973138.385
  -3416758.75748  -2662407.20345  23470055.764    23470062.185
 -25206632.87149 -19641536.75647  20322849.828    20322853.341
  -6556823.35448                  23810998.060
 -14523655.47349 -11317141.15246  22840711.186    22840714.891
 02  1  1  3 44 30.0000000  0  8G22G 8G13G20G 2G 1G31G27
 -16638404.40249 -12965004.17246  21735984.017    21735989.891
         -.34558                  25013923.828
 -22139635.18949 -17251663.44247  20704137.638    20704139.560
  -6627993.55348  -5164701.07844  23993802.896    23993813.817
  -3502917.95248  -2729544.21145  23453659.158    23453669.087
 -25185780.10949 -19625287.93447  20326817.979    20326821.413
  -6661810.96648                  23791020.615
 -14593566.15349 -11371617.09046  22827406.890    22827410.836
 02  1  1  3 45  0.0000000  0  7G22G13G20G 2G 1G31G27
 -16549653.04349 -12895847.46046  21752872.821    21752879.113
 -22183882.43349 -17286141.86047  20695717.783    20695719.426
  -6519286.13248  -5079994.42944  24014490.004    24014500.181
  -3588865.97148  -2796516.68744  23437304.812    23437310.563
 -25164453.97749 -19608670.25047  20330876.172    20330879.684
  -6766706.45648                  23771059.286
 -14663372.38849 -11426011.63046  22814123.677    22814127.702
 02  1  1  3 45 30.0000000  0  7G22G13G20G 2G 1G31G27
 -16460568.67949 -12826431.27346  21769825.022    21769831.641
 -22227702.49449 -17320287.40947  20687379.140    20687380.885
  -6410510.25948  -4995234.48344  24035189.442    24035199.371
  -3674595.40448  -2863318.80044  23420990.038    23420997.361
 -25142648.20949 -19591678.83047  20335025.788    20335029.257
  -6871500.82248                  23751116.817
 -14733067.83149 -11480319.85646  22800861.880    22800866.027
 02  1  1  3 46  0.0000000  0  7G22G13G20G 2G 1G31G27
 -16371156.40849 -12756759.57346  21786840.446    21786846.694
 -22271096.17549 -17354100.71547  20679121.346    20679123.199
  -6301671.13048                  24055901.233
  -3760107.35748  -2929951.48745  23404718.224    23404725.856
 -25120364.66349 -19574315.11247  20339266.291    20339269.890
  -6976192.99448                  23731194.606
 -14802654.35349 -11534543.20146  22787618.913    22787623.031
 02  1  1  3 46 30.0000000  0  8G22G 8G13G20G 2G 1G31G27
 -16281435.96949 -12686847.73446  21803913.182    21803919.754
         -.39258                  24943211.008
 -22314078.86249 -17387593.77247  20670941.949    20670943.891
  -6192788.92148  -4825582.35844  24076621.350    24076633.017
  -3845417.73348  -2996427.08945  23388483.673    23388490.943
 -25097620.22249 -19556592.25647  20343594.260    20343597.995
  -7080796.93948                  23711289.234
 -14872148.78149 -11588694.76846  22774395.447    22774399.815
 02  1  1  3 47  0.0000000  0  8G22G 8G13G20G 2G 1G31G27
 -16191400.45849 -12616690.39446  21821047.200    21821053.962
    -92840.26248                  24925544.050
 -22356638.90749 -17420757.49447  20662843.525    20662845.338
  -6083856.68948  -4740700.58644  24097350.461    24097361.631
  -3930515.59748  -3062737.08945  23372290.873    23372297.730
 -25074404.87549 -19538502.46247  20348012.120    20348015.953
  -7185299.65248  -5598925.96745  23691403.166    23691413.839
 -14941540.94349 -11642766.64446  22761190.288    22761194.615
 02  1  1  3 47 30.0000000  0  8G22G 8G13G20G 2G 1G31G27
 -16101051.19249 -12546288.56546  21838239.522    21838245.685
   -185653.10548                  24907882.533
 -22398772.97849 -17453589.28647  20654825.738    20654827.595
  -5974875.91148  -4655780.95744  24118089.625    24118100.547
  -4015398.18748  -3128879.32645  23356137.284    23356146.219
 -25050716.88949 -19520044.37747  20352519.719    20352523.671
  -7289696.51748                  23671536.924
 -15010829.22949 -11696757.57846  22748004.556    22748009.617
 02  1  1  3 48  0.0000000  0  8G22G 8G13G20G 2G 1G31G27
 -16010376.53349 -12475633.18046  21855494.812    21855501.027
   -278423.77648                  24890229.283
 -22440464.84549 -17486076.50347  20646892.294    20646893.902
  -5865835.14948  -4570814.62244  24138839.523    24138847.962
  -4100049.89248  -3194841.68645  23340029.689    23340036.016
 -25026541.49949 -19501206.49947  20357120.085    20357123.947
  -7393970.01248                  23651694.140
 -15079998.74749 -11750655.93646  22734842.974    22734847.764
 02  1  1  3 48 30.0000000  0  8G22G 8G13G20G 2G 1G31G27
 -15919385.13049 -12404730.98346  21872809.974    21872816.447
   -371158.07748                  24872582.143
 -22481718.54149 -17518222.30147  20639041.441    20639043.315
  -5756743.22448                  24159599.200
  -4184475.42748  -3260627.77045  23323963.209    23323970.543
 -25001884.41949 -19481993.27247  20361812.477    20361816.323
  -7498122.73148  -5842683.56145  23631874.353    23631886.019
 -15149055.07349 -11804466.09746  22721702.110    22721706.333
 02  1  1  3 49  0.0000000  0  8G22G 8G13G20G 2G 1G31G27
 -15828096.04749 -12333596.82546  21890181.993    21890189.051
   -463871.86748                  24854939.761
 -22522548.77049 -17550038.11547  20631271.649    20631273.641
  -5647619.39448  -4400777.34144  24180365.201    24180373.109
  -4268690.15548  -3326249.59045  23307937.799    23307943.943
 -24976761.98449 -19462417.43147  20366593.308    20366596.940
  -7602167.83048                  23612075.191
 -15218014.38049 -11858200.64146  22708578.504    22708584.107
 02  1  1  3 49 30.0000000  0  8G22G 8G13G20G 2G 1G31G27
 -15736499.71349 -12262223.24846  21907612.266    21907618.933
   -556552.26848                  24837303.818
 -22562941.15149 -17581512.75147  20623585.479    20623587.325
  -5538454.20248                  24201138.726
  -4352680.41248  -3391696.50645  23291954.832    23291963.271
 -24951161.33049 -19442468.95647  20371464.835    20371468.679
  -7706089.62048                  23592299.147
 -15286863.95649 -11911849.68546  22695477.462    22695482.650
 02  1  1  3 50  0.0000000  0  8G22G 8G13G20G 2G 1G31G27
 -15644604.31949 -12190616.64646  21925099.227    21925106.481
   -649204.58948                  24819672.236
 -22602899.38449 -17612649.09247  20615982.025    20615983.840
  -5429256.29148                  24221918.623
  -4436450.74148  -3456972.04645  23276013.960    23276020.950
 -24925088.14749 -19422152.27647  20376426.609    20376430.446
  -7809890.45748                  23572546.531
 -15355608.82149 -11965417.14446  22682396.007    22682400.471
 02  1  1  3 50 30.0000000  0  8G22G 8G13G20G 2G 1G31G27
 -15552407.18449 -12118774.91946  21942644.219    21942651.654
   -741822.95948                  24802048.037
 -22642416.22749 -17643441.49447  20608462.207    20608463.882
  -5320022.80248                  24242706.229
  -4519994.40048  -3522070.98145  23260115.938    23260124.626
 -24898536.62649 -19401462.86847  20381479.326    20381483.220
  -7913561.66648                  23552817.910
 -15424243.09249 -12018898.43546  22669334.861    22669339.324
 02  1  1  3 51  0.0000000  0  8G22G 8G13G20G 2G 1G31G27
 -15459916.16349 -12046704.19546  21960244.775    21960252.039
   -834411.94148                  24784428.983
 -22681495.06749 -17673892.59147  20601025.658    20601027.571
  -5210761.90248                  24263497.521
  -4603315.43348  -3586996.41445  23244260.561    23244267.075
 -24871511.85649 -19380404.69547  20386621.981    20386625.962
  -8017105.02748                  23533114.399
 -15492771.73049 -12072297.41446  22656294.600    22656298.966
 02  1  1  3 51 30.0000000  0  8G22G 8G13G20G 2G 1G31G27
 -15367137.26749 -11974409.15846  21977900.120    21977907.246
   -926974.44148                  24766814.981
 -22720137.21349 -17704003.41247  20593672.261    20593674.063
  -5101479.89948                  24284293.841
  -4686416.10548  -3651750.15045  23228447.392    23228453.657
 -24844016.75049 -19358980.02947  20391854.488    20391858.390
  -8120520.54948                  23513434.474
 -15561197.43149 -12125616.16446  22643273.828    22643278.777
 02  1  1  3 52  0.0000000  0  8G22G 8G13G20G 2G 1G31G27
 -15274081.51549 -11901898.38346  21995608.206    21995615.762
  -1019518.39148                  24749204.667
 -22758349.37549 -17733779.18247  20586400.962    20586402.753
  -4992187.89548  -3890054.45444  24305092.372    24305103.542
  -4769303.53648  -3716337.71545  23212674.051    23212682.242
 -24816059.50349 -19337195.25147  20397174.522    20397178.231
  -8223813.43848                  23493778.952
 -15629528.37049 -12178861.09846  22630270.177    22630275.269
 02  1  1  3 52 30.0000000  0  8G22G 8G13G20G 2G 1G31G27
 -15180732.33349 -11829158.97346  22013372.283    22013379.980
  -1112024.06748                  24731601.882
 -22796110.36849 -17763203.38947  20579215.405    20579217.132
  -4882869.16548                  24325894.359
  -4851957.29848  -3780743.20545  23196945.877    23196953.210
 -24787620.77949 -19315035.29347  20402586.035    20402590.025
  -8326960.89348                  23474150.258
 -15697744.69649 -12232016.71546  22617289.967    22617294.249
 02  1  1  3 53  0.0000000  0  8G22G 8G13G20G 2G 1G31G27
 -15087102.07749 -11756200.54146  22031189.518    22031197.957
  -1204501.05548                  24714003.862
 -22833428.11649 -17792282.21247  20572114.181    20572115.732
  -4773536.41848                  24346701.242
  -4934385.82748  -3844973.20045  23181259.420    23181266.828
 -24758710.16349 -19292507.62547  20408087.664    20408091.730
  -8429969.41848                  23454548.275
 -15765855.73549 -12285090.30246  22604329.221    22604333.524
 02  1  1  3 53 30.0000000  0  8G22G 8G13G20G 2G 1G31G27
 -14993188.59149 -11683021.42346  22049061.310    22049068.234
  -1296943.80048                  24696412.739
 -22870295.85249 -17821010.38147  20565098.727    20565100.449
  -4664187.75648                  24367508.866
  -5016583.37848  -3909023.19845  23165618.739    23165626.473
 -24729322.76549 -19269608.44047  20413680.081    20413684.169
  -8532831.20048                  23434974.687
 -15833856.20749 -12338077.72446  22591388.377    22591392.810
 02  1  1  3 54  0.0000000  0  8G22G 8G13G20G 2G 1G31G27
 -14898984.38549 -11609615.75446  22066987.441    22066995.115
  -1389341.52048                  24678830.162
 -22906701.81049 -17849378.72047  20558170.411    20558172.402
  -4554815.78648                  24388322.890
  -5098538.31248  -3972884.15845  23150022.071    23150029.833
 -24699448.27649 -19246329.70247  20419365.274    20419369.362
  -8635532.48248                  23415430.263
 -15901735.50149 -12390970.73546  22578471.604    22578476.131
 02  1  1  3 54 30.0000000  0  8G22G 8G13G20G 2G 1G31G27
 -14804501.82149 -11535993.20546  22084967.224    22084974.667
  -1481703.77948                  24661254.271
 -22942653.94449 -17877393.42547  20551329.168    20551331.114
  -4445433.03348                  24409137.674
  -5180259.32948  -4036562.83645  23134471.915    23134478.899
 -24669096.47349 -19222679.03847  20425140.925    20425144.894
  -8738079.75248  -6808881.07145  23395916.706    23395927.379
 -15969502.81549 -12443776.49046  22565576.238    22565580.662
 02  1  1  3 55  0.0000000  0  8G22G 8G13G20G 2G 1G31G27
 -14709746.21649 -11462157.87946  22102999.174    22103005.924
  -1574032.41848                  24643685.690
 -22978153.08049 -17905055.14547  20544574.141    20544575.943
  -4336044.77648  -3378777.31744  24429954.179    24429963.611
  -5261748.03748  -4100060.50645  23118964.721    23118970.897
 -24638269.72349 -19198658.28647  20431006.827    20431010.929
  -8840472.06148                  23376431.753
 -16037160.29749 -12496496.65146  22552701.151    22552705.872
 02  1  1  3 55 30.0000000  0  8G22G 8G13G20G 2G 1G31G27
 -14614720.86749 -11388112.37346  22121081.299    22121089.490
  -1666327.93148                  24626121.214
 -23013197.88449 -17932362.84147  20537905.067    20537906.962
  -4226654.85648                  24450770.205
  -5343003.98048  -4163376.82245  23103502.638    23103510.075
 -24606968.73649 -19174267.99747  20436963.369    20436967.401
  -8942706.92848                  23356976.086
 -16104708.34349 -12549131.52646  22539847.609    22539852.170
 02  1  1  3 56  0.0000000  0  8G22G 8G13G20G 2G 1G31G27
 -14519427.30249 -11313857.85946  22139215.775    22139223.673
  -1758588.59348                  24608565.404
 -23047785.65049 -17959314.40447  20531323.235    20531325.182
  -4117264.71348                  24471587.928
  -5424024.95048  -4226510.02545  23088084.693    23088091.090
 -24575192.17449 -19149507.13647  20443010.597    20443014.624
  -9044779.92448  -7047867.66545  23337553.113    23337564.779
 -16172145.19449 -12601679.76646  22527014.534    22527018.688
 02  1  1  3 56 30.0000000  0  8G22G 8G13G20G 2G 1G31G27
 -14423867.88749 -11239396.19246  22157399.684    22157407.876
  -1850813.78748                  24591016.461
 -23081914.62249 -17985908.46547  20524828.682    20524830.780
  -4007876.82848                  24492402.928
  -5504809.47648  -4289458.99645  23072712.013    23072718.445
 -24542939.93649 -19124375.62347  20449148.333    20449152.313
  -9146687.52248                  23318160.142
 -16239470.32949 -12654140.94846  22514202.775    22514206.922
 02  1  1  3 57  0.0000000  0  8G22G 8G13G20G 2G 1G31G27
 -14328045.73849 -11164729.78946  22175634.609    22175642.800
  -1943003.44248                  24573471.851
 -23115583.16449 -18012143.74547  20518421.703    20518423.838
  -3898494.65148                  24513219.049
  -5585357.09448  -4352223.35745  23057384.160    23057391.710
 -24510212.36049 -19098873.71847  20455376.067    20455380.143
  -9248426.67848                  23298800.078
 -16306683.76949 -12706515.09946  22501412.978    22501417.420
 02  1  1  3 57 30.0000000  0  8G22G 8G13G20G 2G 1G31G27
 -14231966.12949 -11089862.77946  22193918.135    22193925.573
  -2035159.68848                  24555936.434
 -23148792.20949 -18038020.97547  20512102.492    20512104.756
  -3789123.48548                  24534031.973
  -5665669.32448  -4414804.30845  23042101.037    23042109.228
 -24477012.14849 -19073003.52447  20461693.635    20461697.890
  -9349996.79148  -7285698.41145  23279471.011    23279482.429
 -16373787.70749 -12758803.93146  22488643.744    22488647.811
 02  1  1  3 58  0.0000000  0  8G22G 8G13G20G 2G 1G31G27
 -14135626.38249 -11014793.05646  22212251.245    22212259.436
  -2127276.65148                  24538406.675
 -23181534.84749 -18063534.77347  20505871.734    20505873.853
  -3679760.52848                  24554843.223
  -5745739.62648  -4477196.73445  23026864.622    23026871.580
 -24443334.07449 -19046760.97047  20468102.502    20468106.604
  -9451389.31548                  23260177.288
 -16440776.27449 -12811002.86246  22475895.407    22475900.660
 02  1  1  3 58 30.0000000  0  8G22G 8G13G20G 2G 1G31G27
 -14039034.31849 -10939526.74346  22230631.687    22230639.878
  -2219359.41448                  24520883.607
 -23213814.62449 -18088687.90447  20499729.308    20499731.439
  -3570414.11848                  24575651.748
  -5825572.31748  -4539404.02945  23011672.484    23011680.675
 -24409183.40349 -19020150.16347  20474601.222    20474605.442
  -9552605.93048                  23240915.863
 -16507654.33949 -12863115.69846  22463169.584    22463174.391
 02  1  1  3 59  0.0000000  0  8G22G 8G13G20G 2G 1G31G27
 -13942189.78449 -10864063.69346  22249061.011    22249068.479
  -2311404.37148                  24503368.989
 -23245627.05449 -18113476.87147  20493675.814    20493677.806
  -3461084.17848                  24596457.259
  -5905163.38448  -4601423.03245  22996527.174    22996535.365
 -24374557.31549 -18993168.89947  20481190.431    20481194.639
  -9653640.59148                  23221689.829
 -16574418.47849 -12915139.75246  22450465.050    22450469.277
 02  1  1  3 59 30.0000000  0  8G22G 8G13G20G 2G 1G31G27
 -13845097.47049 -10788407.55846  22267537.596    22267545.404
  -2403413.31648                  24485858.610
 -23276972.34949 -18137901.83447  20487710.992    20487713.016
  -3351775.41848                  24617258.678
  -5984513.85748  -4663254.53745  22981427.375    22981434.511
 -24339457.93149 -18965818.83447  20487870.157    20487874.190
  -9754491.89848                  23202498.048
 -16641070.29649 -12967076.28946  22437781.243    22437785.532
 02  1  1  4  0  0.0000000  0  8G22G 8G13G20G 2G 1G31G27
 -13747756.79349 -10712557.92146  22286061.181    22286070.117
  -2495382.76248                  24468359.442
 -23307845.67449 -18161959.03247  20481836.038    20481837.868
  -3242487.45648                  24638055.684
  -6063619.60948  -4724895.39245  22966373.785    22966380.744
 -24303882.25849 -18938097.63447  20494639.685    20494644.070
  -9855153.42848  -7679326.05245  23183342.197    23183353.863
 -16707606.19849 -13018922.51546  22425120.176    22425124.213
 02  1  1  4  0 30.0000000  0  8G22G 8G13G20G 2G 1G31G27
 -13650170.08949 -10636516.56846  22304630.946    22304639.137
  -2587311.61148  -2016092.66944  24450864.892    24450871.103
 -23338245.23549 -18185647.06047  20476051.343    20476053.270
  -3133222.48248                  24658848.151
  -6142479.31148  -4786344.49145  22951366.767    22951374.681
 -24267830.15749 -18910005.19347  20501499.948    20501504.442
  -9955621.58948  -7757612.77645  23164224.853    23164235.526
 -16774025.38549 -13070677.79946  22412481.276    22412485.231
 02  1  1  4  1  0.0000000  0  8G22G 8G13G20G 2G 1G31G27
 -13552343.27449 -10560288.11846  22323247.116    22323256.300
  -2679202.90048  -2087696.43744  24433379.561    24433382.667
 -23368172.79849 -18208967.30047  20470356.073    20470358.033
  -3023987.05848                  24679635.640
  -6221095.42448  -4847603.78345  22936407.302    22936413.640
 -24231305.07949 -18881544.20247  20508450.525    20508455.193
 -10055896.53548                  23145142.064
 -16840330.89549 -13122344.51846  22399863.732    22399868.189
 02  1  1  4  1 30.0000000  0  8G22G 8G13G20G 2G 1G31G27
 -13454295.96249 -10483887.86646  22341905.620    22341914.556
  -2771073.09848                  24415897.402
 -23397643.56149 -18231931.59547  20464747.909    20464749.990
  -2914800.57248                  24700414.538
  -6299483.66448  -4908685.50445  22921489.729    22921497.266
 -24194324.10949 -18852727.97047  20515488.098    20515492.702
 -10155991.96448                  23126094.854
 -16906539.00449 -13173935.32046  22387264.578    22387268.817
 02  1  1  4  2  0.0000000  0  8G22G 8G13G20G 2G 1G31G27
 -13356008.51749 -10407300.49746  22360608.976    22360616.780
  -2862899.52748  -2230837.06844  24398423.254    24398431.694
 -23426633.79849 -18254521.44747  20459231.437    20459233.512
  -2805643.68248                  24721185.936
  -6377621.06848  -4969571.76945  22906621.184    22906628.127
 -24156865.16749 -18823539.29147  20522616.384    20522620.910
 -10255882.23148                  23107086.166
 -16972627.15149 -13225432.64646  22374688.352    22374692.507
 02  1  1  4  2 30.0000000  0  8G22G 8G13G20G 2G 1G31G27
 -13257480.76049 -10330525.87846  22379358.192    22379366.632
  -2954678.90248  -2302353.62744  24380959.215    24380967.654
 -23455138.92549 -18276733.29247  20453807.409    20453809.399
  -2696516.26748                  24741952.717
  -6455503.72648  -5030259.53045  22891800.560    22891807.344
 -24118925.52149 -18793976.03647  20529835.939    20529840.727
 -10355561.05648                  23088117.667
 -17038591.97549 -13276833.87946  22362135.773    22362140.071
 02  1  1  4  3  0.0000000  0  8G22G 8G13G20G 2G 1G31G27
 -13158714.92048 -10253565.73746  22398152.688    22398161.624
  -3046410.54948  -2373833.01844  24363501.027    24363512.197
 -23483157.38849 -18298565.91847  20448475.993    20448477.841
  -2587420.81848                  24762713.320
  -6533130.32148  -5090747.75245  22877028.079    22877035.493
 -24080505.13049 -18764038.17347  20537147.154    20537151.910
 -10455024.59948                  23069190.562
 -17104432.72449 -13328138.43246  22349607.257    22349611.196
 02  1  1  4  3 30.0000000  0  8G22G 8G13G20G 2G 1G31G27
 -13059710.76348 -10176419.91646  22416992.682    22417001.618
  -3138090.91248  -2445272.42244  24346057.247    24346063.278
 -23510684.32649 -18320015.53847  20443237.550    20443239.544
  -2478357.09948                  24783468.322
  -6610496.99348  -5151033.45646  22862306.305    22862313.396
 -24041601.46549 -18733723.73347  20544550.134    20544555.264
 -10554266.98648  -8224088.88145  23050305.429    23050317.095
 -17170146.04149 -13379343.69546  22337101.873    22337106.258
 02  1  1  4  4  0.0000000  0  8G22G 8G13G20G 2G 1G31G27
 -12960483.47948 -10099100.21546  22435875.467    22435884.403
  -3229732.36448                  24328617.825
 -23537730.88449 -18341090.83247  20438090.542    20438092.781
  -2369340.42448                  24804213.638
  -6687615.47148  -5211125.76946  22847630.972    22847639.412
 -24002227.33449 -18703042.69947  20552043.021    20552047.711
 -10653297.27348                  23031459.826
 -17235744.03449 -13430459.08146  22324618.721    22324623.763
 02  1  1  4  4 30.0000000  0  8G22G 8G13G20G 2G 1G31G27
 -12861032.99248 -10021606.59946  22454799.986    22454810.908
  -3321331.61948  -2588057.63444  24311187.318    24311191.664
 -23564293.00349 -18361788.64147  20433035.920    20433038.202
  -2260370.86748                  24824950.153
  -6764482.20649  -5271021.89845  22833003.705    22833010.878
 -23962380.25249 -18671993.13147  20559626.038    20559630.778
 -10752109.68048  -8378251.80345  23012656.755    23012668.421
 -17301223.42249 -13481482.04946  22312159.411    22312164.346
 02  1  1  4  5  0.0000000  0  8G22G 8G13G20G 2G 1G31G27
 -12761364.00748  -9943942.71245  22473766.888    22473775.327
  -3412890.22548  -2659402.11544  24293764.538    24293771.540
 -23590371.16249 -18382109.33747  20428073.641    20428075.899
  -2151453.52848  -1676510.31344  24845677.198    24845688.120
  -6841098.42049  -5330722.82946  22818424.125    22818432.316
 -23922062.63549 -18640576.90747  20567298.270    20567303.054
 -10850702.86048                  22993894.634
 -17366585.89649 -13532413.90546  22299720.958    22299726.179
 02  1  1  4  5 30.0000000  0  8G22G 8G13G20G 2G 1G31G27
 -12661473.39048  -9866106.13346  22492775.108    22492786.278
  -3504402.33348  -2730710.33044  24276349.941    24276358.132
 -23615958.29249 -18402047.42147  20423204.731    20423206.830
  -2042585.07148                  24866394.064
  -6917457.54449  -5390223.41346  22803893.548    22803901.046
 -23881269.24149 -18608789.95347  20575060.971    20575065.972
 -10949067.80048  -8531725.47145  22975176.886    22975187.808
 -17431825.26749 -13583249.82146  22287306.103    22287311.275
 02  1  1  4  6  0.0000000  0  8G22G 8G13G20G 2G 1G31G27
 -12561368.61148  -9788102.67145  22511825.212    22511835.389
  -3595872.19248  -2801985.68844  24258944.254    24258954.183
 -23641057.77449 -18421605.51847  20418428.533    20418430.662
  -1933773.21248                  24887100.914
  -6993563.28349  -5449526.55746  22789411.243    22789418.532
 -23840005.34149 -18576636.37147  20582913.075    20582918.048
 -11047206.23248                  22956501.137
 -17496945.90549 -13633993.22946  22274914.594    22274919.133
 02  1  1  4  6 30.0000000  0  8G22G 8G13G20G 2G 1G31G27
 -12461052.66148  -9709934.67145  22530914.245    22530923.429
  -3687300.00448  -2873228.22744  24241545.433    24241553.872
 -23665668.59649 -18440782.84447  20413745.455    20413747.607
  -1825021.21748  -1422149.10444  24907796.641    24907803.648
  -7069415.39649  -5508632.08246  22774976.656    22774984.847
 -23798271.77449 -18544116.81447  20590855.220    20590860.115
 -11145115.39348  -8684489.61545  22937870.337    22937881.259
 -17561947.75649 -13684644.06146  22262545.029    22262549.556
 02  1  1  4  7  0.0000000  0  8G22G 8G13G20G 2G 1G31G27
 -12360532.85548  -9631607.81445  22550043.791    22550052.479
  -3778689.81248  -2944441.15644  24224155.832    24224162.995
 -23689793.93649 -18459581.86547  20409154.425    20409156.572
  -1716336.33448                  24928478.199
  -7145017.74849  -5567542.98046  22760590.346    22760597.980
 -23756073.39849 -18511235.07247  20598885.273    20598890.217
 -11242796.54248  -8760604.67445  22919280.947    22919292.364
 -17626835.04749 -13735205.62846  22250197.214    22250202.200
 02  1  1  4  7 30.0000000  0  8G22G 8G13G20G 2G 1G31G27
 -12259804.48748  -9553118.45145  22569211.075    22569222.493
  -3870033.91848  -3015618.47344  24206772.993    24206782.425
 -23713425.12549 -18477995.84147  20404657.530    20404659.648
  -1607713.92148                  24949149.702
  -7220362.03449  -5626252.79346  22746252.879    22746259.497
 -23713403.19849 -18477985.66847  20607005.224    20607010.246
 -11340239.03948  -8836533.80045  22900739.519    22900750.689
 -17691600.03449 -13785671.88646  22237873.037    22237877.472
 02  1  1  4  8  0.0000000  0  8G22G 8G13G20G 2G 1G31G27
 -12158871.19848  -9474469.39245  22588419.422    22588427.613
  -3961333.04148  -3086760.74644  24189399.616    24189404.976
 -23736561.84149 -18496024.50747  20400254.851    20400257.067
  -1499157.99148                  24969807.225
  -7295448.57349  -5684761.76046  22731964.238    22731971.045
 -23670262.71649 -18444369.81047  20615214.481    20615219.659
 -11437440.87248                  22882240.899
 -17756243.32249 -13836043.31546  22225571.871    22225576.851
 02  1  1  4  8 30.0000000  0  8G22G 8G13G20G 2G 1G31G27
 -12057721.95348  -9395652.07445  22607666.539    22607677.461
  -4052573.06448  -3157856.96444  24172037.895    24172044.955
 -23759189.24049 -18513656.30147  20395948.951    20395951.250
  -1390657.71148                  24990454.716
  -7370263.16949  -5743058.83346  22717727.212    22717735.900
 -23626638.99149 -18410377.39847  20623516.021    20623520.887
 -11534385.39448  -8987816.45645  22863794.319    22863805.737
 -17820750.96549 -13886309.05646  22213296.370    22213301.071
 02  1  1  4  9  0.0000000  0  8G22G 8G13G20G 2G 1G31G27
 -11956373.07348  -9316679.20545  22626953.590    22626962.278
  -4143767.39048  -3228917.54644  24154682.689    24154688.387
 -23781319.39749 -18530900.63747  20391737.735    20391739.934
  -1282229.28748                  25011087.867
  -7444818.65449  -5801154.00246  22703539.525    22703547.716
 -23582545.92049 -18376019.26447  20631906.843    20631911.766
 -11631082.61748  -9063164.82045  22845392.556    22845403.477
 -17885136.06449 -13936479.29946  22201044.472    22201049.397
 02  1  1  4  9 30.0000000  0  8G22G 8G13G20G 2G 1G31G27
 -11854823.86248  -9237550.21945  22646277.316    22646288.237
  -4234912.27248  -3299939.68044  24137340.000    24137347.770
 -23802948.19849 -18547754.31447  20387621.912    20387624.342
  -1173872.20848                  25031707.819
  -7519110.94649  -5859044.08846  22689402.762    22689410.429
 -23537980.96149 -18341293.42847  20640386.943    20640392.273
 -11727526.00148  -9138315.36145  22827040.142    22827051.064
 -17949395.03149 -13986551.26546  22188816.076    22188821.615
 02  1  1  4 10  0.0000000  0  8G22G 8G13G20G 2G 1G31G27
 -11753085.94748  -9158274.18345  22665638.250    22665646.689
  -4326016.29648  -3370929.86344  24120003.122    24120009.383
 -23824082.62749 -18564222.76447  20383600.140    20383602.739
  -1065598.34448                  25052312.278
  -7593148.13949  -5916735.38446  22675313.221    22675320.867
 -23492953.70849 -18306207.36447  20648955.728    20648960.796
 -11823721.20648  -9213272.53445  22808735.390    22808746.559
 -18013536.35349 -14036531.56246  22176610.504    22176615.673
 02  1  1  4 10 30.0000000  0  8G22G 8G13G20G 2G 1G31G27
 -11651154.97148  -9078847.72845  22685034.616    22685044.296
  -4417072.26748  -3441882.69444  24102675.243    24102685.420
 -23844714.70349 -18580299.76547  20379674.139    20379676.774
   -957403.46948                  25072901.282
  -7666922.59649  -5974221.94846  22661274.962    22661282.146
 -23447457.83149 -18270756.14547  20657613.361    20657618.430
 -11919658.17648  -9288028.47645  22790478.504    22790489.425
 -18077552.71149 -14086414.48646  22164428.653    22164433.881
 02  1  1  4 11  0.0000000  0  8G22G 8G13G20G 2G 1G31G27
 -11549041.33248  -8999278.94545  22704466.983    22704477.656
  -4508087.26148  -3512803.61345  24085356.582    24085360.514
 -23864850.94049 -18595990.39347  20375842.358    20375845.020
   -849297.93048                  25093472.205
  -7740441.24149  -6031509.20246  22647284.493    22647291.922
 -23401501.43449 -18234946.08347  20666358.715    20666363.845
 -12015341.32448                  22772270.335
 -18141451.20149 -14136205.56646  22152269.147    22152274.119
 02  1  1  4 11 30.0000000  0  8G22G 8G13G20G 2G 1G31G27
 -11446735.69148  -8919560.51945  22723935.244    22723945.173
  -4599049.30348  -3583683.25445  24068046.440    24068054.158
 -23884478.48249 -18611284.64047  20372107.641    20372110.542
   -741272.65148                  25114030.607
  -7813691.68549  -6088587.46146  22633345.196    22633352.691
 -23355073.44449 -18198768.54647  20675193.701    20675198.877
 -12110755.88048  -9436935.48346  22754114.014    22754123.943
 -18205219.72349 -14185895.37646  22140134.102    22140139.559
 02  1  1  4 12  0.0000000  0  8G22G 8G13G20G 2G 1G31G27
 -11344238.06348  -8839692.52145  22743439.631    22743449.063
  -4689955.26548  -3654519.24044  24050747.658    24050756.345
 -23903593.23749 -18626179.30747  20368470.144    20368473.011
   -633032.09248                  25134572.648
  -7886670.45049  -6145454.03646  22619458.171    22619466.027
 -23308171.61949 -18162221.78847  20684118.854    20684123.888
 -12205895.76648  -9511070.31745  22736008.668    22736019.838
 -18268855.06449 -14235481.41746  22128025.434    22128029.833
 02  1  1  4 12 30.0000000  0  7G22G 8G13G 2G 1G31G27
 -11241558.26148  -8759682.57045  22762979.988    22762989.917
  -4780812.06248  -3725316.88344  24033458.485    24033466.676
 -23922201.31749 -18640679.17047  20364928.825    20364931.585
  -7959384.22249  -6202114.10246  22605620.554    22605628.745
 -23260803.94449 -18125312.03147  20693132.996    20693138.245
 -12300765.01748                  22717955.616
 -18332364.00849 -14284968.96446  22115940.246    22115944.715
 02  1  1  4 13  0.0000000  0  7G22G 8G13G 2G 1G31G27
 -11138692.87548                  22782553.879
  -4871613.08848  -3796071.11744  24016180.582    24016190.510
 -23940295.69549 -18654778.74547  20361486.087    20361488.892
  -8031826.18649  -6258562.39446  22591836.013    22591843.342
 -23212965.19649 -18088035.20647  20702236.378    20702241.727
 -12395354.39248  -9658700.14046  22699956.100    22699967.022
 -18395740.28449 -14334353.13246  22103879.512    22103884.801
 02  1  1  4 13 30.0000000  0  8G22G 8G13G 3G 2G 1G31G27
 -11035654.90048  -8599238.95645  22802162.482    22802172.659
  -4962368.71748  -3866789.93444  23998909.382    23998916.784
 -23957885.24049 -18668484.94147  20358138.881    20358141.513
        -1.06159        -1.10756  22097241.429    22097249.265
  -8104006.17649  -6314806.53446  22578100.212    22578107.930
 -23164666.20849 -18050399.75347  20711427.487    20711432.424
 -12489671.34148  -9732193.74345  22682007.671    22682018.344
 -18458993.79949 -14383641.65046  22091843.050    22091847.857
 02  1  1  4 14  0.0000000  0  8G22G 8G13G 3G 2G 1G31G27
 -10932437.70448  -8518810.26945  22821803.253    22821814.175
  -5053069.17248  -3937465.80244  23981650.614    23981659.302
 -23974959.70649 -18681789.77847  20354889.662    20354892.515
    -30100.02849    -23454.83946  22091513.263    22091520.913
  -8175914.40949  -6370838.92146  22564416.674    22564423.740
 -23115898.58649 -18012399.12847  20720707.416    20720712.700
 -12583703.43748                  22664113.914
 -18522114.84149 -14432826.92746  22079831.697    22079836.549
 02  1  1  4 14 30.0000000  0  8G22G 8G13G 3G 2G 1G31G27
 -10829054.47448  -8438252.17845  22841477.863    22841486.798
  -5143724.70348  -4008106.65144  23964398.125    23964405.745
 -23991528.73749 -18694700.76947  20351736.757    20351739.453
    -59655.32649    -46484.94446  22085888.597    22085896.442
  -8247560.78649  -6426667.27246  22550783.338    22550789.811
 -23066673.69849 -17974042.19447  20730075.281    20730080.579
 -12677458.16148  -9878520.87846  22646273.724    22646283.653
 -18585113.69749 -14481917.00946  22067844.314    22067848.700
 02  1  1  4 15  0.0000000  0  8G22G 8G13G 3G 2G 1G31G27
 -10725503.63848  -8357563.49845  22861182.131    22861192.308
  -5234330.72348  -4078709.06645  23947158.021    23947163.176
 -24007587.04149 -18707213.79247  20348680.825    20348683.693
    -88661.54949    -69087.19546  22080369.457    22080377.178
  -8318940.42749  -6482287.76246  22537199.606    22537207.222
 -23016988.09849 -17935326.26547  20739530.048    20739535.127
 -12770928.39748  -9951354.73146  22628486.447    22628496.376
 -18647985.69849 -14530908.23646  22055879.335    22055884.463
 02  1  1  4 15 30.0000000  0  8G22G 8G13G 3G 2G 1G31G27
 -10621792.76148                  22880917.855
  -5324891.87848  -4149276.35645  23929923.765    23929926.969
 -24023138.61949 -18719331.96147  20345721.229    20345724.032
   -117122.33449    -91264.43146  22074954.077    22074962.268
  -8390057.97849  -6537704.00046  22523666.733    22523673.659
 -22966847.84149 -17896256.05747  20749071.299    20749076.553
 -12864116.04648 -10023968.37046  22610753.282    22610764.452
 -18710735.38049 -14579804.13646  22043938.026    22043943.402
 02  1  1  4 16  0.0000000  0  8G22G 8G13G 3G 2G 1G31G27
 -10517913.09748  -8195805.21945  22900686.290    22900697.956
  -5415396.63248  -4219799.29345  23912702.357    23912708.786
 -24038171.10049 -18731045.64247  20342860.798    20342863.551
   -145025.02749   -113006.79346  22069644.587    22069652.316
  -8460901.52949  -6592906.74546  22510185.779    22510193.464
 -22916242.23149 -17856823.23947  20758701.420    20758706.953
 -12957006.38748 -10096350.37646  22593077.189    22593087.614
 -18773350.96849 -14628595.55346  22032023.484    22032028.219
 02  1  1  4 16 30.0000000  0  8G22G 8G13G 3G 2G 1G31G27
 -10413874.88148  -8114736.78045  22920483.913    22920495.083
  -5505852.11348                  23895488.232
 -24052691.32149 -18742360.16147  20340097.896    20340100.681
   -172376.06849   -134319.30046  22064439.644    22064447.222
  -8531478.28549  -6647901.61346  22496755.297    22496763.071
 -22865179.72949 -17817034.40747  20768418.541    20768423.894
 -13049603.88048 -10168504.17746  22575455.604    22575467.270
 -18835839.63349 -14677288.07346  22020133.371    22020137.378
 02  1  1  4 17  0.0000000  0  8G22G 8G13G 3G 2G 1G31G27
 -10309663.50348  -8033533.40245  22940315.613    22940325.542
  -5596240.99248  -4360717.14044  23878287.861    23878299.031
 -24066680.38149 -18753260.78847  20337436.024    20337438.799
   -199156.94149   -155187.51246  22059343.192    22059350.294
  -8601770.30149  -6702674.59846  22483378.758    22483386.491
 -22813643.89449 -17776876.74147  20778225.304    20778231.074
 -13141888.21148 -10240413.97246  22557894.930    22557904.114
 -18898183.86349 -14725868.03946  22008268.553    22008273.339
 02  1  1  4 17 30.0000000  0  8G22G 8G13G 3G 2G 1G31G27
 -10205286.61448                  22960176.656
  -5686567.68748  -4431101.68845  23861100.478    23861108.226
 -24080142.79649 -18763751.04047  20334874.430    20334877.236
   -225371.31649   -175614.30746  22054354.561    22054362.752
  -8671781.99849  -6757229.14846  22470056.461    22470063.220
 -22761640.64849 -17736354.86547  20788121.280    20788127.123
 -13233861.48948                  22540392.296
 -18960388.08849 -14774338.90246  21996430.860    21996436.524
 02  1  1  4 18  0.0000000  0  8G22G 8G13G 3G 2G 1G31G27
 -10100746.91448  -7870741.85745  22980071.797    22980080.981
  -5776832.10748  -4501437.65244  23843922.407    23843932.584
 -24093077.60649 -18773830.16747  20332413.211    20332415.698
   -251018.42249   -195599.08146  22049474.157    22049482.596
  -8741513.03649  -6811565.01746  22456787.107    22456794.397
 -22709171.02849 -17695469.57947  20798106.014    20798111.846
 -13325520.77648 -10383504.12946  22522950.826    22522960.754
 -19022452.18549 -14822700.57546  21984621.819    21984626.423
 02  1  1  4 18 30.0000000  0  8G22G 8G13G 3G 2G 1G31G27
  -9996058.50948  -7789166.77545  22999992.104    23000003.521
  -5867045.61048  -4571733.97144  23826757.266    23826763.722
 -24105495.54149 -18783506.53147  20330050.054    20330052.793
   -276108.61149   -215149.90046  22044699.618    22044708.057
  -8810974.56049  -6865690.86446  22443568.750    22443575.594
 -22656247.75449 -17654230.79947  20808177.159    20808183.102
 -13416874.54848 -10454688.83046  22505567.146    22505576.330
 -19084387.22749 -14870961.68646  21972835.676    21972840.586
 02  1  1  4 19  0.0000000  0  8G22G 8G13G 3G 2G 1G31G27
  -9891220.42148  -7707475.09245  23019943.673    23019954.346
  -5957204.09248  -4641987.46144  23809598.620    23809605.982
 -24117392.17349 -18792776.68547  20327786.108    20327788.801
   -300637.15549   -234263.07046  22040032.111    22040040.550
  -8880162.41649  -6919603.45946  22430402.780    22430410.150
 -22602868.08549 -17612636.38447  20818334.949    20818340.919
 -13507916.06248 -10525630.18646  22488241.311    22488252.729
 -19146189.22549 -14919119.12146  21961074.658    21961079.570
 02  1  1  4 19 30.0000000  0  8G22G 8G13G 3G 2G 1G31G27
  -9786234.89048                  23039921.009
  -6047307.10148  -4712197.62745  23792453.962    23792460.677
 -24128766.31549 -18801639.70547  20325621.648    20325624.485
   -324602.68549   -252937.53546  22035471.583    22035480.271
  -8949075.97649  -6973302.33346  22417289.245    22417296.238
 -22549032.68949 -17570686.86447  20828579.275    20828585.580
 -13598641.96949 -10596325.62346  22470977.678    22470988.103
 -19207857.54349 -14967172.39346  21949339.315    21949344.526
 02  1  1  4 20  0.0000000  0  8G22G 8G13G 3G 2G 1G31G27
  -9681101.87548  -7543746.96445  23059928.035    23059939.701
  -6137351.41148  -4782362.10745  23775319.179    23775327.866
 -24139614.19649 -18810092.65147  20323557.524    20323560.341
   -348001.72649   -271170.57546  22031019.088    22031027.776
  -9017712.22849  -7026785.12446  22404228.044    22404234.733
 -22494739.88649 -17528380.91647  20838911.635    20838917.517
 -13689046.80348 -10666770.88646  22453773.435    22453783.612
 -19269389.11949 -15015119.11346  21937630.666    21937635.672
 02  1  1  4 20 30.0000000  0  8G22G 8G13G 3G 2G 1G31G27
  -9575817.56248  -7461707.54145  23079963.582    23079974.256
  -6227330.56648  -4852475.84145  23758195.834    23758204.521
 -24149928.76449 -18818130.03247  20321594.877    20321597.745
   -370826.54949   -288956.18646  22026675.759    22026684.199
  -9086064.31749  -7080046.49646  22391220.743    22391228.423
 -22439984.13249 -17485714.23147  20849330.847    20849337.245
 -13779120.76349 -10736958.31846  22436633.267    22436642.948
 -19330777.20149 -15062954.01246  21925949.381    21925954.219
 02  1  1  4 21  0.0000000  0  8G22G 8G13G 3G 2G 1G31G27
  -9470389.50248                  23100025.309
  -6317249.33948  -4922542.52145  23741085.556    23741094.492
 -24159714.47049 -18825755.31647  20319732.627    20319735.363
   -393081.36449   -306297.63046  22022440.804    22022448.424
  -9154136.84549  -7133090.02446  22378266.996    22378275.435
 -22384771.55149 -17442691.58047  20859837.777    20859843.979
 -13868865.86149 -10806889.47846  22419554.875    22419566.293
 -19392026.44249 -15110680.72646  21914293.520    21914298.794
 02  1  1  4 21 30.0000000  0  8G22G 8G13G 3G 2G 1G31G27
  -9364821.12848  -7297295.35045  23120115.826    23120125.258
  -6407107.94348  -4992562.25744  23723984.834    23723994.266
 -24168970.91149 -18832968.18547  20317971.110    20317973.834
   -414765.80049   -323194.63246  22018314.016    22018321.943
  -9221929.92749  -7185915.80646  22365366.712    22365374.400
 -22329103.84949 -17399314.28647  20870431.034    20870437.128
 -13958279.89649 -10876562.65946  22402540.308    22402550.237
 -19453137.12249 -15158299.47346  21902664.068    21902669.027
 02  1  1  4 22  0.0000000  0  8G22G 8G13G 3G 2G 1G31G27
  -9259118.64948                  23140228.800
  -6496909.87448  -5062537.88045  23706898.224    23706907.160
 -24177701.33149 -18839771.16947  20316309.905    20316312.692
   -435882.86949   -339649.53646  22014295.765    22014303.430
  -9289446.92249  -7238526.45646  22352518.209    22352526.075
 -22272986.05849 -17355586.27347  20881110.053    20881116.390
 -14047363.86949 -10945978.65346  22385588.538    22385597.722
 -19514112.60149 -15205812.86146  21891061.551    21891066.624
 02  1  1  4 22 30.0000000  0  8G22G 8G13G 3G 2G 1G31G27
  -9153280.45848  -7132459.11245  23160371.158    23160381.087
  -6586650.70348  -5132465.85945  23689819.691    23689831.357
 -24185900.44949 -18846160.15647  20314749.760    20314752.653
   -456427.53949   -355658.41346  22010386.542    22010394.733
  -9356683.38449  -7290918.52946  22339724.111    22339731.415
 -22216415.10649 -17311505.15247  20891875.296    20891881.504
 -14136110.55748 -11015131.82246  22368699.389    22368711.056
 -19574948.13449 -15253217.20546  21879485.317    21879490.063
 02  1  1  4 23  0.0000000  0  8G22G 8G13G 3G 2G 1G31G27
  -9047327.12548                  23180532.022
  -6676348.17048  -5202360.08645  23672751.856    23672759.178
 -24193585.69649 -18852148.72347  20313286.889    20313289.814
   -476416.62049   -371234.35946  22006582.527    22006590.966
  -9423656.89149  -7343105.68446  22326979.264    22326986.679
 -22159409.76449 -17267085.54547  20902723.288    20902729.226
 -14224534.49149 -11084033.47446  22351873.500    22351884.174
 -19635661.26349 -15300526.17646  21867931.158    21867936.907
 02  1  1  4 23 30.0000000  0  8G22G 8G13G 3G 2G 1G31G27
  -8941243.39048                  23200720.839
  -6765984.27748  -5272206.54445  23655694.381    23655704.558
 -24200738.83249 -18857722.66047  20311926.070    20311929.137
   -495831.96849   -386363.23746  22002887.982    22002896.173
  -9490349.66249  -7395074.08946  22314287.965    22314296.404
 -22101953.72749 -17222314.74647  20913656.711    20913662.998
 -14312615.14749 -11152667.65746  22335112.814    22335121.005
 -19696234.13549 -15347725.84746  21856403.928    21856409.868
 02  1  1  4 24  0.0000000  0  8G22G 8G13G 3G 2G 1G31G27
  -8835025.06948                  23220933.106
  -6855551.73548  -5341999.54745  23638650.151    23638661.568
 -24207352.21049 -18862876.00247  20310667.328    20310670.354
   -514665.76849   -401038.96946  21999303.780    21999313.460
  -9556754.15649  -7446817.88246  22301652.027    22301659.506
 -22044041.28349 -17177188.31147  20924677.000    20924683.650
 -14400342.92748 -11221026.84546  22318417.253    22318428.423
 -19756659.49449 -15394810.57946  21844906.178    21844911.669
 02  1  1  4 24 30.0000000  0  8G22G 8G13G 3G 2G 1G31G27
  -8728668.32948                  23241172.124
  -6945043.84948  -5411733.80945  23621621.135    23621630.319
 -24213418.82949 -18867603.29847  20309512.805    20309515.911
   -532910.61649   -415255.77146  21995831.798    21995840.733
  -9622863.82349  -7498331.92146  22289071.029    22289078.940
 -21985667.13249 -17131702.10247  20935786.255    20935792.227
 -14487708.43749 -11289103.75046  22301792.937    22301803.114
 -19816930.54649 -15441775.07646  21833437.000    21833442.616
 02  1  1  4 25  0.0000000  0  8G22G 8G13G 3G 2G 1G31G27
  -8622188.30748  -6718622.73345  23261435.307    23261446.725
  -7034472.89448  -5481418.88745  23604602.944    23604612.376
 -24218950.70949 -18871913.91647  20308460.677    20308463.748
   -550578.60149   -429023.06846  21992469.429    21992478.117
  -9688690.88449  -7549625.76146  22276544.940    22276552.617
 -21926845.19849 -17085866.96547  20946978.869    20946985.436
 -14574721.51949 -11356906.03646  22285235.381    22285244.814
 -19877059.37849 -15488628.74046  21821995.077    21822000.267
 02  1  1  4 25 30.0000000  0  8G22G 8G13G 3G 2G 1G31G27
  -8515588.96648                  23281720.864
  -7123840.11148  -5551055.81445  23587598.085    23587606.524
 -24223948.76449 -18875808.56547  20307509.585    20307512.691
   -567670.62649   -442341.56046  21989216.908    21989225.844
  -9754236.62849  -7600700.38746  22264071.943    22264079.695
 -21867578.32749 -17039685.13647  20958257.450    20958263.946
 -14661380.71049 -11424432.56946  22268743.220    22268754.141
 -19937047.11949 -15535372.47446  21810579.666    21810584.700
 02  1  1  4 26  0.0000000  0  8G22G 8G13G 3G 2G 1G31G27
  -8408876.85248                  23302027.445
  -7213149.18848  -5620647.39045  23570602.219    23570611.402
 -24228416.15049 -18879289.70547  20306659.363    20306662.487
   -584189.82249   -455213.68446  21986073.564    21986082.500
  -9819504.69249  -7651558.63246  22251651.915    22251659.368
 -21807871.51849 -16993160.49747  20969619.798    20969626.060
 -14747686.94349 -11491684.05046  22252320.519    22252330.448
 -19996897.18449 -15582008.92946  21799190.572    21799195.740
 02  1  1  4 26 30.0000000  0  8G22G 8G13G 3G 2G 1G31G27
  -8302046.63248                  23322356.504
  -7302391.98048  -5690187.33845  23553619.617    23553629.049
 -24232344.54649 -18882350.85647  20305911.852    20305915.030
   -600127.75549   -467632.87846  21983041.094    21983049.533
  -9884487.03949  -7702194.25246  22239285.974    22239294.414
 -21747718.17749 -16946287.91147  20981066.313    20981072.572
 -14833629.49949 -11558652.16146  22235966.061    22235975.244
 -20056601.47349 -15628531.80046  21787829.398    21787834.521
 02  1  1  4 27  0.0000000  0  8G22G 8G13G 3G 2G 1G31G27
  -8195104.32248                  23342707.681
  -7391571.65148  -5759678.08645  23536649.949    23536659.629
 -24235737.01149 -18884994.40047  20305266.388    20305269.479
   -615487.32049   -479601.38846  21980118.325    21980126.765
  -9949187.01649  -7752609.83146  22226974.782    22226981.999
 -21687123.11049 -16899071.12547  20992597.001    20992603.957
 -14919209.10549 -11625337.45446  22219679.578    22219691.244
 -20116162.97549 -15674943.40346  21776495.092    21776500.854
 02  1  1  4 27 30.0000000  0  8G22G 8G13G 3G 2G 1G31G27
  -8088050.54848                  23363078.444
  -7480685.97648  -5829117.94045  23519692.085    23519700.773
 -24238590.86249 -18887218.24847  20304723.497    20304726.599
   -630265.83949   -491117.13246  21977306.269    21977314.161
 -10013602.29549  -7802803.55446  22214716.054    22214723.830
 -21626085.75349 -16851509.69447  21004212.514    21004219.052
 -15004420.75349 -11691736.02946  22203466.250    22203474.441
 -20175579.35049 -15721241.92546  21765188.794    21765194.203
 02  1  1  4 28  0.0000000  0  8G22G 8G13G 3G 2G 1G31G27
  -7980888.85348  -6218910.90345  23383472.495    23383482.920
  -7569735.86748  -5898507.51645  23502746.571    23502755.506
 -24240906.91849 -18889023.03547  20304282.795    20304285.971
   -644463.77049   -502180.47146  21974604.202    21974613.386
 -10077733.76549  -7852776.13546  22202512.974    22202520.391
 -21564608.51449 -16803605.49947  21015911.754    21015917.972
 -15089262.91849 -11757846.70446  22187319.775    22187329.952
 -20234851.48049 -15767428.04746  21753909.800    21753914.953
 02  1  1  4 28 30.0000000  0  8G22G 8G13G 3G 2G 1G31G27
  -7873623.99648                  23403883.217
  -7658723.05348  -5967848.23045  23485812.382    23485822.062
 -24242686.74149 -18890409.97947  20303944.103    20303947.229
   -658082.76349   -512792.67246  21972012.796    21972020.472
 -10141583.27349  -7902529.00146  22190362.192    22190370.879
 -21502694.75849 -16755361.16247  21027692.875    21027700.031
 -15173734.61249 -11823668.69446  22171246.213    22171255.149
 -20293980.74449 -15813502.84246  21742657.469    21742662.806
 02  1  1  4 29  0.0000000  0  8G22G 8G13G 3G 2G 1G31G27
  -7766251.91948  -6051662.06045  23424316.730    23424327.651
  -7747640.90248  -6037134.91345  23468891.984    23468902.906
 -24243923.57849 -18891373.81547  20303708.473    20303711.676
   -671115.87349   -522948.34746  21969533.100    21969541.291
 -10205144.30949  -7952057.08546  22178268.276    22178275.070
 -21440339.55749 -16706772.83847  21039559.089    21039565.748
 -15257826.72949 -11889194.91946  22155244.085    22155253.269
 -20352960.46349 -15859461.10846  21731434.308    21731439.574
 02  1  1  4 29 30.0000000  0  8G22G 8G13G 3G 2G 1G31G27
  -7658783.19848                  23444766.957
  -7836496.67348  -6106373.21645  23451984.285    23451993.718
 -24244624.65349 -18891920.17747  20303575.147    20303578.338
   -683570.50249   -532653.25846  21967162.864    21967170.741
 -10268424.45549  -8001366.29146  22166224.844    22166233.283
 -21377551.98949 -16657847.60647  21051507.075    21051513.785
 -15341544.19849 -11954429.22146  22139312.119    22139323.041
 -20411798.05149 -15905308.62446  21720238.202    21720243.483
 02  1  1  4 30  0.0000000  0  8G22G 8G13G 3G 2G 1G31G27
  -7551193.27948                  23465241.255
  -7925263.55048                  23435090.843
 -24244763.09549 -18892028.12647  20303548.824    20303551.999
   -695419.46949   -541886.22346  21964908.151    21964916.342
 -10331396.74449  -8050435.61346  22154242.829    22154249.882
 -21314306.58349 -16608565.62247  21063542.203    21063549.171
 -15424857.49549 -12019348.55746  22123458.581    22123468.261
 -20470466.38949 -15951024.24747  21709073.879    21709078.928
 02  1  1  4 30 30.0000000  0  8G22G 8G13G 3G 2G 1G31G27
  -7443491.45948                  23485736.368
  -8013948.16348  -6244647.19345  23418215.997    23418225.430
 -24244345.30949 -18891702.65047  20303628.727    20303631.909
   -706669.09149   -550652.16246  21962766.863    21962775.302
 -10394067.74249  -8099270.15546  22142316.348    22142323.751
 -21250611.69049 -16558933.38347  21075663.798    21075670.319
 -15507770.62349 -12083956.11046  22107681.116    22107690.052
 -20528971.81249 -15996612.92847  21697940.468    21697945.715
 02  1  1  4 31  0.0000000  0  8G22G 8G13G 3G 2G 1G31G27
  -7335685.84848                  23506250.776
  -8102555.64548  -6313692.05945  23401353.512    23401364.681
 -24243376.16549 -18890947.54347  20303812.981    20303816.097
   -717324.42449   -558955.02946  21960739.732    21960748.668
 -10456443.03849  -8147874.27546  22130446.743    22130454.245
 -21186474.25049 -16508956.30247  21087868.200    21087875.067
 -15590286.20449 -12148253.86646  22091978.096    22091988.273
 -20587319.47849 -16042078.67946  21686837.632    21686842.568
 02  1  1  4 31 30.0000000  0  8G22G 8G13G 3G 2G 1G31G27
  -7227808.75648                  23526780.346
  -8191115.29048  -6382699.56645  23384502.018    23384513.436
 -24241884.84349 -18889785.54447  20304096.941    20304100.137
   -727415.17749   -566817.95946  21958819.407    21958828.095
 -10518552.16249  -8196270.99846  22118627.696    22118635.158
 -21121925.56749 -16458658.77347  21100151.839    21100158.542
 -15672431.10449 -12212262.77646  22076346.374    22076355.806
 -20645538.79149 -16087444.41047  21675759.241    21675763.996
 02  1  1  4 32  0.0000000  0  8G22G 8G13G 3G 2G 1G31G27
  -7119847.59648                  23547323.772
  -8279612.07548  -6451658.18245  23367661.450    23367669.890
 -24239856.79049 -18888205.30847  20304482.982    20304486.193
   -736925.82949   -574228.87046  21957009.745    21957018.184
 -10580380.11449  -8244448.62546  22106862.360    22106869.671
 -21056952.07749 -16408030.23547  21112516.067    21112523.252
 -15754187.97349 -12275969.33946  22060788.683    22060798.115
 -20703614.32349 -16132698.10647  21664707.641    21664712.686
 02  1  1  4 32 30.0000000  0  8G22G 8G13G 3G 2G 1G31G27
  -7011790.21148                  23567887.886
  -8368031.03048  -6520556.10245  23350835.861    23350843.607
 -24237276.73749 -18886194.94547  20304974.314    20304977.491
   -745841.51949   -581176.18246  21955313.360    21955321.171
 -10641912.07949  -8292395.61746  22095153.525    22095160.733
 -20991540.59049 -16357060.40047  21124963.280    21124970.465
 -15835539.20249 -12339359.80746  22045307.500    22045317.925
 -20761530.88249 -16177827.91847  21653685.949    21653691.540
 02  1  1  4 33  0.0000000  0  8G22G 8G13G 3G 2G 1G31G27
  -6903623.79748                  23588470.727
  -8456356.37048  -6589381.12945  23334027.258    23334036.194
 -24234128.96549 -18883742.20547  20305573.282    20305576.484
   -754146.52849   -587647.63946  21953732.676    21953741.115
 -10703132.86249  -8340100.13646  22083502.811    22083510.244
 -20925677.39349 -16305738.58347  21137496.923    21137503.722
 -15916466.82649 -12402420.19846  22029907.868    22029917.797
 -20819272.90249 -16222821.73347  21642698.170    21642703.765
 02  1  1  4 33 30.0000000  0  8G22G 8G13G 3G 2G 1G31G27
  -6795377.02048                  23609070.203
  -8544614.33548                  23317232.225
 -24230439.71749 -18880867.53347  20306275.387    20306278.528
   -761866.94949   -593663.58546  21952263.946    21952271.703
 -10764068.55749  -8387582.50646  22071907.909    22071914.830
 -20859390.53249 -16254086.63747  21150111.191    21150118.095
 -15996994.36049 -12465168.84646  22014584.002    22014593.185
 -20876866.28149 -16267699.71347  21631738.916    21631743.864
 02  1  1  4 34  0.0000000  0  8G22G 8G13G 3G 2G 1G31G27
  -6687044.55048                  23629685.201
  -8632796.64848  -6726867.17545  23300454.178    23300461.867
 -24226200.86049 -18877564.59647  20307082.118    20307085.295
   -768994.63749   -599217.65646  21950907.534    21950915.344
 -10824711.05449  -8434836.40646  22060367.643    22060375.071
 -20792673.55749 -16202099.54847  21162806.914    21162813.821
 -16077111.14649 -12527597.42046  21999337.955    21999348.132
 -20934302.63449 -16312455.33847  21620808.967    21620813.958
 02  1  1  4 34 30.0000000  0  8G22G 8G13G 3G 2G 1G31G27
  -6578639.11948                  23650314.869
  -8720913.27948  -6795529.52945  23283685.076    23283692.814
 -24221422.65449 -18873841.38447  20307991.342    20307994.528
   -775539.81849   -604317.83846  21949662.263    21949670.702
 -10885070.83749  -8481870.02446  22048881.466    22048889.234
 -20725538.42149 -16149786.61747  21175582.648    21175589.370
 -16156824.85349 -12589711.91146  21984169.292    21984178.476
 -20991592.03449 -16357096.45747  21609906.848    21609912.600
 02  1  1  4 35  0.0000000  0  8G22G 8G13G 3G 2G 1G31G27
  -6470163.06348                  23670956.883
  -8808963.93048  -6864140.43645  23266927.860    23266939.278
 -24216104.71549 -18869697.60247  20309003.282    20309006.455
   -781502.31749   -608963.97946  21948527.270    21948534.778
 -10945147.67949  -8528683.16246  22037449.514    22037456.784
 -20657986.26049 -16097148.73247  21188437.130    21188444.436
 -16236132.66549 -12651510.12046  21969077.036    21969086.965
 -21048733.77549 -16401622.51547  21599033.254    21599038.635
 02  1  1  4 35 30.0000000  0  8G22G 8G13G 3G 2G 1G31G27
  -6361605.69548                  23691615.088
  -8896935.07248  -6932689.41645  23250190.622    23250197.471
 -24210233.59549 -18865122.77447  20310120.576    20310123.769
   -786868.86049   -613145.75046  21947506.379    21947514.819
 -11004928.28549  -8575265.46746  22026073.466    22026080.825
 -20590005.77249 -16044177.08547  21201373.591    21201380.913
 -16315018.98549 -12712979.89346  21954065.496    21954075.177
 -21105714.15849 -16446022.84947  21588190.489    21588195.951
 02  1  1  4 36  0.0000000  0  8G22G 8G13G 3G 2G 1G31G27
  -6252964.65448                  23712288.919
  -8984821.63548                  23233464.162
 -24203804.54249 -18860113.19247  20311343.886    20311347.108
   -791634.38249   -616859.18646  21946599.216    21946607.407
 -11064407.84749  -8621613.19246  22014755.008    22014762.353
 -20521593.63049 -15990869.07947  21214392.200    21214399.518
 -16393476.20349 -12774115.30846  21939135.363    21939145.044
 -21162528.17549 -16490293.54547  21577379.094    21577384.503
 02  1  1  4 36 30.0000000  0  8G22G 8G13G 3G 2G 1G31G27
  -6144250.60248                  23732976.973
  -9072631.77948  -7069595.96045  23216755.637    23216763.335
 -24196825.95649 -18854675.40547  20312671.911    20312675.116
   -795807.29349   -620110.85946  21945805.720    21945813.402
 -11123594.86749  -8667732.95246  22003492.253    22003499.371
 -20452759.93949 -15937232.60147  21227491.218    21227498.587
 -16471510.29649 -12834921.01646  21924286.076    21924296.253
 -21219183.67249 -16534440.71447  21566597.940    21566603.418
 02  1  1  4 37  0.0000000  0  8G22G 8G13G 3G 2G 1G31G27
  -6035458.87848                  23753679.688
  -9160357.76148  -7137953.83845  23200061.123    23200072.292
 -24189290.21749 -18848803.47747  20314105.962    20314109.165
   -799380.39749   -622895.14846  21945125.514    21945133.705
 -11182482.14149  -8713619.14146  21992286.130    21992293.541
 -20383499.07149 -15883263.26047  21240671.115    21240678.283
 -16549111.14649 -12895389.13946  21909519.304    21909528.736
 -21275672.92349 -16578458.34647  21555848.539    21555854.244
